ts x y z roll pitch yaw vx vy vz wx wy wz ax ay az dwx dwy dwz jx jy jz ddwx ddwy ddwz
1704726519.324977000  -2.5  -0.3  1  0  0  0  -2e-07  2e-07  -2e-07  0  0  0  -0.000125  0.000125  -0.000125  0  0  0  0  0  0  0  0  0 
1704726519.329962000  -2.5  -0.3  1  0  0  0  -1.7e-06  1.7e-06  -1.7e-06  0  0  0  -0.0005  0.0005  -0.0005  0  0  0  0  0  0  0  0  0 
1704726519.334960000  -2.5  -0.3  1  0  0  0  -5.6e-06  5.6e-06  -5.6e-06  0  0  0  -0.001125  0.001125  -0.001125  0  0  0  0  0  0  0  0  0 
1704726519.339957000  -2.5  -0.3  1  0  0  1e-07  -1.33e-05  1.33e-05  -1.33e-05  0  0  0  -0.002  0.002  -0.0019168  0  0  0  0  0  0  0  0  0 
1704726519.344968000  -2.5  -0.3  1  0  0  3e-07  -2.6e-05  2.6e-05  -2.44e-05  0  0  0  -0.003125  0.003125  -0.0025035  0  0  0  0  0  0  0  0  0 
1704726519.349971000  -2.5  -0.3  1  0  0  5e-07  -4.5e-05  4.5e-05  -3.79e-05  0  0  0  -0.0045  0.0045  -0.0028401  0  0  0  0  0  0  0  0  0 
1704726519.354967000  -2.5  -0.299999  0.999999  0  0  1e-06  -7.15e-05  7.15e-05  -5.24e-05  0  0  0  -0.006125  0.006125  -0.0029267  0  0  0  0  0  0  0  0  0 
1704726519.359979000  -2.5  -0.299999  0.999999  0  0  1.6e-06  -0.0001067  0.0001067  -6.67e-05  0  0  0  -0.008  0.008  -0.0027634  0  0  0  0  0  0  0  0  0 
1704726519.364973000  -2.5  -0.299998  0.999999  0  0  2.4e-06  -0.0001519  0.0001519  -7.96e-05  0  0  0  -0.010125  0.010125  -0.00235  0  0  0  0  0  0  0  0  0 
1704726519.369978000  -2.5  -0.299997  0.999998  0  0  3.4e-06  -0.0002083  0.0002083  -8.98e-05  0  0  0  -0.0125  0.0125  -0.0016866  0  0  0  0  0  0  0  0  0 
1704726519.374974000  -2.5  -0.299996  0.999998  0  0  4.5e-06  -0.0002773  0.0002773  -9.62e-05  0  0  0  -0.015125  0.015125  -0.0009066  0  0  0  0  0  0  0  0  0 
1704726519.379973000  -2.50001  -0.299995  0.999997  0  0  5.9e-06  -0.00036  0.00036  -9.93e-05  0  0  0  -0.018  0.018  -0.0003583  0  0  0  0  0  0  0  0  0 
1704726519.384960000  -2.50001  -0.299993  0.999997  0  0  7.4e-06  -0.0004577  0.0004577  -0.0001002  0  0  0  -0.021125  0.021125  -6e-05  0  0  0  0  0  0  0  0  0 
1704726519.389979000  -2.50001  -0.29999  0.999996  0  0  9e-06  -0.0005717  0.0005717  -0.0001003  0  0  0  -0.0245  0.0245  1.18e-05  0  0  0  0  0  0  0  0  0 
1704726519.394973000  -2.50001  -0.299987  0.999996  0  0  1.07e-05  -0.0007031  0.0007031  -9.98e-05  0  0  0  -0.028125  0.028125  0.0002135  0  0  0  0  0  0  0  0  0 
1704726519.399972000  -2.50002  -0.299983  0.999995  0  0  1.24e-05  -0.0008533  0.0008533  -9.77e-05  0  0  0  -0.032  0.032  0.0006652  0  0  0  0  0  0  0  0  0 
1704726519.404974000  -2.50002  -0.299978  0.999995  0  0  1.41e-05  -0.0010235  0.0010235  -9.28e-05  0  0  0  -0.036125  0.036125  0.001367  0  0  0  0  0  0  0  0  0 
1704726519.409977000  -2.50003  -0.299973  0.999994  0  0  1.58e-05  -0.001215  0.001215  -8.36e-05  0  0  0  -0.0405  0.0405  0.0023187  0  0  0  0  0  0  0  0  0 
1704726519.414962000  -2.50003  -0.299966  0.999994  0  0  1.75e-05  -0.001429  0.001429  -6.92e-05  0  0  0  -0.045125  0.045125  0.0035205  0  0  0  0  0  0  0  0  0 
1704726519.419973000  -2.50004  -0.299958  0.999994  0  0  1.93e-05  -0.0016667  0.0016667  -4.8e-05  0  0  0  -0.05  0.05  0.0049722  0  0  0  0  0  0  0  0  0 
1704726519.424976000  -2.50005  -0.299949  0.999994  0  0  2.1e-05  -0.0019294  0.0019294  -1.9e-05  0  0  0  -0.055125  0.055125  0.0066739  0  0  0  0  0  0  0  0  0 
1704726519.429966000  -2.50006  -0.299939  0.999994  0  0  2.27e-05  -0.0022183  0.0022183  1.91e-05  0  0  0  -0.0605  0.0605  0.0086257  0  0  0  0  0  0  0  0  0 
1704726519.434962000  -2.50007  -0.299927  0.999994  0  0  2.44e-05  -0.0025348  0.0025348  6.77e-05  0  0  0  -0.0661225  0.0661225  0.0108274  0  0  0  0  0  0  0  0  0 
1704726519.439963000  -2.50009  -0.299914  0.999994  0  0  2.62e-05  -0.0028794  0.0028794  0.0001278  0  0  0  -0.0716975  0.0716975  0.0132791  0  0  0  0  0  0  0  0  0 
1704726519.444961000  -2.5001  -0.299898  0.999995  0  0  2.79e-05  -0.0032514  0.0032514  0.0002009  0  0  0  -0.0770226  0.0770226  0.0159809  0  0  0  0  0  0  0  0  0 
1704726519.449964000  -2.50012  -0.299881  0.999996  0  0  2.96e-05  -0.0036493  0.0036493  0.000288  0  0  0  -0.0820976  0.0820976  0.0189326  0  0  0  0  0  0  0  0  0 
1704726519.454961000  -2.50014  -0.299862  0.999998  0  0  3.14e-05  -0.0040719  0.0040719  0.0003906  0  0  0  -0.0869227  0.0869227  0.0221343  0  0  0  0  0  0  0  0  0 
1704726519.459961000  -2.50016  -0.29984  1  0  0  3.31e-05  -0.0045181  0.0045181  0.0005098  0  0  0  -0.0914977  0.0914977  0.0255861  0  0  0  0  0  0  0  0  0 
1704726519.464962000  -2.50018  -0.299817  1  0  0  3.48e-05  -0.0049865  0.0049865  0.0006469  0  0  0  -0.0958228  0.0958228  0.0292878  0  0  0  0  0  0  0  0  0 
1704726519.469966000  -2.50021  -0.29979  1.00001  0  0  3.65e-05  -0.0054759  0.0054759  0.0008031  0  0  0  -0.0998978  0.0998978  0.0332395  0  0  0  0  0  0  0  0  0 
1704726519.474965000  -2.50024  -0.299762  1.00001  0  0  3.83e-05  -0.005985  0.005985  0.0009797  0  0  0  -0.103723  0.103723  0.0374413  0  0  0  0  0  0  0  0  0 
1704726519.479960000  -2.50027  -0.299731  1.00002  0  0  4e-05  -0.0065127  0.0065127  0.0011779  0  0  0  -0.107298  0.107298  0.041893  0  0  0  0  0  0  0  0  0 
1704726519.484961000  -2.5003  -0.299697  1.00002  0  0  4.17e-05  -0.0070576  0.0070576  0.001399  0  0  0  -0.110623  0.110623  0.0465947  0  0  0  0  0  0  0  0  0 
1704726519.489966000  -2.50034  -0.29966  1.00003  0  0  4.34e-05  -0.0076185  0.0076185  0.0016443  0  0  0  -0.113698  0.113698  0.0515465  0  0  0  0  0  0  0  0  0 
1704726519.494962000  -2.50038  -0.29962  1.00004  0  0  4.52e-05  -0.0081942  0.0081942  0.0019149  0  0  0  -0.116523  0.116523  0.0567482  0  0  0  0  0  0  0  0  0 
1704726519.499978000  -2.50042  -0.299578  1.00005  0  0  4.69e-05  -0.0087833  0.0087833  0.0022122  0  0  0  -0.119098  0.119098  0.0621999  0  0  0  0  0  0  0  0  0 
1704726519.504966000  -2.50047  -0.299533  1.00006  0  0  4.86e-05  -0.0093847  0.0093847  0.0025373  0  0  0  -0.121423  0.121423  0.0679017  0  0  0  0  0  0  0  0  0 
1704726519.509972000  -2.50052  -0.299484  1.00008  0  0  5.03e-05  -0.0099971  0.0099971  0.0028916  0  0  0  -0.123498  0.123498  0.0738534  0  0  0  0  0  0  0  0  0 
1704726519.514970000  -2.50057  -0.299433  1.00009  0  0  5.21e-05  -0.0106193  0.0106193  0.0032763  0  0  0  -0.125323  0.125323  0.0800551  0  0  0  0  0  0  0  0  0 
1704726519.519967000  -2.50062  -0.299378  1.00011  0  0  5.38e-05  -0.0112499  0.0112499  0.0036926  0  0  0  -0.126898  0.126898  0.0865069  0  0  0  0  0  0  0  0  0 
1704726519.524967000  -2.50068  -0.29932  1.00013  0  0  5.55e-05  -0.0118879  0.0118879  0.0041418  0  0  0  -0.128223  0.128223  0.0932086  0  0  0  0  0  0  0  0  0 
1704726519.529973000  -2.50074  -0.299259  1.00015  0  0  5.72e-05  -0.0125318  0.0125318  0.0046251  0  0  0  -0.129298  0.129298  0.100135  0  0  0  0  0  0  0  0  0 
1704726519.534967000  -2.50081  -0.299195  1.00017  0  0  5.9e-05  -0.0131804  0.0131804  0.0051429  0  0  0  -0.130123  0.130123  0.106929  0  0  0  0  0  0  0  0  0 
1704726519.539972000  -2.50087  -0.299127  1.0002  0  0  6.07e-05  -0.0138326  0.0138326  0.005694  0  0  0  -0.130698  0.130698  0.113473  0  0  0  0  0  0  0  0  0 
1704726519.544966000  -2.50094  -0.299056  1.00023  0  0  6.24e-05  -0.014487  0.014487  0.0062772  0  0  0  -0.131023  0.131023  0.119767  0  0  0  0  0  0  0  0  0 
1704726519.549973000  -2.50102  -0.298982  1.00026  0  0  6.42e-05  -0.0151424  0.0151424  0.0068912  0  0  0  -0.131099  0.131099  0.125811  0  0  0  0  0  0  0  0  0 
1704726519.554970000  -2.5011  -0.298905  1.0003  0  0  6.59e-05  -0.0157976  0.0157976  0.0075349  0  0  0  -0.130924  0.130924  0.131605  0  0  0  0  0  0  0  0  0 
1704726519.559970000  -2.50118  -0.298824  1.00034  0  0  6.76e-05  -0.0164512  0.0164512  0.0082068  0  0  0  -0.130499  0.130499  0.137149  0  0  0  0  0  0  0  0  0 
1704726519.564969000  -2.50126  -0.29874  1.00038  0  0  6.93e-05  -0.0171021  0.0171021  0.0089059  0  0  0  -0.129824  0.129824  0.142443  0  0  0  0  0  0  0  0  0 
1704726519.569971000  -2.50135  -0.298653  1.00043  0  0  7.11e-05  -0.017749  0.017749  0.0096309  0  0  0  -0.128899  0.128899  0.147487  0  0  0  0  0  0  0  0  0 
1704726519.574967000  -2.50144  -0.298563  1.00048  0  0  7.28e-05  -0.0183907  0.0183907  0.0103804  0  0  0  -0.127724  0.127724  0.152281  0  0  0  0  0  0  0  0  0 
1704726519.579961000  -2.50153  -0.298469  1.00053  0  0  7.45e-05  -0.0190259  0.0190259  0.0111533  0  0  0  -0.126299  0.126299  0.156825  0  0  0  0  0  0  0  0  0 
1704726519.584969000  -2.50163  -0.298373  1.00059  0  0  7.62e-05  -0.0196533  0.0196533  0.0119482  0  0  0  -0.124624  0.124624  0.161119  0  0  0  0  0  0  0  0  0 
1704726519.589966000  -2.50173  -0.298273  1.00065  0  0  7.8e-05  -0.0202717  0.0202717  0.012764  0  0  0  -0.122699  0.122699  0.165163  0  0  0  0  0  0  0  0  0 
1704726519.594968000  -2.50183  -0.29817  1.00072  0  0  7.97e-05  -0.0208798  0.0208798  0.0135994  0  0  0  -0.120524  0.120524  0.168957  0  0  0  0  0  0  0  0  0 
1704726519.599963000  -2.50194  -0.298064  1.00079  0  0  8.14e-05  -0.0214765  0.0214765  0.0144532  0  0  0  -0.118099  0.118099  0.172501  0  0  0  0  0  0  0  0  0 
1704726519.604962000  -2.50204  -0.297955  1.00086  0  0  8.31e-05  -0.0220604  0.0220604  0.015324  0  0  0  -0.115424  0.115424  0.175795  0  0  0  0  0  0  0  0  0 
1704726519.609967000  -2.50216  -0.297844  1.00094  0  0  8.49e-05  -0.0226303  0.0226303  0.0162107  0  0  0  -0.112499  0.112499  0.178839  0  0  0  0  0  0  0  0  0 
1704726519.614962000  -2.50227  -0.297729  1.00102  0  0  8.66e-05  -0.023185  0.023185  0.017112  0  0  0  -0.109324  0.109324  0.181633  0  0  0  0  0  0  0  0  0 
1704726519.619967000  -2.50239  -0.297612  1.00111  0  0  8.83e-05  -0.0237231  0.0237231  0.0180266  0  0  0  -0.105899  0.105899  0.184177  0  0  0  0  0  0  0  0  0 
1704726519.624963000  -2.50251  -0.297492  1.0012  0  0  9e-05  -0.0242436  0.0242436  0.0189533  0  0  0  -0.102224  0.102224  0.186471  0  0  0  0  0  0  0  0  0 
1704726519.629966000  -2.50263  -0.297369  1.0013  0  0  9.18e-05  -0.024745  0.024745  0.0198909  0  0  0  -0.0982992  0.0982992  0.188514  0  0  0  0  0  0  0  0  0 
1704726519.634962000  -2.50276  -0.297244  1.0014  0  0  9.35e-05  -0.0252261  0.0252261  0.0208381  0  0  0  -0.0941243  0.0941243  0.190308  0  0  0  0  0  0  0  0  0 
1704726519.639962000  -2.50288  -0.297117  1.00151  0  0  9.52e-05  -0.0256858  0.0256858  0.0217936  0  0  0  -0.0896993  0.0896993  0.191852  0  0  0  0  0  0  0  0  0 
1704726519.644962000  -2.50301  -0.296988  1.00162  0  0  9.7e-05  -0.0261227  0.0261227  0.0227562  0  0  0  -0.0850244  0.0850244  0.193146  0  0  0  0  0  0  0  0  0 
1704726519.649966000  -2.50314  -0.296856  1.00174  0  0  9.87e-05  -0.0265356  0.0265356  0.0237246  0  0  0  -0.0800994  0.0800994  0.19419  0  0  0  0  0  0  0  0  0 
1704726519.654963000  -2.50328  -0.296722  1.00186  0  0  0.0001004  -0.0269233  0.0269233  0.0246977  0  0  0  -0.0749245  0.0749245  0.194984  0  0  0  0  0  0  0  0  0 
1704726519.659963000  -2.50341  -0.296587  1.00198  0  0  0.0001021  -0.0272845  0.0272845  0.0256741  0  0  0  -0.0694995  0.0694995  0.195528  0  0  0  0  0  0  0  0  0 
1704726519.664962000  -2.50355  -0.296449  1.00212  0  0  0.0001039  -0.0276179  0.0276179  0.0266525  0  0  0  -0.063847  0.063847  0.195822  0  0  0  0  0  0  0  0  0 
1704726519.669959000  -2.50369  -0.296311  1.00225  0  0  0.0001056  -0.0279232  0.0279232  0.0276319  0  0  0  -0.0583219  0.0583219  0.195866  0  0  0  0  0  0  0  0  0 
1704726519.674958000  -2.50383  -0.29617  1.00239  0  0  0.0001073  -0.0282015  0.0282015  0.0286108  0  0  0  -0.0530468  0.0530468  0.19566  0  0  0  0  0  0  0  0  0 
1704726519.679958000  -2.50397  -0.296029  1.00254  0  0  0.000109  -0.0284541  0.0284541  0.0295884  0  0  0  -0.0480217  0.0480217  0.195429  0  0  0  0  0  0  0  0  0 
1704726519.684960000  -2.50411  -0.295886  1.00263  0  0  0.0001108  -0.0286821  0.0286821  0.0301046  0  0  0  -0.0432466  0.0432466  0.195407  0  0  0  0  0  0  0  0  0 
1704726519.689968000  -2.50426  -0.295742  1.00263  0  0  0.0001125  -0.028887  0.028887  0.0301046  0  0  0  -0.0387216  0.0387216  0.195407  0  0  0  0  0  0  0  0  0 
1704726519.694960000  -2.5044  -0.295597  1.00263  0  0  0.0001142  -0.0290698  0.0290698  0.0301046  0  0  0  -0.0344465  0.0344465  0.195407  0  0  0  0  0  0  0  0  0 
1704726519.699960000  -2.50455  -0.295451  1.00263  0  0  0.0001159  -0.0292318  0.0292318  0.0301046  0  0  0  -0.0304214  0.0304214  0.195407  0  0  0  0  0  0  0  0  0 
1704726519.704959000  -2.5047  -0.295305  1.00263  0  0  0.0001177  -0.0293744  0.0293744  0.0301046  0  0  0  -0.0266463  0.0266463  0.195407  0  0  0  0  0  0  0  0  0 
1704726519.709971000  -2.50484  -0.295157  1.00263  0  0  0.0001194  -0.0294987  0.0294987  0.0301046  0  0  0  -0.0231212  0.0231212  0.195407  0  0  0  0  0  0  0  0  0 
1704726519.714959000  -2.50499  -0.29501  1.00263  0  0  0.0001211  -0.029606  0.029606  0.0301046  0  0  0  -0.0198461  0.0198461  0.195407  0  0  0  0  0  0  0  0  0 
1704726519.719960000  -2.50514  -0.294861  1.00263  0  0  0.0001228  -0.0296976  0.0296976  0.0301046  0  0  0  -0.016821  0.016821  0.195407  0  0  0  0  0  0  0  0  0 
1704726519.724958000  -2.50529  -0.294713  1.00263  0  0  0.0001246  -0.0297747  0.0297747  0.0301046  0  0  0  -0.0140459  0.0140459  0.195407  0  0  0  0  0  0  0  0  0 
1704726519.729970000  -2.50544  -0.294564  1.00263  0  0  0.0001263  -0.0298385  0.0298385  0.0301046  0  0  0  -0.0115209  0.0115209  0.195407  0  0  0  0  0  0  0  0  0 
1704726519.734960000  -2.50559  -0.294414  1.00263  0  0  0.000128  -0.0298903  0.0298903  0.0301046  0  0  0  -0.0092458  0.0092458  0.195407  0  0  0  0  0  0  0  0  0 
1704726519.739961000  -2.50574  -0.294265  1.00263  0  0  0.0001298  -0.0299314  0.0299314  0.0301046  0  0  0  -0.0072207  0.0072207  0.195407  0  0  0  0  0  0  0  0  0 
1704726519.744960000  -2.50588  -0.294115  1.00263  0  0  0.0001315  -0.0299629  0.0299629  0.0301046  0  0  0  -0.0054456  0.0054456  0.195407  0  0  0  0  0  0  0  0  0 
1704726519.749977000  -2.50603  -0.293965  1.00263  0  0  0.0001332  -0.0299862  0.0299862  0.0301046  0  0  0  -0.0039205  0.0039205  0.195407  0  0  0  0  0  0  0  0  0 
1704726519.754959000  -2.50618  -0.293815  1.00263  0  0  0.0001349  -0.0300025  0.0300025  0.0301046  0  0  0  -0.0026454  0.0026454  0.195407  0  0  0  0  0  0  0  0  0 
1704726519.759958000  -2.50633  -0.293665  1.00263  0  0  0.0001367  -0.0300131  0.0300131  0.0301046  0  0  0  -0.0016203  0.0016203  0.195407  0  0  0  0  0  0  0  0  0 
1704726519.764959000  -2.50648  -0.293515  1.00263  0  0  0.0001384  -0.0300192  0.0300192  0.0301046  0  0  0  -0.0008452  0.0008452  0.195407  0  0  0  0  0  0  0  0  0 
1704726519.769957000  -2.50664  -0.293365  1.00263  0  0  0.0001401  -0.030022  0.030022  0.0301046  0  0  0  -0.0003201  0.0003201  0.195407  0  0  0  0  0  0  0  0  0 
1704726519.774959000  -2.50679  -0.293215  1.00263  0  0  0.0001418  -0.0300228  0.0300228  0.0301046  0  0  0  -4.51e-05  4.51e-05  0.195407  0  0  0  0  0  0  0  0  0 
1704726519.779957000  -2.50694  -0.293065  1.00263  0  0  0.0001436  -0.0300228  0.0300228  0.0301046  0  0  0  1.84e-05  -1.84e-05  0.195407  0  0  0  0  0  0  0  0  0 
1704726519.784959000  -2.50709  -0.292915  1.00263  0  0  0.0001453  -0.0300223  0.0300223  0.0301046  0  0  0  0.0002394  -0.0002394  0.195407  0  0  0  0  0  0  0  0  0 
1704726519.789963000  -2.50724  -0.292765  1.00263  0  0  0.000147  -0.03002  0.03002  0.0301046  0  0  0  0.0007104  -0.0007105  0.195407  0  0  0  0  0  0  0  0  0 
1704726519.794961000  -2.50739  -0.292614  1.00263  0  0  0.0001487  -0.0300147  0.0300147  0.0301046  0  0  0  0.0014314  -0.0014315  0.195407  0  0  0  0  0  0  0  0  0 
1704726519.799959000  -2.50754  -0.292464  1.00263  0  0  0.0001505  -0.0300053  0.0300053  0.0301046  0  0  0  0.0024024  -0.0024025  0.195407  0  0  0  0  0  0  0  0  0 
1704726519.804957000  -2.50769  -0.292314  1.00263  0  0  0.0001522  -0.0299903  0.0299903  0.0301046  0  0  0  0.0036234  -0.0036235  0.195407  0  0  0  0  0  0  0  0  0 
1704726519.809967000  -2.50784  -0.292165  1.00263  0  0  0.0001539  -0.0299686  0.0299686  0.0301046  0  0  0  0.0050944  -0.0050945  0.195407  0  0  0  0  0  0  0  0  0 
1704726519.814960000  -2.50799  -0.292015  1.00263  0  0  0.0001556  -0.0299389  0.0299389  0.0301046  0  0  0  0.0068154  -0.0068155  0.195407  0  0  0  0  0  0  0  0  0 
1704726519.819960000  -2.50813  -0.291865  1.00263  0  0  0.0001574  -0.0299  0.0299  0.0301046  0  0  0  0.0087864  -0.0087865  0.195407  0  0  0  0  0  0  0  0  0 
1704726519.824960000  -2.50828  -0.291716  1.00263  0  0  0.0001591  -0.0298507  0.0298507  0.0301046  0  0  0  0.0110074  -0.0110075  0.195407  0  0  0  0  0  0  0  0  0 
1704726519.829966000  -2.50843  -0.291567  1.00263  0  0  0.0001608  -0.0297896  0.0297896  0.0301046  0  0  0  0.0134784  -0.0134786  0.195407  0  0  0  0  0  0  0  0  0 
1704726519.834963000  -2.50858  -0.291418  1.00263  0  0  0.0001626  -0.0297155  0.0297155  0.0301046  0  0  0  0.0161994  -0.0161996  0.195407  0  0  0  0  0  0  0  0  0 
1704726519.839960000  -2.50873  -0.29127  1.00263  0  0  0.0001643  -0.0296271  0.0296271  0.0301046  0  0  0  0.0191704  -0.0191706  0.195407  0  0  0  0  0  0  0  0  0 
1704726519.844961000  -2.50888  -0.291122  1.00263  0  0  0.000166  -0.0295233  0.0295233  0.0301046  0  0  0  0.0223915  -0.0223916  0.195407  0  0  0  0  0  0  0  0  0 
1704726519.849961000  -2.50903  -0.290974  1.00263  0  0  0.0001677  -0.0294028  0.0294028  0.0301046  0  0  0  0.0258625  -0.0258626  0.195407  0  0  0  0  0  0  0  0  0 
1704726519.854958000  -2.50917  -0.290828  1.00263  0  0  0.0001695  -0.0292643  0.0292643  0.0301046  0  0  0  0.0295835  -0.0295836  0.195407  0  0  0  0  0  0  0  0  0 
1704726519.859960000  -2.50932  -0.290682  1.00263  0  0  0.0001712  -0.0291066  0.0291066  0.0301046  0  0  0  0.0335545  -0.0335546  0.195407  0  0  0  0  0  0  0  0  0 
1704726519.864961000  -2.50946  -0.290537  1.00263  0  0  0.0001729  -0.0289283  0.0289283  0.0301046  0  0  0  0.0377755  -0.0377756  0.195407  0  0  0  0  0  0  0  0  0 
1704726519.869966000  -2.50961  -0.290392  1.00263  0  0  0.0001746  -0.0287284  0.0287284  0.0301046  0  0  0  0.0422465  -0.0422466  0.195407  0  0  0  0  0  0  0  0  0 
1704726519.874960000  -2.50975  -0.290249  1.00263  0  0  0.0001764  -0.0285055  0.0285054  0.0301046  0  0  0  0.0469675  -0.0469677  0.195407  0  0  0  0  0  0  0  0  0 
1704726519.879959000  -2.50989  -0.290107  1.00263  0  0  0.0001781  -0.0282583  0.0282583  0.0301046  0  0  0  0.0519385  -0.0519387  0.195407  0  0  0  0  0  0  0  0  0 
1704726519.884962000  -2.51003  -0.289967  1.00263  0  0  0.0001798  -0.0279857  0.0279856  0.0301046  0  0  0  0.0571595  -0.0571597  0.195407  0  0  0  0  0  0  0  0  0 
1704726519.889966000  -2.51017  -0.289828  1.00263  0  0  0.0001815  -0.0276863  0.0276863  0.0301046  0  0  0  0.0626305  -0.0626307  0.195407  0  0  0  0  0  0  0  0  0 
1704726519.894959000  -2.51031  -0.28969  1.00263  0  0  0.0001833  -0.0273589  0.0273589  0.0301046  0  0  0  0.0683515  -0.0683517  0.195407  0  0  0  0  0  0  0  0  0 
1704726519.899962000  -2.51045  -0.289554  1.00263  0  0  0.000185  -0.0270024  0.0270023  0.0301046  0  0  0  0.0743225  -0.0743227  0.195407  0  0  0  0  0  0  0  0  0 
1704726519.904960000  -2.51058  -0.28942  1.00263  0  0  0.0001867  -0.0266153  0.0266153  0.0301046  0  0  0  0.0805435  -0.0805437  0.195407  0  0  0  0  0  0  0  0  0 
1704726519.909973000  -2.51071  -0.289288  1.00263  0  0  0.0001884  -0.0261965  0.0261965  0.0301046  0  0  0  0.0870145  -0.0870147  0.195407  0  0  0  0  0  0  0  0  0 
1704726519.914960000  -2.51084  -0.289158  1.00263  0  0  0.0001902  -0.0257447  0.0257447  0.0301046  0  0  0  0.0937355  -0.0937357  0.195407  0  0  0  0  0  0  0  0  0 
1704726519.919959000  -2.51097  -0.289031  1.00263  0  0  0.0001919  -0.0252587  0.0252587  0.0301046  0  0  0  0.100706  -0.100707  0.195407  0  0  0  0  0  0  0  0  0 
1704726519.924962000  -2.51109  -0.288906  1.00263  0  0  0.0001936  -0.0247373  0.0247372  0.0301046  0  0  0  0.107927  -0.107928  0.195407  0  0  0  0  0  0  0  0  0 
1704726519.929966000  -2.51122  -0.288783  1.00263  0  0  0.0001954  -0.024179  0.024179  0.0301046  0  0  0  0.115398  -0.115399  0.195407  0  0  0  0  0  0  0  0  0 
1704726519.934959000  -2.51134  -0.288664  1.00263  0  0  0.0001971  -0.0235829  0.0235829  0.0301046  0  0  0  0.12308  -0.123081  0.195407  0  0  0  0  0  0  0  0  0 
1704726519.939960000  -2.51145  -0.288548  1.00263  0  0  0.0001988  -0.0229486  0.0229485  0.0301046  0  0  0  0.130603  -0.130603  0.195407  0  0  0  0  0  0  0  0  0 
1704726519.944960000  -2.51157  -0.288434  1.00263  0  0  0.0002005  -0.0222773  0.0222772  0.0301046  0  0  0  0.137876  -0.137876  0.195407  0  0  0  0  0  0  0  0  0 
1704726519.949966000  -2.51168  -0.288325  1.00263  0  0  0.0002023  -0.0215702  0.0215702  0.0301046  0  0  0  0.144899  -0.144899  0.195407  0  0  0  0  0  0  0  0  0 
1704726519.954959000  -2.51178  -0.288219  1.00263  0  0  0.000204  -0.0208287  0.0208287  0.0301046  0  0  0  0.151671  -0.151672  0.195407  0  0  0  0  0  0  0  0  0 
1704726519.959958000  -2.51188  -0.288117  1.00263  0  0  0.0002057  -0.0200539  0.0200539  0.0301046  0  0  0  0.158194  -0.158194  0.195407  0  0  0  0  0  0  0  0  0 
1704726519.964959000  -2.51198  -0.288018  1.00263  0  0  0.0002074  -0.0192472  0.0192471  0.0301046  0  0  0  0.164467  -0.164467  0.195407  0  0  0  0  0  0  0  0  0 
1704726519.969960000  -2.51208  -0.287924  1.00263  0  0  0.0002092  -0.0184097  0.0184096  0.0301046  0  0  0  0.17049  -0.17049  0.195407  0  0  0  0  0  0  0  0  0 
1704726519.974958000  -2.51217  -0.287834  1.00263  0  0  0.0002109  -0.0175427  0.0175427  0.0301046  0  0  0  0.176263  -0.176263  0.195407  0  0  0  0  0  0  0  0  0 
1704726519.979960000  -2.51225  -0.287749  1.00263  0  0  0.0002126  -0.0166475  0.0166474  0.0301046  0  0  0  0.181785  -0.181786  0.195407  0  0  0  0  0  0  0  0  0 
1704726519.984960000  -2.51233  -0.287668  1.00263  0  0  0.0002143  -0.0157253  0.0157252  0.0301046  0  0  0  0.187058  -0.187058  0.195407  0  0  0  0  0  0  0  0  0 
1704726519.989961000  -2.51241  -0.287592  1.00263  0  0  0.0002161  -0.0147773  0.0147773  0.0301046  0  0  0  0.192081  -0.192081  0.195407  0  0  0  0  0  0  0  0  0 
1704726519.994960000  -2.51248  -0.28752  1.00263  0  0  0.0002178  -0.0138049  0.0138048  0.0301046  0  0  0  0.196854  -0.196854  0.195407  0  0  0  0  0  0  0  0  0 
1704726519.999962000  -2.51255  -0.287454  1.00263  0  0  0.0002195  -0.0128092  0.0128091  0.0301046  0  0  0  0.201377  -0.201377  0.195407  0  0  0  0  0  0  0  0  0 
1704726520.004959000  -2.51261  -0.287392  1.00263  0  0  0.0002212  -0.0117915  0.0117915  0.0301046  0  0  0  0.205649  -0.20565  0.195407  0  0  0  0  0  0  0  0  0 
1704726520.009968000  -2.51266  -0.287336  1.00263  0  0  0.000223  -0.0107531  0.0107531  0.0301046  0  0  0  0.209672  -0.209672  0.195407  0  0  0  0  0  0  0  0  0 
1704726520.014960000  -2.51272  -0.287285  1.00263  0  0  0.0002247  -0.0096952  0.0096952  0.0301046  0  0  0  0.213445  -0.213445  0.195407  0  0  0  0  0  0  0  0  0 
1704726520.019961000  -2.51276  -0.287239  1.00263  0  0  0.0002264  -0.0086191  0.008619  0.0301046  0  0  0  0.216968  -0.216968  0.195407  0  0  0  0  0  0  0  0  0 
1704726520.024960000  -2.5128  -0.287198  1.00263  0  0  0.0002282  -0.0075259  0.0075259  0.0301046  0  0  0  0.220241  -0.220241  0.195407  0  0  0  0  0  0  0  0  0 
1704726520.029969000  -2.51284  -0.287164  1.00263  0  0  0.0002299  -0.0064171  0.006417  0.0301046  0  0  0  0.223263  -0.223264  0.195407  0  0  0  0  0  0  0  0  0 
1704726520.034960000  -2.51287  -0.287134  1.00263  0  0  0.0002316  -0.0052937  0.0052937  0.0301046  0  0  0  0.226036  -0.226036  0.195407  0  0  0  0  0  0  0  0  0 
1704726520.039960000  -2.51289  -0.287111  1.00263  0  0  0.0002333  -0.0041571  0.0041571  0.0301046  0  0  0  0.228559  -0.228559  0.195407  0  0  0  0  0  0  0  0  0 
1704726520.044958000  -2.51291  -0.287093  1.00263  0  0  0.0002351  -0.0030086  0.0030085  0.0301046  0  0  0  0.230832  -0.230832  0.195407  0  0  0  0  0  0  0  0  0 
1704726520.049963000  -2.51292  -0.287081  1.00263  0  0  0.0002368  -0.0018492  0.0018492  0.0301046  0  0  0  0.232855  -0.232855  0.195407  0  0  0  0  0  0  0  0  0 
1704726520.054960000  -2.51293  -0.287074  1.00263  0  0  0.0002385  -0.0006804  0.0006804  0.0301046  0  0  0  0.234627  -0.234628  0.195407  0  0  0  0  0  0  0  0  0 
1704726520.059959000  -2.51293  -0.287074  1.00263  0  0  0.0002402  0.0004966  -0.0004967  0.0301046  0  0  0  0.23615  -0.23615  0.195407  0  0  0  0  0  0  0  0  0 
1704726520.064957000  -2.51292  -0.287079  1.00263  0  0  0.000242  0.0016807  -0.0016807  0.0301046  0  0  0  0.237423  -0.237423  0.195407  0  0  0  0  0  0  0  0  0 
1704726520.069967000  -2.51291  -0.287091  1.00263  0  0  0.0002437  0.0028704  -0.0028705  0.0301046  0  0  0  0.238446  -0.238446  0.195407  0  0  0  0  0  0  0  0  0 
1704726520.074959000  -2.51289  -0.287108  1.00263  0  0  0.0002454  0.0040647  -0.0040648  0.0301046  0  0  0  0.239219  -0.239219  0.195407  0  0  0  0  0  0  0  0  0 
1704726520.079959000  -2.51287  -0.287131  1.00263  0  0  0.0002471  0.0052622  -0.0052623  0.0301046  0  0  0  0.239741  -0.239741  0.195407  0  0  0  0  0  0  0  0  0 
1704726520.084958000  -2.51284  -0.287161  1.00263  0  0  0.0002489  0.0064617  -0.0064618  0.0301046  0  0  0  0.240014  -0.240014  0.195407  0  0  0  0  0  0  0  0  0 
1704726520.089965000  -2.5128  -0.287196  1.00263  0  0  0.0002506  0.0076619  -0.007662  0.0301046  0  0  0  0.240037  -0.240037  0.195407  0  0  0  0  0  0  0  0  0 
1704726520.094959000  -2.51276  -0.287237  1.00263  0  0  0.0002523  0.0088617  -0.0088617  0.0301046  0  0  0  0.23981  -0.23981  0.195407  0  0  0  0  0  0  0  0  0 
1704726520.099960000  -2.51272  -0.287284  1.00263  0  0  0.000254  0.0100596  -0.0100597  0.0301046  0  0  0  0.239333  -0.239333  0.195407  0  0  0  0  0  0  0  0  0 
1704726520.104959000  -2.51266  -0.287338  1.00263  0  0  0.0002558  0.0112546  -0.0112546  0.0301046  0  0  0  0.238605  -0.238605  0.195407  0  0  0  0  0  0  0  0  0 
1704726520.109966000  -2.5126  -0.287397  1.00263  0  0  0.0002575  0.0124453  -0.0124453  0.0301046  0  0  0  0.237628  -0.237628  0.195407  0  0  0  0  0  0  0  0  0 
1704726520.114958000  -2.51254  -0.287462  1.00263  0  0  0.0002592  0.0136304  -0.0136305  0.0301046  0  0  0  0.236401  -0.236401  0.195407  0  0  0  0  0  0  0  0  0 
1704726520.119959000  -2.51247  -0.287533  1.00263  0  0  0.000261  0.0148089  -0.0148089  0.0301046  0  0  0  0.234924  -0.234924  0.195407  0  0  0  0  0  0  0  0  0 
1704726520.124960000  -2.51239  -0.28761  1.00263  0  0  0.0002627  0.0159793  -0.0159793  0.0301046  0  0  0  0.233197  -0.233197  0.195407  0  0  0  0  0  0  0  0  0 
1704726520.129965000  -2.51231  -0.287693  1.00263  0  0  0.0002644  0.0171404  -0.0171405  0.0301046  0  0  0  0.231219  -0.231219  0.195407  0  0  0  0  0  0  0  0  0 
1704726520.134963000  -2.51222  -0.287782  1.00263  0  0  0.0002661  0.018291  -0.0182911  0.0301046  0  0  0  0.228992  -0.228992  0.195407  0  0  0  0  0  0  0  0  0 
1704726520.139961000  -2.51212  -0.287876  1.00263  0  0  0.0002679  0.0194299  -0.01943  0.0301046  0  0  0  0.226515  -0.226515  0.195407  0  0  0  0  0  0  0  0  0 
1704726520.144959000  -2.51202  -0.287976  1.00263  0  0  0.0002696  0.0205558  -0.0205558  0.0301046  0  0  0  0.223788  -0.223788  0.195407  0  0  0  0  0  0  0  0  0 
1704726520.149967000  -2.51192  -0.288081  1.00263  0  0  0.0002713  0.0216674  -0.0216674  0.0301046  0  0  0  0.220811  -0.220811  0.195407  0  0  0  0  0  0  0  0  0 
1704726520.154960000  -2.51181  -0.288193  1.00263  0  0  0.000273  0.0227635  -0.0227635  0.0301046  0  0  0  0.217583  -0.217583  0.195407  0  0  0  0  0  0  0  0  0 
1704726520.159970000  -2.51169  -0.288309  1.00263  0  0  0.0002748  0.0238428  -0.0238428  0.0301046  0  0  0  0.214106  -0.214106  0.195407  0  0  0  0  0  0  0  0  0 
1704726520.164967000  -2.51157  -0.288431  1.00263  0  0  0.0002765  0.0249041  -0.0249042  0.0301046  0  0  0  0.210379  -0.210379  0.195407  0  0  0  0  0  0  0  0  0 
1704726520.169969000  -2.51144  -0.288558  1.00263  0  0  0.0002782  0.0259462  -0.0259462  0.0301046  0  0  0  0.206402  -0.206402  0.195407  0  0  0  0  0  0  0  0  0 
1704726520.174971000  -2.51131  -0.28869  1.00263  0  0  0.0002799  0.0269677  -0.0269678  0.0301046  0  0  0  0.202175  -0.202175  0.195407  0  0  0  0  0  0  0  0  0 
1704726520.179962000  -2.51117  -0.288828  1.00263  0  0  0.0002817  0.0279675  -0.0279675  0.0301046  0  0  0  0.197697  -0.197697  0.195407  0  0  0  0  0  0  0  0  0 
1704726520.184962000  -2.51103  -0.28897  1.00263  0  0  0.0002834  0.0289443  -0.0289443  0.0301046  0  0  0  0.19297  -0.19297  0.195407  0  0  0  0  0  0  0  0  0 
1704726520.189965000  -2.51088  -0.289117  1.00263  0  0  0.0002851  0.0298968  -0.0298968  0.0301046  0  0  0  0.187993  -0.187993  0.195407  0  0  0  0  0  0  0  0  0 
1704726520.194962000  -2.51073  -0.289269  1.00263  0  0  0.0002869  0.0308238  -0.0308238  0.0301046  0  0  0  0.182766  -0.182766  0.195407  0  0  0  0  0  0  0  0  0 
1704726520.199963000  -2.51057  -0.289425  1.00263  0  0  0.0002886  0.031724  -0.0317241  0.0301046  0  0  0  0.177289  -0.177289  0.195407  0  0  0  0  0  0  0  0  0 
1704726520.204960000  -2.51041  -0.289586  1.00263  0  0  0.0002903  0.0325962  -0.0325963  0.0301046  0  0  0  0.171561  -0.171561  0.195407  0  0  0  0  0  0  0  0  0 
1704726520.209965000  -2.51025  -0.289751  1.00263  0  0  0.000292  0.0334392  -0.0334393  0.0301046  0  0  0  0.165584  -0.165584  0.195407  0  0  0  0  0  0  0  0  0 
1704726520.214961000  -2.51008  -0.28992  1.00263  0  0  0.0002938  0.0342517  -0.0342517  0.0301046  0  0  0  0.159357  -0.159357  0.195407  0  0  0  0  0  0  0  0  0 
1704726520.219960000  -2.50991  -0.290094  1.00263  0  0  0.0002955  0.0350324  -0.0350324  0.0301046  0  0  0  0.15288  -0.15288  0.195407  0  0  0  0  0  0  0  0  0 
1704726520.224960000  -2.50973  -0.290271  1.00263  0  0  0.0002972  0.0357801  -0.0357801  0.0301046  0  0  0  0.146153  -0.146152  0.195407  0  0  0  0  0  0  0  0  0 
1704726520.229965000  -2.50955  -0.290451  1.00263  0  0  0.0002989  0.0364935  -0.0364935  0.0301046  0  0  0  0.139175  -0.139175  0.195407  0  0  0  0  0  0  0  0  0 
1704726520.234961000  -2.50936  -0.290636  1.00263  0  0  0.0003007  0.0371714  -0.0371714  0.0301046  0  0  0  0.131948  -0.131948  0.195407  0  0  0  0  0  0  0  0  0 
1704726520.239960000  -2.50918  -0.290823  1.00263  0  0  0.0003024  0.0378125  -0.0378126  0.0301046  0  0  0  0.124471  -0.124471  0.195407  0  0  0  0  0  0  0  0  0 
1704726520.244961000  -2.50899  -0.291014  1.00263  0  0  0.0003041  0.0384157  -0.0384157  0.0301046  0  0  0  0.116744  -0.116744  0.195407  0  0  0  0  0  0  0  0  0 
1704726520.249969000  -2.50879  -0.291207  1.00263  0  0  0.0003058  0.0389796  -0.0389796  0.0301046  0  0  0  0.108767  -0.108766  0.195407  0  0  0  0  0  0  0  0  0 
1704726520.254960000  -2.5086  -0.291403  1.00263  0  0  0.0003076  0.0395029  -0.039503  0.0301046  0  0  0  0.100539  -0.100539  0.195407  0  0  0  0  0  0  0  0  0 
1704726520.259960000  -2.5084  -0.291602  1.00263  0  0  0.0003093  0.0399845  -0.0399846  0.0301046  0  0  0  0.0920623  -0.092062  0.195407  0  0  0  0  0  0  0  0  0 
1704726520.264971000  -2.5082  -0.291803  1.00263  0  0  0.000311  0.0404231  -0.0404232  0.0301046  0  0  0  0.0833351  -0.0833348  0.195407  0  0  0  0  0  0  0  0  0 
1704726520.269968000  -2.50799  -0.292006  1.00263  0  0  0.0003127  0.0408175  -0.0408175  0.0301046  0  0  0  0.0743579  -0.0743576  0.195407  0  0  0  0  0  0  0  0  0 
1704726520.274963000  -2.50779  -0.292211  1.00263  0  0  0.0003145  0.0411663  -0.0411663  0.0301046  0  0  0  0.0651307  -0.0651304  0.195407  0  0  0  0  0  0  0  0  0 
1704726520.279960000  -2.50758  -0.292418  1.00263  0  0  0.0003162  0.0414684  -0.0414684  0.0301046  0  0  0  0.0556535  -0.0556532  0.195407  0  0  0  0  0  0  0  0  0 
1704726520.284957000  -2.50737  -0.292626  1.00263  0  0  0.0003179  0.0417224  -0.0417225  0.0301046  0  0  0  0.0459263  -0.045926  0.195407  0  0  0  0  0  0  0  0  0 
1704726520.289980000  -2.50716  -0.292835  1.00263  0  0  0.0003196  0.0419272  -0.0419272  0.0301046  0  0  0  0.0359491  -0.0359488  0.195407  0  0  0  0  0  0  0  0  0 
1704726520.294974000  -2.50695  -0.293045  1.00263  0  0  0.0003214  0.0420815  -0.0420815  0.0301046  0  0  0  0.0257219  -0.0257216  0.195407  0  0  0  0  0  0  0  0  0 
1704726520.299973000  -2.50674  -0.293256  1.00263  0  0  0.0003231  0.042184  -0.042184  0.0301046  0  0  0  0.0152447  -0.0152444  0.195407  0  0  0  0  0  0  0  0  0 
1704726520.304972000  -2.50653  -0.293467  1.00263  0  0  0.0003248  0.0422335  -0.0422336  0.0301046  0  0  0  0.0045175  -0.0045172  0.195407  0  0  0  0  0  0  0  0  0 
1704726520.309975000  -2.50632  -0.293678  1.00263  0  0  0.0003266  0.0422288  -0.0422288  0.0301046  0  0  0  -0.0064597  0.00646  0.195407  0  0  0  0  0  0  0  0  0 
1704726520.314972000  -2.50611  -0.293889  1.00263  0  0  0.0003283  0.0421685  -0.0421685  0.0301046  0  0  0  -0.0176869  0.0176873  0.195407  0  0  0  0  0  0  0  0  0 
1704726520.319974000  -2.5059  -0.2941  1.00263  0  0  0.00033  0.0420515  -0.0420515  0.0301046  0  0  0  -0.0291641  0.0291645  0.195407  0  0  0  0  0  0  0  0  0 
1704726520.324976000  -2.50569  -0.294309  1.00263  0  0  0.0003317  0.0418765  -0.0418765  0.0301046  0  0  0  -0.0408913  0.0408917  0.195407  0  0  0  0  0  0  0  0  0 
1704726520.329977000  -2.50548  -0.294518  1.00263  0  0  0.0003335  0.0416422  -0.0416422  0.0301046  0  0  0  -0.0528685  0.0528689  0.195407  0  0  0  0  0  0  0  0  0 
1704726520.334959000  -2.50527  -0.294726  1.00263  0  0  0.0003352  0.0413474  -0.0413474  0.0301046  0  0  0  -0.0650957  0.0650961  0.195407  0  0  0  0  0  0  0  0  0 
1704726520.339960000  -2.50507  -0.294932  1.00263  0  0  0.0003369  0.0409908  -0.0409908  0.0301046  0  0  0  -0.0775729  0.0775733  0.195407  0  0  0  0  0  0  0  0  0 
1704726520.344961000  -2.50486  -0.295136  1.00263  0  0  0.0003386  0.0405712  -0.0405712  0.0301046  0  0  0  -0.0903001  0.0903005  0.195407  0  0  0  0  0  0  0  0  0 
1704726520.349979000  -2.50466  -0.295337  1.00263  0  0  0.0003404  0.0400875  -0.0400875  0.0301046  0  0  0  -0.103184  0.103184  0.195407  0  0  0  0  0  0  0  0  0 
1704726520.354964000  -2.50446  -0.295536  1.00263  0  0  0.0003421  0.0395398  -0.0395398  0.0301046  0  0  0  -0.115855  0.115856  0.195407  0  0  0  0  0  0  0  0  0 
1704726520.359978000  -2.50427  -0.295733  1.00263  0  0  0.0003438  0.0389293  -0.0389293  0.0301046  0  0  0  -0.128277  0.128277  0.195407  0  0  0  0  0  0  0  0  0 
1704726520.364970000  -2.50407  -0.295926  1.00263  0  0  0.0003455  0.0382574  -0.0382574  0.0301046  0  0  0  -0.140449  0.140449  0.195407  0  0  0  0  0  0  0  0  0 
1704726520.369972000  -2.50388  -0.296115  1.00263  0  0  0.0003473  0.0375253  -0.0375253  0.0301046  0  0  0  -0.15237  0.152371  0.195407  0  0  0  0  0  0  0  0  0 
1704726520.374974000  -2.5037  -0.296301  1.00263  0  0  0.000349  0.0367341  -0.0367341  0.0301046  0  0  0  -0.164042  0.164042  0.195407  0  0  0  0  0  0  0  0  0 
1704726520.379969000  -2.50352  -0.296482  1.00263  0  0  0.0003507  0.0358853  -0.0358853  0.0301046  0  0  0  -0.175463  0.175464  0.195407  0  0  0  0  0  0  0  0  0 
1704726520.384969000  -2.50334  -0.296659  1.00263  0  0  0.0003525  0.0349799  -0.0349799  0.0301046  0  0  0  -0.186635  0.186635  0.195407  0  0  0  0  0  0  0  0  0 
1704726520.389970000  -2.50317  -0.296832  1.00263  0  0  0.0003542  0.0340193  -0.0340193  0.0301046  0  0  0  -0.197556  0.197557  0.195407  0  0  0  0  0  0  0  0  0 
1704726520.394970000  -2.503  -0.297  1.00263  0  0  0.0003559  0.0330048  -0.0330048  0.0301046  0  0  0  -0.208228  0.208228  0.195407  0  0  0  0  0  0  0  0  0 
1704726520.399974000  -2.50284  -0.297162  1.00263  0  0  0.0003576  0.0319375  -0.0319375  0.0301046  0  0  0  -0.21865  0.21865  0.195407  0  0  0  0  0  0  0  0  0 
1704726520.404968000  -2.50268  -0.297319  1.00263  0  0  0.0003594  0.0308187  -0.0308187  0.0301046  0  0  0  -0.228821  0.228821  0.195407  0  0  0  0  0  0  0  0  0 
1704726520.409974000  -2.50253  -0.29747  1.00263  0  0  0.0003611  0.0296497  -0.0296497  0.0301046  0  0  0  -0.238743  0.238743  0.195407  0  0  0  0  0  0  0  0  0 
1704726520.414960000  -2.50238  -0.297615  1.00263  0  0  0.0003628  0.0284317  -0.0284317  0.0301046  0  0  0  -0.248414  0.248415  0.195407  0  0  0  0  0  0  0  0  0 
1704726520.419964000  -2.50225  -0.297754  1.00263  0  0  0.0003646  0.0271659  -0.0271659  0.0301046  0  0  0  -0.257836  0.257836  0.195407  0  0  0  0  0  0  0  0  0 
1704726520.424960000  -2.50211  -0.297887  1.00263  0  0  0.0003664  0.0258537  -0.0258537  0.0301046  0  0  0  -0.267007  0.267008  0.195407  0  0  0  0  0  0  0  0  0 
1704726520.429964000  -2.50199  -0.298013  1.00263  0  0  0.0003684  0.0244963  -0.0244963  0.0301046  0  0  0  -0.275929  0.275929  0.195407  0  0  0  0  0  0  0  0  0 
1704726520.434960000  -2.50187  -0.298132  1.00263  0  0  0.0003704  0.0230949  -0.0230948  0.0301046  0  0  0  -0.2846  0.284601  0.195407  0  0  0  0  0  0  0  0  0 
1704726520.439959000  -2.50176  -0.298244  1.00263  0  0  0.0003727  0.0216507  -0.0216507  0.0301046  0  0  0  -0.293022  0.293022  0.195407  0  0  0  0  0  0  0  0  0 
1704726520.444960000  -2.50165  -0.298348  1.00263  0  0  0.0003753  0.0201651  -0.020165  0.0301046  0  0  0  -0.301194  0.301194  0.195407  0  0  0  0  0  0  0  0  0 
1704726520.449967000  -2.50155  -0.298445  1.00263  0  0  0.0003782  0.0186392  -0.0186392  0.0301046  0  0  0  -0.309115  0.309115  0.195407  0  0  0  0  0  0  0  0  0 
1704726520.454959000  -2.50147  -0.298534  1.00263  0  0  0.0003816  0.0170743  -0.0170743  0.0301046  0  0  0  -0.316787  0.316787  0.195407  0  0  0  0  0  0  0  0  0 
1704726520.459960000  -2.50138  -0.298616  1.00263  0  0  0.0003855  0.0154717  -0.0154717  0.0301046  0  0  0  -0.324208  0.324209  0.195407  0  0  0  0  0  0  0  0  0 
1704726520.464961000  -2.50131  -0.298689  1.00263  0  0  0.0003901  0.0138327  -0.0138326  0.0301046  0  0  0  -0.33138  0.33138  0.195407  0  0  0  0  0  0  0  0  0 
1704726520.469967000  -2.50125  -0.298754  1.00263  0  0  0.0003953  0.0121584  -0.0121583  0.0301046  0  0  0  -0.338301  0.338302  0.195407  0  0  0  0  0  0  0  0  0 
1704726520.474964000  -2.50119  -0.298811  1.00263  0  0  0.0004014  0.0104501  -0.01045  0.0301046  0  0  0  -0.344973  0.344973  0.195407  0  0  0  0  0  0  0  0  0 
1704726520.479959000  -2.50114  -0.298859  1.00263  0  0  0.0004083  0.008709  -0.008709  0.0301046  0  0  0  -0.351395  0.351395  0.195407  0  0  0  0  0  0  0  0  0 
1704726520.484962000  -2.5011  -0.298898  1.00263  0  0  0.0004162  0.0069365  -0.0069365  0.0301046  0  0  0  -0.357566  0.357566  0.195407  0  0  0  0  0  0  0  0  0 
1704726520.489965000  -2.50107  -0.298928  1.00263  0  0  0.0004249  0.0051338  -0.0051338  0.0301046  0  0  0  -0.363488  0.363488  0.195407  0  0  0  0  0  0  0  0  0 
1704726520.494960000  -2.50105  -0.298949  1.00263  0  0  0.0004347  0.0033021  -0.003302  0.0301046  0  0  0  -0.369159  0.369159  0.195407  0  0  0  0  0  0  0  0  0 
1704726520.499959000  -2.50104  -0.298961  1.00263  0  0  0.0004455  0.0014426  -0.0014426  0.0301046  0  0  0  -0.374581  0.374581  0.195407  0  0  0  0  0  0  0  0  0 
1704726520.504960000  -2.50104  -0.298963  1.00263  0  0  0.0004573  -0.0004433  0.0004434  0.0301046  0  0  0  -0.379752  0.379753  0.195407  0  0  0  0  0  0  0  0  0 
1704726520.509970000  -2.50104  -0.298956  1.00263  0  0  0.0004701  -0.0023545  0.0023545  0.0301046  0  0  0  -0.384674  0.384674  0.195407  0  0  0  0  0  0  0  0  0 
1704726520.514960000  -2.50106  -0.29894  1.00263  0  0  0.000484  -0.0042896  0.0042897  0.0301046  0  0  0  -0.389345  0.389346  0.195407  0  0  0  0  0  0  0  0  0 
1704726520.519959000  -2.50109  -0.298913  1.00263  0  0  0.0004988  -0.0062475  0.0062476  0.0301046  0  0  0  -0.393767  0.393767  0.195407  0  0  0  0  0  0  0  0  0 
1704726520.524960000  -2.50112  -0.298877  1.00263  0  0  0.0005146  -0.0082269  0.0082269  0.0301046  0  0  0  -0.397939  0.397939  0.195407  0  0  0  0  0  0  0  0  0 
1704726520.529970000  -2.50117  -0.298831  1.00263  0  0  0.0005314  -0.0102265  0.0102265  0.0301046  0  0  0  -0.40186  0.40186  0.195407  0  0  0  0  0  0  0  0  0 
1704726520.534961000  -2.50123  -0.298775  1.00263  0  0  0.000549  -0.0122451  0.0122451  0.0301046  0  0  0  -0.405532  0.405532  0.195407  0  0  0  0  0  0  0  0  0 
1704726520.539964000  -2.50129  -0.298709  1.00263  0  0  0.0005675  -0.0142814  0.0142814  0.0301046  0  0  0  -0.408953  0.408953  0.195407  0  0  0  0  0  0  0  0  0 
1704726520.544960000  -2.50137  -0.298632  1.00263  0  0  0.0005867  -0.0163342  0.0163342  0.0301046  0  0  0  -0.412125  0.412125  0.195407  0  0  0  0  0  0  0  0  0 
1704726520.549963000  -2.50145  -0.298545  1.00263  0  0  0.0006066  -0.0184022  0.0184023  0.0301046  0  0  0  -0.415046  0.415047  0.195407  0  0  0  0  0  0  0  0  0 
1704726520.554959000  -2.50155  -0.298448  1.00263  0  0  0.0006272  -0.0204842  0.0204843  0.0301046  0  0  0  -0.417718  0.417718  0.195407  0  0  0  0  0  0  0  0  0 
1704726520.559961000  -2.50166  -0.29834  1.00263  0  0  0.0006482  -0.022579  0.022579  0.0301046  0  0  0  -0.42014  0.42014  0.195407  0  0  0  0  0  0  0  0  0 
1704726520.564959000  -2.50178  -0.298222  1.00263  0  0  0.0006697  -0.0246852  0.0246853  0.0301046  0  0  0  -0.422311  0.422311  0.195407  0  0  0  0  0  0  0  0  0 
1704726520.569968000  -2.50191  -0.298094  1.00263  0  0  0.0006914  -0.0268017  0.0268017  0.0301046  0  0  0  -0.424233  0.424233  0.195407  0  0  0  0  0  0  0  0  0 
1704726520.574962000  -2.50205  -0.297954  1.00263  0  0  0.0007135  -0.0289271  0.0289272  0.0301046  0  0  0  -0.425904  0.425904  0.195407  0  0  0  0  0  0  0  0  0 
1704726520.579962000  -2.5022  -0.297804  1.00263  0  0  0.0007357  -0.0310603  0.0310604  0.0301046  0  0  0  -0.427326  0.427326  0.195407  0  0  0  0  0  0  0  0  0 
1704726520.584962000  -2.50236  -0.297644  1.00263  0  0  0.000758  -0.0332  0.0332  0.0301046  0  0  0  -0.428497  0.428497  0.195407  0  0  0  0  0  0  0  0  0 
1704726520.589966000  -2.50253  -0.297472  1.00263  0  0  0.0007804  -0.0353449  0.0353449  0.0301046  0  0  0  -0.429419  0.429419  0.195407  0  0  0  0  0  0  0  0  0 
1704726520.594963000  -2.50271  -0.29729  1.00263  0  0  0.0008029  -0.0374937  0.0374938  0.0301046  0  0  0  -0.43009  0.430091  0.195407  0  0  0  0  0  0  0  0  0 
1704726520.599964000  -2.5029  -0.297097  1.00263  0  0  0.0008254  -0.0396454  0.0396454  0.0301046  0  0  0  -0.430512  0.430512  0.195407  0  0  0  0  0  0  0  0  0 
1704726520.604962000  -2.50311  -0.296894  1.00263  0  0  0.0008478  -0.0417984  0.0417985  0.0301046  0  0  0  -0.430684  0.430684  0.195407  0  0  0  0  0  0  0  0  0 
1704726520.609964000  -2.50309  -0.296908  1.00263  0  0  0.0008455  -0.0421345  0.0421345  0.0301046  0  0  0  -0.430688  0.430688  0.195407  0  0  0  0  0  0  0  0  0 
1704726520.614961000  -2.50331  -0.296692  1.00278  0  0  0.0008677  -0.0442877  0.0442881  0.0310819  0  0  0  -0.430563  0.430813  0.195532  0  0  0  0  0  0  0  0  0 
1704726520.619962000  -2.50353  -0.296466  1.00294  0  0  0.00089  -0.0464397  0.046443  0.0320604  0  0  0  -0.430188  0.431188  0.195907  0  0  0  0  0  0  0  0  0 
1704726520.624961000  -2.50377  -0.296228  1.0031  0  0  0.0009122  -0.0485892  0.0486004  0.0330414  0  0  0  -0.429563  0.431813  0.196532  0  0  0  0  0  0  0  0  0 
1704726520.629963000  -2.50402  -0.29598  1.00327  0  0  0.0009344  -0.0507349  0.0507616  0.0340261  0  0  0  -0.428688  0.432688  0.197407  0  0  0  0  0  0  0  0  0 
1704726520.634963000  -2.50428  -0.29572  1.00344  0  0  0.0009566  -0.0528757  0.0529277  0.0350156  0  0  0  -0.427563  0.433813  0.198364  0  0  0  0  0  0  0  0  0 
1704726520.639961000  -2.50455  -0.29545  1.00362  0  0  0.0009785  -0.0550101  0.0551001  0.0360093  0  0  0  -0.426188  0.435188  0.199079  0  0  0  0  0  0  0  0  0 
1704726520.644962000  -2.50483  -0.295169  1.0038  0  0  0.0010003  -0.0571371  0.05728  0.037006  0  0  0  -0.424563  0.436813  0.199545  0  0  0  0  0  0  0  0  0 
1704726520.649967000  -2.50512  -0.294877  1.00399  0  0  0.0010219  -0.0592553  0.0594687  0.0380044  0  0  0  -0.422688  0.438688  0.19976  0  0  0  0  0  0  0  0  0 
1704726520.654962000  -2.50542  -0.294575  1.00418  0  0  0.0010432  -0.0613636  0.0616673  0.0390032  0  0  0  -0.420563  0.440813  0.199726  0  0  0  0  0  0  0  0  0 
1704726520.659963000  -2.50573  -0.294261  1.00438  0  0  0.001064  -0.0634606  0.0638772  0.0400012  0  0  0  -0.418188  0.443188  0.199441  0  0  0  0  0  0  0  0  0 
1704726520.664965000  -2.50606  -0.293936  1.00458  0  0  0.0010843  -0.065545  0.0660996  0.0409972  0  0  0  -0.415563  0.445813  0.198906  0  0  0  0  0  0  0  0  0 
1704726520.669965000  -2.50639  -0.2936  1.00479  0  0  0.0011041  -0.0676158  0.0683358  0.0419899  0  0  0  -0.412688  0.448688  0.198122  0  0  0  0  0  0  0  0  0 
1704726520.674962000  -2.50673  -0.293252  1.005  0  0  0.0011231  -0.0696715  0.0705869  0.042978  0  0  0  -0.409563  0.451813  0.197087  0  0  0  0  0  0  0  0  0 
1704726520.679961000  -2.50709  -0.292894  1.00522  0  0  0.0011412  -0.071711  0.0728543  0.0439603  0  0  0  -0.406188  0.455188  0.195803  0  0  0  0  0  0  0  0  0 
1704726520.684963000  -2.50745  -0.292524  1.00544  0  0  0.0011584  -0.073733  0.0751392  0.0449356  0  0  0  -0.402563  0.458813  0.194268  0  0  0  0  0  0  0  0  0 
1704726520.689966000  -2.50782  -0.292142  1.00567  0  0  0.0011745  -0.0757362  0.0774429  0.0459026  0  0  0  -0.398688  0.462688  0.192484  0  0  0  0  0  0  0  0  0 
1704726520.694962000  -2.50821  -0.291749  1.0059  0  0  0.0011892  -0.0777194  0.0797665  0.04686  0  0  0  -0.394563  0.466813  0.190449  0  0  0  0  0  0  0  0  0 
1704726520.699961000  -2.5086  -0.291345  1.00614  0  0  0.0012025  -0.0796814  0.0821114  0.0478066  0  0  0  -0.390188  0.471188  0.188165  0  0  0  0  0  0  0  0  0 
1704726520.704962000  -2.509  -0.290928  1.00638  0  0  0.0012143  -0.0816209  0.0844788  0.0487412  0  0  0  -0.385563  0.475813  0.18563  0  0  0  0  0  0  0  0  0 
1704726520.709975000  -2.50942  -0.2905  1.00663  0  0  0.0012242  -0.0835366  0.08687  0.0496625  0  0  0  -0.380688  0.480688  0.182845  0  0  0  0  0  0  0  0  0 
1704726520.714958000  -2.50984  -0.29006  1.00688  0  0  0.0012321  -0.0854274  0.0892861  0.0505693  0  0  0  -0.375563  0.485813  0.179811  0  0  0  0  0  0  0  0  0 
1704726520.719959000  -2.51027  -0.289607  1.00713  0  0  0.0012378  -0.0872918  0.0917285  0.0514602  0  0  0  -0.370188  0.491188  0.176526  0  0  0  0  0  0  0  0  0 
1704726520.724959000  -2.51071  -0.289142  1.00739  0  0  0.001241  -0.0891288  0.0941984  0.0523341  0  0  0  -0.364563  0.496813  0.172992  0  0  0  0  0  0  0  0  0 
1704726520.729965000  -2.51116  -0.288665  1.00766  0  0  0.0012417  -0.0909371  0.0966971  0.0531897  0  0  0  -0.358688  0.502688  0.169207  0  0  0  0  0  0  0  0  0 
1704726520.734960000  -2.51162  -0.288175  1.00792  0  0  0.0012394  -0.0927153  0.0992257  0.0540258  0  0  0  -0.352563  0.508813  0.165173  0  0  0  0  0  0  0  0  0 
1704726520.739961000  -2.51209  -0.287673  1.0082  0  0  0.001234  -0.0944623  0.101786  0.054841  0  0  0  -0.346188  0.515188  0.160888  0  0  0  0  0  0  0  0  0 
1704726520.744960000  -2.51257  -0.287157  1.00847  0  0  0.0012253  -0.0961767  0.104378  0.0556342  0  0  0  -0.339563  0.521813  0.156354  0  0  0  0  0  0  0  0  0 
1704726520.749963000  -2.51305  -0.286629  1.00875  0  0  0.0012129  -0.0978575  0.107004  0.0564042  0  0  0  -0.332688  0.528688  0.151569  0  0  0  0  0  0  0  0  0 
1704726520.754960000  -2.51354  -0.286087  1.00904  0  0  0.0011967  -0.0995032  0.109665  0.0571495  0  0  0  -0.325563  0.535813  0.146534  0  0  0  0  0  0  0  0  0 
1704726520.759958000  -2.51405  -0.285532  1.00932  0  0  0.0011765  -0.101113  0.112363  0.0578691  0  0  0  -0.318188  0.543188  0.14125  0  0  0  0  0  0  0  0  0 
1704726520.764961000  -2.51456  -0.284963  1.00961  0  0  0.001152  -0.102685  0.115098  0.0585616  0  0  0  -0.310563  0.550813  0.135715  0  0  0  0  0  0  0  0  0 
1704726520.769964000  -2.51507  -0.284381  1.00991  0  0  0.0011231  -0.104218  0.117871  0.0592258  0  0  0  -0.302688  0.558688  0.129931  0  0  0  0  0  0  0  0  0 
1704726520.774959000  -2.5156  -0.283785  1.01021  0  0  0.0010896  -0.105711  0.120685  0.0598605  0  0  0  -0.294563  0.566813  0.123896  0  0  0  0  0  0  0  0  0 
1704726520.779959000  -2.51613  -0.283174  1.01051  0  0  0.0010512  -0.107163  0.12354  0.0604644  0  0  0  -0.286188  0.575188  0.117612  0  0  0  0  0  0  0  0  0 
1704726520.784959000  -2.51667  -0.282549  1.01081  0  0  0.0010079  -0.108573  0.126437  0.0610362  0  0  0  -0.277563  0.583813  0.111077  0  0  0  0  0  0  0  0  0 
1704726520.789965000  -2.51722  -0.28191  1.01112  0  0  0.0009595  -0.109938  0.129378  0.0615747  0  0  0  -0.268688  0.592688  0.104293  0  0  0  0  0  0  0  0  0 
1704726520.794959000  -2.51777  -0.281255  1.01143  0  0  0.0009058  -0.111259  0.132364  0.0620787  0  0  0  -0.259563  0.601723  0.0972922  0  0  0  0  0  0  0  0  0 
1704726520.799959000  -2.51833  -0.280586  1.01174  0  0  0.0008466  -0.112534  0.135395  0.062548  0  0  0  -0.250188  0.610547  0.0904425  0  0  0  0  0  0  0  0  0 
1704726520.804959000  -2.51889  -0.279901  1.01205  0  0  0.000782  -0.113761  0.138469  0.0629836  0  0  0  -0.240563  0.619121  0.0838428  0  0  0  0  0  0  0  0  0 
1704726520.809964000  -2.51947  -0.279201  1.01237  0  0  0.0007117  -0.114939  0.141586  0.0633868  0  0  0  -0.230688  0.627445  0.0774931  0  0  0  0  0  0  0  0  0 
1704726520.814960000  -2.52004  -0.278485  1.01269  0  0  0.0006357  -0.116067  0.144743  0.0637589  0  0  0  -0.220563  0.63552  0.0713935  0  0  0  0  0  0  0  0  0 
1704726520.819959000  -2.52063  -0.277754  1.01301  0  0  0.0005538  -0.117144  0.147941  0.0641011  0  0  0  -0.210188  0.643344  0.0655438  0  0  0  0  0  0  0  0  0 
1704726520.824960000  -2.52121  -0.277006  1.01333  0  0  0.000466  -0.118168  0.151176  0.0644148  0  0  0  -0.199563  0.650918  0.0599441  0  0  0  0  0  0  0  0  0 
1704726520.829966000  -2.52181  -0.276242  1.01365  0  0  0.0003721  -0.119139  0.15445  0.064701  0  0  0  -0.188688  0.658242  0.0545944  0  0  0  0  0  0  0  0  0 
1704726520.834959000  -2.52241  -0.275461  1.01397  0  0  0.0002723  -0.120055  0.157759  0.0649611  0  0  0  -0.177563  0.665317  0.0494948  0  0  0  0  0  0  0  0  0 
1704726520.839961000  -2.52301  -0.274664  1.0143  0  0  0.0001662  -0.120914  0.161102  0.0651964  0  0  0  -0.166188  0.672141  0.0446451  0  0  0  0  0  0  0  0  0 
1704726520.844959000  -2.52361  -0.27385  1.01463  0  0  5.41e-05  -0.121716  0.164479  0.065408  0  0  0  -0.154563  0.678715  0.0400454  0  0  0  0  0  0  0  0  0 
1704726520.849962000  -2.52423  -0.273019  1.01495  0  0  -6.43e-05  -0.12246  0.167889  0.0655972  0  0  0  -0.142688  0.68504  0.0356958  0  0  0  0  0  0  0  0  0 
1704726520.854959000  -2.52484  -0.272171  1.01528  0  0  -0.0001889  -0.123143  0.171329  0.0657654  0  0  0  -0.130563  0.691114  0.0315961  0  0  0  0  0  0  0  0  0 
1704726520.859959000  -2.52546  -0.271306  1.01561  0  0  -0.0003198  -0.123765  0.1748  0.0659136  0  0  0  -0.118188  0.696938  0.0277464  0  0  0  0  0  0  0  0  0 
1704726520.864960000  -2.52608  -0.270423  1.01594  0  0  -0.0004569  -0.124324  0.178298  0.0660432  0  0  0  -0.105563  0.702512  0.0241467  0  0  0  0  0  0  0  0  0 
1704726520.869968000  -2.5267  -0.269523  1.01627  0  0  -0.0006003  -0.12482  0.181824  0.0661555  0  0  0  -0.0926879  0.707837  0.0207971  0  0  0  0  0  0  0  0  0 
1704726520.874959000  -2.52732  -0.268605  1.0166  0  0  -0.0007499  -0.125251  0.185376  0.0662516  0  0  0  -0.0795629  0.712911  0.0176974  0  0  0  0  0  0  0  0  0 
1704726520.879959000  -2.52795  -0.267669  1.01693  0  0  -0.0009057  -0.125615  0.188953  0.0663329  0  0  0  -0.0661879  0.717735  0.0148477  0  0  0  0  0  0  0  0  0 
1704726520.884959000  -2.52858  -0.266715  1.01727  0  0  -0.0010678  -0.125912  0.192553  0.0664005  0  0  0  -0.0525629  0.72231  0.012248  0  0  0  0  0  0  0  0  0 
1704726520.889963000  -2.52921  -0.265744  1.0176  0  0  -0.0012362  -0.12614  0.196176  0.0664558  0  0  0  -0.0386879  0.726634  0.0098984  0  0  0  0  0  0  0  0  0 
1704726520.894959000  -2.52984  -0.264754  1.01793  0  0  -0.0014108  -0.126299  0.199819  0.0664999  0  0  0  -0.0245629  0.730708  0.0077987  0  0  0  0  0  0  0  0  0 
1704726520.899959000  -2.53047  -0.263745  1.01826  0  0  -0.0015917  -0.126386  0.203482  0.0665342  0  0  0  -0.0101879  0.734532  0.005949  0  0  0  0  0  0  0  0  0 
1704726520.904958000  -2.53111  -0.262719  1.0186  0  0  -0.0017788  -0.1264  0.207164  0.0665598  0  0  0  0.004437  0.738107  0.0043493  0  0  0  0  0  0  0  0  0 
1704726520.909961000  -2.53174  -0.261674  1.01893  0  0  -0.0019721  -0.126341  0.210863  0.0665781  0  0  0  0.0193121  0.741431  0.0029997  0  0  0  0  0  0  0  0  0 
1704726520.914959000  -2.53237  -0.26061  1.01926  0  0  -0.0021717  -0.126207  0.214578  0.0665902  0  0  0  0.0344371  0.744505  0.0019  0  0  0  0  0  0  0  0  0 
1704726520.919960000  -2.533  -0.259528  1.01959  0  0  -0.0023776  -0.125996  0.218308  0.0665975  0  0  0  0.0498121  0.74733  0.0010503  0  0  0  0  0  0  0  0  0 
1704726520.924960000  -2.53363  -0.258427  1.01993  0  0  -0.0025897  -0.125708  0.222051  0.0666012  0  0  0  0.0654371  0.749904  0.0004506  0  0  0  0  0  0  0  0  0 
1704726520.929967000  -2.53426  -0.257307  1.02026  0  0  -0.002808  -0.125341  0.225806  0.0666024  0  0  0  0.0813121  0.752228  0.000101  0  0  0  0  0  0  0  0  0 
1704726520.934959000  -2.53488  -0.256169  1.02059  0  0  -0.0030327  -0.124895  0.229573  0.0666026  0  0  0  0.0974371  0.754302  0  0  0  0  0  0  0  0  0  0 
1704726520.939961000  -2.53551  -0.255012  1.02093  0  0  -0.0032635  -0.124367  0.233349  0.0666026  0  0  0  0.113812  0.756127  0  0  0  0  0  0  0  0  0  0 
1704726520.944959000  -2.53613  -0.253835  1.02126  0  0  -0.0035006  -0.123756  0.237134  0.0666026  0  0  0  0.130437  0.757701  0  0  0  0  0  0  0  0  0  0 
1704726520.949958000  -2.53674  -0.25264  1.02159  0  0  -0.003744  -0.123062  0.240926  0.0666026  0  0  0  0.147312  0.759025  0  0  0  0  0  0  0  0  0  0 
1704726520.954965000  -2.53736  -0.251426  1.02193  0  0  -0.0039936  -0.122283  0.244723  0.0666026  0  0  0  0.164327  0.7601  0  0  0  0  0  0  0  0  0  0 
1704726520.959966000  -2.53797  -0.250193  1.02226  0  0  -0.0042495  -0.121419  0.248526  0.0666026  0  0  0  0.181121  0.760924  0  0  0  0  0  0  0  0  0  0 
1704726520.964961000  -2.53857  -0.248941  1.02259  0  0  -0.0045116  -0.120472  0.252332  0.0666026  0  0  0  0.197664  0.761498  0  0  0  0  0  0  0  0  0  0 
1704726520.969967000  -2.53917  -0.24767  1.02292  0  0  -0.0047799  -0.119443  0.256141  0.0666026  0  0  0  0.213958  0.761822  0  0  0  0  0  0  0  0  0  0 
1704726520.974958000  -2.53976  -0.24638  1.02326  0  0  -0.0050545  -0.118333  0.25995  0.0666026  0  0  0  0.230002  0.761897  0  0  0  0  0  0  0  0  0  0 
1704726520.979959000  -2.54035  -0.24507  1.02359  0  0  -0.0053354  -0.117143  0.263759  0.0666026  0  0  0  0.245795  0.761721  0  0  0  0  0  0  0  0  0  0 
1704726520.984960000  -2.54094  -0.243742  1.02392  0  0  -0.0056225  -0.115875  0.267567  0.0666026  0  0  0  0.261339  0.761295  0  0  0  0  0  0  0  0  0  0 
1704726520.989963000  -2.54151  -0.242395  1.02426  0  0  -0.0059158  -0.11453  0.271372  0.0666026  0  0  0  0.276632  0.76062  0  0  0  0  0  0  0  0  0  0 
1704726520.994959000  -2.54208  -0.241028  1.02459  0  0  -0.0062154  -0.113109  0.275173  0.0666026  0  0  0  0.291676  0.759694  0  0  0  0  0  0  0  0  0  0 
1704726520.999960000  -2.54264  -0.239643  1.02492  0  0  -0.0065213  -0.111614  0.278968  0.0666026  0  0  0  0.306469  0.758518  0  0  0  0  0  0  0  0  0  0 
1704726521.004959000  -2.5432  -0.238239  1.02526  0  0  -0.0068334  -0.110045  0.282757  0.0666026  0  0  0  0.321013  0.757092  0  0  0  0  0  0  0  0  0  0 
1704726521.009967000  -2.54374  -0.236815  1.02559  0  0  -0.0071518  -0.108404  0.286539  0.0666026  0  0  0  0.335307  0.755417  0  0  0  0  0  0  0  0  0  0 
1704726521.014959000  -2.54428  -0.235373  1.02592  0  0  -0.0074764  -0.106692  0.290311  0.0666026  0  0  0  0.34935  0.753491  0  0  0  0  0  0  0  0  0  0 
1704726521.019959000  -2.54481  -0.233912  1.02626  0  0  -0.0078072  -0.104911  0.294073  0.0666026  0  0  0  0.363144  0.751315  0  0  0  0  0  0  0  0  0  0 
1704726521.024959000  -2.54533  -0.232432  1.02659  0  0  -0.0081443  -0.103061  0.297824  0.0666026  0  0  0  0.376687  0.74889  0  0  0  0  0  0  0  0  0  0 
1704726521.029967000  -2.54584  -0.230934  1.02692  0  0  -0.0084877  -0.101144  0.301562  0.0666026  0  0  0  0.389981  0.746214  0  0  0  0  0  0  0  0  0  0 
1704726521.034960000  -2.54634  -0.229417  1.02725  0  0  -0.0088373  -0.0991619  0.305286  0.0666026  0  0  0  0.403025  0.743288  0  0  0  0  0  0  0  0  0  0 
1704726521.039960000  -2.54683  -0.227881  1.02759  0  0  -0.0091932  -0.0971146  0.308994  0.0666026  0  0  0  0.415818  0.740112  0  0  0  0  0  0  0  0  0  0 
1704726521.044960000  -2.54731  -0.226327  1.02792  0  0  -0.0095553  -0.0950041  0.312686  0.0666026  0  0  0  0.428362  0.736687  0  0  0  0  0  0  0  0  0  0 
1704726521.049962000  -2.54778  -0.224754  1.02825  0  0  -0.0099236  -0.0928314  0.316361  0.0666026  0  0  0  0.440655  0.733011  0  0  0  0  0  0  0  0  0  0 
1704726521.054959000  -2.54824  -0.223163  1.02859  0  0  -0.0102982  -0.090598  0.320016  0.0666026  0  0  0  0.452699  0.729085  0  0  0  0  0  0  0  0  0  0 
1704726521.059959000  -2.54869  -0.221554  1.02892  0  0  -0.0106791  -0.0883049  0.323651  0.0666026  0  0  0  0.464492  0.72491  0  0  0  0  0  0  0  0  0  0 
1704726521.064961000  -2.54912  -0.219927  1.02925  0  0  -0.0110662  -0.0859534  0.327265  0.0666026  0  0  0  0.476036  0.720484  0  0  0  0  0  0  0  0  0  0 
1704726521.069965000  -2.54955  -0.218282  1.02959  0  0  -0.0114596  -0.0835449  0.330856  0.0666026  0  0  0  0.48733  0.715808  0  0  0  0  0  0  0  0  0  0 
1704726521.074960000  -2.54996  -0.216618  1.02992  0  0  -0.0118592  -0.0810806  0.334422  0.0666026  0  0  0  0.498373  0.710882  0  0  0  0  0  0  0  0  0  0 
1704726521.079959000  -2.55036  -0.214937  1.03025  0  0  -0.012265  -0.0785616  0.337964  0.0666026  0  0  0  0.509167  0.705707  0  0  0  0  0  0  0  0  0  0 
1704726521.084960000  -2.55074  -0.213239  1.03058  0  0  -0.0126771  -0.0759893  0.341479  0.0666026  0  0  0  0.51971  0.700281  0  0  0  0  0  0  0  0  0  0 
1704726521.089966000  -2.55112  -0.211523  1.03092  0  0  -0.0130955  -0.0733649  0.344966  0.0666026  0  0  0  0.530004  0.694605  0  0  0  0  0  0  0  0  0  0 
1704726521.094959000  -2.55148  -0.209789  1.03125  0  0  -0.0135201  -0.0706897  0.348425  0.0666026  0  0  0  0.540047  0.688679  0  0  0  0  0  0  0  0  0  0 
1704726521.099959000  -2.55182  -0.208038  1.03158  0  0  -0.013951  -0.0679649  0.351853  0.0666026  0  0  0  0.549841  0.682504  0  0  0  0  0  0  0  0  0  0 
