ts fx fy fz tx ty tz exfx exfy exfz extx exty extz xd yd zd rolld pitchd yawd vxd vyd vzd wxd wyd wzd axd ayd azd e_x e_y e_z e_vx e_vy e_vz e_rx e_ry e_rz e_wx e_wy e_wz
1704726519.225253000  0  0  11.144  0.0478607  -0.117281  0.0278095  nan  nan  nan  nan  nan  nan  -2.5  -0.3  1  0.0179243  -0.0286047  -0.000512702  0  0  0  0  0  0  0  0  0  0.0253538  0.0029948  -0.00364468  -0.0209043  0.0155308  0.0117603  -0.0176118  0.0262516  -0.0290859  0.0663072  -0.00695253  -0.0567597 
1704726519.230220000  0  0  11.2193  0.0534635  -0.143915  0.0236686  nan  nan  nan  nan  nan  nan  -2.5  -0.3  1  0.0173094  -0.0295998  -0.000512332  0  0  0  0  0  0  0  0  0  0.0254176  0.00291626  -0.00363688  -0.0195653  0.0150885  0.00546028  -0.0168839  0.0277666  -0.0287449  0.0484047  0.0323774  -0.00840861 
1704726519.235259000  0  0  11.1386  0.0620502  -0.114534  0.0208617  nan  nan  nan  nan  nan  nan  -2.5  -0.3  1  0.0182272  -0.0262318  -0.000478129  0  0  0  0  0  0  0  0  0  0.0254114  0.00285962  -0.00353281  -0.0239887  0.0161969  0.0119701  -0.0176172  0.0242875  -0.0283616  0.0379782  0.00562248  0.022844 
1704726519.239259000  0  0  11.0591  0.0464566  -0.0927256  0.0253111  nan  nan  nan  nan  nan  nan  -2.5  -0.3  1  0.0173314  -0.0275612  -0.000477663  0  0  0  0  0  0  0  0  0  0.025331  0.00291351  -0.00343927  -0.0224083  0.0148144  0.0184203  -0.0164022  0.0250077  -0.0288712  0.057987  -0.04462  -0.0276767 
1704726519.245251000  0  0  11.2269  0.0605186  -0.151243  0.0226433  nan  nan  nan  nan  nan  nan  -2.5  -0.3  1  0.0171063  -0.0289978  -0.000496024  0  0  0  0  0  0  0  0  0  0.0253598  0.00286538  -0.00346306  -0.020164  0.0149631  0.00446866  -0.0161738  0.0273429  -0.0287358  0.0277616  0.0509313  0.00431692 
1704726519.250256000  0  0  11.1298  0.0795526  -0.111666  0.0170649  nan  nan  nan  nan  nan  nan  -2.5  -0.3  1  0.0175592  -0.0262438  -0.000460813  0  0  0  0  0  0  0  0  0  0.0253672  0.00279903  -0.00334967  -0.0239019  0.0154878  0.0123177  -0.0168241  0.0242794  -0.027948  -0.00432364  -3.82581e-05  0.066169 
1704726519.255260000  0  0  11.0642  0.0646791  -0.0976468  0.0228754  nan  nan  nan  nan  nan  nan  -2.5  -0.3  1  0.0170032  -0.0272111  -0.000462664  0  0  0  0  0  0  0  0  0  0.0252612  0.0028701  -0.00324606  -0.0226683  0.0145177  0.0175821  -0.0160908  0.0247691  -0.0284115  0.0186774  -0.0325825  -0.00182773 
1704726519.260259000  0  0  11.1825  0.0842448  -0.146914  0.0222651  nan  nan  nan  nan  nan  nan  -2.5  -0.3  1  0.0174569  -0.0279151  -0.000487298  0  0  0  0  0  0  0  0  0  0.0253021  0.00281766  -0.00325108  -0.0215246  0.0154214  0.0077152  -0.0168065  0.0263147  -0.028391  -0.0138696  0.0517324  0.00559588 
1704726519.265256000  0  0  11.1276  0.111968  -0.12353  0.0178995  nan  nan  nan  nan  nan  nan  -2.5  -0.3  1  0.0186195  -0.0257393  -0.000479257  0  0  0  0  0  0  0  0  0  0.0251668  0.00290652  -0.00316322  -0.0240856  0.0165562  0.0121001  -0.0184949  0.0240759  -0.0277784  -0.053784  0.0255625  0.0540407 
1704726519.270259000  0  0  11.1023  0.0969618  -0.123638  0.0233819  nan  nan  nan  nan  nan  nan  -2.5  -0.3  1  0.0176204  -0.026766  -0.000471619  0  0  0  0  0  0  0  0  0  0.0252161  0.00282911  -0.00308183  -0.023001  0.0154428  0.0140409  -0.0175354  0.0251166  -0.0282291  -0.0325977  0.016203  -0.00998354 
1704726519.275255000  0  0  11.1584  0.107823  -0.141723  0.0243812  nan  nan  nan  nan  nan  nan  -2.5  -0.3  1  0.017571  -0.0274203  -0.000481793  0  0  0  0  0  0  0  0  0  0.0252608  0.00277182  -0.00305527  -0.0221208  0.0156187  0.0092956  -0.0178431  0.0262007  -0.0284548  -0.0514897  0.0424001  -0.0202162 
1704726519.280255000  0  0  11.1629  0.127203  -0.139752  0.0201666  nan  nan  nan  nan  nan  nan  -2.5  -0.3  1  0.0186635  -0.0266574  -0.000497519  0  0  0  0  0  0  0  0  0  0.0251443  0.00285865  -0.00300676  -0.0227936  0.0167904  0.0088015  -0.0194647  0.0256318  -0.0279598  -0.0753318  0.043691  0.0275163 
1704726519.285255000  0  0  11.09  0.12211  -0.14174  0.0227646  nan  nan  nan  nan  nan  nan  -2.5  -0.3  1  0.0182238  -0.0266543  -0.00048574  0  0  0  0  0  0  0  0  0  0.0251874  0.00279518  -0.00290863  -0.0231092  0.0162389  0.0146572  -0.0192946  0.0259096  -0.0281592  -0.0667095  0.0451118  -0.00296622 
1704726519.290270000  0  0  11.1137  0.122632  -0.128208  0.0248607  nan  nan  nan  nan  nan  nan  -2.5  -0.3  1  0.0184651  -0.0265756  -0.000490719  0  0  0  0  0  0  0  0  0  0.0250765  0.00287534  -0.00286262  -0.0228893  0.0164068  0.0125827  -0.0198053  0.0257519  -0.0284655  -0.0630555  0.0194983  -0.0261038 
1704726519.295261000  0  0  11.2124  0.133698  -0.149024  0.0221536  nan  nan  nan  nan  nan  nan  -2.5  -0.3  1  0.0188032  -0.0276221  -0.00051938  0  0  0  0  0  0  0  0  0  0.0251323  0.00282823  -0.00287303  -0.0214156  0.0171349  0.00436488  -0.0206304  0.0272221  -0.0282102  -0.0775966  0.0476047  0.00518287 
1704726519.299265000  0  0  11.1565  0.14286  -0.146505  0.0208203  nan  nan  nan  nan  nan  nan  -2.5  -0.3  1  0.0194425  -0.0262282  -0.000509949  0  0  0  0  0  0  0  0  0  0.0250305  0.00289845  -0.00280164  -0.0230894  0.0176559  0.00885823  -0.0216575  0.0260771  -0.0280094  -0.0864715  0.0531  0.0198409 
1704726519.305253000  0  0  11.1194  0.108632  -0.100066  0.0247833  nan  nan  nan  nan  nan  nan  -2.5  -0.3  1  0.0183358  -0.0262724  -0.000481724  0  0  0  0  0  0  0  0  0  0.0250494  0.00285731  -0.00272189  -0.0231871  0.0162992  0.0118043  -0.0203496  0.0254058  -0.028409  -0.0300483  -0.0336008  -0.0257008 
1704726519.310345000  0  0  11.2474  0.124645  -0.148666  0.0216817  nan  nan  nan  nan  nan  nan  -2.5  -0.3  1  0.0189578  -0.027275  -0.000517073  0  0  0  0  0  0  0  0  0  0.0251045  0.0028244  -0.00276983  -0.0216797  0.0174104  0.00121252  -0.0213252  0.027123  -0.0282167  -0.0530975  0.0478001  0.0111458 
1704726519.315228000  0  0  11.1219  0.134769  -0.12149  0.0177822  nan  nan  nan  nan  nan  nan  -2.5  -0.3  1  0.0197083  -0.0242501  -0.000477942  0  0  0  0  0  0  0  0  0  0.0249628  0.00291353  -0.00265854  -0.0254862  0.0178776  0.0114317  -0.022412  0.0240476  -0.0276775  -0.0633486  0.0217412  0.0544978 
1704726519.320267000  0  0  11.151  0.089261  -0.0824401  0.0237895  nan  nan  nan  nan  nan  nan  -2.5  -0.3  1  0.0181516  -0.0252933  -0.000459116  0  0  0  0  0  0  0  0  0  0.0250117  0.00285742  -0.00264741  -0.0242259  0.0161356  0.0090211  -0.0203527  0.0242469  -0.0282106  0.00872303  -0.058191  -0.0152628 
1704726519.325274000  0  0  11.3105  0.08552  -0.133597  0.0257254  nan  nan  nan  nan  nan  nan  -2.5  -0.3  1  0.018568  -0.0267764  -0.000497184  0  0  0  0  0  0  0  0  0  0.0250585  0.00282928  -0.00273152  -0.0220143  0.0170426  -0.00411066  -0.0206191  0.0263694  -0.0286062  0.0186561  0.0245942  -0.0355055 
1704726519.330263000  0  0  11.2023  0.0924565  -0.0969985  0.0182477  nan  nan  nan  nan  nan  nan  -2.5  -0.3  1  0.0187904  -0.0243693  -0.000457916  -2e-07  2e-07  -2e-07  0  0  0  -0.000125  0.000125  -0.000125  0.0249194  0.00291393  -0.00265398  -0.0250424  0.0169252  0.0047382  -0.0208637  0.0236091  -0.0278159  0.00703323  -0.023207  0.0500635 
1704726519.335238000  0  0  11.1458  0.0454107  -0.0678655  0.0259193  nan  nan  nan  nan  nan  nan  -2.5  -0.3  1  0.0175464  -0.0252767  -0.000443515  -1.7e-06  1.7e-06  -1.7e-06  0  0  0  -0.0005  0.0005  -0.0005  0.0249676  0.00285361  -0.00261453  -0.0242279  0.0154469  0.00936452  -0.0187488  0.0236686  -0.0285731  0.0816673  -0.0820201  -0.0382596 
1704726519.340204000  0  0  11.2725  0.0582207  -0.119934  0.0276013  nan  nan  nan  nan  nan  nan  -2.5  -0.3  1  0.0186232  -0.0257542  -0.00047963  -5.6e-06  5.6e-06  -5.6e-06  0  0  0  -0.001125  0.001125  -0.001125  0.0248561  0.00295208  -0.00267562  -0.0231032  0.0169028  -0.00113291  -0.0196403  0.0247846  -0.0290615  0.0642497  0.0118493  -0.0544014 
1704726519.345234000  0  0  11.216  0.0720189  -0.112486  0.0169621  nan  nan  nan  nan  nan  nan  -2.5  -0.3  1  0.017465  -0.0245169  -0.000428089  -1.33e-05  1.33e-05  -1.33e-05  0  0  0  -0.002  0.002  -0.0019168  0.0248711  0.00289181  -0.00264532  -0.0249536  0.0155883  0.00342937  -0.0185764  0.0236802  -0.0278905  0.0268647  0.00711456  0.0668794 
1704726519.350259000  0  0  11.1903  0.0415704  -0.0995797  0.0222436  nan  nan  nan  nan  nan  nan  -2.5  -0.3  1  0.0167674  -0.0251271  -0.00042101  -2.6e-05  2.6e-05  -2.44e-05  0  0  0  -0.003125  0.003125  -0.0025035  0.0249202  0.00283109  -0.0026369  -0.0245175  0.0149478  0.00551576  -0.0171779  0.023985  -0.0282136  0.0748957  -0.0215028  0.00409169 
1704726519.355259000  0  0  11.2378  0.0544282  -0.129409  0.0250972  nan  nan  nan  nan  nan  nan  -2.5  -0.3  1  0.0173954  -0.0256825  -0.000446253  -4.5e-05  4.5e-05  -3.79e-05  0  0  0  -0.0045  0.0045  -0.0028401  0.0248075  0.00291618  -0.00265167  -0.0236136  0.0158055  0.00155063  -0.0176758  0.0249844  -0.0286521  0.0537613  0.0289617  -0.027194 
1704726519.360257000  0  0  11.2138  0.0688849  -0.140858  0.0168735  nan  nan  nan  nan  nan  nan  -2.5  -0.299999  0.999999  0.0162513  -0.0261889  -0.000424592  -7.15e-05  7.15e-05  -5.24e-05  0  0  0  -0.006125  0.006125  -0.0029267  0.0248371  0.00284794  -0.00264479  -0.0233232  0.0146914  0.00351437  -0.0167065  0.0258989  -0.0276659  0.0159301  0.0434455  0.0657399 
1704726519.365259000  0  0  11.1798  0.0656807  -0.135514  0.0224663  nan  nan  nan  nan  nan  nan  -2.5  -0.299999  0.999999  0.0171769  -0.0249654  -0.000427227  -0.0001067  0.0001067  -6.67e-05  0  0  0  -0.008  0.008  -0.0027634  0.0247072  0.00293119  -0.00260511  -0.0248913  0.0158333  0.00627846  -0.0173613  0.0248518  -0.0280633  0.0283621  0.042391  -0.000195068 
1704726519.370261000  0  0  11.1598  0.0679122  -0.141201  0.0251125  nan  nan  nan  nan  nan  nan  -2.5  -0.299998  0.999999  0.0162959  -0.0265562  -0.000430344  -0.0001519  0.0001519  -7.96e-05  0  0  0  -0.010125  0.010125  -0.00235  0.0247723  0.00286266  -0.00259426  -0.0233874  0.0151236  0.00795748  -0.0165062  0.0266285  -0.0284493  0.0160324  0.0374202  -0.0294133 
1704726519.375262000  0  0  11.2348  0.0789504  -0.160736  0.0202254  nan  nan  nan  nan  nan  nan  -2.5  -0.299997  0.999998  0.0162386  -0.027259  -0.000439233  -0.0002083  0.0002083  -8.98e-05  0  0  0  -0.0125  0.0125  -0.0016866  0.0246611  0.00293976  -0.00261655  -0.0223413  0.0153175  0.0018062  -0.0166252  0.0278295  -0.0279302  -0.00494935  0.0654401  0.0264852 
1704726519.380332000  0  0  11.1773  0.0949026  -0.143371  0.0218205  nan  nan  nan  nan  nan  nan  -2.5  -0.299996  0.999998  0.0167878  -0.0255229  -0.000423967  -0.0002773  0.0002773  -9.62e-05  0  0  0  -0.015125  0.015125  -0.0009066  0.0246669  0.00289531  -0.00258568  -0.0250185  0.0163286  0.00659493  -0.0174358  0.0262676  -0.0279732  -0.0293957  0.0450797  0.00697598 
1704726519.385253000  0  0  11.1371  0.08713  -0.13594  0.024714  nan  nan  nan  nan  nan  nan  -2.50001  -0.299995  0.999997  0.0156119  -0.0273441  -0.000420974  -0.00036  0.00036  -9.93e-05  0  0  0  -0.018  0.018  -0.0003583  0.0247441  0.00282749  -0.00256028  -0.0234139  0.0153129  0.00994484  -0.016381  0.0279942  -0.0283052  -0.0235548  0.0143327  -0.0258738 
1704726519.390264000  0  0  11.2605  0.0979596  -0.170805  0.0228847  nan  nan  nan  nan  nan  nan  -2.50001  -0.299993  0.999997  0.0157439  -0.0286095  -0.000443001  -0.0004577  0.0004577  -0.0001002  0  0  0  -0.021125  0.021125  -6e-05  0.0246374  0.00291061  -0.00261348  -0.0216122  0.0159034  -0.000223357  -0.0168513  0.0298999  -0.0281918  -0.0408874  0.0665314  -0.00414103 
1704726519.395263000  0  0  11.2185  0.114569  -0.154929  0.0199017  nan  nan  nan  nan  nan  nan  -2.50001  -0.29999  0.999996  0.016097  -0.0266581  -0.000420101  -0.0005717  0.0005717  -0.0001003  0  0  0  -0.0245  0.0245  1.18e-05  0.0246482  0.00286585  -0.00259776  -0.0246321  0.0167986  0.00324351  -0.0176547  0.0281593  -0.0278007  -0.0667141  0.0507918  0.0292364 
1704726519.400262000  0  0  11.1603  0.0971481  -0.127756  0.0234492  nan  nan  nan  nan  nan  nan  -2.50001  -0.299987  0.999996  0.0155515  -0.0274353  -0.000415942  -0.0007031  0.0007031  -9.98e-05  0  0  0  -0.028125  0.028125  0.0002135  0.0245274  0.00294529  -0.002537  -0.0240318  0.0163007  0.00799642  -0.0171472  0.0284554  -0.028128  -0.0365415  -0.00627765  -0.0118355 
1704726519.405254000  0  0  11.2643  0.10475  -0.163751  0.0239144  nan  nan  nan  nan  nan  nan  -2.50002  -0.299983  0.999995  0.0149999  -0.0294558  -0.000429404  -0.0008533  0.0008533  -9.77e-05  0  0  0  -0.032  0.032  0.0006652  0.0246107  0.00289649  -0.0026146  -0.0218591  0.0163892  -0.000486667  -0.0169955  0.0310293  -0.0282633  -0.0531419  0.0420336  -0.0162976 
1704726519.410267000  0  0  11.2262  0.1213  -0.140243  0.0194286  nan  nan  nan  nan  nan  nan  -2.50002  -0.299978  0.999995  0.0149885  -0.0284043  -0.000411612  -0.0010235  0.0010235  -9.28e-05  0  0  0  -0.036125  0.036125  0.001367  0.0246337  0.00285502  -0.00260884  -0.0238708  0.0169274  0.00273412  -0.0175382  0.0298503  -0.0277208  -0.0812482  0.00586369  0.0343514 
1704726519.415264000  0  0  11.1715  0.109673  -0.126161  0.0233822  nan  nan  nan  nan  nan  nan  -2.50003  -0.299973  0.999994  0.0147588  -0.0288697  -0.000410254  -0.001215  0.001215  -8.36e-05  0  0  0  -0.0405  0.0405  0.0023187  0.0245212  0.00293967  -0.00255328  -0.0237707  0.0169173  0.00727981  -0.0175008  0.0299442  -0.028066  -0.0583386  -0.0231642  -0.0116174 
1704726519.420262000  0  0  11.2471  0.109355  -0.147744  0.0242152  nan  nan  nan  nan  nan  nan  -2.50003  -0.299966  0.999994  0.0138039  -0.0305513  -0.000404187  -0.001429  0.001429  -6.92e-05  0  0  0  -0.045125  0.045125  0.0035205  0.0245857  0.00289373  -0.00261312  -0.0221544  0.0165359  0.00120745  -0.0169095  0.0318677  -0.0282522  -0.0631429  0.00230428  -0.0201681 
1704726519.425254000  0  0  11.2463  0.117444  -0.138728  0.0203405  nan  nan  nan  nan  nan  nan  -2.50004  -0.299958  0.999994  0.0135171  -0.0309143  -0.000398532  -0.0016667  0.0016667  -4.8e-05  0  0  0  -0.05  0.05  0.0049722  0.0246346  0.00285418  -0.0026316  -0.0224297  0.0168823  0.00144775  -0.0170791  0.032069  -0.0278007  -0.0777596  -0.0175777  0.0237501 
1704726519.430269000  0  0  11.2104  0.106452  -0.131698  0.0218436  nan  nan  nan  nan  nan  nan  -2.50005  -0.299949  0.999994  0.0133623  -0.0305769  -0.000387538  -0.0019294  0.0019294  -1.9e-05  0  0  0  -0.055125  0.055125  0.0066739  0.0245161  0.00293892  -0.00259359  -0.0233606  0.0170972  0.00452514  -0.0170675  0.0315346  -0.0278804  -0.0558838  -0.0267215  0.00575914 
1704726519.435263000  0  0  11.2046  0.0956663  -0.120793  0.0226083  nan  nan  nan  nan  nan  nan  -2.50006  -0.299939  0.999994  0.0120957  -0.0320992  -0.000365514  -0.0022183  0.0022183  1.91e-05  0  0  0  -0.0605  0.0605  0.0086257  0.0245799  0.00288919  -0.00260964  -0.0223079  0.0163032  0.00524222  -0.0159801  0.0326207  -0.0279546  -0.0443152  -0.0585241  -0.00305769 
1704726519.440264000  0  0  11.2942  0.0994155  -0.130008  0.020529  nan  nan  nan  nan  nan  nan  -2.50007  -0.299927  0.999994  0.012052  -0.0329608  -0.00037279  -0.0025348  0.0025348  6.77e-05  0  0  0  -0.0661225  0.0661225  0.0108274  0.0244738  0.00297552  -0.00265091  -0.0213827  0.0168893  -0.001929  -0.0162138  0.0333085  -0.0277008  -0.0496641  -0.0464218  0.0203955 
1704726519.445259000  0  0  11.2413  0.100387  -0.130419  0.0185589  nan  nan  nan  nan  nan  nan  -2.50009  -0.299914  0.999994  0.0115286  -0.0320685  -0.000343457  -0.0028794  0.0028794  0.0001278  0  0  0  -0.0716975  0.0716975  0.0132791  0.0245119  0.00293304  -0.00264926  -0.0234845  0.0169666  0.00270952  -0.0159711  0.0323766  -0.0273295  -0.0538398  -0.0370273  0.0413085 
1704726519.450269000  0  0  11.2058  0.0758314  -0.0873462  0.021915  nan  nan  nan  nan  nan  nan  -2.5001  -0.299898  0.999995  0.010267  -0.0325133  -0.000305868  -0.0032514  0.0032514  0.0002009  0  0  0  -0.0770226  0.0770226  0.0159809  0.0243899  0.00300913  -0.00260941  -0.0234634  0.0158563  0.00588442  -0.0146044  0.031701  -0.0275752  -0.0173028  -0.116957  0.00181456 
1704726519.455266000  0  0  11.3359  0.0781139  -0.13111  0.0233155  nan  nan  nan  nan  nan  nan  -2.50012  -0.299881  0.999996  0.0099559  -0.0352245  -0.000321031  -0.0036493  0.0036493  0.000288  0  0  0  -0.0820976  0.0820976  0.0189326  0.0244691  0.00297512  -0.0027242  -0.0203933  0.016331  -0.00444645  -0.0144757  0.0345174  -0.0277722  -0.0230514  -0.0553398  -0.0137217 
1704726519.460264000  0  0  11.2886  0.0980959  -0.132892  0.0168  nan  nan  nan  nan  nan  nan  -2.50014  -0.299862  0.999998  0.00952525  -0.0329516  -0.000282425  -0.0040719  0.0040719  0.0003906  0  0  0  -0.0869227  0.0869227  0.0221343  0.0244727  0.00293752  -0.00273858  -0.0240527  0.0164351  -0.000177502  -0.0145737  0.0323212  -0.026982  -0.0621138  -0.0315715  0.0598201 
1704726519.465260000  0  0  11.2092  0.0608545  -0.0739485  0.0222225  nan  nan  nan  nan  nan  nan  -2.50016  -0.29984  1  0.00823945  -0.0334811  -0.000242721  -0.0045181  0.0045181  0.0005098  0  0  0  -0.0914977  0.0914977  0.0255861  0.0243486  0.00301318  -0.00267626  -0.023991  0.0151616  0.00669215  -0.0129888  0.0313772  -0.0273993  -0.00221172  -0.140773  -0.00378893 
1704726519.470265000  0  0  11.3553  0.0622128  -0.132537  0.026639  nan  nan  nan  nan  nan  nan  -2.50018  -0.299817  1  0.00814076  -0.0366218  -0.00026327  -0.0049865  0.0049865  0.0006469  0  0  0  -0.0958228  0.0958228  0.0292878  0.024426  0.00298  -0.00280362  -0.0202  0.0157919  -0.00486442  -0.0129823  0.0347491  -0.0280519  -0.0049881  -0.0546187  -0.0524691 
1704726519.475267000  0  0  11.3304  0.0858398  -0.140279  0.0164851  nan  nan  nan  nan  nan  nan  -2.50021  -0.29979  1.00001  0.00616792  -0.0355909  -0.000182978  -0.0054759  0.0054759  0.0008031  0  0  0  -0.0998978  0.0998978  0.0332395  0.024694  0.00269679  -0.00299236  -0.0227138  0.0144337  -0.00202768  -0.0116122  0.0339415  -0.0269949  -0.0648476  -0.0317034  0.0638847 
1704726519.480243000  0  0  11.2528  0.0471756  -0.088354  0.022939  nan  nan  nan  nan  nan  nan  -2.50024  -0.299762  1.00001  0.00513798  -0.036121  -0.00014725  -0.005985  0.005985  0.0009797  0  0  0  -0.103723  0.103723  0.0374413  0.0245815  0.00276658  -0.00293534  -0.0225952  0.0134231  0.00476983  -0.01026  0.0331083  -0.0275139  4.08699e-05  -0.127888  -0.0115987 
1704726519.485256000  0  0  11.3708  0.0530702  -0.156212  0.0290099  nan  nan  nan  nan  nan  nan  -2.50027  -0.299731  1.00002  0.00437588  -0.0400785  -0.000135333  -0.0065127  0.0065127  0.0011779  0  0  0  -0.107298  0.107298  0.041893  0.0248897  0.00258217  -0.0032316  -0.0182526  0.0133907  -0.00402603  -0.00971654  0.0375602  -0.0283793  -0.0167482  -0.0331307  -0.0788307 
1704726519.490263000  0  0  11.3451  0.0893961  -0.147941  0.0155363  nan  nan  nan  nan  nan  nan  -2.5003  -0.299697  1.00002  0.00426001  -0.0378735  -0.000119604  -0.0070576  0.0070576  0.001399  0  0  0  -0.110623  0.110623  0.0465947  0.024758  0.00265577  -0.0032159  -0.0212788  0.0134908  -0.00148467  -0.0104226  0.0352972  -0.0269793  -0.0829039  -0.028851  0.0755895 
1704726519.495296000  0  0  11.2883  0.0512991  -0.117107  0.0215773  nan  nan  nan  nan  nan  nan  -2.50034  -0.29966  1.00003  0.00297655  -0.0391826  -7.31993e-05  -0.0076185  0.0076185  0.0016443  0  0  0  -0.113698  0.113698  0.0515465  0.0248767  0.00252464  -0.00326124  -0.0205302  0.0125364  0.00386083  -0.00888374  0.0356697  -0.0273333  -0.0208679  -0.0939481  0.00361647 
1704726519.500271000  0  0  11.3545  0.0600459  -0.158373  0.0271438  nan  nan  nan  nan  nan  nan  -2.50038  -0.29962  1.00004  0.00217278  -0.0415617  -4.50786e-05  -0.0081942  0.0081942  0.0019149  0  0  0  -0.116523  0.116523  0.0567482  0.0250223  0.00243314  -0.00342993  -0.0179177  0.0121065  -0.000806751  -0.00841982  0.0382849  -0.0280593  -0.0426296  -0.0354745  -0.0587048 
1704726519.505264000  0  0  11.3718  0.0906459  -0.146611  0.0167107  nan  nan  nan  nan  nan  nan  -2.50042  -0.299578  1.00005  0.00238874  -0.0405273  -4.9883e-05  -0.0087833  0.0087833  0.0022122  0  0  0  -0.119098  0.119098  0.0621999  0.0249142  0.00249989  -0.00344113  -0.0192329  0.0125616  -0.00171082  -0.00941733  0.036978  -0.0269683  -0.0946524  -0.0469751  0.0607989 
1704726519.510270000  0  0  11.2807  0.0772405  -0.131067  0.0211061  nan  nan  nan  nan  nan  nan  -2.50047  -0.299533  1.00006  0.00195509  -0.0412931  -3.21088e-05  -0.0093847  0.0093847  0.0025373  0  0  0  -0.121423  0.121423  0.0679017  0.0250245  0.00240187  -0.00343124  -0.0192232  0.0125069  0.00642622  -0.00923503  0.0370967  -0.0271558  -0.0695188  -0.0791551  0.00773137 
1704726519.515269000  0  0  11.3012  0.0771559  -0.137597  0.0262016  nan  nan  nan  nan  nan  nan  -2.50052  -0.299484  1.00008  0.00150436  -0.0420786  -1.29828e-05  -0.0099971  0.0099971  0.0028916  0  0  0  -0.123498  0.123498  0.0738534  0.02494  0.00245919  -0.00343141  -0.0182176  0.0120817  0.00530365  -0.00916623  0.0375846  -0.0278475  -0.0699825  -0.0705848  -0.0490456 
1704726519.520270000  0  0  11.3737  0.0984197  -0.146487  0.0182976  nan  nan  nan  nan  nan  nan  -2.50057  -0.299433  1.00009  0.00144966  -0.0426693  -9.73739e-06  -0.0106193  0.0106193  0.0032763  0  0  0  -0.125323  0.125323  0.0800551  0.0250419  0.00238314  -0.00351152  -0.0175886  0.0124252  1.95516e-05  -0.0098649  0.0379785  -0.0269607  -0.106082  -0.0564274  0.0408878 
1704726519.525276000  0  0  11.2793  0.107246  -0.126752  0.0199028  nan  nan  nan  nan  nan  nan  -2.50062  -0.299378  1.00011  0.00214784  -0.041258  -3.47909e-05  -0.0112499  0.0112499  0.0036926  0  0  0  -0.126898  0.126898  0.0865069  0.0249293  0.0024526  -0.00343564  -0.0197574  0.0133295  0.0083427  -0.0111768  0.0360156  -0.0269197  -0.111665  -0.0778402  0.0204119 
1704726519.530269000  0  0  11.2644  0.0941134  -0.111943  0.0259153  nan  nan  nan  nan  nan  nan  -2.50068  -0.29932  1.00013  0.000751188  -0.0432033  2.30563e-05  -0.0118879  0.0118879  0.0041418  0  0  0  -0.128223  0.128223  0.0932086  0.0250439  0.00237072  -0.00344312  -0.0178125  0.0119297  0.0102865  -0.010213  0.0370825  -0.0275841  -0.0942673  -0.117273  -0.0481 
1704726519.535267000  0  0  11.387  0.108508  -0.141458  0.0213469  nan  nan  nan  nan  nan  nan  -2.50074  -0.299259  1.00015  0.000978905  -0.0439989  1.41432e-05  -0.0125318  0.0125318  0.0046251  0  0  0  -0.129298  0.129298  0.100135  0.0251044  0.00233398  -0.00353024  -0.0164861  0.0124458  0.000908874  -0.0111429  0.0378318  -0.0271759  -0.114501  -0.0651362  0.00492295 
1704726519.540279000  0  0  11.274  0.11937  -0.112008  0.0187622  nan  nan  nan  nan  nan  nan  -2.50081  -0.299195  1.00017  0.00154428  -0.0418175  -5.55927e-06  -0.0131804  0.0131804  0.0051429  0  0  0  -0.130123  0.130123  0.106929  0.0249952  0.00240261  -0.00342491  -0.0196374  0.0130931  0.0107462  -0.0123986  0.0349511  -0.0267643  -0.124672  -0.0975333  0.0331153 
1704726519.545276000  0  0  11.2751  0.0997021  -0.105051  0.0246832  nan  nan  nan  nan  nan  nan  -2.50087  -0.299127  1.0002  0.000350089  -0.0436364  4.54283e-05  -0.0138326  0.0138326  0.005694  0  0  0  -0.130698  0.130698  0.113473  0.0250802  0.00234327  -0.00342232  -0.0176147  0.0118037  0.0113218  -0.0115762  0.035936  -0.0273419  -0.0929033  -0.12051  -0.0351204 
1704726519.550276000  0  0  11.3841  0.115342  -0.136035  0.0228128  nan  nan  nan  nan  nan  nan  -2.50094  -0.299056  1.00023  0.00121359  -0.0434707  9.6609e-06  -0.014487  0.014487  0.0062772  0  0  0  -0.131023  0.131023  0.119767  0.0249947  0.0024132  -0.00345102  -0.0171459  0.0127849  0.00287598  -0.0130785  0.0358671  -0.027287  -0.110362  -0.0579072  -0.0122897 
1704726519.555271000  0  0  11.3082  0.124707  -0.106843  0.0189397  nan  nan  nan  nan  nan  nan  -2.50102  -0.298982  1.00026  0.00134343  -0.0421143  7.63897e-06  -0.0151424  0.0151424  0.0068912  0  0  0  -0.131099  0.131099  0.125811  0.0250238  0.00238444  -0.00338655  -0.0192944  0.0130112  0.00964864  -0.013905  0.0337137  -0.0267236  -0.121488  -0.0964797  0.0304901 
1704726519.560271000  0  0  11.286  0.105448  -0.0994416  0.0249579  nan  nan  nan  nan  nan  nan  -2.5011  -0.298905  1.0003  0.000951756  -0.0429451  2.50393e-05  -0.0157976  0.0157976  0.0075349  0  0  0  -0.130924  0.130924  0.131605  0.0249848  0.00241477  -0.00332869  -0.0182475  0.0124277  0.0119531  -0.013765  0.0337997  -0.0273422  -0.0842574  -0.112074  -0.0385522 
1704726519.565272000  0  0  11.3777  0.111985  -0.116637  0.0235559  nan  nan  nan  nan  nan  nan  -2.50118  -0.298824  1.00034  0.00150198  -0.0427295  3.44049e-06  -0.0164512  0.0164512  0.0082068  0  0  0  -0.130499  0.130499  0.137149  0.0248972  0.00248186  -0.00334281  -0.0178337  0.0129294  0.00486194  -0.0147625  0.033458  -0.0273756  -0.0881551  -0.0745392  -0.0206928 
1704726519.570274000  0  0  11.3119  0.120488  -0.103496  0.0183093  nan  nan  nan  nan  nan  nan  -2.50126  -0.29874  1.00038  0.00174522  -0.0426213  -5.06119e-06  -0.0171021  0.0171021  0.0089059  0  0  0  -0.129824  0.129824  0.142443  0.0249542  0.00242882  -0.00326931  -0.0183238  0.0132561  0.0107024  -0.015599  0.032691  -0.0266895  -0.0974649  -0.0937662  0.0380282 
1704726519.575265000  0  0  11.3198  0.108414  -0.106745  0.0213283  nan  nan  nan  nan  nan  nan  -2.50135  -0.298653  1.00043  0.000921802  -0.0430038  3.14713e-05  -0.017749  0.017749  0.0096309  0  0  0  -0.128899  0.128899  0.147487  0.0250608  0.00236343  -0.00325021  -0.017926  0.0122513  0.0105122  -0.0151131  0.0326262  -0.026833  -0.0777867  -0.0866721  0.0017259 
1704726519.580269000  0  0  11.3632  0.102143  -0.0995468  0.0208395  nan  nan  nan  nan  nan  nan  -2.50144  -0.298563  1.00048  0.00129932  -0.042621  1.74385e-05  -0.0183907  0.0183907  0.0103804  0  0  0  -0.127724  0.127724  0.152281  0.024974  0.0024263  -0.00322954  -0.017861  0.0124432  0.00731333  -0.0156581  0.0317461  -0.0267716  -0.0602318  -0.0929707  0.00722222 
1704726519.585263000  0  0  11.3729  0.110393  -0.112122  0.0188  nan  nan  nan  nan  nan  nan  -2.50153  -0.298469  1.00053  0.00170359  -0.0435955  2.54358e-07  -0.0190259  0.0190259  0.0111533  0  0  0  -0.126299  0.126299  0.156825  0.0250409  0.00238058  -0.00321114  -0.0165498  0.0128759  0.00690256  -0.0164904  0.0324064  -0.0263933  -0.0690748  -0.0738954  0.0289334 
1704726519.590276000  0  0  11.3366  0.114252  -0.109921  0.0189845  nan  nan  nan  nan  nan  nan  -2.50163  -0.298373  1.00059  0.00215543  -0.0414292  -1.30722e-05  -0.0196533  0.0196533  0.0119482  0  0  0  -0.124624  0.124624  0.161119  0.0249398  0.00244536  -0.00314632  -0.0190198  0.0130814  0.0101725  -0.0172601  0.0300951  -0.0262697  -0.0697099  -0.0570318  0.0253903 
1704726519.595273000  0  0  11.3555  0.0860057  -0.0848854  0.0221125  nan  nan  nan  nan  nan  nan  -2.50173  -0.298273  1.00065  0.00137198  -0.0422302  2.00784e-05  -0.0202717  0.0202717  0.012764  0  0  0  -0.122699  0.122699  0.165163  0.0250245  0.00238758  -0.00313142  -0.0178673  0.0119829  0.00899324  -0.0163267  0.0299902  -0.026491  -0.0218058  -0.106139  -0.0114968 
1704726519.599265000  0  0  11.4346  0.0884637  -0.114711  0.0232201  nan  nan  nan  nan  nan  nan  -2.50183  -0.29817  1.00072  0.00229382  -0.0431927  -1.93456e-05  -0.0208798  0.0208798  0.0135994  0  0  0  -0.120524  0.120524  0.168957  0.0249884  0.00242341  -0.00316483  -0.0159154  0.0128095  0.00283666  -0.017315  0.031016  -0.0266671  -0.0176294  -0.0559256  -0.0235805 
1704726519.605261000  0  0  11.347  0.110137  -0.113981  0.0183867  nan  nan  nan  nan  nan  nan  -2.50194  -0.298064  1.00079  0.00263894  -0.0403029  -2.49283e-05  -0.0214765  0.0214765  0.0144532  0  0  0  -0.118099  0.118099  0.172501  0.0249927  0.00240796  -0.00306616  -0.0196841  0.012949  0.0102165  -0.0181885  0.0281245  -0.0261084  -0.0529395  -0.0307833  0.0312498 
1704726519.610268000  0  0  11.3618  0.0674165  -0.0772847  0.0241576  nan  nan  nan  nan  nan  nan  -2.50204  -0.297955  1.00086  0.00224443  -0.0409665  -8.82084e-06  -0.0220604  0.0220604  0.015324  0  0  0  -0.115424  0.115424  0.175795  0.0249439  0.00243783  -0.00302872  -0.0183343  0.0120503  0.00927186  -0.0172391  0.027736  -0.0266786  0.0237663  -0.100601  -0.0351839 
1704726519.615276000  0  0  11.4438  0.0889934  -0.135999  0.0251155  nan  nan  nan  nan  nan  nan  -2.50216  -0.297844  1.00094  0.00386772  -0.0417912  -7.66903e-05  -0.0226303  0.0226303  0.0162107  0  0  0  -0.112499  0.112499  0.178839  0.0248783  0.00251597  -0.00304413  -0.016392  0.0135881  0.00272797  -0.0190419  0.0291618  -0.0270185  -0.00280127  0.00370884  -0.0437589 
1704726519.620271000  0  0  11.3691  0.106008  -0.11562  0.0174758  nan  nan  nan  nan  nan  nan  -2.50227  -0.297729  1.00102  0.00361245  -0.0393996  -5.56929e-05  -0.023185  0.023185  0.017112  0  0  0  -0.109324  0.109324  0.181633  0.0249214  0.00245807  -0.00298381  -0.0194558  0.0129605  0.00905897  -0.0191621  0.0266529  -0.0261874  -0.0357235  -0.0139675  0.0434258 
1704726519.625258000  0  0  11.3723  0.0585451  -0.093031  0.0245796  nan  nan  nan  nan  nan  nan  -2.50239  -0.297612  1.00111  0.00290814  -0.0414552  -3.22231e-05  -0.0237231  0.0237231  0.0180266  0  0  0  -0.105899  0.105899  0.184177  0.0250737  0.00238382  -0.00297082  -0.016749  0.0118033  0.00907692  -0.0178162  0.0278714  -0.0267985  0.0468192  -0.0703544  -0.0392609 
1704726519.630271000  0  0  11.4658  0.0859394  -0.159671  0.0253372  nan  nan  nan  nan  nan  nan  -2.50251  -0.297492  1.0012  0.00457937  -0.0416408  -0.000100635  -0.0242436  0.0242436  0.0189533  0  0  0  -0.102224  0.102224  0.186471  0.0249991  0.00245989  -0.00299265  -0.0154468  0.0133255  0.00150357  -0.0196801  0.0290439  -0.0271544  0.00917799  0.0521387  -0.0451715 
1704726519.634263000  0  0  11.4144  0.1131  -0.138247  0.0157292  nan  nan  nan  nan  nan  nan  -2.50263  -0.297369  1.0013  0.00526276  -0.0388353  -0.000112531  -0.024745  0.024745  0.0198909  0  0  0  -0.0982992  0.0982992  0.188514  0.0249275  0.00249239  -0.00295966  -0.0185878  0.0135963  0.00585692  -0.020775  0.026297  -0.0261287  -0.0350694  0.0345609  0.0646722 
1704726519.640252000  0  0  11.3584  0.0768418  -0.1094  0.0227357  nan  nan  nan  nan  nan  nan  -2.50276  -0.297244  1.0014  0.00526967  -0.0395263  -0.000114738  -0.0252261  0.0252261  0.0208381  0  0  0  -0.0941243  0.0941243  0.190308  0.0249579  0.00247433  -0.00287974  -0.0174966  0.0130828  0.0105641  -0.0202361  0.0262979  -0.026591  0.032489  -0.023141  -0.0182864 
1704726519.645260000  0  0  11.4348  0.0913357  -0.156973  0.0244479  nan  nan  nan  nan  nan  nan  -2.50288  -0.297117  1.00151  0.0054595  -0.0407983  -0.000127479  -0.0256858  0.0256858  0.0217936  0  0  0  -0.0896993  0.0896993  0.191852  0.0251206  0.00240542  -0.0029382  -0.0153425  0.0129606  0.00445693  -0.0206111  0.0283369  -0.0269029  0.00695099  0.0532477  -0.0365698 
1704726519.650271000  0  0  11.3831  0.120158  -0.128209  0.014351  nan  nan  nan  nan  nan  nan  -2.50301  -0.296988  1.00162  0.00623488  -0.0393151  -0.000148065  -0.0261227  0.0261227  0.0227562  0  0  0  -0.0850244  0.0850244  0.193146  0.0251689  0.00237171  -0.00289838  -0.0169677  0.0133918  0.0087645  -0.0218329  0.0266551  -0.0256929  -0.0394544  0.011191  0.077542 
1704726519.655272000  0  0  11.358  0.102969  -0.120106  0.0213653  nan  nan  nan  nan  nan  nan  -2.50314  -0.296856  1.00174  0.00717705  -0.0386295  -0.000178482  -0.0265356  0.0265356  0.0237246  0  0  0  -0.0800994  0.0800994  0.19419  0.025085  0.00243907  -0.00284478  -0.0171322  0.0137886  0.010836  -0.022502  0.0258454  -0.0262069  0.00108148  0.00243348  -0.00499656 
1704726519.660269000  0  0  11.4049  0.0985692  -0.133888  0.0235333  nan  nan  nan  nan  nan  nan  -2.50328  -0.296722  1.00186  0.00719591  -0.0393229  -0.000182496  -0.0269233  0.0269233  0.0246977  0  0  0  -0.0749245  0.0749245  0.194984  0.0252055  0.00239674  -0.00288499  -0.0156629  0.0132877  0.00709345  -0.022437  0.0267488  -0.0265018  0.00928159  0.0216862  -0.0291483 
1704726519.665263000  0  0  11.4113  0.127253  -0.122055  0.0171136  nan  nan  nan  nan  nan  nan  -2.50341  -0.296587  1.00198  0.00895122  -0.0378485  -0.000236618  -0.0272845  0.0272845  0.0256741  0  0  0  -0.0694995  0.0694995  0.195528  0.025115  0.00247317  -0.00284721  -0.016614  0.0146601  0.00647656  -0.0245258  0.0252386  -0.0257615  -0.0288689  0.0119152  0.0436954 
1704726519.670264000  0  0  11.374  0.119771  -0.10852  0.0205876  nan  nan  nan  nan  nan  nan  -2.50355  -0.296449  1.00212  0.0096918  -0.0365321  -0.000250094  -0.0276179  0.0276179  0.0266525  0  0  0  -0.063847  0.063847  0.195822  0.0251759  0.00244125  -0.00283901  -0.0178539  0.0149133  0.00957291  -0.0251374  0.02381  -0.0259521  -0.0082773  -0.00201303  0.00217677 
1704726519.675245000  0  0  11.3791  0.1026  -0.107611  0.0239843  nan  nan  nan  nan  nan  nan  -2.50369  -0.296311  1.00225  0.00934832  -0.037525  -0.000245124  -0.0279232  0.0279232  0.0276319  0  0  0  -0.0583219  0.0583219  0.195866  0.0252669  0.00241248  -0.00287605  -0.0160797  0.0138477  0.00926136  -0.0245129  0.0246717  -0.0263462  0.0203175  -0.0117572  -0.0363412 
1704726519.680264000  0  0  11.4836  0.12863  -0.124226  0.0199844  nan  nan  nan  nan  nan  nan  -2.50383  -0.29617  1.00239  0.011295  -0.0362085  -0.000301603  -0.0282015  0.0282015  0.0286108  0  0  0  -0.0530468  0.0530468  0.19566  0.0251833  0.00249617  -0.00290918  -0.0164668  0.015585  0.000543917  -0.0266764  0.0237229  -0.0259851  -0.0118373  0.0302008  0.0100464 
1704726519.685238000  0  0  11.364  0.131735  -0.101304  0.0189817  nan  nan  nan  nan  nan  nan  -2.50397  -0.296029  1.00254  0.0120805  -0.0342864  -0.000305135  -0.0284541  0.0284541  0.0295884  0  0  0  -0.0480217  0.0480217  0.195429  0.0252419  0.00246377  -0.00285481  -0.0188695  0.0158624  0.0103445  -0.027486  0.0216437  -0.0257557  -0.0105996  0.00348594  0.020286 
1704726519.689252000  0  0  11.3335  0.108131  -0.0831697  0.0230744  nan  nan  nan  nan  nan  nan  -2.50411  -0.295886  1.00263  0.0120761  -0.0344189  -0.000304785  -0.0286821  0.0286821  0.0301046  0  0  0  -0.0432466  0.0432466  0.195407  0.0252032  0.00249057  -0.00277495  -0.018128  0.0151509  0.0127331  -0.0270848  0.0213556  -0.0261965  0.0329171  -0.0301321  -0.0264644 
1704726519.695247000  0  0  11.472  0.120747  -0.121145  0.0214211  nan  nan  nan  nan  nan  nan  -2.50426  -0.295742  1.00263  0.0132319  -0.0345785  -0.000344974  -0.028887  0.028887  0.0301046  0  0  0  -0.0387216  0.0387216  0.195407  0.0252378  0.00252439  -0.00270506  -0.0168954  0.0161607  0.0010206  -0.0282082  0.0221141  -0.0261319  0.0180212  0.0388408  -0.00644456 
1704726519.700265000  0  0  11.3142  0.121325  -0.0929246  0.0174579  nan  nan  nan  nan  nan  nan  -2.5044  -0.295597  1.00263  0.0138795  -0.0328271  -0.00034137  -0.0290698  0.0290698  0.0301046  0  0  0  -0.0344465  0.0344465  0.195407  0.0252754  0.00249833  -0.0024724  -0.0192467  0.0162596  0.0136702  -0.0287141  0.020152  -0.0255756  0.0215204  0.000451174  0.0375322 
1704726519.705254000  0  0  11.3058  0.0905345  -0.0917402  0.0228013  nan  nan  nan  nan  nan  nan  -2.50455  -0.295451  1.00263  0.0137192  -0.0330827  -0.000337912  -0.0292318  0.0292318  0.0301046  0  0  0  -0.0304214  0.0304214  0.195407  0.0251979  0.00256934  -0.00227044  -0.0182748  0.0153767  0.0139753  -0.0278546  0.0202698  -0.0261042  0.0751936  -0.00300206  -0.0239746 
1704726519.710267000  0  0  11.4214  0.0961235  -0.117491  0.021389  nan  nan  nan  nan  nan  nan  -2.5047  -0.295305  1.00263  0.0149216  -0.0326482  -0.000369413  -0.0293744  0.0293744  0.0301046  0  0  0  -0.0266463  0.0266463  0.195407  0.0252506  0.00257081  -0.00220637  -0.0180379  0.0165971  0.00418598  -0.0287015  0.0203882  -0.0260304  0.071807  0.0474114  -0.00705887 
1704726519.715265000  0  0  11.278  0.101884  -0.0990784  0.0175398  nan  nan  nan  nan  nan  nan  -2.50484  -0.295157  1.00263  0.0159814  -0.0308763  -0.000374011  -0.0294987  0.0294987  0.0301046  0  0  0  -0.0231212  0.0231212  0.195407  0.0251377  0.00265411  -0.00192473  -0.0200813  0.0170566  0.0155175  -0.0294403  0.0186202  -0.0255339  0.0670828  0.0268506  0.036092 
1704726519.720265000  0  0  11.2751  0.0759627  -0.0994052  0.0223301  nan  nan  nan  nan  nan  nan  -2.50499  -0.29501  1.00263  0.0159764  -0.0301986  -0.000361332  -0.029606  0.029606  0.0301046  0  0  0  -0.0198461  0.0198461  0.195407  0.025043  0.00273218  -0.00171447  -0.0203165  0.0164564  0.0153422  -0.0285809  0.0181076  -0.025995  0.111019  0.0322204  -0.0191764 
1704726519.725250000  0  0  11.3405  0.0739556  -0.115071  0.022999  nan  nan  nan  nan  nan  nan  -2.50514  -0.294861  1.00263  0.0161198  -0.0313234  -0.000382087  -0.0296976  0.0296976  0.0301046  0  0  0  -0.016821  0.016821  0.195407  0.0252516  0.00261315  -0.00165093  -0.0187584  0.0166334  0.00977111  -0.0281653  0.0196059  -0.026133  0.111209  0.049768  -0.0261579 
1704726519.730257000  0  0  11.2844  0.091728  -0.118833  0.0187735  nan  nan  nan  nan  nan  nan  -2.50529  -0.294713  1.00263  0.0169083  -0.0302154  -0.00038626  -0.0297747  0.0297747  0.0301046  0  0  0  -0.0140459  0.0140459  0.195407  0.0251537  0.00269703  -0.00141154  -0.0197739  0.0169841  0.0139331  -0.0287284  0.0189044  -0.0257021  0.0808456  0.0637461  0.0223527 
1704726519.734255000  0  0  11.2381  0.0761483  -0.110482  0.020263  nan  nan  nan  nan  nan  nan  -2.50544  -0.294564  1.00263  0.0172951  -0.0288429  -0.000372521  -0.0298385  0.0298385  0.0301046  0  0  0  -0.0115209  0.0115209  0.195407  0.0250971  0.00273252  -0.00121182  -0.0211984  0.016982  0.0173643  -0.0284522  0.0177259  -0.0258086  0.109464  0.0578858  0.00479892 
1704726519.740268000  0  0  11.2849  0.0649934  -0.108338  0.0237429  nan  nan  nan  nan  nan  nan  -2.50559  -0.294414  1.00263  0.0180537  -0.0290251  -0.000395994  -0.0298903  0.0298903  0.0301046  0  0  0  -0.0092458  0.0092458  0.195407  0.0250027  0.00283193  -0.000986998  -0.0203215  0.0175132  0.0130184  -0.0283022  0.0180567  -0.0262713  0.130393  0.0505539  -0.0340731 
1704726519.745257000  0  0  11.2861  0.0880717  -0.1288  0.0191671  nan  nan  nan  nan  nan  nan  -2.50574  -0.294265  1.00263  0.0189045  -0.0283523  -0.000406179  -0.0299314  0.0299314  0.0301046  0  0  0  -0.0072207  0.0072207  0.195407  0.0249539  0.00288392  -0.000784355  -0.0207952  0.0182112  0.012469  -0.0289421  0.0180974  -0.0258471  0.0901238  0.091104  0.0188829 
1704726519.750270000  0  0  11.2015  0.0759816  -0.0998853  0.0194318  nan  nan  nan  nan  nan  nan  -2.50588  -0.294115  1.00263  0.0185241  -0.0270668  -0.000369884  -0.0299629  0.0299629  0.0301046  0  0  0  -0.0054456  0.0054456  0.195407  0.0250442  0.0028148  -0.000567398  -0.02264  0.0174891  0.0190782  -0.0278836  0.0168337  -0.02575  0.104566  0.0449005  0.0146019 
1704726519.755293000  0  0  11.2393  0.0615028  -0.101669  0.0241122  nan  nan  nan  nan  nan  nan  -2.50603  -0.293965  1.00263  0.0189799  -0.0280376  -0.000398946  -0.0299862  0.0299862  0.0301046  0  0  0  -0.0039205  0.0039205  0.195407  0.0249526  0.00290373  -0.000364085  -0.0209162  0.0177441  0.0155276  -0.027546  0.0178552  -0.0263085  0.130418  0.0390702  -0.0383164 
1704726519.760264000  0  0  11.2929  0.0884653  -0.142251  0.0192188  nan  nan  nan  nan  nan  nan  -2.50618  -0.293815  1.00263  0.0193163  -0.0281184  -0.000408238  -0.0300025  0.0300025  0.0301046  0  0  0  -0.0026454  0.0026454  0.195407  0.0250412  0.00285132  -0.000249439  -0.0206819  0.0182342  0.0108109  -0.0277401  0.0190009  -0.0258648  0.078278  0.109695  0.0184129 
1704726519.765251000  0  0  11.1629  0.0881661  -0.102118  0.0179408  nan  nan  nan  nan  nan  nan  -2.50633  -0.293665  1.00263  0.0199223  -0.0250975  -0.000363314  -0.0300131  0.0300131  0.0301046  0  0  0  -0.0016203  0.0016203  0.195407  0.0249063  0.00294122  5.29621e-05  -0.024408  0.0183794  0.0209903  -0.0279217  0.0159836  -0.0255903  0.0805472  0.0571872  0.0316423 
1704726519.770261000  0  0  11.2122  0.0585984  -0.112124  0.0262452  nan  nan  nan  nan  nan  nan  -2.50648  -0.293515  1.00263  0.0192619  -0.0279796  -0.000400537  -0.0300192  0.0300192  0.0301046  0  0  0  -0.0008452  0.0008452  0.195407  0.0250408  0.00288409  0.000191296  -0.0208795  0.0176917  0.0166476  -0.0263956  0.0189948  -0.0264973  0.125643  0.0494966  -0.063093 
1704726519.775263000  0  0  11.2462  0.0934657  -0.161501  0.0210553  nan  nan  nan  nan  nan  nan  -2.50664  -0.293365  1.00263  0.020046  -0.0278356  -0.000417895  -0.030022  0.030022  0.0301046  0  0  0  -0.0003201  0.0003201  0.195407  0.0251047  0.00286231  0.000326722  -0.0210274  0.018727  0.0135014  -0.0271798  0.0201565  -0.0261821  0.0631228  0.137563  -0.00136972 
1704726519.780265000  0  0  11.1143  0.0949042  -0.108005  0.0171703  nan  nan  nan  nan  nan  nan  -2.50679  -0.293215  1.00263  0.0203657  -0.0249149  -0.000365627  -0.0300228  0.0300228  0.0301046  0  0  0  -4.51e-05  4.51e-05  0.195407  0.0249676  0.00295314  0.000639355  -0.0247057  0.0185931  0.0238275  -0.0272015  0.0170518  -0.0256472  0.060445  0.0591338  0.041844 
1704726519.785258000  0  0  11.1587  0.0675416  -0.12449  0.0270976  nan  nan  nan  nan  nan  nan  -2.50694  -0.293065  1.00263  0.0198866  -0.0278276  -0.000409798  -0.0300228  0.0300228  0.0301046  0  0  0  1.84e-05  -1.84e-05  0.195407  0.0251154  0.00290337  0.00079437  -0.02129  0.0181998  0.0198416  -0.0259886  0.0202459  -0.0266955  0.104012  0.062718  -0.071765 
1704726519.790251000  0  0  11.1881  0.104645  -0.157517  0.0206941  nan  nan  nan  nan  nan  nan  -2.50709  -0.292915  1.00263  0.0212785  -0.0269659  -0.000428512  -0.0300223  0.0300223  0.0301046  0  0  0  0.0002394  -0.0002394  0.195407  0.0250031  0.00300769  0.00101323  -0.0219907  0.0197369  0.0168973  -0.027524  0.0204487  -0.0262643  0.04393  0.126907  0.00396602 
1704726519.795215000  0  0  11.103  0.105583  -0.126204  0.0164228  nan  nan  nan  nan  nan  nan  -2.50724  -0.292765  1.00263  0.0209864  -0.0258387  -0.000395282  -0.03002  0.03002  0.0301046  0  0  0  0.0007104  -0.0007105  0.195407  0.0250466  0.00296882  0.00125767  -0.0236755  0.0192026  0.0234791  -0.0270784  0.0193948  -0.0256212  0.0379551  0.0739765  0.0509264 
1704726519.800264000  0  0  11.1466  0.0814055  -0.144691  0.0256088  nan  nan  nan  nan  nan  nan  -2.50739  -0.292614  1.00263  0.0207348  -0.0275678  -0.000422921  -0.0300147  0.0300147  0.0301046  0  0  0  0.0014314  -0.0014315  0.195407  0.0251716  0.00293631  0.00141613  -0.0215937  0.0189721  0.0195334  -0.0262213  0.0216543  -0.0265279  0.0784248  0.090163  -0.0548316 
1704726519.805255000  0  0  11.1474  0.102281  -0.157237  0.0211983  nan  nan  nan  nan  nan  nan  -2.50754  -0.292464  1.00263  0.0217363  -0.0270057  -0.000436525  -0.0300053  0.0300053  0.0301046  0  0  0  0.0024024  -0.0024025  0.195407  0.0250635  0.00303646  0.00165816  -0.0219226  0.01987  0.0189344  -0.0271834  0.0218152  -0.0262928  0.045525  0.113775  -0.00205128 
1704726519.810266000  0  0  11.1136  0.106213  -0.142437  0.0169347  nan  nan  nan  nan  nan  nan  -2.50769  -0.292314  1.00263  0.0215879  -0.0268678  -0.000427841  -0.0299903  0.0299903  0.0301046  0  0  0  0.0036234  -0.0036235  0.195407  0.0251138  0.00300853  0.00188577  -0.0221518  0.0195124  0.0212807  -0.0269502  0.0218998  -0.0256854  0.0355161  0.0833966  0.0451701 
1704726519.815265000  0  0  11.1264  0.0930342  -0.138301  0.023741  nan  nan  nan  nan  nan  nan  -2.50784  -0.292165  1.00263  0.0224665  -0.0256425  -0.000422231  -0.0299686  0.0299686  0.0301046  0  0  0  0.0050944  -0.0050945  0.195407  0.0249982  0.00311015  0.00212429  -0.0231855  0.0202181  0.0197078  -0.027286  0.0210423  -0.026372  0.0649629  0.0830128  -0.0330424 
1704726519.820266000  0  0  11.0986  0.0907028  -0.135248  0.0218783  nan  nan  nan  nan  nan  nan  -2.50799  -0.292015  1.00263  0.0222969  -0.026788  -0.000441715  -0.0299389  0.0299389  0.0301046  0  0  0  0.0068154  -0.0068155  0.195407  0.0250975  0.00308361  0.00234128  -0.0218538  0.0197794  0.0215836  -0.0268259  0.0223978  -0.0262577  0.0653932  0.0644353  -0.0109021 
1704726519.825256000  0  0  11.144  0.0975706  -0.140719  0.0184258  nan  nan  nan  nan  nan  nan  -2.50813  -0.291865  1.00263  0.0225857  -0.02708  -0.00045425  -0.0299  0.0299  0.0301046  0  0  0  0.0087864  -0.0087865  0.195407  0.0251255  0.00308559  0.00252273  -0.0211685  0.0199953  0.0174203  -0.0269409  0.0230431  -0.0258084  0.0527147  0.0694407  0.0277614 
1704726519.830262000  0  0  11.1168  0.0901757  -0.120586  0.0205142  nan  nan  nan  nan  nan  nan  -2.50828  -0.291716  1.00263  0.0237008  -0.0244203  -0.000419731  -0.0298507  0.0298507  0.0301046  0  0  0  0.0110074  -0.0110075  0.195407  0.0249962  0.00319007  0.00278106  -0.0239692  0.0207925  0.019145  -0.0274991  0.0205353  -0.0259685  0.0726403  0.0522469  0.00325648 
1704726519.835214000  0  0  11.1005  0.071837  -0.106064  0.0223429  nan  nan  nan  nan  nan  nan  -2.50843  -0.291567  1.00263  0.023082  -0.0256422  -0.000431116  -0.0297896  0.0297896  0.0301046  0  0  0  0.0134784  -0.0134786  0.195407  0.0250661  0.00317927  0.002995  -0.0223481  0.0196957  0.0200791  -0.0262857  0.0215428  -0.0261644  0.0981541  0.0139332  -0.0176415 
1704726519.840267000  0  0  11.1783  0.0862149  -0.121268  0.0200584  nan  nan  nan  nan  nan  nan  -2.50858  -0.291418  1.00263  0.024282  -0.0249139  -0.000442416  -0.0297155  0.0297155  0.0301046  0  0  0  0.0161994  -0.0161996  0.195407  0.0249549  0.00328878  0.00318579  -0.0224384  0.0207981  0.0131991  -0.0271782  0.0212156  -0.0259725  0.0776098  0.0473519  0.00899494 
1704726519.845255000  0  0  11.1029  0.0916667  -0.0948113  0.0176961  nan  nan  nan  nan  nan  nan  -2.50873  -0.29127  1.00263  0.0250457  -0.0220879  -0.000388978  -0.0296271  0.0296271  0.0301046  0  0  0  0.0191704  -0.0191706  0.195407  0.0249464  0.00330549  0.00342615  -0.0257412  0.0211248  0.0189795  -0.0275852  0.0183355  -0.0256198  0.0704503  0.0209362  0.0349965 
1704726519.850265000  0  0  11.1078  0.0626607  -0.0773174  0.0224628  nan  nan  nan  nan  nan  nan  -2.50888  -0.291122  1.00263  0.0243181  -0.0228274  -0.000389179  -0.0295233  0.0295233  0.0301046  0  0  0  0.0223915  -0.0223916  0.195407  0.0248865  0.00336675  0.00365705  -0.0242757  0.0196943  0.0181198  -0.0260545  0.0186753  -0.0260815  0.11438  -0.017178  -0.0199702 
1704726519.855266000  0  0  11.2153  0.0740151  -0.109078  0.0221993  nan  nan  nan  nan  nan  nan  -2.50903  -0.290974  1.00263  0.0261374  -0.02216  -0.000411589  -0.0294028  0.0294028  0.0301046  0  0  0  0.0258625  -0.0258626  0.195407  0.0247718  0.00348341  0.00381435  -0.0241384  0.0215539  0.00883079  -0.0273809  0.0185913  -0.0261954  0.103874  0.0471165  -0.0155371 
1704726519.859266000  0  0  11.1238  0.0974383  -0.0928326  0.0173661  nan  nan  nan  nan  nan  nan  -2.50917  -0.290828  1.00263  0.0270627  -0.0194186  -0.000356114  -0.0292643  0.0292643  0.0301046  0  0  0  0.0295835  -0.0295836  0.195407  0.0246736  0.00354122  0.00404886  -0.0270645  0.021834  0.0159527  -0.0282722  0.0159524  -0.0256747  0.0652273  0.0389029  0.0396712 
1704726519.865251000  0  0  11.1017  0.0614379  -0.0673048  0.021386  nan  nan  nan  nan  nan  nan  -2.50932  -0.290682  1.00263  0.0267873  -0.0188061  -0.000332655  -0.0291066  0.0291066  0.0301046  0  0  0  0.0335545  -0.0335546  0.195407  0.0245463  0.00364963  0.00432738  -0.0270834  0.0206824  0.0172507  -0.0269106  0.0150085  -0.0259438  0.124701  -0.00346829  -0.00788746 
1704726519.870256000  0  0  11.1836  0.0774646  -0.0985509  0.021912  nan  nan  nan  nan  nan  nan  -2.50946  -0.290537  1.00263  0.0283238  -0.018803  -0.000359784  -0.0289283  0.0289283  0.0301046  0  0  0  0.0377755  -0.0377756  0.195407  0.0244802  0.00372858  0.00448908  -0.0262323  0.0221261  0.0100838  -0.0280451  0.0155844  -0.0261057  0.103085  0.053725  -0.0128425 
1704726519.875265000  0  0  11.1282  0.0974413  -0.0880238  0.0161477  nan  nan  nan  nan  nan  nan  -2.50961  -0.290392  1.00263  0.0290503  -0.0166274  -0.000308545  -0.0287284  0.0287284  0.0301046  0  0  0  0.0422465  -0.0422466  0.195407  0.0244011  0.00379061  0.00472709  -0.0282978  0.0221468  0.0142061  -0.0286363  0.0136619  -0.0254251  0.0685715  0.0503578  0.0524049 
1704726519.880265000  0  0  11.1075  0.0746218  -0.0654601  0.0210834  nan  nan  nan  nan  nan  nan  -2.50975  -0.290249  1.00263  0.0295819  -0.015369  -0.00027836  -0.0285055  0.0285054  0.0301046  0  0  0  0.0469675  -0.0469677  0.195407  0.0242567  0.00389697  0.00495966  -0.0289713  0.0219012  0.0154673  -0.0283105  0.0122481  -0.0258018  0.111213  0.0182376  -0.00552419 
1704726519.885257000  0  0  11.1377  0.0784279  -0.0869352  0.0240729  nan  nan  nan  nan  nan  nan  -2.50989  -0.290107  1.00263  0.0304623  -0.0159946  -0.000309262  -0.0282583  0.0282583  0.0301046  0  0  0  0.0519385  -0.0519387  0.195407  0.0242072  0.00396055  0.00514499  -0.027404  0.0223189  0.0125712  -0.0286773  0.0132861  -0.0262606  0.106975  0.0516379  -0.0383051 
1704726519.890266000  0  0  11.165  0.106168  -0.0964025  0.0177739  nan  nan  nan  nan  nan  nan  -2.51003  -0.289967  1.00263  0.0320146  -0.0139644  -0.000267403  -0.0279857  0.0279856  0.0301046  0  0  0  0.0571595  -0.0571597  0.195407  0.0240563  0.00408138  0.00533859  -0.028878  0.0234089  0.00989072  -0.0301494  0.0118699  -0.0256409  0.0650389  0.0836023  0.0342344 
1704726519.895263000  0  0  11.0819  0.0917054  -0.0718425  0.0203479  nan  nan  nan  nan  nan  nan  -2.51017  -0.289828  1.00263  0.0326276  -0.0120394  -0.000211446  -0.0276863  0.0276863  0.0301046  0  0  0  0.0626305  -0.0626307  0.195407  0.02398  0.00413816  0.00558455  -0.0305167  0.0230491  0.0163126  -0.0300782  0.00999244  -0.0257956  0.0933091  0.0517545  0.00360731 
1704726519.900267000  0  0  11.1229  0.0825267  -0.091903  0.0259432  nan  nan  nan  nan  nan  nan  -2.51031  -0.28969  1.00263  0.0330042  -0.0133426  -0.000257208  -0.0273589  0.0273589  0.0301046  0  0  0  0.0683515  -0.0683517  0.195407  0.0239464  0.00419275  0.0057486  -0.0280494  0.0228158  0.0125722  -0.0298126  0.0117477  -0.0265453  0.109223  0.0757272  -0.0588363 
1704726519.905257000  0  0  11.2033  0.11399  -0.127321  0.0193758  nan  nan  nan  nan  nan  nan  -2.51045  -0.289554  1.00263  0.034891  -0.0117235  -0.000224203  -0.0270024  0.0270023  0.0301046  0  0  0  0.0743225  -0.0743227  0.195407  0.0238011  0.00432156  0.00590098  -0.0288665  0.0244194  0.00554729  -0.0316507  0.011333  -0.0260229  0.0632057  0.150379  0.0180322 
1704726519.910268000  0  0  11.0796  0.110533  -0.0923297  0.0182407  nan  nan  nan  nan  nan  nan  -2.51058  -0.28942  1.00263  0.0356644  -0.00900313  -0.000134523  -0.0266153  0.0266153  0.0301046  0  0  0  0.0805435  -0.0805437  0.195407  0.0237236  0.00437336  0.00615809  -0.0314198  0.0239888  0.015337  -0.0319709  0.00885238  -0.0257813  0.0730659  0.103218  0.0298044 
1704726519.915264000  0  0  11.123  0.0849492  -0.103285  0.0254812  nan  nan  nan  nan  nan  nan  -2.51071  -0.289288  1.00263  0.0360498  -0.0105233  -0.000191121  -0.0261965  0.0261965  0.0301046  0  0  0  0.0870145  -0.0870147  0.195407  0.0235947  0.00448931  0.00634056  -0.0283884  0.0235584  0.0113603  -0.0314899  0.0108004  -0.0266065  0.119808  0.107207  -0.0524495 
1704726519.920266000  0  0  11.2453  0.119551  -0.157467  0.0200258  nan  nan  nan  nan  nan  nan  -2.51084  -0.289158  1.00263  0.0379273  -0.00952336  -0.000171164  -0.0257447  0.0257447  0.0301046  0  0  0  0.0937355  -0.0937357  0.195407  0.0235481  0.00456142  0.00643211  -0.0285396  0.0253853  0.00097327  -0.0333443  0.0115035  -0.0262426  0.0676656  0.209101  0.0121036 
1704726519.925256000  0  0  11.0837  0.117839  -0.110017  0.015779  nan  nan  nan  nan  nan  nan  -2.51097  -0.289031  1.00263  0.0389412  -0.00645008  -5.93989e-05  -0.0252587  0.0252587  0.0301046  0  0  0  0.100706  -0.100707  0.195407  0.0234869  0.00460997  0.00670241  -0.0314808  0.0249619  0.0138968  -0.0339141  0.00870673  -0.0256296  0.0763318  0.139932  0.0590593 
1704726519.929252000  0  0  11.1022  0.0921141  -0.110718  0.0230003  nan  nan  nan  nan  nan  nan  -2.51109  -0.288906  1.00263  0.0394644  -0.00685986  -7.72584e-05  -0.0247373  0.0247372  0.0301046  0  0  0  0.107927  -0.107928  0.195407  0.0233982  0.00468172  0.00685035  -0.029849  0.0246119  0.0120747  -0.0336009  0.00950645  -0.0263627  0.124901  0.133977  -0.0238766 
1704726519.935264000  0  0  11.2762  0.112847  -0.186178  0.0201247  nan  nan  nan  nan  nan  nan  -2.51122  -0.288783  1.00263  0.0403884  -0.00776239  -0.000118278  -0.024179  0.024179  0.0301046  0  0  0  0.115398  -0.115399  0.195407  0.0235677  0.00466091  0.00677522  -0.0280126  0.0256342  -0.00228116  -0.034064  0.0128571  -0.0262922  0.0876947  0.254071  0.0113632 
1704726519.940268000  0  0  11.1036  0.111843  -0.120327  0.0149409  nan  nan  nan  nan  nan  nan  -2.51134  -0.288664  1.00263  0.0418591  -0.00420085  2.1154e-05  -0.0235829  0.0235829  0.0301046  0  0  0  0.12308  -0.123081  0.195407  0.0233958  0.00478852  0.00705956  -0.0312065  0.0254168  0.0115526  -0.0349729  0.00937236  -0.025557  0.0980637  0.154429  0.0688087 
1704726519.945256000  0  0  11.1846  0.0626502  -0.145586  0.025453  nan  nan  nan  nan  nan  nan  -2.51145  -0.288548  1.00263  0.040558  -0.0075629  -0.000108102  -0.0229486  0.0229485  0.0301046  0  0  0  0.130603  -0.130603  0.195407  0.0236222  0.00468432  0.00708984  -0.0265342  0.0234517  0.00474855  -0.0323436  0.0136621  -0.0266016  0.172261  0.165482  -0.0521458 
1704726519.950266000  0  0  11.2769  0.0709449  -0.17891  0.0208939  nan  nan  nan  nan  nan  nan  -2.51157  -0.288434  1.00263  0.0413604  -0.00700285  -8.93038e-05  -0.0222773  0.0222772  0.0301046  0  0  0  0.137876  -0.137876  0.195407  0.023793  0.0046087  0.00714364  -0.0266167  0.0241201  -0.00304265  -0.032394  0.0147096  -0.0263685  0.156135  0.222492  0.00251117 
1704726519.955272000  0  0  11.1567  0.0775796  -0.130061  0.0160733  nan  nan  nan  nan  nan  nan  -2.51168  -0.288325  1.00263  0.0427444  -0.00440852  1.37464e-05  -0.0215702  0.0215702  0.0301046  0  0  0  0.144899  -0.144899  0.195407  0.0236423  0.00472867  0.00738146  -0.028706  0.024126  0.0065266  -0.0330651  0.0123051  -0.0257221  0.14904  0.146915  0.0563043 
1704726519.960271000  0  0  11.2325  0.0457009  -0.14909  0.0251434  nan  nan  nan  nan  nan  nan  -2.51178  -0.288219  1.00263  0.042563  -0.00497447  -7.85566e-06  -0.0208287  0.0208287  0.0301046  0  0  0  0.151671  -0.151672  0.195407  0.0235974  0.0047884  0.0074899  -0.0270032  0.0232671  2.69957e-06  -0.0315745  0.013817  -0.0266829  0.199083  0.171063  -0.0474628 
1704726519.965265000  0  0  11.2641  0.0518268  -0.147184  0.0218611  nan  nan  nan  nan  nan  nan  -2.51188  -0.288117  1.00263  0.0440855  -0.002782  8.29746e-05  -0.0200539  0.0200539  0.0301046  0  0  0  0.158194  -0.158194  0.195407  0.0234475  0.00491396  0.0076228  -0.0285742  0.0242157  -0.00284901  -0.0321194  0.0125783  -0.0265801  0.191845  0.178647  -0.00746268 
1704726519.970276000  0  0  11.2029  0.0616625  -0.121963  0.0177777  nan  nan  nan  nan  nan  nan  -2.51198  -0.288018  1.00263  0.0450614  -0.00178983  0.000126693  -0.0192472  0.0192471  0.0301046  0  0  0  0.164467  -0.164467  0.195407  0.0233924  0.00496778  0.00780753  -0.0289125  0.0242154  0.00189948  -0.0323331  0.0119267  -0.0260727  0.17414  0.134201  0.0385057 
1704726519.975269000  0  0  11.1876  0.0449506  -0.138583  0.0224916  nan  nan  nan  nan  nan  nan  -2.51208  -0.287924  1.00263  0.0443986  -0.00243349  0.000101085  -0.0184097  0.0184096  0.0301046  0  0  0  0.17049  -0.17049  0.195407  0.0236266  0.00482912  0.00795411  -0.0278711  0.0228579  0.00287292  -0.0305741  0.0135356  -0.0264995  0.19138  0.152638  -0.0161508 
1704726519.980276000  0  0  11.1968  0.0389023  -0.116502  0.0215308  nan  nan  nan  nan  nan  nan  -2.51217  -0.287834  1.00263  0.0453536  -0.00108512  0.000161652  -0.0175427  0.0175427  0.0301046  0  0  0  0.176263  -0.176263  0.195407  0.0234864  0.00494396  0.00810599  -0.0285056  0.0231027  0.00184683  -0.0304039  0.0125418  -0.0265123  0.201911  0.11762  -0.00401156 
1704726519.985269000  0  0  11.2105  0.0436367  -0.128137  0.0201243  nan  nan  nan  nan  nan  nan  -2.51225  -0.287749  1.00263  0.045417  -0.00198993  0.000122161  -0.0166475  0.0166474  0.0301046  0  0  0  0.181785  -0.181786  0.195407  0.0236409  0.00484923  0.00822903  -0.0270184  0.0227608  0.000455705  -0.0296168  0.0141367  -0.0263499  0.185201  0.126216  0.0119445 
1704726519.990275000  0  0  11.1465  0.0467109  -0.119942  0.0208922  nan  nan  nan  nan  nan  nan  -2.51233  -0.287668  1.00263  0.0463995  0.000937177  0.000257816  -0.0157253  0.0157252  0.0301046  0  0  0  0.187058  -0.187058  0.195407  0.0234852  0.0049608  0.00842641  -0.0296493  0.0227356  0.00544073  -0.0296717  0.0119044  -0.0264369  0.179558  0.130364  0.00321604 
1704726519.995274000  0  0  11.1592  0.0335867  -0.0969289  0.0235484  nan  nan  nan  nan  nan  nan  -2.51241  -0.287592  1.00263  0.046626  0.00109719  0.000267295  -0.0147773  0.0147773  0.0301046  0  0  0  0.192081  -0.192081  0.195407  0.0234352  0.00501135  0.00858217  -0.0291016  0.0223308  0.00409752  -0.0287867  0.0118245  -0.0267916  0.197664  0.0850723  -0.0264388 
1704726520.000278000  0  0  11.2208  0.0478978  -0.125351  0.0225645  nan  nan  nan  nan  nan  nan  -2.51248  -0.28752  1.00263  0.0470579  2.55318e-05  0.000219002  -0.0138049  0.0138048  0.0301046  0  0  0  0.196854  -0.196854  0.195407  0.0235542  0.00494829  0.0086645  -0.0274307  0.0227247  -0.00120639  -0.0285113  0.0138201  -0.0268156  0.166509  0.123557  -0.0139006 
1704726520.004270000  0  0  11.146  0.0640557  -0.117908  0.0200491  nan  nan  nan  nan  nan  nan  -2.51255  -0.287454  1.00263  0.0483072  0.00255418  0.000342981  -0.0128092  0.0128091  0.0301046  0  0  0  0.201377  -0.201377  0.195407  0.0234445  0.00502614  0.00883766  -0.0297505  0.0231318  0.00472817  -0.0293174  0.0118195  -0.0266052  0.141609  0.127077  0.0154384 
1704726520.009262000  0  0  11.1664  0.0428731  -0.100231  0.0232346  nan  nan  nan  nan  nan  nan  -2.51261  -0.287392  1.00263  0.0476264  0.00240503  0.00033583  -0.0117915  0.0117915  0.0301046  0  0  0  0.205649  -0.20565  0.195407  0.023518  0.00498996  0.00892629  -0.0291922  0.0219338  0.00284898  -0.0275726  0.0122477  -0.026933  0.167921  0.087783  -0.0211018 
1704726520.015274000  0  0  11.2216  0.0639457  -0.126605  0.0231542  nan  nan  nan  nan  nan  nan  -2.51266  -0.287336  1.00263  0.0493706  0.00224979  0.000334164  -0.0107531  0.0107531  0.0301046  0  0  0  0.209672  -0.209672  0.195407  0.0233401  0.00514911  0.00907858  -0.0281089  0.0235381  -0.00202483  -0.0286465  0.0133422  -0.0271292  0.135656  0.130461  -0.0181359 
1704726520.020278000  0  0  11.1614  0.084344  -0.130041  0.0187168  nan  nan  nan  nan  nan  nan  -2.51272  -0.287285  1.00263  0.0491832  0.00355437  0.000399656  -0.0096952  0.0096952  0.0301046  0  0  0  0.213445  -0.213445  0.195407  0.0233836  0.00511777  0.0092091  -0.0293326  0.0225647  0.00273182  -0.0281672  0.0129632  -0.0266577  0.0904504  0.14082  0.0326171 
1704726520.024267000  0  0  11.1752  0.0720915  -0.114858  0.0223083  nan  nan  nan  nan  nan  nan  -2.51276  -0.287239  1.00263  0.049835  0.00459701  0.000455681  -0.0086191  0.008619  0.0301046  0  0  0  0.216968  -0.216968  0.195407  0.0232715  0.00519739  0.00932428  -0.0299396  0.0228242  0.00138035  -0.0281774  0.0121954  -0.0269934  0.11505  0.117518  -0.00891987 
