    ts      x      y      z   roll  pitch    yaw     vx     vy     vz     wx     wy     wz     ax     ay     az    dwx    dwy    dwz
 0.0050000  -2.5000000  -0.3000000   1.0000000   0.0000000   0.0000000   0.0000000  -0.0000002   0.0000002  -0.0000002   0.0000000   0.0000000   0.0000000  -0.0001250   0.0001250  -0.0001250   0.0000000   0.0000000   0.0000000
 0.0100000  -2.5000000  -0.3000000   1.0000000   0.0000000   0.0000000   0.0000000  -0.0000017   0.0000017  -0.0000017   0.0000000   0.0000000   0.0000000  -0.0005000   0.0005000  -0.0005000   0.0000000   0.0000000   0.0000000
 0.0150000  -2.5000000  -0.3000000   1.0000000   0.0000000   0.0000000   0.0000000  -0.0000056   0.0000056  -0.0000056   0.0000000   0.0000000   0.0000000  -0.0011250   0.0011250  -0.0011250   0.0000000   0.0000000   0.0000000
 0.0200000  -2.5000000  -0.3000000   1.0000000   0.0000000   0.0000000   0.0000001  -0.0000133   0.0000133  -0.0000133   0.0000000   0.0000000   0.0000000  -0.0020000   0.0020000  -0.0019168   0.0000000   0.0000000   0.0000000
 0.0250000  -2.5000000  -0.3000000   1.0000000   0.0000000   0.0000000   0.0000003  -0.0000260   0.0000260  -0.0000244   0.0000000   0.0000000   0.0000000  -0.0031250   0.0031250  -0.0025035   0.0000000   0.0000000   0.0000000
 0.0300000  -2.5000000  -0.3000000   1.0000000   0.0000000   0.0000000   0.0000005  -0.0000450   0.0000450  -0.0000379   0.0000000   0.0000000   0.0000000  -0.0045000   0.0045000  -0.0028401   0.0000000   0.0000000   0.0000000
 0.0350000  -2.5000000  -0.2999990   0.9999990   0.0000000   0.0000000   0.0000010  -0.0000715   0.0000715  -0.0000524   0.0000000   0.0000000   0.0000000  -0.0061250   0.0061250  -0.0029267   0.0000000   0.0000000   0.0000000
 0.0400000  -2.5000000  -0.2999990   0.9999990   0.0000000   0.0000000   0.0000016  -0.0001067   0.0001067  -0.0000667   0.0000000   0.0000000   0.0000000  -0.0080000   0.0080000  -0.0027634   0.0000000   0.0000000   0.0000000
 0.0450000  -2.5000000  -0.2999980   0.9999990   0.0000000   0.0000000   0.0000024  -0.0001519   0.0001519  -0.0000796   0.0000000   0.0000000   0.0000000  -0.0101250   0.0101250  -0.0023500   0.0000000   0.0000000   0.0000000
 0.0500000  -2.5000000  -0.2999970   0.9999980   0.0000000   0.0000000   0.0000034  -0.0002083   0.0002083  -0.0000898   0.0000000   0.0000000   0.0000000  -0.0125000   0.0125000  -0.0016866   0.0000000   0.0000000   0.0000000
 0.0550000  -2.5000000  -0.2999960   0.9999980   0.0000000   0.0000000   0.0000045  -0.0002773   0.0002773  -0.0000962   0.0000000   0.0000000   0.0000000  -0.0151250   0.0151250  -0.0009066   0.0000000   0.0000000   0.0000000
 0.0600000  -2.5000100  -0.2999950   0.9999970   0.0000000   0.0000000   0.0000059  -0.0003600   0.0003600  -0.0000993   0.0000000   0.0000000   0.0000000  -0.0180000   0.0180000  -0.0003583   0.0000000   0.0000000   0.0000000
 0.0650000  -2.5000100  -0.2999930   0.9999970   0.0000000   0.0000000   0.0000074  -0.0004577   0.0004577  -0.0001002   0.0000000   0.0000000   0.0000000  -0.0211250   0.0211250  -0.0000600   0.0000000   0.0000000   0.0000000
 0.0700000  -2.5000100  -0.2999900   0.9999960   0.0000000   0.0000000   0.0000090  -0.0005717   0.0005717  -0.0001003   0.0000000   0.0000000   0.0000000  -0.0245000   0.0245000   0.0000118   0.0000000   0.0000000   0.0000000
 0.0750000  -2.5000100  -0.2999870   0.9999960   0.0000000   0.0000000   0.0000107  -0.0007031   0.0007031  -0.0000998   0.0000000   0.0000000   0.0000000  -0.0281250   0.0281250   0.0002135   0.0000000   0.0000000   0.0000000
 0.0800000  -2.5000200  -0.2999830   0.9999950   0.0000000   0.0000000   0.0000124  -0.0008533   0.0008533  -0.0000977   0.0000000   0.0000000   0.0000000  -0.0320000   0.0320000   0.0006652   0.0000000   0.0000000   0.0000000
 0.0850000  -2.5000200  -0.2999780   0.9999950   0.0000000   0.0000000   0.0000141  -0.0010235   0.0010235  -0.0000928   0.0000000   0.0000000   0.0000000  -0.0361250   0.0361250   0.0013670   0.0000000   0.0000000   0.0000000
 0.0900000  -2.5000300  -0.2999730   0.9999940   0.0000000   0.0000000   0.0000158  -0.0012150   0.0012150  -0.0000836   0.0000000   0.0000000   0.0000000  -0.0405000   0.0405000   0.0023187   0.0000000   0.0000000   0.0000000
 0.0950000  -2.5000300  -0.2999660   0.9999940   0.0000000   0.0000000   0.0000175  -0.0014290   0.0014290  -0.0000692   0.0000000   0.0000000   0.0000000  -0.0451250   0.0451250   0.0035205   0.0000000   0.0000000   0.0000000
 0.1000000  -2.5000400  -0.2999580   0.9999940   0.0000000   0.0000000   0.0000193  -0.0016667   0.0016667  -0.0000480   0.0000000   0.0000000   0.0000000  -0.0500000   0.0500000   0.0049722   0.0000000   0.0000000   0.0000000
 0.1050000  -2.5000500  -0.2999490   0.9999940   0.0000000   0.0000000   0.0000210  -0.0019294   0.0019294  -0.0000190   0.0000000   0.0000000   0.0000000  -0.0551250   0.0551250   0.0066739   0.0000000   0.0000000   0.0000000
 0.1100000  -2.5000600  -0.2999390   0.9999940   0.0000000   0.0000000   0.0000227  -0.0022183   0.0022183   0.0000191   0.0000000   0.0000000   0.0000000  -0.0605000   0.0605000   0.0086257   0.0000000   0.0000000   0.0000000
 0.1150000  -2.5000700  -0.2999270   0.9999940   0.0000000   0.0000000   0.0000244  -0.0025348   0.0025348   0.0000677   0.0000000   0.0000000   0.0000000  -0.0661225   0.0661225   0.0108274   0.0000000   0.0000000   0.0000000
 0.1200000  -2.5000900  -0.2999140   0.9999940   0.0000000   0.0000000   0.0000262  -0.0028794   0.0028794   0.0001278   0.0000000   0.0000000   0.0000000  -0.0716975   0.0716975   0.0132791   0.0000000   0.0000000   0.0000000
 0.1250000  -2.5001000  -0.2998980   0.9999950   0.0000000   0.0000000   0.0000279  -0.0032514   0.0032514   0.0002009   0.0000000   0.0000000   0.0000000  -0.0770226   0.0770226   0.0159809   0.0000000   0.0000000   0.0000000
 0.1300000  -2.5001200  -0.2998810   0.9999960   0.0000000   0.0000000   0.0000296  -0.0036493   0.0036493   0.0002880   0.0000000   0.0000000   0.0000000  -0.0820976   0.0820976   0.0189326   0.0000000   0.0000000   0.0000000
 0.1350000  -2.5001400  -0.2998620   0.9999980   0.0000000   0.0000000   0.0000314  -0.0040719   0.0040719   0.0003906   0.0000000   0.0000000   0.0000000  -0.0869227   0.0869227   0.0221343   0.0000000   0.0000000   0.0000000
 0.1400000  -2.5001600  -0.2998400   1.0000000   0.0000000   0.0000000   0.0000331  -0.0045181   0.0045181   0.0005098   0.0000000   0.0000000   0.0000000  -0.0914977   0.0914977   0.0255861   0.0000000   0.0000000   0.0000000
 0.1450000  -2.5001800  -0.2998170   1.0000000   0.0000000   0.0000000   0.0000348  -0.0049865   0.0049865   0.0006469   0.0000000   0.0000000   0.0000000  -0.0958228   0.0958228   0.0292878   0.0000000   0.0000000   0.0000000
 0.1500000  -2.5002100  -0.2997900   1.0000100   0.0000000   0.0000000   0.0000365  -0.0054759   0.0054759   0.0008031   0.0000000   0.0000000   0.0000000  -0.0998978   0.0998978   0.0332395   0.0000000   0.0000000   0.0000000
 0.1550000  -2.5002400  -0.2997620   1.0000100   0.0000000   0.0000000   0.0000383  -0.0059850   0.0059850   0.0009797   0.0000000   0.0000000   0.0000000  -0.1037230   0.1037230   0.0374413   0.0000000   0.0000000   0.0000000
 0.1600000  -2.5002700  -0.2997310   1.0000200   0.0000000   0.0000000   0.0000400  -0.0065127   0.0065127   0.0011779   0.0000000   0.0000000   0.0000000  -0.1072980   0.1072980   0.0418930   0.0000000   0.0000000   0.0000000
 0.1650000  -2.5003000  -0.2996970   1.0000200   0.0000000   0.0000000   0.0000417  -0.0070576   0.0070576   0.0013990   0.0000000   0.0000000   0.0000000  -0.1106230   0.1106230   0.0465947   0.0000000   0.0000000   0.0000000
 0.1700000  -2.5003400  -0.2996600   1.0000300   0.0000000   0.0000000   0.0000434  -0.0076185   0.0076185   0.0016443   0.0000000   0.0000000   0.0000000  -0.1136980   0.1136980   0.0515465   0.0000000   0.0000000   0.0000000
 0.1750000  -2.5003800  -0.2996200   1.0000400   0.0000000   0.0000000   0.0000452  -0.0081942   0.0081942   0.0019149   0.0000000   0.0000000   0.0000000  -0.1165230   0.1165230   0.0567482   0.0000000   0.0000000   0.0000000
 0.1800000  -2.5004200  -0.2995780   1.0000500   0.0000000   0.0000000   0.0000469  -0.0087833   0.0087833   0.0022122   0.0000000   0.0000000   0.0000000  -0.1190980   0.1190980   0.0621999   0.0000000   0.0000000   0.0000000
 0.1850000  -2.5004700  -0.2995330   1.0000600   0.0000000   0.0000000   0.0000486  -0.0093847   0.0093847   0.0025373   0.0000000   0.0000000   0.0000000  -0.1214230   0.1214230   0.0679017   0.0000000   0.0000000   0.0000000
 0.1900000  -2.5005200  -0.2994840   1.0000800   0.0000000   0.0000000   0.0000503  -0.0099971   0.0099971   0.0028916   0.0000000   0.0000000   0.0000000  -0.1234980   0.1234980   0.0738534   0.0000000   0.0000000   0.0000000
 0.1950000  -2.5005700  -0.2994330   1.0000900   0.0000000   0.0000000   0.0000521  -0.0106193   0.0106193   0.0032763   0.0000000   0.0000000   0.0000000  -0.1253230   0.1253230   0.0800551   0.0000000   0.0000000   0.0000000
 0.2000000  -2.5006200  -0.2993780   1.0001100   0.0000000   0.0000000   0.0000538  -0.0112499   0.0112499   0.0036926   0.0000000   0.0000000   0.0000000  -0.1268980   0.1268980   0.0865069   0.0000000   0.0000000   0.0000000
 0.2050000  -2.5006800  -0.2993200   1.0001300   0.0000000   0.0000000   0.0000555  -0.0118879   0.0118879   0.0041418   0.0000000   0.0000000   0.0000000  -0.1282230   0.1282230   0.0932086   0.0000000   0.0000000   0.0000000
 0.2100000  -2.5007400  -0.2992590   1.0001500   0.0000000   0.0000000   0.0000572  -0.0125318   0.0125318   0.0046251   0.0000000   0.0000000   0.0000000  -0.1292980   0.1292980   0.1001350   0.0000000   0.0000000   0.0000000
 0.2150000  -2.5008100  -0.2991950   1.0001700   0.0000000   0.0000000   0.0000590  -0.0131804   0.0131804   0.0051429   0.0000000   0.0000000   0.0000000  -0.1301230   0.1301230   0.1069290   0.0000000   0.0000000   0.0000000
 0.2200000  -2.5008700  -0.2991270   1.0002000   0.0000000   0.0000000   0.0000607  -0.0138326   0.0138326   0.0056940   0.0000000   0.0000000   0.0000000  -0.1306980   0.1306980   0.1134730   0.0000000   0.0000000   0.0000000
 0.2250000  -2.5009400  -0.2990560   1.0002300   0.0000000   0.0000000   0.0000624  -0.0144870   0.0144870   0.0062772   0.0000000   0.0000000   0.0000000  -0.1310230   0.1310230   0.1197670   0.0000000   0.0000000   0.0000000
 0.2300000  -2.5010200  -0.2989820   1.0002600   0.0000000   0.0000000   0.0000642  -0.0151424   0.0151424   0.0068912   0.0000000   0.0000000   0.0000000  -0.1310990   0.1310990   0.1258110   0.0000000   0.0000000   0.0000000
 0.2350000  -2.5011000  -0.2989050   1.0003000   0.0000000   0.0000000   0.0000659  -0.0157976   0.0157976   0.0075349   0.0000000   0.0000000   0.0000000  -0.1309240   0.1309240   0.1316050   0.0000000   0.0000000   0.0000000
 0.2400000  -2.5011800  -0.2988240   1.0003400   0.0000000   0.0000000   0.0000676  -0.0164512   0.0164512   0.0082068   0.0000000   0.0000000   0.0000000  -0.1304990   0.1304990   0.1371490   0.0000000   0.0000000   0.0000000
 0.2450000  -2.5012600  -0.2987400   1.0003800   0.0000000   0.0000000   0.0000693  -0.0171021   0.0171021   0.0089059   0.0000000   0.0000000   0.0000000  -0.1298240   0.1298240   0.1424430   0.0000000   0.0000000   0.0000000
 0.2500000  -2.5013500  -0.2986530   1.0004300   0.0000000   0.0000000   0.0000711  -0.0177490   0.0177490   0.0096309   0.0000000   0.0000000   0.0000000  -0.1288990   0.1288990   0.1474870   0.0000000   0.0000000   0.0000000
 0.2550000  -2.5014400  -0.2985630   1.0004800   0.0000000   0.0000000   0.0000728  -0.0183907   0.0183907   0.0103804   0.0000000   0.0000000   0.0000000  -0.1277240   0.1277240   0.1522810   0.0000000   0.0000000   0.0000000
 0.2600000  -2.5015300  -0.2984690   1.0005300   0.0000000   0.0000000   0.0000745  -0.0190259   0.0190259   0.0111533   0.0000000   0.0000000   0.0000000  -0.1262990   0.1262990   0.1568250   0.0000000   0.0000000   0.0000000
 0.2650000  -2.5016300  -0.2983730   1.0005900   0.0000000   0.0000000   0.0000762  -0.0196533   0.0196533   0.0119482   0.0000000   0.0000000   0.0000000  -0.1246240   0.1246240   0.1611190   0.0000000   0.0000000   0.0000000
 0.2700000  -2.5017300  -0.2982730   1.0006500   0.0000000   0.0000000   0.0000780  -0.0202717   0.0202717   0.0127640   0.0000000   0.0000000   0.0000000  -0.1226990   0.1226990   0.1651630   0.0000000   0.0000000   0.0000000
 0.2750000  -2.5018300  -0.2981700   1.0007200   0.0000000   0.0000000   0.0000797  -0.0208798   0.0208798   0.0135994   0.0000000   0.0000000   0.0000000  -0.1205240   0.1205240   0.1689570   0.0000000   0.0000000   0.0000000
 0.2800000  -2.5019400  -0.2980640   1.0007900   0.0000000   0.0000000   0.0000814  -0.0214765   0.0214765   0.0144532   0.0000000   0.0000000   0.0000000  -0.1180990   0.1180990   0.1725010   0.0000000   0.0000000   0.0000000
 0.2850000  -2.5020400  -0.2979550   1.0008600   0.0000000   0.0000000   0.0000831  -0.0220604   0.0220604   0.0153240   0.0000000   0.0000000   0.0000000  -0.1154240   0.1154240   0.1757950   0.0000000   0.0000000   0.0000000
 0.2900000  -2.5021600  -0.2978440   1.0009400   0.0000000   0.0000000   0.0000849  -0.0226303   0.0226303   0.0162107   0.0000000   0.0000000   0.0000000  -0.1124990   0.1124990   0.1788390   0.0000000   0.0000000   0.0000000
 0.2950000  -2.5022700  -0.2977290   1.0010200   0.0000000   0.0000000   0.0000866  -0.0231850   0.0231850   0.0171120   0.0000000   0.0000000   0.0000000  -0.1093240   0.1093240   0.1816330   0.0000000   0.0000000   0.0000000
 0.3000000  -2.5023900  -0.2976120   1.0011100   0.0000000   0.0000000   0.0000883  -0.0237231   0.0237231   0.0180266   0.0000000   0.0000000   0.0000000  -0.1058990   0.1058990   0.1841770   0.0000000   0.0000000   0.0000000
 0.3050000  -2.5025100  -0.2974920   1.0012000   0.0000000   0.0000000   0.0000900  -0.0242436   0.0242436   0.0189533   0.0000000   0.0000000   0.0000000  -0.1022240   0.1022240   0.1864710   0.0000000   0.0000000   0.0000000
 0.3100000  -2.5026300  -0.2973690   1.0013000   0.0000000   0.0000000   0.0000918  -0.0247450   0.0247450   0.0198909   0.0000000   0.0000000   0.0000000  -0.0982992   0.0982992   0.1885140   0.0000000   0.0000000   0.0000000
 0.3150000  -2.5027600  -0.2972440   1.0014000   0.0000000   0.0000000   0.0000935  -0.0252261   0.0252261   0.0208381   0.0000000   0.0000000   0.0000000  -0.0941243   0.0941243   0.1903080   0.0000000   0.0000000   0.0000000
 0.3200000  -2.5028800  -0.2971170   1.0015100   0.0000000   0.0000000   0.0000952  -0.0256858   0.0256858   0.0217936   0.0000000   0.0000000   0.0000000  -0.0896993   0.0896993   0.1918520   0.0000000   0.0000000   0.0000000
 0.3250000  -2.5030100  -0.2969880   1.0016200   0.0000000   0.0000000   0.0000970  -0.0261227   0.0261227   0.0227562   0.0000000   0.0000000   0.0000000  -0.0850244   0.0850244   0.1931460   0.0000000   0.0000000   0.0000000
 0.3300000  -2.5031400  -0.2968560   1.0017400   0.0000000   0.0000000   0.0000987  -0.0265356   0.0265356   0.0237246   0.0000000   0.0000000   0.0000000  -0.0800994   0.0800994   0.1941900   0.0000000   0.0000000   0.0000000
 0.3350000  -2.5032800  -0.2967220   1.0018600   0.0000000   0.0000000   0.0001004  -0.0269233   0.0269233   0.0246977   0.0000000   0.0000000   0.0000000  -0.0749245   0.0749245   0.1949840   0.0000000   0.0000000   0.0000000
 0.3400000  -2.5034100  -0.2965870   1.0019800   0.0000000   0.0000000   0.0001021  -0.0272845   0.0272845   0.0256741   0.0000000   0.0000000   0.0000000  -0.0694995   0.0694995   0.1955280   0.0000000   0.0000000   0.0000000
 0.3450000  -2.5035500  -0.2964490   1.0021200   0.0000000   0.0000000   0.0001039  -0.0276179   0.0276179   0.0266525   0.0000000   0.0000000   0.0000000  -0.0638470   0.0638470   0.1958220   0.0000000   0.0000000   0.0000000
 0.3500000  -2.5036900  -0.2963110   1.0022500   0.0000000   0.0000000   0.0001056  -0.0279232   0.0279232   0.0276319   0.0000000   0.0000000   0.0000000  -0.0583219   0.0583219   0.1958660   0.0000000   0.0000000   0.0000000
 0.3550000  -2.5038300  -0.2961700   1.0023900   0.0000000   0.0000000   0.0001073  -0.0282015   0.0282015   0.0286108   0.0000000   0.0000000   0.0000000  -0.0530468   0.0530468   0.1956600   0.0000000   0.0000000   0.0000000
 0.3600000  -2.5039700  -0.2960290   1.0025400   0.0000000   0.0000000   0.0001090  -0.0284541   0.0284541   0.0295884   0.0000000   0.0000000   0.0000000  -0.0480217   0.0480217   0.1954290   0.0000000   0.0000000   0.0000000
 0.3650000  -2.5041100  -0.2958860   1.0026300   0.0000000   0.0000000   0.0001108  -0.0286821   0.0286821   0.0301046   0.0000000   0.0000000   0.0000000  -0.0432466   0.0432466   0.1954070   0.0000000   0.0000000   0.0000000
 0.3700000  -2.5042600  -0.2957420   1.0026300   0.0000000   0.0000000   0.0001125  -0.0288870   0.0288870   0.0301046   0.0000000   0.0000000   0.0000000  -0.0387216   0.0387216   0.1954070   0.0000000   0.0000000   0.0000000
 0.3750000  -2.5044000  -0.2955970   1.0026300   0.0000000   0.0000000   0.0001142  -0.0290698   0.0290698   0.0301046   0.0000000   0.0000000   0.0000000  -0.0344465   0.0344465   0.1954070   0.0000000   0.0000000   0.0000000
 0.3800000  -2.5045500  -0.2954510   1.0026300   0.0000000   0.0000000   0.0001159  -0.0292318   0.0292318   0.0301046   0.0000000   0.0000000   0.0000000  -0.0304214   0.0304214   0.1954070   0.0000000   0.0000000   0.0000000
 0.3850000  -2.5047000  -0.2953050   1.0026300   0.0000000   0.0000000   0.0001177  -0.0293744   0.0293744   0.0301046   0.0000000   0.0000000   0.0000000  -0.0266463   0.0266463   0.1954070   0.0000000   0.0000000   0.0000000
 0.3900000  -2.5048400  -0.2951570   1.0026300   0.0000000   0.0000000   0.0001194  -0.0294987   0.0294987   0.0301046   0.0000000   0.0000000   0.0000000  -0.0231212   0.0231212   0.1954070   0.0000000   0.0000000   0.0000000
 0.3950000  -2.5049900  -0.2950100   1.0026300   0.0000000   0.0000000   0.0001211  -0.0296060   0.0296060   0.0301046   0.0000000   0.0000000   0.0000000  -0.0198461   0.0198461   0.1954070   0.0000000   0.0000000   0.0000000
 0.4000000  -2.5051400  -0.2948610   1.0026300   0.0000000   0.0000000   0.0001228  -0.0296976   0.0296976   0.0301046   0.0000000   0.0000000   0.0000000  -0.0168210   0.0168210   0.1954070   0.0000000   0.0000000   0.0000000
 0.4050000  -2.5052900  -0.2947130   1.0026300   0.0000000   0.0000000   0.0001246  -0.0297747   0.0297747   0.0301046   0.0000000   0.0000000   0.0000000  -0.0140459   0.0140459   0.1954070   0.0000000   0.0000000   0.0000000
 0.4100000  -2.5054400  -0.2945640   1.0026300   0.0000000   0.0000000   0.0001263  -0.0298385   0.0298385   0.0301046   0.0000000   0.0000000   0.0000000  -0.0115209   0.0115209   0.1954070   0.0000000   0.0000000   0.0000000
 0.4150000  -2.5055900  -0.2944140   1.0026300   0.0000000   0.0000000   0.0001280  -0.0298903   0.0298903   0.0301046   0.0000000   0.0000000   0.0000000  -0.0092458   0.0092458   0.1954070   0.0000000   0.0000000   0.0000000
 0.4200000  -2.5057400  -0.2942650   1.0026300   0.0000000   0.0000000   0.0001298  -0.0299314   0.0299314   0.0301046   0.0000000   0.0000000   0.0000000  -0.0072207   0.0072207   0.1954070   0.0000000   0.0000000   0.0000000
 0.4250000  -2.5058800  -0.2941150   1.0026300   0.0000000   0.0000000   0.0001315  -0.0299629   0.0299629   0.0301046   0.0000000   0.0000000   0.0000000  -0.0054456   0.0054456   0.1954070   0.0000000   0.0000000   0.0000000
 0.4300000  -2.5060300  -0.2939650   1.0026300   0.0000000   0.0000000   0.0001332  -0.0299862   0.0299862   0.0301046   0.0000000   0.0000000   0.0000000  -0.0039205   0.0039205   0.1954070   0.0000000   0.0000000   0.0000000
 0.4350000  -2.5061800  -0.2938150   1.0026300   0.0000000   0.0000000   0.0001349  -0.0300025   0.0300025   0.0301046   0.0000000   0.0000000   0.0000000  -0.0026454   0.0026454   0.1954070   0.0000000   0.0000000   0.0000000
 0.4400000  -2.5063300  -0.2936650   1.0026300   0.0000000   0.0000000   0.0001367  -0.0300131   0.0300131   0.0301046   0.0000000   0.0000000   0.0000000  -0.0016203   0.0016203   0.1954070   0.0000000   0.0000000   0.0000000
 0.4450000  -2.5064800  -0.2935150   1.0026300   0.0000000   0.0000000   0.0001384  -0.0300192   0.0300192   0.0301046   0.0000000   0.0000000   0.0000000  -0.0008452   0.0008452   0.1954070   0.0000000   0.0000000   0.0000000
 0.4500000  -2.5066400  -0.2933650   1.0026300   0.0000000   0.0000000   0.0001401  -0.0300220   0.0300220   0.0301046   0.0000000   0.0000000   0.0000000  -0.0003201   0.0003201   0.1954070   0.0000000   0.0000000   0.0000000
 0.4550000  -2.5067900  -0.2932150   1.0026300   0.0000000   0.0000000   0.0001418  -0.0300228   0.0300228   0.0301046   0.0000000   0.0000000   0.0000000  -0.0000451   0.0000451   0.1954070   0.0000000   0.0000000   0.0000000
 0.4600000  -2.5069400  -0.2930650   1.0026300   0.0000000   0.0000000   0.0001436  -0.0300228   0.0300228   0.0301046   0.0000000   0.0000000   0.0000000   0.0000184  -0.0000184   0.1954070   0.0000000   0.0000000   0.0000000
 0.4650000  -2.5070900  -0.2929150   1.0026300   0.0000000   0.0000000   0.0001453  -0.0300223   0.0300223   0.0301046   0.0000000   0.0000000   0.0000000   0.0002394  -0.0002394   0.1954070   0.0000000   0.0000000   0.0000000
 0.4700000  -2.5072400  -0.2927650   1.0026300   0.0000000   0.0000000   0.0001470  -0.0300200   0.0300200   0.0301046   0.0000000   0.0000000   0.0000000   0.0007104  -0.0007105   0.1954070   0.0000000   0.0000000   0.0000000
 0.4750000  -2.5073900  -0.2926140   1.0026300   0.0000000   0.0000000   0.0001487  -0.0300147   0.0300147   0.0301046   0.0000000   0.0000000   0.0000000   0.0014314  -0.0014315   0.1954070   0.0000000   0.0000000   0.0000000
 0.4800000  -2.5075400  -0.2924640   1.0026300   0.0000000   0.0000000   0.0001505  -0.0300053   0.0300053   0.0301046   0.0000000   0.0000000   0.0000000   0.0024024  -0.0024025   0.1954070   0.0000000   0.0000000   0.0000000
 0.4850000  -2.5076900  -0.2923140   1.0026300   0.0000000   0.0000000   0.0001522  -0.0299903   0.0299903   0.0301046   0.0000000   0.0000000   0.0000000   0.0036234  -0.0036235   0.1954070   0.0000000   0.0000000   0.0000000
 0.4900000  -2.5078400  -0.2921650   1.0026300   0.0000000   0.0000000   0.0001539  -0.0299686   0.0299686   0.0301046   0.0000000   0.0000000   0.0000000   0.0050944  -0.0050945   0.1954070   0.0000000   0.0000000   0.0000000
 0.4950000  -2.5079900  -0.2920150   1.0026300   0.0000000   0.0000000   0.0001556  -0.0299389   0.0299389   0.0301046   0.0000000   0.0000000   0.0000000   0.0068154  -0.0068155   0.1954070   0.0000000   0.0000000   0.0000000
 0.5000000  -2.5081300  -0.2918650   1.0026300   0.0000000   0.0000000   0.0001574  -0.0299000   0.0299000   0.0301046   0.0000000   0.0000000   0.0000000   0.0087864  -0.0087865   0.1954070   0.0000000   0.0000000   0.0000000
 0.5050000  -2.5082800  -0.2917160   1.0026300   0.0000000   0.0000000   0.0001591  -0.0298507   0.0298507   0.0301046   0.0000000   0.0000000   0.0000000   0.0110074  -0.0110075   0.1954070   0.0000000   0.0000000   0.0000000
 0.5100000  -2.5084300  -0.2915670   1.0026300   0.0000000   0.0000000   0.0001608  -0.0297896   0.0297896   0.0301046   0.0000000   0.0000000   0.0000000   0.0134784  -0.0134786   0.1954070   0.0000000   0.0000000   0.0000000
 0.5150000  -2.5085800  -0.2914180   1.0026300   0.0000000   0.0000000   0.0001626  -0.0297155   0.0297155   0.0301046   0.0000000   0.0000000   0.0000000   0.0161994  -0.0161996   0.1954070   0.0000000   0.0000000   0.0000000
 0.5200000  -2.5087300  -0.2912700   1.0026300   0.0000000   0.0000000   0.0001643  -0.0296271   0.0296271   0.0301046   0.0000000   0.0000000   0.0000000   0.0191704  -0.0191706   0.1954070   0.0000000   0.0000000   0.0000000
 0.5250000  -2.5088800  -0.2911220   1.0026300   0.0000000   0.0000000   0.0001660  -0.0295233   0.0295233   0.0301046   0.0000000   0.0000000   0.0000000   0.0223915  -0.0223916   0.1954070   0.0000000   0.0000000   0.0000000
 0.5300000  -2.5090300  -0.2909740   1.0026300   0.0000000   0.0000000   0.0001677  -0.0294028   0.0294028   0.0301046   0.0000000   0.0000000   0.0000000   0.0258625  -0.0258626   0.1954070   0.0000000   0.0000000   0.0000000
 0.5350000  -2.5091700  -0.2908280   1.0026300   0.0000000   0.0000000   0.0001695  -0.0292643   0.0292643   0.0301046   0.0000000   0.0000000   0.0000000   0.0295835  -0.0295836   0.1954070   0.0000000   0.0000000   0.0000000
 0.5400000  -2.5093200  -0.2906820   1.0026300   0.0000000   0.0000000   0.0001712  -0.0291066   0.0291066   0.0301046   0.0000000   0.0000000   0.0000000   0.0335545  -0.0335546   0.1954070   0.0000000   0.0000000   0.0000000
 0.5450000  -2.5094600  -0.2905370   1.0026300   0.0000000   0.0000000   0.0001729  -0.0289283   0.0289283   0.0301046   0.0000000   0.0000000   0.0000000   0.0377755  -0.0377756   0.1954070   0.0000000   0.0000000   0.0000000
 0.5500000  -2.5096100  -0.2903920   1.0026300   0.0000000   0.0000000   0.0001746  -0.0287284   0.0287284   0.0301046   0.0000000   0.0000000   0.0000000   0.0422465  -0.0422466   0.1954070   0.0000000   0.0000000   0.0000000
 0.5550000  -2.5097500  -0.2902490   1.0026300   0.0000000   0.0000000   0.0001764  -0.0285055   0.0285054   0.0301046   0.0000000   0.0000000   0.0000000   0.0469675  -0.0469677   0.1954070   0.0000000   0.0000000   0.0000000
 0.5600000  -2.5098900  -0.2901070   1.0026300   0.0000000   0.0000000   0.0001781  -0.0282583   0.0282583   0.0301046   0.0000000   0.0000000   0.0000000   0.0519385  -0.0519387   0.1954070   0.0000000   0.0000000   0.0000000
 0.5650000  -2.5100300  -0.2899670   1.0026300   0.0000000   0.0000000   0.0001798  -0.0279857   0.0279856   0.0301046   0.0000000   0.0000000   0.0000000   0.0571595  -0.0571597   0.1954070   0.0000000   0.0000000   0.0000000
 0.5700000  -2.5101700  -0.2898280   1.0026300   0.0000000   0.0000000   0.0001815  -0.0276863   0.0276863   0.0301046   0.0000000   0.0000000   0.0000000   0.0626305  -0.0626307   0.1954070   0.0000000   0.0000000   0.0000000
 0.5750000  -2.5103100  -0.2896900   1.0026300   0.0000000   0.0000000   0.0001833  -0.0273589   0.0273589   0.0301046   0.0000000   0.0000000   0.0000000   0.0683515  -0.0683517   0.1954070   0.0000000   0.0000000   0.0000000
 0.5800000  -2.5104500  -0.2895540   1.0026300   0.0000000   0.0000000   0.0001850  -0.0270024   0.0270023   0.0301046   0.0000000   0.0000000   0.0000000   0.0743225  -0.0743227   0.1954070   0.0000000   0.0000000   0.0000000
 0.5850000  -2.5105800  -0.2894200   1.0026300   0.0000000   0.0000000   0.0001867  -0.0266153   0.0266153   0.0301046   0.0000000   0.0000000   0.0000000   0.0805435  -0.0805437   0.1954070   0.0000000   0.0000000   0.0000000
 0.5900000  -2.5107100  -0.2892880   1.0026300   0.0000000   0.0000000   0.0001884  -0.0261965   0.0261965   0.0301046   0.0000000   0.0000000   0.0000000   0.0870145  -0.0870147   0.1954070   0.0000000   0.0000000   0.0000000
 0.5950000  -2.5108400  -0.2891580   1.0026300   0.0000000   0.0000000   0.0001902  -0.0257447   0.0257447   0.0301046   0.0000000   0.0000000   0.0000000   0.0937355  -0.0937357   0.1954070   0.0000000   0.0000000   0.0000000
 0.6000000  -2.5109700  -0.2890310   1.0026300   0.0000000   0.0000000   0.0001919  -0.0252587   0.0252587   0.0301046   0.0000000   0.0000000   0.0000000   0.1007060  -0.1007070   0.1954070   0.0000000   0.0000000   0.0000000
 0.6050000  -2.5110900  -0.2889060   1.0026300   0.0000000   0.0000000   0.0001936  -0.0247373   0.0247372   0.0301046   0.0000000   0.0000000   0.0000000   0.1079270  -0.1079280   0.1954070   0.0000000   0.0000000   0.0000000
 0.6100000  -2.5112200  -0.2887830   1.0026300   0.0000000   0.0000000   0.0001954  -0.0241790   0.0241790   0.0301046   0.0000000   0.0000000   0.0000000   0.1153980  -0.1153990   0.1954070   0.0000000   0.0000000   0.0000000
 0.6150000  -2.5113400  -0.2886640   1.0026300   0.0000000   0.0000000   0.0001971  -0.0235829   0.0235829   0.0301046   0.0000000   0.0000000   0.0000000   0.1230800  -0.1230810   0.1954070   0.0000000   0.0000000   0.0000000
 0.6200000  -2.5114500  -0.2885480   1.0026300   0.0000000   0.0000000   0.0001988  -0.0229486   0.0229485   0.0301046   0.0000000   0.0000000   0.0000000   0.1306030  -0.1306030   0.1954070   0.0000000   0.0000000   0.0000000
 0.6250000  -2.5115700  -0.2884340   1.0026300   0.0000000   0.0000000   0.0002005  -0.0222773   0.0222772   0.0301046   0.0000000   0.0000000   0.0000000   0.1378760  -0.1378760   0.1954070   0.0000000   0.0000000   0.0000000
 0.6300000  -2.5116800  -0.2883250   1.0026300   0.0000000   0.0000000   0.0002023  -0.0215702   0.0215702   0.0301046   0.0000000   0.0000000   0.0000000   0.1448990  -0.1448990   0.1954070   0.0000000   0.0000000   0.0000000
 0.6350000  -2.5117800  -0.2882190   1.0026300   0.0000000   0.0000000   0.0002040  -0.0208287   0.0208287   0.0301046   0.0000000   0.0000000   0.0000000   0.1516710  -0.1516720   0.1954070   0.0000000   0.0000000   0.0000000
 0.6400000  -2.5118800  -0.2881170   1.0026300   0.0000000   0.0000000   0.0002057  -0.0200539   0.0200539   0.0301046   0.0000000   0.0000000   0.0000000   0.1581940  -0.1581940   0.1954070   0.0000000   0.0000000   0.0000000
 0.6450000  -2.5119800  -0.2880180   1.0026300   0.0000000   0.0000000   0.0002074  -0.0192472   0.0192471   0.0301046   0.0000000   0.0000000   0.0000000   0.1644670  -0.1644670   0.1954070   0.0000000   0.0000000   0.0000000
 0.6500000  -2.5120800  -0.2879240   1.0026300   0.0000000   0.0000000   0.0002092  -0.0184097   0.0184096   0.0301046   0.0000000   0.0000000   0.0000000   0.1704900  -0.1704900   0.1954070   0.0000000   0.0000000   0.0000000
 0.6550000  -2.5121700  -0.2878340   1.0026300   0.0000000   0.0000000   0.0002109  -0.0175427   0.0175427   0.0301046   0.0000000   0.0000000   0.0000000   0.1762630  -0.1762630   0.1954070   0.0000000   0.0000000   0.0000000
 0.6600000  -2.5122500  -0.2877490   1.0026300   0.0000000   0.0000000   0.0002126  -0.0166475   0.0166474   0.0301046   0.0000000   0.0000000   0.0000000   0.1817850  -0.1817860   0.1954070   0.0000000   0.0000000   0.0000000
 0.6650000  -2.5123300  -0.2876680   1.0026300   0.0000000   0.0000000   0.0002143  -0.0157253   0.0157252   0.0301046   0.0000000   0.0000000   0.0000000   0.1870580  -0.1870580   0.1954070   0.0000000   0.0000000   0.0000000
 0.6700000  -2.5124100  -0.2875920   1.0026300   0.0000000   0.0000000   0.0002161  -0.0147773   0.0147773   0.0301046   0.0000000   0.0000000   0.0000000   0.1920810  -0.1920810   0.1954070   0.0000000   0.0000000   0.0000000
 0.6750000  -2.5124800  -0.2875200   1.0026300   0.0000000   0.0000000   0.0002178  -0.0138049   0.0138048   0.0301046   0.0000000   0.0000000   0.0000000   0.1968540  -0.1968540   0.1954070   0.0000000   0.0000000   0.0000000
 0.6800000  -2.5125500  -0.2874540   1.0026300   0.0000000   0.0000000   0.0002195  -0.0128092   0.0128091   0.0301046   0.0000000   0.0000000   0.0000000   0.2013770  -0.2013770   0.1954070   0.0000000   0.0000000   0.0000000
 0.6850000  -2.5126100  -0.2873920   1.0026300   0.0000000   0.0000000   0.0002212  -0.0117915   0.0117915   0.0301046   0.0000000   0.0000000   0.0000000   0.2056490  -0.2056500   0.1954070   0.0000000   0.0000000   0.0000000
 0.6900000  -2.5126600  -0.2873360   1.0026300   0.0000000   0.0000000   0.0002230  -0.0107531   0.0107531   0.0301046   0.0000000   0.0000000   0.0000000   0.2096720  -0.2096720   0.1954070   0.0000000   0.0000000   0.0000000
 0.6950000  -2.5127200  -0.2872850   1.0026300   0.0000000   0.0000000   0.0002247  -0.0096952   0.0096952   0.0301046   0.0000000   0.0000000   0.0000000   0.2134450  -0.2134450   0.1954070   0.0000000   0.0000000   0.0000000
 0.7000000  -2.5127600  -0.2872390   1.0026300   0.0000000   0.0000000   0.0002264  -0.0086191   0.0086190   0.0301046   0.0000000   0.0000000   0.0000000   0.2169680  -0.2169680   0.1954070   0.0000000   0.0000000   0.0000000
 0.7050000  -2.5128000  -0.2871980   1.0026300   0.0000000   0.0000000   0.0002282  -0.0075259   0.0075259   0.0301046   0.0000000   0.0000000   0.0000000   0.2202410  -0.2202410   0.1954070   0.0000000   0.0000000   0.0000000
 0.7100000  -2.5128400  -0.2871640   1.0026300   0.0000000   0.0000000   0.0002299  -0.0064171   0.0064170   0.0301046   0.0000000   0.0000000   0.0000000   0.2232630  -0.2232640   0.1954070   0.0000000   0.0000000   0.0000000
 0.7150000  -2.5128700  -0.2871340   1.0026300   0.0000000   0.0000000   0.0002316  -0.0052937   0.0052937   0.0301046   0.0000000   0.0000000   0.0000000   0.2260360  -0.2260360   0.1954070   0.0000000   0.0000000   0.0000000
 0.7200000  -2.5128900  -0.2871110   1.0026300   0.0000000   0.0000000   0.0002333  -0.0041571   0.0041571   0.0301046   0.0000000   0.0000000   0.0000000   0.2285590  -0.2285590   0.1954070   0.0000000   0.0000000   0.0000000
 0.7250000  -2.5129100  -0.2870930   1.0026300   0.0000000   0.0000000   0.0002351  -0.0030086   0.0030085   0.0301046   0.0000000   0.0000000   0.0000000   0.2308320  -0.2308320   0.1954070   0.0000000   0.0000000   0.0000000
 0.7300000  -2.5129200  -0.2870810   1.0026300   0.0000000   0.0000000   0.0002368  -0.0018492   0.0018492   0.0301046   0.0000000   0.0000000   0.0000000   0.2328550  -0.2328550   0.1954070   0.0000000   0.0000000   0.0000000
 0.7350000  -2.5129300  -0.2870740   1.0026300   0.0000000   0.0000000   0.0002385  -0.0006804   0.0006804   0.0301046   0.0000000   0.0000000   0.0000000   0.2346270  -0.2346280   0.1954070   0.0000000   0.0000000   0.0000000
 0.7400000  -2.5129300  -0.2870740   1.0026300   0.0000000   0.0000000   0.0002402   0.0004966  -0.0004967   0.0301046   0.0000000   0.0000000   0.0000000   0.2361500  -0.2361500   0.1954070   0.0000000   0.0000000   0.0000000
 0.7450000  -2.5129200  -0.2870790   1.0026300   0.0000000   0.0000000   0.0002420   0.0016807  -0.0016807   0.0301046   0.0000000   0.0000000   0.0000000   0.2374230  -0.2374230   0.1954070   0.0000000   0.0000000   0.0000000
 0.7500000  -2.5129100  -0.2870910   1.0026300   0.0000000   0.0000000   0.0002437   0.0028704  -0.0028705   0.0301046   0.0000000   0.0000000   0.0000000   0.2384460  -0.2384460   0.1954070   0.0000000   0.0000000   0.0000000
 0.7550000  -2.5128900  -0.2871080   1.0026300   0.0000000   0.0000000   0.0002454   0.0040647  -0.0040648   0.0301046   0.0000000   0.0000000   0.0000000   0.2392190  -0.2392190   0.1954070   0.0000000   0.0000000   0.0000000
 0.7600000  -2.5128700  -0.2871310   1.0026300   0.0000000   0.0000000   0.0002471   0.0052622  -0.0052623   0.0301046   0.0000000   0.0000000   0.0000000   0.2397410  -0.2397410   0.1954070   0.0000000   0.0000000   0.0000000
 0.7650000  -2.5128400  -0.2871610   1.0026300   0.0000000   0.0000000   0.0002489   0.0064617  -0.0064618   0.0301046   0.0000000   0.0000000   0.0000000   0.2400140  -0.2400140   0.1954070   0.0000000   0.0000000   0.0000000
 0.7700000  -2.5128000  -0.2871960   1.0026300   0.0000000   0.0000000   0.0002506   0.0076619  -0.0076620   0.0301046   0.0000000   0.0000000   0.0000000   0.2400370  -0.2400370   0.1954070   0.0000000   0.0000000   0.0000000
 0.7750000  -2.5127600  -0.2872370   1.0026300   0.0000000   0.0000000   0.0002523   0.0088617  -0.0088617   0.0301046   0.0000000   0.0000000   0.0000000   0.2398100  -0.2398100   0.1954070   0.0000000   0.0000000   0.0000000
 0.7800000  -2.5127200  -0.2872840   1.0026300   0.0000000   0.0000000   0.0002540   0.0100596  -0.0100597   0.0301046   0.0000000   0.0000000   0.0000000   0.2393330  -0.2393330   0.1954070   0.0000000   0.0000000   0.0000000
 0.7850000  -2.5126600  -0.2873380   1.0026300   0.0000000   0.0000000   0.0002558   0.0112546  -0.0112546   0.0301046   0.0000000   0.0000000   0.0000000   0.2386050  -0.2386050   0.1954070   0.0000000   0.0000000   0.0000000
 0.7900000  -2.5126000  -0.2873970   1.0026300   0.0000000   0.0000000   0.0002575   0.0124453  -0.0124453   0.0301046   0.0000000   0.0000000   0.0000000   0.2376280  -0.2376280   0.1954070   0.0000000   0.0000000   0.0000000
 0.7950000  -2.5125400  -0.2874620   1.0026300   0.0000000   0.0000000   0.0002592   0.0136304  -0.0136305   0.0301046   0.0000000   0.0000000   0.0000000   0.2364010  -0.2364010   0.1954070   0.0000000   0.0000000   0.0000000
 0.8000000  -2.5124700  -0.2875330   1.0026300   0.0000000   0.0000000   0.0002610   0.0148089  -0.0148089   0.0301046   0.0000000   0.0000000   0.0000000   0.2349240  -0.2349240   0.1954070   0.0000000   0.0000000   0.0000000
 0.8050000  -2.5123900  -0.2876100   1.0026300   0.0000000   0.0000000   0.0002627   0.0159793  -0.0159793   0.0301046   0.0000000   0.0000000   0.0000000   0.2331970  -0.2331970   0.1954070   0.0000000   0.0000000   0.0000000
 0.8100000  -2.5123100  -0.2876930   1.0026300   0.0000000   0.0000000   0.0002644   0.0171404  -0.0171405   0.0301046   0.0000000   0.0000000   0.0000000   0.2312190  -0.2312190   0.1954070   0.0000000   0.0000000   0.0000000
 0.8150000  -2.5122200  -0.2877820   1.0026300   0.0000000   0.0000000   0.0002661   0.0182910  -0.0182911   0.0301046   0.0000000   0.0000000   0.0000000   0.2289920  -0.2289920   0.1954070   0.0000000   0.0000000   0.0000000
 0.8200000  -2.5121200  -0.2878760   1.0026300   0.0000000   0.0000000   0.0002679   0.0194299  -0.0194300   0.0301046   0.0000000   0.0000000   0.0000000   0.2265150  -0.2265150   0.1954070   0.0000000   0.0000000   0.0000000
 0.8250000  -2.5120200  -0.2879760   1.0026300   0.0000000   0.0000000   0.0002696   0.0205558  -0.0205558   0.0301046   0.0000000   0.0000000   0.0000000   0.2237880  -0.2237880   0.1954070   0.0000000   0.0000000   0.0000000
 0.8300000  -2.5119200  -0.2880810   1.0026300   0.0000000   0.0000000   0.0002713   0.0216674  -0.0216674   0.0301046   0.0000000   0.0000000   0.0000000   0.2208110  -0.2208110   0.1954070   0.0000000   0.0000000   0.0000000
 0.8350000  -2.5118100  -0.2881930   1.0026300   0.0000000   0.0000000   0.0002730   0.0227635  -0.0227635   0.0301046   0.0000000   0.0000000   0.0000000   0.2175830  -0.2175830   0.1954070   0.0000000   0.0000000   0.0000000
 0.8400000  -2.5116900  -0.2883090   1.0026300   0.0000000   0.0000000   0.0002748   0.0238428  -0.0238428   0.0301046   0.0000000   0.0000000   0.0000000   0.2141060  -0.2141060   0.1954070   0.0000000   0.0000000   0.0000000
 0.8450000  -2.5115700  -0.2884310   1.0026300   0.0000000   0.0000000   0.0002765   0.0249041  -0.0249042   0.0301046   0.0000000   0.0000000   0.0000000   0.2103790  -0.2103790   0.1954070   0.0000000   0.0000000   0.0000000
 0.8500000  -2.5114400  -0.2885580   1.0026300   0.0000000   0.0000000   0.0002782   0.0259462  -0.0259462   0.0301046   0.0000000   0.0000000   0.0000000   0.2064020  -0.2064020   0.1954070   0.0000000   0.0000000   0.0000000
 0.8550000  -2.5113100  -0.2886900   1.0026300   0.0000000   0.0000000   0.0002799   0.0269677  -0.0269678   0.0301046   0.0000000   0.0000000   0.0000000   0.2021750  -0.2021750   0.1954070   0.0000000   0.0000000   0.0000000
 0.8600000  -2.5111700  -0.2888280   1.0026300   0.0000000   0.0000000   0.0002817   0.0279675  -0.0279675   0.0301046   0.0000000   0.0000000   0.0000000   0.1976970  -0.1976970   0.1954070   0.0000000   0.0000000   0.0000000
 0.8650000  -2.5110300  -0.2889700   1.0026300   0.0000000   0.0000000   0.0002834   0.0289443  -0.0289443   0.0301046   0.0000000   0.0000000   0.0000000   0.1929700  -0.1929700   0.1954070   0.0000000   0.0000000   0.0000000
 0.8700000  -2.5108800  -0.2891170   1.0026300   0.0000000   0.0000000   0.0002851   0.0298968  -0.0298968   0.0301046   0.0000000   0.0000000   0.0000000   0.1879930  -0.1879930   0.1954070   0.0000000   0.0000000   0.0000000
 0.8750000  -2.5107300  -0.2892690   1.0026300   0.0000000   0.0000000   0.0002869   0.0308238  -0.0308238   0.0301046   0.0000000   0.0000000   0.0000000   0.1827660  -0.1827660   0.1954070   0.0000000   0.0000000   0.0000000
 0.8800000  -2.5105700  -0.2894250   1.0026300   0.0000000   0.0000000   0.0002886   0.0317240  -0.0317241   0.0301046   0.0000000   0.0000000   0.0000000   0.1772890  -0.1772890   0.1954070   0.0000000   0.0000000   0.0000000
 0.8850000  -2.5104100  -0.2895860   1.0026300   0.0000000   0.0000000   0.0002903   0.0325962  -0.0325963   0.0301046   0.0000000   0.0000000   0.0000000   0.1715610  -0.1715610   0.1954070   0.0000000   0.0000000   0.0000000
 0.8900000  -2.5102500  -0.2897510   1.0026300   0.0000000   0.0000000   0.0002920   0.0334392  -0.0334393   0.0301046   0.0000000   0.0000000   0.0000000   0.1655840  -0.1655840   0.1954070   0.0000000   0.0000000   0.0000000
 0.8950000  -2.5100800  -0.2899200   1.0026300   0.0000000   0.0000000   0.0002938   0.0342517  -0.0342517   0.0301046   0.0000000   0.0000000   0.0000000   0.1593570  -0.1593570   0.1954070   0.0000000   0.0000000   0.0000000
 0.9000000  -2.5099100  -0.2900940   1.0026300   0.0000000   0.0000000   0.0002955   0.0350324  -0.0350324   0.0301046   0.0000000   0.0000000   0.0000000   0.1528800  -0.1528800   0.1954070   0.0000000   0.0000000   0.0000000
 0.9050000  -2.5097300  -0.2902710   1.0026300   0.0000000   0.0000000   0.0002972   0.0357801  -0.0357801   0.0301046   0.0000000   0.0000000   0.0000000   0.1461530  -0.1461520   0.1954070   0.0000000   0.0000000   0.0000000
 0.9100000  -2.5095500  -0.2904510   1.0026300   0.0000000   0.0000000   0.0002989   0.0364935  -0.0364935   0.0301046   0.0000000   0.0000000   0.0000000   0.1391750  -0.1391750   0.1954070   0.0000000   0.0000000   0.0000000
 0.9150000  -2.5093600  -0.2906360   1.0026300   0.0000000   0.0000000   0.0003007   0.0371714  -0.0371714   0.0301046   0.0000000   0.0000000   0.0000000   0.1319480  -0.1319480   0.1954070   0.0000000   0.0000000   0.0000000
 0.9200000  -2.5091800  -0.2908230   1.0026300   0.0000000   0.0000000   0.0003024   0.0378125  -0.0378126   0.0301046   0.0000000   0.0000000   0.0000000   0.1244710  -0.1244710   0.1954070   0.0000000   0.0000000   0.0000000
 0.9250000  -2.5089900  -0.2910140   1.0026300   0.0000000   0.0000000   0.0003041   0.0384157  -0.0384157   0.0301046   0.0000000   0.0000000   0.0000000   0.1167440  -0.1167440   0.1954070   0.0000000   0.0000000   0.0000000
 0.9300000  -2.5087900  -0.2912070   1.0026300   0.0000000   0.0000000   0.0003058   0.0389796  -0.0389796   0.0301046   0.0000000   0.0000000   0.0000000   0.1087670  -0.1087660   0.1954070   0.0000000   0.0000000   0.0000000
 0.9350000  -2.5086000  -0.2914030   1.0026300   0.0000000   0.0000000   0.0003076   0.0395029  -0.0395030   0.0301046   0.0000000   0.0000000   0.0000000   0.1005390  -0.1005390   0.1954070   0.0000000   0.0000000   0.0000000
 0.9400000  -2.5084000  -0.2916020   1.0026300   0.0000000   0.0000000   0.0003093   0.0399845  -0.0399846   0.0301046   0.0000000   0.0000000   0.0000000   0.0920623  -0.0920620   0.1954070   0.0000000   0.0000000   0.0000000
 0.9450000  -2.5082000  -0.2918030   1.0026300   0.0000000   0.0000000   0.0003110   0.0404231  -0.0404232   0.0301046   0.0000000   0.0000000   0.0000000   0.0833351  -0.0833348   0.1954070   0.0000000   0.0000000   0.0000000
 0.9500000  -2.5079900  -0.2920060   1.0026300   0.0000000   0.0000000   0.0003127   0.0408175  -0.0408175   0.0301046   0.0000000   0.0000000   0.0000000   0.0743579  -0.0743576   0.1954070   0.0000000   0.0000000   0.0000000
 0.9550000  -2.5077900  -0.2922110   1.0026300   0.0000000   0.0000000   0.0003145   0.0411663  -0.0411663   0.0301046   0.0000000   0.0000000   0.0000000   0.0651307  -0.0651304   0.1954070   0.0000000   0.0000000   0.0000000
 0.9600000  -2.5075800  -0.2924180   1.0026300   0.0000000   0.0000000   0.0003162   0.0414684  -0.0414684   0.0301046   0.0000000   0.0000000   0.0000000   0.0556535  -0.0556532   0.1954070   0.0000000   0.0000000   0.0000000
 0.9650000  -2.5073700  -0.2926260   1.0026300   0.0000000   0.0000000   0.0003179   0.0417224  -0.0417225   0.0301046   0.0000000   0.0000000   0.0000000   0.0459263  -0.0459260   0.1954070   0.0000000   0.0000000   0.0000000
 0.9700000  -2.5071600  -0.2928350   1.0026300   0.0000000   0.0000000   0.0003196   0.0419272  -0.0419272   0.0301046   0.0000000   0.0000000   0.0000000   0.0359491  -0.0359488   0.1954070   0.0000000   0.0000000   0.0000000
 0.9750000  -2.5069500  -0.2930450   1.0026300   0.0000000   0.0000000   0.0003214   0.0420815  -0.0420815   0.0301046   0.0000000   0.0000000   0.0000000   0.0257219  -0.0257216   0.1954070   0.0000000   0.0000000   0.0000000
 0.9800000  -2.5067400  -0.2932560   1.0026300   0.0000000   0.0000000   0.0003231   0.0421840  -0.0421840   0.0301046   0.0000000   0.0000000   0.0000000   0.0152447  -0.0152444   0.1954070   0.0000000   0.0000000   0.0000000
 0.9850000  -2.5065300  -0.2934670   1.0026300   0.0000000   0.0000000   0.0003248   0.0422335  -0.0422336   0.0301046   0.0000000   0.0000000   0.0000000   0.0045175  -0.0045172   0.1954070   0.0000000   0.0000000   0.0000000
 0.9900000  -2.5063200  -0.2936780   1.0026300   0.0000000   0.0000000   0.0003266   0.0422288  -0.0422288   0.0301046   0.0000000   0.0000000   0.0000000  -0.0064597   0.0064600   0.1954070   0.0000000   0.0000000   0.0000000
 0.9950000  -2.5061100  -0.2938890   1.0026300   0.0000000   0.0000000   0.0003283   0.0421685  -0.0421685   0.0301046   0.0000000   0.0000000   0.0000000  -0.0176869   0.0176873   0.1954070   0.0000000   0.0000000   0.0000000
 1.0000000  -2.5059000  -0.2941000   1.0026300   0.0000000   0.0000000   0.0003300   0.0420515  -0.0420515   0.0301046   0.0000000   0.0000000   0.0000000  -0.0291641   0.0291645   0.1954070   0.0000000   0.0000000   0.0000000
 1.0050000  -2.5056900  -0.2943090   1.0026300   0.0000000   0.0000000   0.0003317   0.0418765  -0.0418765   0.0301046   0.0000000   0.0000000   0.0000000  -0.0408913   0.0408917   0.1954070   0.0000000   0.0000000   0.0000000
 1.0100000  -2.5054800  -0.2945180   1.0026300   0.0000000   0.0000000   0.0003335   0.0416422  -0.0416422   0.0301046   0.0000000   0.0000000   0.0000000  -0.0528685   0.0528689   0.1954070   0.0000000   0.0000000   0.0000000
 1.0150000  -2.5052700  -0.2947260   1.0026300   0.0000000   0.0000000   0.0003352   0.0413474  -0.0413474   0.0301046   0.0000000   0.0000000   0.0000000  -0.0650957   0.0650961   0.1954070   0.0000000   0.0000000   0.0000000
 1.0200000  -2.5050700  -0.2949320   1.0026300   0.0000000   0.0000000   0.0003369   0.0409908  -0.0409908   0.0301046   0.0000000   0.0000000   0.0000000  -0.0775729   0.0775733   0.1954070   0.0000000   0.0000000   0.0000000
 1.0250000  -2.5048600  -0.2951360   1.0026300   0.0000000   0.0000000   0.0003386   0.0405712  -0.0405712   0.0301046   0.0000000   0.0000000   0.0000000  -0.0903001   0.0903005   0.1954070   0.0000000   0.0000000   0.0000000
 1.0300000  -2.5046600  -0.2953370   1.0026300   0.0000000   0.0000000   0.0003404   0.0400875  -0.0400875   0.0301046   0.0000000   0.0000000   0.0000000  -0.1031840   0.1031840   0.1954070   0.0000000   0.0000000   0.0000000
 1.0350000  -2.5044600  -0.2955360   1.0026300   0.0000000   0.0000000   0.0003421   0.0395398  -0.0395398   0.0301046   0.0000000   0.0000000   0.0000000  -0.1158550   0.1158560   0.1954070   0.0000000   0.0000000   0.0000000
 1.0400000  -2.5042700  -0.2957330   1.0026300   0.0000000   0.0000000   0.0003438   0.0389293  -0.0389293   0.0301046   0.0000000   0.0000000   0.0000000  -0.1282770   0.1282770   0.1954070   0.0000000   0.0000000   0.0000000
 1.0450000  -2.5040700  -0.2959260   1.0026300   0.0000000   0.0000000   0.0003455   0.0382574  -0.0382574   0.0301046   0.0000000   0.0000000   0.0000000  -0.1404490   0.1404490   0.1954070   0.0000000   0.0000000   0.0000000
 1.0500000  -2.5038800  -0.2961150   1.0026300   0.0000000   0.0000000   0.0003473   0.0375253  -0.0375253   0.0301046   0.0000000   0.0000000   0.0000000  -0.1523700   0.1523710   0.1954070   0.0000000   0.0000000   0.0000000
 1.0550000  -2.5037000  -0.2963010   1.0026300   0.0000000   0.0000000   0.0003490   0.0367341  -0.0367341   0.0301046   0.0000000   0.0000000   0.0000000  -0.1640420   0.1640420   0.1954070   0.0000000   0.0000000   0.0000000
 1.0600000  -2.5035200  -0.2964820   1.0026300   0.0000000   0.0000000   0.0003507   0.0358853  -0.0358853   0.0301046   0.0000000   0.0000000   0.0000000  -0.1754630   0.1754640   0.1954070   0.0000000   0.0000000   0.0000000
 1.0650000  -2.5033400  -0.2966590   1.0026300   0.0000000   0.0000000   0.0003525   0.0349799  -0.0349799   0.0301046   0.0000000   0.0000000   0.0000000  -0.1866350   0.1866350   0.1954070   0.0000000   0.0000000   0.0000000
 1.0700000  -2.5031700  -0.2968320   1.0026300   0.0000000   0.0000000   0.0003542   0.0340193  -0.0340193   0.0301046   0.0000000   0.0000000   0.0000000  -0.1975560   0.1975570   0.1954070   0.0000000   0.0000000   0.0000000
 1.0750000  -2.5030000  -0.2970000   1.0026300   0.0000000   0.0000000   0.0003559   0.0330048  -0.0330048   0.0301046   0.0000000   0.0000000   0.0000000  -0.2082280   0.2082280   0.1954070   0.0000000   0.0000000   0.0000000
 1.0800000  -2.5028400  -0.2971620   1.0026300   0.0000000   0.0000000   0.0003576   0.0319375  -0.0319375   0.0301046   0.0000000   0.0000000   0.0000000  -0.2186500   0.2186500   0.1954070   0.0000000   0.0000000   0.0000000
 1.0850000  -2.5026800  -0.2973190   1.0026300   0.0000000   0.0000000   0.0003594   0.0308187  -0.0308187   0.0301046   0.0000000   0.0000000   0.0000000  -0.2288210   0.2288210   0.1954070   0.0000000   0.0000000   0.0000000
 1.0900000  -2.5025300  -0.2974700   1.0026300   0.0000000   0.0000000   0.0003611   0.0296497  -0.0296497   0.0301046   0.0000000   0.0000000   0.0000000  -0.2387430   0.2387430   0.1954070   0.0000000   0.0000000   0.0000000
 1.0950000  -2.5023800  -0.2976150   1.0026300   0.0000000   0.0000000   0.0003628   0.0284317  -0.0284317   0.0301046   0.0000000   0.0000000   0.0000000  -0.2484140   0.2484150   0.1954070   0.0000000   0.0000000   0.0000000
 1.1000000  -2.5022500  -0.2977540   1.0026300   0.0000000   0.0000000   0.0003646   0.0271659  -0.0271659   0.0301046   0.0000000   0.0000000   0.0000000  -0.2578360   0.2578360   0.1954070   0.0000000   0.0000000   0.0000000
 1.1050000  -2.5021100  -0.2978870   1.0026300   0.0000000   0.0000000   0.0003664   0.0258537  -0.0258537   0.0301046   0.0000000   0.0000000   0.0000000  -0.2670070   0.2670080   0.1954070   0.0000000   0.0000000   0.0000000
 1.1100000  -2.5019900  -0.2980130   1.0026300   0.0000000   0.0000000   0.0003684   0.0244963  -0.0244963   0.0301046   0.0000000   0.0000000   0.0000000  -0.2759290   0.2759290   0.1954070   0.0000000   0.0000000   0.0000000
 1.1150000  -2.5018700  -0.2981320   1.0026300   0.0000000   0.0000000   0.0003704   0.0230949  -0.0230948   0.0301046   0.0000000   0.0000000   0.0000000  -0.2846000   0.2846010   0.1954070   0.0000000   0.0000000   0.0000000
 1.1200000  -2.5017600  -0.2982440   1.0026300   0.0000000   0.0000000   0.0003727   0.0216507  -0.0216507   0.0301046   0.0000000   0.0000000   0.0000000  -0.2930220   0.2930220   0.1954070   0.0000000   0.0000000   0.0000000
 1.1250000  -2.5016500  -0.2983480   1.0026300   0.0000000   0.0000000   0.0003753   0.0201651  -0.0201650   0.0301046   0.0000000   0.0000000   0.0000000  -0.3011940   0.3011940   0.1954070   0.0000000   0.0000000   0.0000000
 1.1300000  -2.5015500  -0.2984450   1.0026300   0.0000000   0.0000000   0.0003782   0.0186392  -0.0186392   0.0301046   0.0000000   0.0000000   0.0000000  -0.3091150   0.3091150   0.1954070   0.0000000   0.0000000   0.0000000
 1.1350000  -2.5014700  -0.2985340   1.0026300   0.0000000   0.0000000   0.0003816   0.0170743  -0.0170743   0.0301046   0.0000000   0.0000000   0.0000000  -0.3167870   0.3167870   0.1954070   0.0000000   0.0000000   0.0000000
 1.1400000  -2.5013800  -0.2986160   1.0026300   0.0000000   0.0000000   0.0003855   0.0154717  -0.0154717   0.0301046   0.0000000   0.0000000   0.0000000  -0.3242080   0.3242090   0.1954070   0.0000000   0.0000000   0.0000000
 1.1450000  -2.5013100  -0.2986890   1.0026300   0.0000000   0.0000000   0.0003901   0.0138327  -0.0138326   0.0301046   0.0000000   0.0000000   0.0000000  -0.3313800   0.3313800   0.1954070   0.0000000   0.0000000   0.0000000
 1.1500000  -2.5012500  -0.2987540   1.0026300   0.0000000   0.0000000   0.0003953   0.0121584  -0.0121583   0.0301046   0.0000000   0.0000000   0.0000000  -0.3383010   0.3383020   0.1954070   0.0000000   0.0000000   0.0000000
 1.1550000  -2.5011900  -0.2988110   1.0026300   0.0000000   0.0000000   0.0004014   0.0104501  -0.0104500   0.0301046   0.0000000   0.0000000   0.0000000  -0.3449730   0.3449730   0.1954070   0.0000000   0.0000000   0.0000000
 1.1600000  -2.5011400  -0.2988590   1.0026300   0.0000000   0.0000000   0.0004083   0.0087090  -0.0087090   0.0301046   0.0000000   0.0000000   0.0000000  -0.3513950   0.3513950   0.1954070   0.0000000   0.0000000   0.0000000
 1.1650000  -2.5011000  -0.2988980   1.0026300   0.0000000   0.0000000   0.0004162   0.0069365  -0.0069365   0.0301046   0.0000000   0.0000000   0.0000000  -0.3575660   0.3575660   0.1954070   0.0000000   0.0000000   0.0000000
 1.1700000  -2.5010700  -0.2989280   1.0026300   0.0000000   0.0000000   0.0004249   0.0051338  -0.0051338   0.0301046   0.0000000   0.0000000   0.0000000  -0.3634880   0.3634880   0.1954070   0.0000000   0.0000000   0.0000000
 1.1750000  -2.5010500  -0.2989490   1.0026300   0.0000000   0.0000000   0.0004347   0.0033021  -0.0033020   0.0301046   0.0000000   0.0000000   0.0000000  -0.3691590   0.3691590   0.1954070   0.0000000   0.0000000   0.0000000
 1.1800000  -2.5010400  -0.2989610   1.0026300   0.0000000   0.0000000   0.0004455   0.0014426  -0.0014426   0.0301046   0.0000000   0.0000000   0.0000000  -0.3745810   0.3745810   0.1954070   0.0000000   0.0000000   0.0000000
 1.1850000  -2.5010400  -0.2989630   1.0026300   0.0000000   0.0000000   0.0004573  -0.0004433   0.0004434   0.0301046   0.0000000   0.0000000   0.0000000  -0.3797520   0.3797530   0.1954070   0.0000000   0.0000000   0.0000000
 1.1900000  -2.5010400  -0.2989560   1.0026300   0.0000000   0.0000000   0.0004701  -0.0023545   0.0023545   0.0301046   0.0000000   0.0000000   0.0000000  -0.3846740   0.3846740   0.1954070   0.0000000   0.0000000   0.0000000
 1.1950000  -2.5010600  -0.2989400   1.0026300   0.0000000   0.0000000   0.0004840  -0.0042896   0.0042897   0.0301046   0.0000000   0.0000000   0.0000000  -0.3893450   0.3893460   0.1954070   0.0000000   0.0000000   0.0000000
 1.2000000  -2.5010900  -0.2989130   1.0026300   0.0000000   0.0000000   0.0004988  -0.0062475   0.0062476   0.0301046   0.0000000   0.0000000   0.0000000  -0.3937670   0.3937670   0.1954070   0.0000000   0.0000000   0.0000000
 1.2050000  -2.5011200  -0.2988770   1.0026300   0.0000000   0.0000000   0.0005146  -0.0082269   0.0082269   0.0301046   0.0000000   0.0000000   0.0000000  -0.3979390   0.3979390   0.1954070   0.0000000   0.0000000   0.0000000
 1.2100000  -2.5011700  -0.2988310   1.0026300   0.0000000   0.0000000   0.0005314  -0.0102265   0.0102265   0.0301046   0.0000000   0.0000000   0.0000000  -0.4018600   0.4018600   0.1954070   0.0000000   0.0000000   0.0000000
 1.2150000  -2.5012300  -0.2987750   1.0026300   0.0000000   0.0000000   0.0005490  -0.0122451   0.0122451   0.0301046   0.0000000   0.0000000   0.0000000  -0.4055320   0.4055320   0.1954070   0.0000000   0.0000000   0.0000000
 1.2200000  -2.5012900  -0.2987090   1.0026300   0.0000000   0.0000000   0.0005675  -0.0142814   0.0142814   0.0301046   0.0000000   0.0000000   0.0000000  -0.4089530   0.4089530   0.1954070   0.0000000   0.0000000   0.0000000
 1.2250000  -2.5013700  -0.2986320   1.0026300   0.0000000   0.0000000   0.0005867  -0.0163342   0.0163342   0.0301046   0.0000000   0.0000000   0.0000000  -0.4121250   0.4121250   0.1954070   0.0000000   0.0000000   0.0000000
 1.2300000  -2.5014500  -0.2985450   1.0026300   0.0000000   0.0000000   0.0006066  -0.0184022   0.0184023   0.0301046   0.0000000   0.0000000   0.0000000  -0.4150460   0.4150470   0.1954070   0.0000000   0.0000000   0.0000000
 1.2350000  -2.5015500  -0.2984480   1.0026300   0.0000000   0.0000000   0.0006272  -0.0204842   0.0204843   0.0301046   0.0000000   0.0000000   0.0000000  -0.4177180   0.4177180   0.1954070   0.0000000   0.0000000   0.0000000
 1.2400000  -2.5016600  -0.2983400   1.0026300   0.0000000   0.0000000   0.0006482  -0.0225790   0.0225790   0.0301046   0.0000000   0.0000000   0.0000000  -0.4201400   0.4201400   0.1954070   0.0000000   0.0000000   0.0000000
 1.2450000  -2.5017800  -0.2982220   1.0026300   0.0000000   0.0000000   0.0006697  -0.0246852   0.0246853   0.0301046   0.0000000   0.0000000   0.0000000  -0.4223110   0.4223110   0.1954070   0.0000000   0.0000000   0.0000000
 1.2500000  -2.5019100  -0.2980940   1.0026300   0.0000000   0.0000000   0.0006914  -0.0268017   0.0268017   0.0301046   0.0000000   0.0000000   0.0000000  -0.4242330   0.4242330   0.1954070   0.0000000   0.0000000   0.0000000
 1.2550000  -2.5020500  -0.2979540   1.0026300   0.0000000   0.0000000   0.0007135  -0.0289271   0.0289272   0.0301046   0.0000000   0.0000000   0.0000000  -0.4259040   0.4259040   0.1954070   0.0000000   0.0000000   0.0000000
 1.2600000  -2.5022000  -0.2978040   1.0026300   0.0000000   0.0000000   0.0007357  -0.0310603   0.0310604   0.0301046   0.0000000   0.0000000   0.0000000  -0.4273260   0.4273260   0.1954070   0.0000000   0.0000000   0.0000000
 1.2650000  -2.5023600  -0.2976440   1.0026300   0.0000000   0.0000000   0.0007580  -0.0332000   0.0332000   0.0301046   0.0000000   0.0000000   0.0000000  -0.4284970   0.4284970   0.1954070   0.0000000   0.0000000   0.0000000
 1.2700000  -2.5025300  -0.2974720   1.0026300   0.0000000   0.0000000   0.0007804  -0.0353449   0.0353449   0.0301046   0.0000000   0.0000000   0.0000000  -0.4294190   0.4294190   0.1954070   0.0000000   0.0000000   0.0000000
 1.2750000  -2.5027100  -0.2972900   1.0026300   0.0000000   0.0000000   0.0008029  -0.0374937   0.0374938   0.0301046   0.0000000   0.0000000   0.0000000  -0.4300900   0.4300910   0.1954070   0.0000000   0.0000000   0.0000000
 1.2800000  -2.5029000  -0.2970970   1.0026300   0.0000000   0.0000000   0.0008254  -0.0396454   0.0396454   0.0301046   0.0000000   0.0000000   0.0000000  -0.4305120   0.4305120   0.1954070   0.0000000   0.0000000   0.0000000
 1.2850000  -2.5031100  -0.2968940   1.0026300   0.0000000   0.0000000   0.0008478  -0.0417984   0.0417985   0.0301046   0.0000000   0.0000000   0.0000000  -0.4306840   0.4306840   0.1954070   0.0000000   0.0000000   0.0000000
 1.2900000  -2.5030900  -0.2969080   1.0026300   0.0000000   0.0000000   0.0008455  -0.0421345   0.0421345   0.0301046   0.0000000   0.0000000   0.0000000  -0.4306880   0.4306880   0.1954070   0.0000000   0.0000000   0.0000000
 1.2950000  -2.5033100  -0.2966920   1.0027800   0.0000000   0.0000000   0.0008677  -0.0442877   0.0442881   0.0310819   0.0000000   0.0000000   0.0000000  -0.4305630   0.4308130   0.1955320   0.0000000   0.0000000   0.0000000
 1.3000000  -2.5035300  -0.2964660   1.0029400   0.0000000   0.0000000   0.0008900  -0.0464397   0.0464430   0.0320604   0.0000000   0.0000000   0.0000000  -0.4301880   0.4311880   0.1959070   0.0000000   0.0000000   0.0000000
 1.3050000  -2.5037700  -0.2962280   1.0031000   0.0000000   0.0000000   0.0009122  -0.0485892   0.0486004   0.0330414   0.0000000   0.0000000   0.0000000  -0.4295630   0.4318130   0.1965320   0.0000000   0.0000000   0.0000000
 1.3100000  -2.5040200  -0.2959800   1.0032700   0.0000000   0.0000000   0.0009344  -0.0507349   0.0507616   0.0340261   0.0000000   0.0000000   0.0000000  -0.4286880   0.4326880   0.1974070   0.0000000   0.0000000   0.0000000
 1.3150000  -2.5042800  -0.2957200   1.0034400   0.0000000   0.0000000   0.0009566  -0.0528757   0.0529277   0.0350156   0.0000000   0.0000000   0.0000000  -0.4275630   0.4338130   0.1983640   0.0000000   0.0000000   0.0000000
