ts x y z roll pitch yaw vx vy vz wx wy wz ax ay az dwx dwy dwz jx jy jz ddwx ddwy ddwz
1702990812.250751000  -2.5  -0.3  1  0  0  -0.04  2e-07  -2e-07  -2e-07  0  0  0  0.000125  -0.000125  -0.000125  0  0  0  0  0  0  0  0  0 
1702990812.255736000  -2.5  -0.3  1  0  0  -0.04  1.7e-06  -1.7e-06  -1.7e-06  0  0  0  0.0005  -0.0005  -0.0005  0  0  0  0  0  0  0  0  0 
1702990812.260757000  -2.5  -0.3  1  0  0  -0.04  5.6e-06  -5.6e-06  -5.6e-06  0  0  0  0.001125  -0.001125  -0.001125  0  0  0  0  0  0  0  0  0 
1702990812.265736000  -2.5  -0.3  1  0  0  -0.0399999  1.33e-05  -1.33e-05  -1.33e-05  0  0  0  0.002  -0.002  -0.002  0  0  0  0  0  0  0  0  0 
1702990812.270750000  -2.5  -0.3  1  0  0  -0.0399997  2.6e-05  -2.6e-05  -2.6e-05  0  0  0  0.003125  -0.003125  -0.003125  0  0  0  0  0  0  0  0  0 
1702990812.275738000  -2.5  -0.3  1  0  0  -0.0399995  4.5e-05  -4.5e-05  -4.5e-05  0  0  0  0.0045  -0.0045  -0.0045  0  0  0  0  0  0  0  0  0 
1702990812.280738000  -2.5  -0.300001  0.999999  0  0  -0.039999  7.15e-05  -7.15e-05  -7.15e-05  0  0  0  0.006125  -0.006125  -0.006125  0  0  0  0  0  0  0  0  0 
1702990812.285735000  -2.5  -0.300001  0.999999  0  0  -0.0399983  0.0001067  -0.0001067  -0.0001067  0  0  0  0.008  -0.008  -0.008  0  0  0  0  0  0  0  0  0 
1702990812.290737000  -2.5  -0.300002  0.999998  0  0  -0.0399973  0.0001519  -0.0001519  -0.0001519  0  0  0  0.010125  -0.010125  -0.010125  0  0  0  0  0  0  0  0  0 
1702990812.295762000  -2.5  -0.300003  0.999997  0  0  -0.0399958  0.0002083  -0.0002083  -0.0002083  0  0  0  0.0125  -0.0125  -0.0125  0  0  0  0  0  0  0  0  0 
1702990812.300753000  -2.5  -0.300004  0.999996  0  0  -0.0399939  0.0002773  -0.0002773  -0.0002773  0  0  0  0.015125  -0.015125  -0.015125  0  0  0  0  0  0  0  0  0 
1702990812.305751000  -2.49999  -0.300005  0.999995  0  0  -0.0399914  0.00036  -0.00036  -0.00036  0  0  0  0.018  -0.018  -0.018  0  0  0  0  0  0  0  0  0 
1702990812.310753000  -2.49999  -0.300007  0.999993  0  0  -0.0399881  0.0004577  -0.0004577  -0.0004577  0  0  0  0.021125  -0.021125  -0.021125  0  0  0  0  0  0  0  0  0 
1702990812.315749000  -2.49999  -0.30001  0.99999  0  0  -0.039984  0.0005717  -0.0005717  -0.0005717  0  0  0  0.0245  -0.0245  -0.0245  0  0  0  0  0  0  0  0  0 
1702990812.320760000  -2.49999  -0.300013  0.999987  0  0  -0.0399789  0.0007031  -0.0007031  -0.0007031  0  0  0  0.028125  -0.028125  -0.028125  0  0  0  0  0  0  0  0  0 
1702990812.325735000  -2.49998  -0.300017  0.999983  0  0  -0.0399727  0.0008533  -0.0008533  -0.0008533  0  0  0  0.032  -0.032  -0.032  0  0  0  0  0  0  0  0  0 
1702990812.330762000  -2.49998  -0.300022  0.999978  0  0  -0.0399652  0.0010235  -0.0010235  -0.0010235  0  0  0  0.036125  -0.036125  -0.036125  0  0  0  0  0  0  0  0  0 
1702990812.335738000  -2.49997  -0.300027  0.999973  0  0  -0.0399563  0.001215  -0.001215  -0.001215  0  0  0  0.0405  -0.0405  -0.0405  0  0  0  0  0  0  0  0  0 
1702990812.340754000  -2.49997  -0.300034  0.999966  0  0  -0.0399457  0.001429  -0.001429  -0.001429  0  0  0  0.045125  -0.045125  -0.045125  0  0  0  0  0  0  0  0  0 
1702990812.345736000  -2.49996  -0.300042  0.999958  0  0  -0.0399333  0.0016667  -0.0016667  -0.0016667  0  0  0  0.05  -0.05  -0.05  0  0  0  0  0  0  0  0  0 
1702990812.350745000  -2.49995  -0.300051  0.999949  0  0  -0.039919  0.0019294  -0.0019294  -0.0019294  0  0  0  0.055125  -0.055125  -0.055125  0  0  0  0  0  0  0  0  0 
1702990812.355756000  -2.49994  -0.300061  0.999939  0  0  -0.0399024  0.0022183  -0.0022183  -0.0022183  0  0  0  0.0605  -0.0605  -0.0605  0  0  0  0  0  0  0  0  0 
1702990812.360738000  -2.49993  -0.300073  0.999927  0  0  -0.0398835  0.0025348  -0.0025348  -0.0025348  0  0  0  0.066125  -0.066125  -0.066125  0  0  0  0  0  0  0  0  0 
1702990812.365752000  -2.49991  -0.300086  0.999914  0  0  -0.0398619  0.00288  -0.00288  -0.00288  0  0  0  0.072  -0.072  -0.072  0  0  0  0  0  0  0  0  0 
1702990812.370743000  -2.4999  -0.300102  0.999898  0  0  -0.0398377  0.0032552  -0.0032552  -0.0032552  0  0  0  0.078125  -0.0781244  -0.078125  0  0  0  0  0  0  0  0  0 
1702990812.375735000  -2.49988  -0.300119  0.999881  0  0  -0.0398106  0.0036617  -0.0036612  -0.0036617  0  0  0  0.0845  -0.084225  -0.0845  0  0  0  0  0  0  0  0  0 
1702990812.380757000  -2.49986  -0.300138  0.999862  0  0  -0.0397804  0.0041006  -0.004097  -0.0041006  0  0  0  0.091125  -0.0900755  -0.091125  0  0  0  0  0  0  0  0  0 
1702990812.385746000  -2.49984  -0.30016  0.99984  0  0  -0.039747  0.0045733  -0.0045615  -0.0045733  0  0  0  0.098  -0.0956761  -0.098  0  0  0  0  0  0  0  0  0 
1702990812.390736000  -2.49982  -0.300184  0.999816  0  0  -0.0397104  0.005081  -0.0050534  -0.005081  0  0  0  0.105125  -0.101027  -0.105125  0  0  0  0  0  0  0  0  0 
1702990812.395747000  -2.49979  -0.300211  0.999789  0  0  -0.0396703  0.005625  -0.0055714  -0.005625  0  0  0  0.1125  -0.106127  -0.1125  0  0  0  0  0  0  0  0  0 
1702990812.400747000  -2.49976  -0.30024  0.999759  0  0  -0.0396267  0.0062065  -0.0061142  -0.0062065  0  0  0  0.120125  -0.110978  -0.120125  0  0  0  0  0  0  0  0  0 
1702990812.405737000  -2.49973  -0.300272  0.999727  0  0  -0.0395795  0.0068267  -0.0066807  -0.0068267  0  0  0  0.128  -0.115578  -0.128  0  0  0  0  0  0  0  0  0 
1702990812.410737000  -2.49969  -0.300307  0.999691  0  0  -0.0395285  0.0074869  -0.0072696  -0.0074869  0  0  0  0.136125  -0.119929  -0.136125  0  0  0  0  0  0  0  0  0 
1702990812.415739000  -2.49965  -0.300345  0.999652  0  0  -0.0394738  0.0081883  -0.0078796  -0.0081883  0  0  0  0.1445  -0.124029  -0.1445  0  0  0  0  0  0  0  0  0 
1702990812.420749000  -2.49961  -0.300385  0.999609  0  0  -0.0394151  0.0089323  -0.0085095  -0.0089323  0  0  0  0.153125  -0.12788  -0.153125  0  0  0  0  0  0  0  0  0 
1702990812.425738000  -2.49956  -0.30043  0.999563  0  0  -0.0393526  0.00972  -0.009158  -0.00972  0  0  0  0.162  -0.131481  -0.162  0  0  0  0  0  0  0  0  0 
1702990812.430754000  -2.49951  -0.300477  0.999512  0  0  -0.0392861  0.0105527  -0.0098239  -0.0105527  0  0  0  0.171125  -0.134831  -0.171125  0  0  0  0  0  0  0  0  0 
1702990812.435735000  -2.49946  -0.300528  0.999457  0  0  -0.0392156  0.0114317  -0.0105059  -0.0114317  0  0  0  0.1805  -0.137932  -0.1805  0  0  0  0  0  0  0  0  0 
1702990812.440763000  -2.4994  -0.300582  0.999398  0  0  -0.039141  0.0123581  -0.0112028  -0.0123581  0  0  0  0.190125  -0.140782  -0.190125  0  0  0  0  0  0  0  0  0 
1702990812.445739000  -2.49933  -0.30064  0.999333  0  0  -0.0390624  0.0133333  -0.0119133  -0.0133333  0  0  0  0.2  -0.143383  -0.2  0  0  0  0  0  0  0  0  0 
1702990812.450761000  -2.49926  -0.300701  0.999264  0  0  -0.0389797  0.0143585  -0.0126362  -0.0143585  0  0  0  0.210125  -0.145733  -0.210044  0  0  0  0  0  0  0  0  0 
1702990812.455736000  -2.49919  -0.300766  0.99919  0  0  -0.038893  0.015435  -0.0133702  -0.0154334  0  0  0  0.2205  -0.147834  -0.219886  0  0  0  0  0  0  0  0  0 
1702990812.460749000  -2.49911  -0.300835  0.99911  0  0  -0.0388022  0.016564  -0.0141141  -0.0165569  0  0  0  0.231125  -0.149685  -0.229477  0  0  0  0  0  0  0  0  0 
1702990812.465737000  -2.49902  -0.300907  0.999024  0  0  -0.0387074  0.0177467  -0.0148666  -0.0177277  0  0  0  0.242  -0.151285  -0.238818  0  0  0  0  0  0  0  0  0 
1702990812.470736000  -2.49893  -0.300984  0.998932  0  0  -0.0386086  0.0189844  -0.0156265  -0.0189447  0  0  0  0.253125  -0.152636  -0.247909  0  0  0  0  0  0  0  0  0 
1702990812.475748000  -2.49883  -0.301064  0.998834  0  0  -0.0385058  0.0202783  -0.0163926  -0.0202064  0  0  0  0.2645  -0.153736  -0.25675  0  0  0  0  0  0  0  0  0 
1702990812.480748000  -2.49873  -0.301148  0.99873  0  0  -0.0383991  0.0216298  -0.0171635  -0.0215117  0  0  0  0.276125  -0.154587  -0.265341  0  0  0  0  0  0  0  0  0 
1702990812.485739000  -2.49862  -0.301235  0.998619  0  0  -0.0382886  0.02304  -0.017938  -0.0228594  0  0  0  0.288  -0.155187  -0.273682  0  0  0  0  0  0  0  0  0 
1702990812.490747000  -2.4985  -0.301327  0.998502  0  0  -0.0381744  0.0245102  -0.0187149  -0.0242482  0  0  0  0.300125  -0.155538  -0.281773  0  0  0  0  0  0  0  0  0 
1702990812.495737000  -2.49837  -0.301423  0.998377  0  0  -0.0380564  0.0260417  -0.019493  -0.0256767  0  0  0  0.3125  -0.155638  -0.289614  0  0  0  0  0  0  0  0  0 
1702990812.500747000  -2.49824  -0.301522  0.998245  0  0  -0.0379348  0.0276356  -0.0202709  -0.0271439  0  0  0  0.325125  -0.155489  -0.297206  0  0  0  0  0  0  0  0  0 
1702990812.505752000  -2.4981  -0.301625  0.998105  0  0  -0.0378098  0.0292933  -0.0210475  -0.0286484  0  0  0  0.338  -0.15509  -0.304547  0  0  0  0  0  0  0  0  0 
1702990812.510744000  -2.49795  -0.301732  0.997958  0  0  -0.0376813  0.031016  -0.0218214  -0.0301889  0  0  0  0.351125  -0.15444  -0.311638  0  0  0  0  0  0  0  0  0 
1702990812.515735000  -2.49779  -0.301843  0.997803  0  0  -0.0375496  0.032805  -0.0225914  -0.0317643  0  0  0  0.3645  -0.153541  -0.318479  0  0  0  0  0  0  0  0  0 
1702990812.520759000  -2.49762  -0.301958  0.99764  0  0  -0.0374148  0.0346615  -0.0233564  -0.0333733  0  0  0  0.378125  -0.152391  -0.32507  0  0  0  0  0  0  0  0  0 
1702990812.525735000  -2.49744  -0.302077  0.99747  0  0  -0.037277  0.0365867  -0.0241149  -0.0350146  0  0  0  0.392  -0.150992  -0.331411  0  0  0  0  0  0  0  0  0 
1702990812.530763000  -2.49725  -0.302199  0.99729  0  0  -0.0371363  0.0385817  -0.0248659  -0.036687  0  0  0  0.405977  -0.149342  -0.337502  0  0  0  0  0  0  0  0  0 
1702990812.535747000  -2.49705  -0.302326  0.997103  0  0  -0.036993  0.040646  -0.025608  -0.0383892  0  0  0  0.419717  -0.147443  -0.343343  0  0  0  0  0  0  0  0  0 
1702990812.540762000  -2.49684  -0.302456  0.996906  0  0  -0.0368472  0.0427784  -0.0263399  -0.04012  0  0  0  0.433207  -0.145294  -0.348935  0  0  0  0  0  0  0  0  0 
1702990812.545753000  -2.49663  -0.302589  0.996701  0  0  -0.0366991  0.0449777  -0.0270605  -0.0418781  0  0  0  0.446448  -0.142894  -0.354276  0  0  0  0  0  0  0  0  0 
1702990812.550756000  -2.49639  -0.302726  0.996488  0  0  -0.0365488  0.0472425  -0.0277684  -0.0436624  0  0  0  0.459438  -0.140245  -0.359367  0  0  0  0  0  0  0  0  0 
1702990812.555736000  -2.49615  -0.302867  0.996265  0  0  -0.0363966  0.0495716  -0.0284625  -0.0454714  0  0  0  0.472178  -0.137345  -0.364208  0  0  0  0  0  0  0  0  0 
1702990812.560753000  -2.4959  -0.303011  0.996033  0  0  -0.0362426  0.0519639  -0.0291415  -0.047304  0  0  0  0.484668  -0.134196  -0.368799  0  0  0  0  0  0  0  0  0 
1702990812.565742000  -2.49563  -0.303158  0.995792  0  0  -0.0360871  0.0544179  -0.029804  -0.049159  0  0  0  0.496909  -0.130796  -0.37314  0  0  0  0  0  0  0  0  0 
1702990812.570736000  -2.49535  -0.303309  0.995541  0  0  -0.0359302  0.0569325  -0.030449  -0.051035  0  0  0  0.508899  -0.127147  -0.377231  0  0  0  0  0  0  0  0  0 
1702990812.575735000  -2.49506  -0.303463  0.995281  0  0  -0.0357721  0.0595065  -0.0310751  -0.0529309  0  0  0  0.520639  -0.123247  -0.381072  0  0  0  0  0  0  0  0  0 
1702990812.580756000  -2.49476  -0.303619  0.995012  0  0  -0.0356129  0.0621385  -0.0316811  -0.0548453  0  0  0  0.532129  -0.119098  -0.384663  0  0  0  0  0  0  0  0  0 
1702990812.585736000  -2.49444  -0.303779  0.994733  0  0  -0.0354528  0.0648274  -0.0322657  -0.0567771  0  0  0  0.54337  -0.114699  -0.388005  0  0  0  0  0  0  0  0  0 
1702990812.590736000  -2.49411  -0.303942  0.994444  0  0  -0.0352919  0.0675718  -0.0328276  -0.0587249  0  0  0  0.55436  -0.110049  -0.391096  0  0  0  0  0  0  0  0  0 
1702990812.595736000  -2.49377  -0.304108  0.994145  0  0  -0.0351303  0.0703705  -0.0333657  -0.0606876  0  0  0  0.5651  -0.10515  -0.393937  0  0  0  0  0  0  0  0  0 
1702990812.600760000  -2.49341  -0.304276  0.993837  0  0  -0.0349681  0.0732224  -0.0338787  -0.0626639  0  0  0  0.57559  -0.1  -0.396528  0  0  0  0  0  0  0  0  0 
1702990812.605739000  -2.49303  -0.304446  0.993519  0  0  -0.0348055  0.076126  -0.0343653  -0.0646525  0  0  0  0.58583  -0.0946008  -0.398869  0  0  0  0  0  0  0  0  0 
1702990812.610736000  -2.49265  -0.304619  0.993191  0  0  -0.0346425  0.0790803  -0.0348243  -0.0666522  0  0  0  0.595821  -0.0889514  -0.40096  0  0  0  0  0  0  0  0  0 
1702990812.615736000  -2.49224  -0.304795  0.992852  0  0  -0.0344792  0.0820838  -0.0352544  -0.0686617  0  0  0  0.605561  -0.0830519  -0.402801  0  0  0  0  0  0  0  0  0 
1702990812.620751000  -2.49182  -0.304972  0.992504  0  0  -0.0343157  0.0851354  -0.0356544  -0.0706798  0  0  0  0.615051  -0.0769079  -0.404392  0  0  0  0  0  0  0  0  0 
1702990812.625746000  -2.49139  -0.305151  0.992145  0  0  -0.034152  0.0882339  -0.0360237  -0.0727052  0  0  0  0.624291  -0.0708318  -0.405734  0  0  0  0  0  0  0  0  0 
1702990812.630750000  -2.49094  -0.305332  0.991777  0  0  -0.0339882  0.0913779  -0.0363631  -0.0747367  0  0  0  0.633282  -0.0650056  -0.406825  0  0  0  0  0  0  0  0  0 
1702990812.635749000  -2.49048  -0.305515  0.991398  0  0  -0.0338243  0.0945663  -0.0366741  -0.076773  0  0  0  0.642022  -0.0594295  -0.407666  0  0  0  0  0  0  0  0  0 
1702990812.640754000  -2.49  -0.305699  0.991009  0  0  -0.0336604  0.0977977  -0.0369579  -0.0788129  0  0  0  0.650512  -0.0541034  -0.408257  0  0  0  0  0  0  0  0  0 
1702990812.645737000  -2.4895  -0.305884  0.99061  0  0  -0.0334965  0.101071  -0.0372156  -0.0808552  0  0  0  0.658752  -0.0490273  -0.408598  0  0  0  0  0  0  0  0  0 
1702990812.650735000  -2.48899  -0.306071  0.990201  0  0  -0.0333326  0.104385  -0.0374485  -0.0828985  0  0  0  0.666743  -0.0442011  -0.408689  0  0  0  0  0  0  0  0  0 
1702990812.655752000  -2.48846  -0.306259  0.989781  0  0  -0.0331687  0.107738  -0.037658  -0.0849416  0  0  0  0.674483  -0.039625  -0.40853  0  0  0  0  0  0  0  0  0 
1702990812.660752000  -2.48791  -0.306447  0.989351  0  0  -0.0330048  0.111129  -0.0378452  -0.0869834  0  0  0  0.681973  -0.0352989  -0.408121  0  0  0  0  0  0  0  0  0 
1702990812.665753000  -2.48734  -0.306637  0.988911  0  0  -0.0328409  0.114557  -0.0380114  -0.0890224  0  0  0  0.689213  -0.0312228  -0.407462  0  0  0  0  0  0  0  0  0 
1702990812.670765000  -2.48676  -0.306827  0.988461  0  0  -0.032677  0.118021  -0.0381579  -0.0910576  0  0  0  0.696203  -0.0273966  -0.406554  0  0  0  0  0  0  0  0  0 
1702990812.675768000  -2.48616  -0.307019  0.988001  0  0  -0.0325131  0.121519  -0.0382858  -0.0930876  0  0  0  0.702944  -0.0238205  -0.405395  0  0  0  0  0  0  0  0  0 
1702990812.680766000  -2.48555  -0.30721  0.98753  0  0  -0.0323491  0.12505  -0.0383965  -0.0951111  0  0  0  0.709434  -0.0204944  -0.403986  0  0  0  0  0  0  0  0  0 
1702990812.685744000  -2.48491  -0.307402  0.987049  0  0  -0.0321852  0.128613  -0.0384912  -0.097127  0  0  0  0.715674  -0.0174183  -0.402327  0  0  0  0  0  0  0  0  0 
1702990812.690747000  -2.48426  -0.307595  0.986559  0  0  -0.0320213  0.132206  -0.0385711  -0.099134  0  0  0  0.721664  -0.0145921  -0.400418  0  0  0  0  0  0  0  0  0 
1702990812.695743000  -2.48359  -0.307788  0.986058  0  0  -0.0318574  0.135829  -0.0386375  -0.101131  0  0  0  0.727405  -0.012016  -0.398259  0  0  0  0  0  0  0  0  0 
1702990812.700757000  -2.4829  -0.307981  0.985548  0  0  -0.0316935  0.13948  -0.0386917  -0.103116  0  0  0  0.732895  -0.0096899  -0.39585  0  0  0  0  0  0  0  0  0 
1702990812.705738000  -2.4822  -0.308175  0.985027  0  0  -0.0315296  0.143158  -0.0387348  -0.105089  0  0  0  0.738135  -0.0076138  -0.393191  0  0  0  0  0  0  0  0  0 
1702990812.710750000  -2.48147  -0.308369  0.984497  0  0  -0.0313657  0.146861  -0.0387682  -0.107048  0  0  0  0.743125  -0.0057877  -0.390283  0  0  0  0  0  0  0  0  0 
1702990812.715735000  -2.48073  -0.308563  0.983957  0  0  -0.0312018  0.150588  -0.0387931  -0.108991  0  0  0  0.747866  -0.0042115  -0.387124  0  0  0  0  0  0  0  0  0 
1702990812.720744000  -2.47997  -0.308757  0.983407  0  0  -0.0310378  0.154339  -0.0388107  -0.110918  0  0  0  0.752356  -0.0028854  -0.383715  0  0  0  0  0  0  0  0  0 
1702990812.725736000  -2.47918  -0.308951  0.982847  0  0  -0.0308739  0.158112  -0.0388224  -0.112828  0  0  0  0.756596  -0.0018093  -0.380056  0  0  0  0  0  0  0  0  0 
1702990812.730735000  -2.47838  -0.309145  0.982279  0  0  -0.03071  0.161905  -0.0388292  -0.114719  0  0  0  0.760586  -0.0009831  -0.376147  0  0  0  0  0  0  0  0  0 
1702990812.735735000  -2.47757  -0.309339  0.9817  0  0  -0.0305461  0.165717  -0.0388326  -0.116589  0  0  0  0.764326  -0.000407  -0.371988  0  0  0  0  0  0  0  0  0 
1702990812.740736000  -2.47673  -0.309533  0.981113  0  0  -0.0303822  0.169548  -0.0388337  -0.118438  0  0  0  0.767817  -8.09e-05  -0.367579  0  0  0  0  0  0  0  0  0 
1702990812.745746000  -2.47587  -0.309727  0.980516  0  0  -0.0302183  0.173395  -0.0388338  -0.120264  0  0  0  0.771057  2.9e-06  -0.36292  0  0  0  0  0  0  0  0  0 
1702990812.750735000  -2.47499  -0.309922  0.97991  0  0  -0.0300544  0.177258  -0.0388335  -0.122067  0  0  0  0.774047  0.0001658  -0.358011  0  0  0  0  0  0  0  0  0 
1702990812.755744000  -2.4741  -0.310116  0.979295  0  0  -0.0298904  0.181135  -0.0388318  -0.123844  0  0  0  0.776787  0.0005787  -0.352853  0  0  0  0  0  0  0  0  0 
1702990812.760742000  -2.47318  -0.31031  0.978672  0  0  -0.0297265  0.185025  -0.0388273  -0.125595  0  0  0  0.779278  0.0012416  -0.347444  0  0  0  0  0  0  0  0  0 
1702990812.765746000  -2.47225  -0.310504  0.978039  0  0  -0.0295626  0.188927  -0.0388189  -0.127318  0  0  0  0.781518  0.0021545  -0.341785  0  0  0  0  0  0  0  0  0 
1702990812.770737000  -2.47129  -0.310698  0.977399  0  0  -0.0293987  0.19284  -0.0388054  -0.129012  0  0  0  0.783508  0.0033174  -0.335876  0  0  0  0  0  0  0  0  0 
1702990812.775736000  -2.47032  -0.310892  0.976749  0  0  -0.0292348  0.196762  -0.0387853  -0.130676  0  0  0  0.785248  0.0047303  -0.329717  0  0  0  0  0  0  0  0  0 
1702990812.780743000  -2.46932  -0.311086  0.976092  0  0  -0.0290709  0.200692  -0.0387576  -0.132309  0  0  0  0.786739  0.0063932  -0.323308  0  0  0  0  0  0  0  0  0 
1702990812.785739000  -2.46831  -0.31128  0.975426  0  0  -0.028907  0.204629  -0.038721  -0.133909  0  0  0  0.787979  0.0083061  -0.316649  0  0  0  0  0  0  0  0  0 
1702990812.790736000  -2.46728  -0.311473  0.974753  0  0  -0.0287431  0.208571  -0.0386742  -0.135475  0  0  0  0.788969  0.010469  -0.30974  0  0  0  0  0  0  0  0  0 
1702990812.795736000  -2.46623  -0.311666  0.974072  0  0  -0.0285792  0.212518  -0.0386159  -0.137006  0  0  0  0.789709  0.0128819  -0.302582  0  0  0  0  0  0  0  0  0 
1702990812.800758000  -2.46515  -0.311859  0.973383  0  0  -0.0284152  0.216468  -0.0385449  -0.138501  0  0  0  0.7902  0.0155448  -0.295173  0  0  0  0  0  0  0  0  0 
1702990812.805739000  -2.46406  -0.312052  0.972687  0  0  -0.0282513  0.22042  -0.03846  -0.139957  0  0  0  0.79044  0.0184578  -0.287514  0  0  0  0  0  0  0  0  0 
1702990812.810738000  -2.46295  -0.312244  0.971983  0  0  -0.0280874  0.224372  -0.0383599  -0.141375  0  0  0  0.79043  0.0216207  -0.279605  0  0  0  0  0  0  0  0  0 
1702990812.815736000  -2.46182  -0.312435  0.971273  0  0  -0.0279235  0.228324  -0.0382434  -0.142753  0  0  0  0.79017  0.0250336  -0.271446  0  0  0  0  0  0  0  0  0 
1702990812.820733000  -2.46067  -0.312626  0.970556  0  0  -0.0277596  0.232273  -0.0381092  -0.144089  0  0  0  0.78966  0.0286965  -0.263037  0  0  0  0  0  0  0  0  0 
1702990812.825736000  -2.45949  -0.312816  0.969832  0  0  -0.0275957  0.23622  -0.037956  -0.145383  0  0  0  0.788901  0.0326094  -0.254378  0  0  0  0  0  0  0  0  0 
1702990812.830735000  -2.4583  -0.313006  0.969102  0  0  -0.0274318  0.240162  -0.0377827  -0.146633  0  0  0  0.787891  0.0367723  -0.245469  0  0  0  0  0  0  0  0  0 
1702990812.835753000  -2.45709  -0.313194  0.968366  0  0  -0.0272679  0.244098  -0.0375879  -0.147837  0  0  0  0.786631  0.0411852  -0.23631  0  0  0  0  0  0  0  0  0 
1702990812.840748000  -2.45586  -0.313382  0.967624  0  0  -0.0271039  0.248028  -0.0373704  -0.148995  0  0  0  0.785121  0.0458481  -0.226902  0  0  0  0  0  0  0  0  0 
1702990812.845749000  -2.45461  -0.313568  0.966876  0  0  -0.02694  0.251949  -0.037129  -0.150106  0  0  0  0.783362  0.050761  -0.217243  0  0  0  0  0  0  0  0  0 
1702990812.850743000  -2.45334  -0.313753  0.966123  0  0  -0.0267761  0.255861  -0.0368624  -0.151167  0  0  0  0.781352  0.0559239  -0.207334  0  0  0  0  0  0  0  0  0 
1702990812.855758000  -2.45205  -0.313936  0.965364  0  0  -0.0266122  0.259762  -0.0365693  -0.152179  0  0  0  0.779092  0.0613368  -0.197299  0  0  0  0  0  0  0  0  0 
1702990812.860734000  -2.45075  -0.314119  0.964601  0  0  -0.0264483  0.263651  -0.0362486  -0.153141  0  0  0  0.776582  0.0669997  -0.187491  0  0  0  0  0  0  0  0  0 
1702990812.865755000  -2.44942  -0.314299  0.963833  0  0  -0.0262844  0.267528  -0.0358989  -0.154054  0  0  0  0.773823  0.0729126  -0.177934  0  0  0  0  0  0  0  0  0 
1702990812.870755000  -2.44807  -0.314477  0.963061  0  0  -0.0261205  0.271389  -0.035519  -0.154921  0  0  0  0.770813  0.0790755  -0.168627  0  0  0  0  0  0  0  0  0 
1702990812.875756000  -2.4467  -0.314654  0.962284  0  0  -0.0259566  0.275235  -0.0351077  -0.155741  0  0  0  0.767553  0.0854885  -0.15957  0  0  0  0  0  0  0  0  0 
1702990812.880750000  -2.44532  -0.314828  0.961503  0  0  -0.0257926  0.279064  -0.0346637  -0.156517  0  0  0  0.764043  0.0921514  -0.150762  0  0  0  0  0  0  0  0  0 
1702990812.885748000  -2.44391  -0.315001  0.960719  0  0  -0.0256287  0.282875  -0.0341858  -0.157249  0  0  0  0.760283  0.0990643  -0.142205  0  0  0  0  0  0  0  0  0 
1702990812.890759000  -2.44249  -0.31517  0.959931  0  0  -0.0254648  0.286667  -0.0336727  -0.157939  0  0  0  0.756274  0.106227  -0.133898  0  0  0  0  0  0  0  0  0 
1702990812.895752000  -2.44105  -0.315337  0.95914  0  0  -0.0253009  0.290438  -0.0331231  -0.158588  0  0  0  0.752014  0.11364  -0.125841  0  0  0  0  0  0  0  0  0 
1702990812.900770000  -2.43959  -0.315501  0.958345  0  0  -0.025137  0.294187  -0.0325359  -0.159198  0  0  0  0.747504  0.121303  -0.118033  0  0  0  0  0  0  0  0  0 
1702990812.905741000  -2.4381  -0.315663  0.957548  0  0  -0.0249731  0.297912  -0.0319097  -0.159769  0  0  0  0.742744  0.129216  -0.110476  0  0  0  0  0  0  0  0  0 
1702990812.910739000  -2.43661  -0.31582  0.956747  0  0  -0.0248092  0.301614  -0.0312433  -0.160303  0  0  0  0.737735  0.137379  -0.103169  0  0  0  0  0  0  0  0  0 
1702990812.915737000  -2.43509  -0.315975  0.955945  0  0  -0.0246453  0.305289  -0.0305355  -0.160801  0  0  0  0.732475  0.145792  -0.0961118  0  0  0  0  0  0  0  0  0 
1702990812.920748000  -2.43355  -0.316126  0.955139  0  0  -0.0244813  0.308938  -0.029785  -0.161265  0  0  0  0.726965  0.154455  -0.0893045  0  0  0  0  0  0  0  0  0 
1702990812.925738000  -2.432  -0.316273  0.954332  0  0  -0.0243174  0.312558  -0.0289905  -0.161695  0  0  0  0.721205  0.163368  -0.0827473  0  0  0  0  0  0  0  0  0 
1702990812.930749000  -2.43043  -0.316416  0.953523  0  0  -0.0241535  0.31615  -0.0281509  -0.162093  0  0  0  0.715196  0.17253  -0.0764401  0  0  0  0  0  0  0  0  0 
1702990812.935736000  -2.42884  -0.316554  0.952711  0  0  -0.0239896  0.31971  -0.0272648  -0.16246  0  0  0  0.708936  0.181943  -0.0703828  0  0  0  0  0  0  0  0  0 
1702990812.940758000  -2.42723  -0.316688  0.951898  0  0  -0.0238257  0.323238  -0.026331  -0.162797  0  0  0  0.702426  0.191606  -0.0645756  0  0  0  0  0  0  0  0  0 
1702990812.945737000  -2.42561  -0.316817  0.951083  0  0  -0.0236618  0.326734  -0.0253483  -0.163106  0  0  0  0.695666  0.201519  -0.0590184  0  0  0  0  0  0  0  0  0 
1702990812.950750000  -2.42396  -0.316942  0.950267  0  0  -0.0234979  0.330195  -0.0243154  -0.163387  0  0  0  0.688656  0.211682  -0.0537111  0  0  0  0  0  0  0  0  0 
1702990812.955735000  -2.4223  -0.31706  0.949449  0  0  -0.023334  0.33362  -0.0232311  -0.163643  0  0  0  0.681397  0.222095  -0.0486539  0  0  0  0  0  0  0  0  0 
1702990812.960766000  -2.42063  -0.317174  0.948631  0  0  -0.02317  0.337008  -0.022094  -0.163874  0  0  0  0.673887  0.232758  -0.0438466  0  0  0  0  0  0  0  0  0 
1702990812.965737000  -2.41893  -0.317281  0.947811  0  0  -0.0230061  0.340358  -0.0209031  -0.164082  0  0  0  0.666127  0.243671  -0.0392894  0  0  0  0  0  0  0  0  0 
1702990812.970735000  -2.41722  -0.317383  0.94699  0  0  -0.0228422  0.343669  -0.0196569  -0.164268  0  0  0  0.658117  0.254834  -0.0349822  0  0  0  0  0  0  0  0  0 
1702990812.975737000  -2.4155  -0.317478  0.946168  0  0  -0.0226783  0.346939  -0.0183543  -0.164432  0  0  0  0.649858  0.266247  -0.0309249  0  0  0  0  0  0  0  0  0 
1702990812.980769000  -2.41375  -0.317566  0.945346  0  0  -0.0225144  0.350167  -0.016994  -0.164577  0  0  0  0.641348  0.277909  -0.0271177  0  0  0  0  0  0  0  0  0 
1702990812.985736000  -2.412  -0.317648  0.944522  0  0  -0.0223505  0.353352  -0.0155748  -0.164704  0  0  0  0.632588  0.289822  -0.0235605  0  0  0  0  0  0  0  0  0 
1702990812.990764000  -2.41022  -0.317722  0.943699  0  0  -0.0221866  0.356493  -0.0140954  -0.164813  0  0  0  0.623578  0.301985  -0.0202532  0  0  0  0  0  0  0  0  0 
1702990812.995735000  -2.40843  -0.317788  0.942874  0  0  -0.0220227  0.359588  -0.0125545  -0.164907  0  0  0  0.614319  0.314398  -0.017196  0  0  0  0  0  0  0  0  0 
1702990813.000761000  -2.40663  -0.317847  0.942049  0  0  -0.0218587  0.362636  -0.010951  -0.164986  0  0  0  0.604809  0.327061  -0.0143888  0  0  0  0  0  0  0  0  0 
1702990813.005740000  -2.4048  -0.317898  0.941224  0  0  -0.0216948  0.365635  -0.0092835  -0.165051  0  0  0  0.595049  0.339974  -0.0118315  0  0  0  0  0  0  0  0  0 
1702990813.010739000  -2.40297  -0.31794  0.940399  0  0  -0.0215309  0.368586  -0.0075508  -0.165105  0  0  0  0.585039  0.353137  -0.0095243  0  0  0  0  0  0  0  0  0 
1702990813.015736000  -2.40112  -0.317973  0.939573  0  0  -0.021367  0.371485  -0.0057517  -0.165147  0  0  0  0.57478  0.36655  -0.0074671  0  0  0  0  0  0  0  0  0 
1702990813.020762000  -2.39925  -0.317997  0.938748  0  0  -0.0212031  0.374333  -0.0038849  -0.16518  0  0  0  0.56427  0.380213  -0.0056598  0  0  0  0  0  0  0  0  0 
1702990813.025738000  -2.39738  -0.318012  0.937922  0  0  -0.0210392  0.377128  -0.0019492  -0.165204  0  0  0  0.55351  0.394126  -0.0041026  0  0  0  0  0  0  0  0  0 
1702990813.030734000  -2.39548  -0.318017  0.937096  0  0  -0.0208753  0.379868  5.68e-05  -0.165221  0  0  0  0.5425  0.408289  -0.0027954  0  0  0  0  0  0  0  0  0 
1702990813.035734000  -2.39358  -0.318011  0.936269  0  0  -0.0207114  0.382552  0.0021341  -0.165232  0  0  0  0.53124  0.422701  -0.0017381  0  0  0  0  0  0  0  0  0 
1702990813.040743000  -2.39166  -0.317995  0.935443  0  0  -0.0205475  0.38518  0.0042842  -0.165239  0  0  0  0.519731  0.437364  -0.0009309  0  0  0  0  0  0  0  0  0 
1702990813.045735000  -2.38973  -0.317968  0.934617  0  0  -0.0203835  0.387749  0.0065082  -0.165242  0  0  0  0.507971  0.452277  -0.0003737  0  0  0  0  0  0  0  0  0 
1702990813.050767000  -2.38778  -0.31793  0.933791  0  0  -0.0202196  0.390259  0.0088074  -0.165243  0  0  0  0.495961  0.46744  -6.64e-05  0  0  0  0  0  0  0  0  0 
1702990813.055738000  -2.38582  -0.31788  0.932965  0  0  -0.0200557  0.392708  0.011183  -0.165243  0  0  0  0.483701  0.482853  -0  0  0  0  0  0  0  0  0  0 
1702990813.060761000  -2.38385  -0.317818  0.932138  0  0  -0.0198918  0.395096  0.0136363  -0.165243  0  0  0  0.471192  0.498516  -0  0  0  0  0  0  0  0  0  0 
1702990813.065734000  -2.38187  -0.317744  0.931312  0  0  -0.0197279  0.39742  0.0161686  -0.165243  0  0  0  0.458432  0.514429  -0  0  0  0  0  0  0  0  0  0 
1702990813.070749000  -2.37988  -0.317656  0.930486  0  0  -0.019564  0.399679  0.018781  -0.165243  0  0  0  0.445422  0.530592  -0  0  0  0  0  0  0  0  0  0 
1702990813.075748000  -2.37788  -0.317556  0.92966  0  0  -0.0194001  0.401873  0.0214749  -0.165243  0  0  0  0.432162  0.547005  -0  0  0  0  0  0  0  0  0  0 
1702990813.080754000  -2.37586  -0.317441  0.928834  0  0  -0.0192362  0.404001  0.0242515  -0.165243  0  0  0  0.418653  0.563668  -0  0  0  0  0  0  0  0  0  0 
1702990813.085748000  -2.37384  -0.317313  0.928007  0  0  -0.0190722  0.40606  0.027112  -0.165243  0  0  0  0.404893  0.580581  -0  0  0  0  0  0  0  0  0  0 
1702990813.090735000  -2.3718  -0.31717  0.927181  0  0  -0.0189083  0.408049  0.0300577  -0.165243  0  0  0  0.390907  0.597743  -0  0  0  0  0  0  0  0  0  0 
1702990813.095735000  -2.36975  -0.317012  0.926355  0  0  -0.0187444  0.409969  0.0330899  -0.165243  0  0  0  0.377051  0.615156  -0  0  0  0  0  0  0  0  0  0 
1702990813.100771000  -2.3677  -0.316839  0.925529  0  0  -0.0185805  0.41182  0.0362097  -0.165243  0  0  0  0.363446  0.632819  -0  0  0  0  0  0  0  0  0  0 
1702990813.105750000  -2.36564  -0.31665  0.924702  0  0  -0.0184166  0.413604  0.0394185  -0.165243  0  0  0  0.35009  0.650732  -0  0  0  0  0  0  0  0  0  0 
1702990813.110734000  -2.36356  -0.316445  0.923876  0  0  -0.0182527  0.415321  0.0427174  -0.165243  0  0  0  0.336985  0.668895  -0  0  0  0  0  0  0  0  0  0 
1702990813.115750000  -2.36148  -0.316223  0.92305  0  0  -0.0180888  0.416974  0.0461078  -0.165243  0  0  0  0.324129  0.687308  -0  0  0  0  0  0  0  0  0  0 
1702990813.120734000  -2.35939  -0.315984  0.922224  0  0  -0.0179249  0.418563  0.0495909  -0.165243  0  0  0  0.311524  0.70597  -0  0  0  0  0  0  0  0  0  0 
1702990813.125749000  -2.3573  -0.315727  0.921398  0  0  -0.0177609  0.42009  0.0531675  -0.165243  0  0  0  0.299169  0.724606  -0  0  0  0  0  0  0  0  0  0 
1702990813.130736000  -2.35519  -0.315452  0.920571  0  0  -0.017597  0.421555  0.0568366  -0.165243  0  0  0  0.287063  0.742991  -0  0  0  0  0  0  0  0  0  0 
1702990813.135748000  -2.35308  -0.315158  0.919745  0  0  -0.0174331  0.422961  0.060597  -0.165243  0  0  0  0.275208  0.761127  -0  0  0  0  0  0  0  0  0  0 
1702990813.140751000  -2.35096  -0.314846  0.918919  0  0  -0.0172692  0.424308  0.0644474  -0.165243  0  0  0  0.263602  0.779012  -0  0  0  0  0  0  0  0  0  0 
1702990813.145747000  -2.34884  -0.314514  0.918093  0  0  -0.0171053  0.425597  0.0683867  -0.165243  0  0  0  0.252247  0.796648  -0  0  0  0  0  0  0  0  0  0 
1702990813.150749000  -2.34671  -0.314162  0.917266  0  0  -0.0169414  0.426831  0.0724135  -0.165243  0  0  0  0.241141  0.814034  -0  0  0  0  0  0  0  0  0  0 
1702990813.155735000  -2.34457  -0.313789  0.91644  0  0  -0.0167775  0.428009  0.0765266  -0.165243  0  0  0  0.230286  0.831169  -0  0  0  0  0  0  0  0  0  0 
1702990813.160748000  -2.34243  -0.313396  0.915614  0  0  -0.0166136  0.429134  0.0807248  -0.165243  0  0  0  0.21968  0.848055  -0  0  0  0  0  0  0  0  0  0 
1702990813.165736000  -2.34028  -0.312982  0.914788  0  0  -0.0164496  0.430206  0.0850067  -0.165243  0  0  0  0.209325  0.86469  -0  0  0  0  0  0  0  0  0  0 
1702990813.170735000  -2.33813  -0.312546  0.913962  0  0  -0.0162857  0.431228  0.0893712  -0.165243  0  0  0  0.199219  0.881076  -0  0  0  0  0  0  0  0  0  0 
1702990813.175735000  -2.33597  -0.312088  0.913135  0  0  -0.0161218  0.432199  0.0938171  -0.165243  0  0  0  0.189364  0.897211  -0  0  0  0  0  0  0  0  0  0 
1702990813.180758000  -2.3338  -0.311608  0.912309  0  0  -0.0159579  0.433122  0.0983429  -0.165243  0  0  0  0.179758  0.913097  -0  0  0  0  0  0  0  0  0  0 
1702990813.185735000  -2.33164  -0.311104  0.911483  0  0  -0.015794  0.433997  0.102948  -0.165243  0  0  0  0.170403  0.928733  -0  0  0  0  0  0  0  0  0  0 
1702990813.190735000  -2.32946  -0.310578  0.910657  0  0  -0.0156301  0.434826  0.10763  -0.165243  0  0  0  0.161298  0.944118  -0  0  0  0  0  0  0  0  0  0 
1702990813.195735000  -2.32729  -0.310028  0.909831  0  0  -0.0154662  0.43561  0.112388  -0.165243  0  0  0  0.152442  0.959254  -0  0  0  0  0  0  0  0  0  0 
1702990813.200749000  -2.32511  -0.309454  0.909004  0  0  -0.0153023  0.436351  0.117222  -0.165243  0  0  0  0.143837  0.974139  -0  0  0  0  0  0  0  0  0  0 
1702990813.205735000  -2.32293  -0.308856  0.908178  0  0  -0.0151383  0.437049  0.122129  -0.165243  0  0  0  0.135481  0.988775  -0  0  0  0  0  0  0  0  0  0 
1702990813.210759000  -2.32074  -0.308233  0.907352  0  0  -0.0149744  0.437706  0.127109  -0.165243  0  0  0  0.127376  1.00316  -0  0  0  0  0  0  0  0  0  0 
1702990813.215737000  -2.31855  -0.307584  0.906526  0  0  -0.0148105  0.438323  0.132161  -0.165243  0  0  0  0.11952  1.0173  -0  0  0  0  0  0  0  0  0  0 
1702990813.220759000  -2.31636  -0.306911  0.905699  0  0  -0.0146467  0.438902  0.137282  -0.165243  0  0  0  0.111915  1.03118  -0  0  0  0  0  0  0  0  0  0 
1702990813.225737000  -2.31416  -0.306212  0.904873  0  0  -0.0144828  0.439443  0.142472  -0.165243  0  0  0  0.104559  1.04482  -0  0  0  0  0  0  0  0  0  0 
1702990813.230738000  -2.31196  -0.305486  0.904047  0  0  -0.0143191  0.439948  0.14773  -0.165243  0  0  0  0.0974538  1.0582  -0  0  0  0  0  0  0  0  0  0 
1702990813.235735000  -2.30976  -0.304734  0.903221  0  0  -0.0141555  0.440418  0.153054  -0.165243  0  0  0  0.0905983  1.07134  -0  0  0  0  0  0  0  0  0  0 
1702990813.240749000  -2.30756  -0.303955  0.902395  0  0  -0.0139921  0.440854  0.158443  -0.165243  0  0  0  0.0839929  1.08422  -0  0  0  0  0  0  0  0  0  0 
1702990813.245736000  -2.30535  -0.30315  0.901568  0  0  -0.0138289  0.441258  0.163895  -0.165243  0  0  0  0.0776374  1.09686  -0  0  0  0  0  0  0  0  0  0 
1702990813.250737000  -2.30314  -0.302316  0.900742  0  0  -0.0136661  0.441631  0.169411  -0.165243  0  0  0  0.0715319  1.10925  -0  0  0  0  0  0  0  0  0  0 
1702990813.255735000  -2.30094  -0.301455  0.899916  0  0  -0.0135037  0.441974  0.174987  -0.165243  0  0  0  0.0656765  1.12138  -0  0  0  0  0  0  0  0  0  0 
1702990813.260757000  -2.29872  -0.300566  0.89909  0  0  -0.0133418  0.442288  0.180624  -0.165243  0  0  0  0.060071  1.13327  -0  0  0  0  0  0  0  0  0  0 
1702990813.265736000  -2.29651  -0.299649  0.898264  0  0  -0.0131806  0.442575  0.18632  -0.165243  0  0  0  0.0547155  1.1449  -0  0  0  0  0  0  0  0  0  0 
1702990813.270750000  -2.2943  -0.298703  0.897437  0  0  -0.0130201  0.442836  0.192073  -0.165243  0  0  0  0.0496101  1.15629  -0  0  0  0  0  0  0  0  0  0 
1702990813.275737000  -2.29208  -0.297728  0.896611  0  0  -0.0128604  0.443071  0.197882  -0.165243  0  0  0  0.0447546  1.16742  -0  0  0  0  0  0  0  0  0  0 
1702990813.280757000  -2.28987  -0.296724  0.895785  0  0  -0.0127018  0.443284  0.203747  -0.165243  0  0  0  0.0401491  1.17831  -0  0  0  0  0  0  0  0  0  0 
1702990813.285747000  -2.28765  -0.295691  0.894959  0  0  -0.0125443  0.443473  0.209665  -0.165243  0  0  0  0.0357937  1.18894  -0  0  0  0  0  0  0  0  0  0 
1702990813.290750000  -2.28543  -0.294627  0.894132  0  0  -0.0123881  0.443642  0.215636  -0.165243  0  0  0  0.0316882  1.19933  -0  0  0  0  0  0  0  0  0  0 
1702990813.295735000  -2.28321  -0.293534  0.893306  0  0  -0.0122334  0.443791  0.221658  -0.165243  0  0  0  0.0278327  1.20947  -0  0  0  0  0  0  0  0  0  0 
1702990813.300768000  -2.281  -0.292411  0.89248  0  0  -0.0120804  0.443921  0.22773  -0.165243  0  0  0  0.0242273  1.21935  -0  0  0  0  0  0  0  0  0  0 
1702990813.305739000  -2.27878  -0.291257  0.891654  0  0  -0.0119292  0.444033  0.233851  -0.165243  0  0  0  0.0208718  1.22899  -0  0  0  0  0  0  0  0  0  0 
1702990813.310738000  -2.27656  -0.290072  0.890828  0  0  -0.01178  0.44413  0.240019  -0.165243  0  0  0  0.0177663  1.23837  -0  0  0  0  0  0  0  0  0  0 
1702990813.315735000  -2.27433  -0.288857  0.890001  0  0  -0.0116331  0.444211  0.246234  -0.165243  0  0  0  0.0149109  1.24751  -0  0  0  0  0  0  0  0  0  0 
1702990813.320756000  -2.27211  -0.28761  0.889175  0  0  -0.0114886  0.444279  0.252494  -0.165243  0  0  0  0.0123054  1.25639  -0  0  0  0  0  0  0  0  0  0 
1702990813.325740000  -2.26989  -0.286332  0.888349  0  0  -0.0113468  0.444335  0.258798  -0.165243  0  0  0  0.00995  1.26503  -0  0  0  0  0  0  0  0  0  0 
1702990813.330744000  -2.26767  -0.285022  0.887523  0  0  -0.011208  0.444379  0.265144  -0.165243  0  0  0  0.0078445  1.27341  -0  0  0  0  0  0  0  0  0  0 
1702990813.335741000  -2.26545  -0.28368  0.886697  0  0  -0.0110723  0.444414  0.271531  -0.165243  0  0  0  0.005989  1.28155  -0  0  0  0  0  0  0  0  0  0 
1702990813.340758000  -2.26323  -0.282306  0.88587  0  0  -0.01094  0.44444  0.277959  -0.165243  0  0  0  0.0043836  1.28944  -0  0  0  0  0  0  0  0  0  0 
1702990813.345740000  -2.261  -0.2809  0.885044  0  0  -0.0108114  0.444458  0.284425  -0.165243  0  0  0  0.0030281  1.29707  -0  0  0  0  0  0  0  0  0  0 
1702990813.350736000  -2.25878  -0.279462  0.884218  0  0  -0.0106867  0.44447  0.290929  -0.165243  0  0  0  0.0019226  1.30446  -0  0  0  0  0  0  0  0  0  0 
1702990813.355737000  -2.25656  -0.277991  0.883392  0  0  -0.010566  0.444478  0.297469  -0.165243  0  0  0  0.0010672  1.31159  -0  0  0  0  0  0  0  0  0  0 
1702990813.360787000  -2.25434  -0.276487  0.882565  0  0  -0.0104496  0.444481  0.304045  -0.165243  0  0  0  0.0004617  1.31848  -0  0  0  0  0  0  0  0  0  0 
1702990813.365743000  -2.25211  -0.274951  0.881739  0  0  -0.0103377  0.444483  0.310654  -0.165243  0  0  0  0.0001062  1.32511  -0  0  0  0  0  0  0  0  0  0 
1702990813.370735000  -2.24989  -0.273381  0.880913  0  0  -0.0102304  0.444483  0.317295  -0.165243  0  0  0  0  1.3315  -0  0  0  0  0  0  0  0  0  0 
1702990813.375749000  -2.24767  -0.271778  0.880087  0  0  -0.010128  0.444483  0.323968  -0.165243  0  0  0  0  1.33763  -0  0  0  0  0  0  0  0  0  0 
1702990813.380747000  -2.24545  -0.270141  0.879261  0  0  -0.0100306  0.444483  0.330671  -0.165243  0  0  0  0  1.34352  -0  0  0  0  0  0  0  0  0  0 
1702990813.385743000  -2.24322  -0.268471  0.878434  0  0  -0.0099383  0.444483  0.337403  -0.165243  0  0  0  0  1.34916  -0  0  0  0  0  0  0  0  0  0 
1702990813.390743000  -2.241  -0.266767  0.877608  0  0  -0.0098513  0.444483  0.344162  -0.165243  0  0  0  0  1.35454  -0  0  0  0  0  0  0  0  0  0 
1702990813.395747000  -2.23878  -0.265029  0.876782  0  0  -0.0097698  0.444483  0.350948  -0.165243  0  0  0  0  1.35968  -0  0  0  0  0  0  0  0  0  0 
1702990813.400778000  -2.23656  -0.263257  0.875956  0  0  -0.0096938  0.444483  0.357759  -0.165243  0  0  0  0  1.36456  -0  0  0  0  0  0  0  0  0  0 
1702990813.405744000  -2.23433  -0.261452  0.87513  0  0  -0.0096235  0.444483  0.364593  -0.165243  0  0  0  0  1.3692  -0  0  0  0  0  0  0  0  0  0 
1702990813.410742000  -2.23211  -0.259611  0.874303  0  0  -0.0095589  0.444483  0.37145  -0.165243  0  0  0  0  1.37358  -0  0  0  0  0  0  0  0  0  0 
1702990813.415750000  -2.22989  -0.257737  0.873477  0  0  -0.0095002  0.444483  0.378329  -0.165243  0  0  0  0  1.37772  -0  0  0  0  0  0  0  0  0  0 
1702990813.420780000  -2.22767  -0.255828  0.872651  0  0  -0.0094474  0.444483  0.385227  -0.165243  0  0  0  0  1.3816  -0  0  0  0  0  0  0  0  0  0 
1702990813.425743000  -2.22544  -0.253885  0.871825  0  0  -0.0094007  0.444483  0.392144  -0.165243  0  0  0  0  1.38524  -0  0  0  0  0  0  0  0  0  0 
1702990813.430737000  -2.22322  -0.251907  0.870998  0  0  -0.00936  0.444483  0.399079  -0.165243  0  0  0  0  1.38863  -0  0  0  0  0  0  0  0  0  0 
1702990813.435745000  -2.221  -0.249894  0.870172  0  0  -0.0093255  0.444483  0.40603  -0.165243  0  0  0  0  1.39176  -0  0  0  0  0  0  0  0  0  0 
1702990813.440766000  -2.21878  -0.247846  0.869346  0  0  -0.0092971  0.444483  0.412996  -0.165243  0  0  0  0  1.39465  -0  0  0  0  0  0  0  0  0  0 
1702990813.445759000  -2.21656  -0.245764  0.86852  0  0  -0.009275  0.444483  0.419976  -0.165243  0  0  0  0  1.39728  -0  0  0  0  0  0  0  0  0  0 
1702990813.450736000  -2.21433  -0.243647  0.867694  0  0  -0.009259  0.444483  0.426969  -0.165243  0  0  0  0  1.39967  -0  0  0  0  0  0  0  0  0  0 
1702990813.455740000  -2.21211  -0.241494  0.866867  0  0  -0.0092494  0.444483  0.433972  -0.165243  0  0  0  0  1.4018  -0  0  0  0  0  0  0  0  0  0 
1702990813.460756000  -2.20989  -0.239307  0.866041  0  0  -0.0092459  0.444483  0.440986  -0.165243  0  0  0  2.44e-05  1.40369  -0  0  0  0  0  0  0  0  0  0 
1702990813.465735000  -2.20767  -0.237084  0.865215  0  0  -0.0092488  0.444484  0.448009  -0.165243  0  0  0  0.00026  1.40532  -0  0  0  0  0  0  0  0  0  0 
1702990813.470736000  -2.20544  -0.234827  0.864389  0  0  -0.0092578  0.444486  0.455039  -0.165243  0  0  0  0.0007455  1.40671  -0  0  0  0  0  0  0  0  0  0 
1702990813.475759000  -2.20322  -0.232534  0.863562  0  0  -0.0092732  0.444491  0.462076  -0.165243  0  0  0  0.0014811  1.40785  -0  0  0  0  0  0  0  0  0  0 
1702990813.480779000  -2.201  -0.230206  0.862736  0  0  -0.0092948  0.444501  0.469117  -0.165243  0  0  0  0.0024666  1.40873  -0  0  0  0  0  0  0  0  0  0 
1702990813.485734000  -2.19878  -0.227843  0.86191  0  0  -0.0093226  0.444516  0.476163  -0.165243  0  0  0  0.0037022  1.40937  -0  0  0  0  0  0  0  0  0  0 
1702990813.490745000  -2.19655  -0.225444  0.861084  0  0  -0.0093567  0.444539  0.48321  -0.165243  0  0  0  0.0051877  1.40975  -0  0  0  0  0  0  0  0  0  0 
1702990813.495735000  -2.19433  -0.223011  0.860258  0  0  -0.009397  0.444569  0.49026  -0.165243  0  0  0  0.0069233  1.40989  -0  0  0  0  0  0  0  0  0  0 
1702990813.500750000  -2.19211  -0.220542  0.859431  0  0  -0.0094436  0.444608  0.497309  -0.165243  0  0  0  0.0089088  1.40977  -0  0  0  0  0  0  0  0  0  0 
1702990813.505736000  -2.18988  -0.218038  0.858605  0  0  -0.0094964  0.444658  0.504357  -0.165243  0  0  0  0.0111443  1.40941  -0  0  0  0  0  0  0  0  0  0 
1702990813.510738000  -2.18766  -0.215498  0.857779  0  0  -0.0095555  0.44472  0.511403  -0.165243  0  0  0  0.0136299  1.40879  -0  0  0  0  0  0  0  0  0  0 
1702990813.515760000  -2.18544  -0.212923  0.856953  0  0  -0.0096208  0.444795  0.518445  -0.165243  0  0  0  0.0163654  1.40793  -0  0  0  0  0  0  0  0  0  0 
1702990813.520742000  -2.18321  -0.210314  0.856127  0  0  -0.0096924  0.444884  0.525481  -0.165243  0  0  0  0.019351  1.40682  -0  0  0  0  0  0  0  0  0  0 
1702990813.525750000  -2.18099  -0.207669  0.8553  0  0  -0.0097702  0.444989  0.532512  -0.165243  0  0  0  0.0225865  1.40545  -0  0  0  0  0  0  0  0  0  0 
1702990813.530735000  -2.17876  -0.204989  0.854474  0  0  -0.0098543  0.44511  0.539536  -0.165243  0  0  0  0.0260721  1.40384  -0  0  0  0  0  0  0  0  0  0 
1702990813.535766000  -2.17654  -0.202273  0.853648  0  0  -0.0099446  0.44525  0.54655  -0.165243  0  0  0  0.0298076  1.40197  -0  0  0  0  0  0  0  0  0  0 
1702990813.540746000  -2.17431  -0.199523  0.852822  0  0  -0.0100412  0.445409  0.553555  -0.165243  0  0  0  0.0337932  1.39986  -0  0  0  0  0  0  0  0  0  0 
1702990813.545741000  -2.17208  -0.196738  0.851995  0  0  -0.010144  0.445588  0.560548  -0.165243  0  0  0  0.0380287  1.39749  -0  0  0  0  0  0  0  0  0  0 
1702990813.550738000  -2.16985  -0.193918  0.851169  0  0  -0.0102531  0.44579  0.567529  -0.165243  0  0  0  0.0425143  1.39488  -0  0  0  0  0  0  0  0  0  0 
1702990813.555769000  -2.16763  -0.191063  0.850343  0  0  -0.0103684  0.446014  0.574497  -0.165243  0  0  0  0.0472498  1.39201  -0  0  0  0  0  0  0  0  0  0 
1702990813.560751000  -2.16539  -0.188173  0.849517  0  0  -0.01049  0.446263  0.581449  -0.165243  0  0  0  0.0522353  1.3889  -0  0  0  0  0  0  0  0  0  0 
1702990813.565768000  -2.16316  -0.185248  0.848691  0  0  -0.0106178  0.446537  0.588385  -0.165243  0  0  0  0.0574709  1.38554  -0  0  0  0  0  0  0  0  0  0 
1702990813.570746000  -2.16093  -0.182289  0.847864  0  0  -0.0107519  0.446838  0.595304  -0.165243  0  0  0  0.0629564  1.38192  -0  0  0  0  0  0  0  0  0  0 
1702990813.575760000  -2.15869  -0.179295  0.847038  0  0  -0.0108922  0.447167  0.602204  -0.165243  0  0  0  0.068692  1.37806  -0  0  0  0  0  0  0  0  0  0 
1702990813.580760000  -2.15646  -0.176267  0.846212  0  0  -0.0110388  0.447525  0.609084  -0.165243  0  0  0  0.0746775  1.37394  -0  0  0  0  0  0  0  0  0  0 
1702990813.585746000  -2.15422  -0.173204  0.845386  0  0  -0.0111916  0.447914  0.615943  -0.165243  0  0  0  0.0809131  1.36958  -0  0  0  0  0  0  0  0  0  0 
1702990813.590737000  -2.15198  -0.170107  0.84456  0  0  -0.0113507  0.448335  0.62278  -0.165243  0  0  0  0.0873986  1.36496  -0  0  0  0  0  0  0  0  0  0 
1702990813.595769000  -2.14974  -0.166977  0.843733  0  0  -0.011516  0.448788  0.629592  -0.165243  0  0  0  0.0941342  1.3601  -0  0  0  0  0  0  0  0  0  0 
1702990813.600738000  -2.14749  -0.163812  0.842907  0  0  -0.0116876  0.449276  0.63638  -0.165243  0  0  0  0.10112  1.35499  -0  0  0  0  0  0  0  0  0  0 
1702990813.605746000  -2.14524  -0.160613  0.842081  0  0  -0.0118655  0.4498  0.643142  -0.165243  0  0  0  0.108355  1.34962  -0  0  0  0  0  0  0  0  0  0 
1702990813.610746000  -2.14299  -0.15738  0.841255  0  0  -0.0120495  0.45036  0.649876  -0.165243  0  0  0  0.115841  1.34401  -0  0  0  0  0  0  0  0  0  0 
1702990813.615756000  -2.14074  -0.154114  0.840428  0  0  -0.0122399  0.450959  0.656581  -0.165243  0  0  0  0.123576  1.33814  -0  0  0  0  0  0  0  0  0  0 
1702990813.620743000  -2.13848  -0.150814  0.839602  0  0  -0.0124364  0.451596  0.663257  -0.165243  0  0  0  0.131562  1.33203  -0  0  0  0  0  0  0  0  0  0 
1702990813.625756000  -2.13622  -0.147482  0.838776  0  0  -0.0126393  0.452275  0.669901  -0.165243  0  0  0  0.139797  1.32566  2.51e-05  0  0  0  0  0  0  0  0  0 
1702990813.630736000  -2.13396  -0.144115  0.83795  0  0  -0.0128483  0.452995  0.676513  -0.165242  0  0  0  0.148283  1.31905  0.0002622  0  0  0  0  0  0  0  0  0 
1702990813.635743000  -2.13169  -0.140716  0.837124  0  0  -0.0130637  0.453758  0.683091  -0.16524  0  0  0  0.157019  1.31218  0.0007492  0  0  0  0  0  0  0  0  0 
1702990813.640778000  -2.12942  -0.137285  0.836297  0  0  -0.0132853  0.454565  0.689635  -0.165235  0  0  0  0.166004  1.30507  0.0014862  0  0  0  0  0  0  0  0  0 
1702990813.645752000  -2.12715  -0.13382  0.835471  0  0  -0.0135131  0.455418  0.696142  -0.165225  0  0  0  0.17524  1.29771  0.0024733  0  0  0  0  0  0  0  0  0 
1702990813.650739000  -2.12487  -0.130323  0.834645  0  0  -0.0137472  0.456318  0.702611  -0.165209  0  0  0  0.184725  1.29009  0.0037103  0  0  0  0  0  0  0  0  0 
1702990813.655760000  -2.12258  -0.126794  0.833819  0  0  -0.0139875  0.457266  0.709042  -0.165187  0  0  0  0.194461  1.28223  0.0051974  0  0  0  0  0  0  0  0  0 
1702990813.660766000  -2.12029  -0.123233  0.832993  0  0  -0.0142341  0.458263  0.715433  -0.165157  0  0  0  0.204446  1.27411  0.0069344  0  0  0  0  0  0  0  0  0 
1702990813.665760000  -2.118  -0.11964  0.832168  0  0  -0.0144869  0.459311  0.721783  -0.165117  0  0  0  0.214682  1.26575  0.0089215  0  0  0  0  0  0  0  0  0 
1702990813.670738000  -2.1157  -0.116015  0.831342  0  0  -0.014746  0.460411  0.72809  -0.165067  0  0  0  0.225167  1.25713  0.0111585  0  0  0  0  0  0  0  0  0 
1702990813.675757000  -2.1134  -0.112359  0.830517  0  0  -0.0150113  0.461563  0.734354  -0.165005  0  0  0  0.235903  1.24827  0.0136455  0  0  0  0  0  0  0  0  0 
1702990813.680762000  -2.11109  -0.108672  0.829692  0  0  -0.0152829  0.46277  0.740572  -0.16493  0  0  0  0.246888  1.23915  0.0163826  0  0  0  0  0  0  0  0  0 
1702990813.685758000  -2.10877  -0.104953  0.828868  0  0  -0.0155607  0.464032  0.746745  -0.164841  0  0  0  0.258124  1.22979  0.0193696  0  0  0  0  0  0  0  0  0 
1702990813.690750000  -2.10645  -0.101204  0.828044  0  0  -0.0158448  0.465352  0.75287  -0.164736  0  0  0  0.26961  1.22018  0.0226067  0  0  0  0  0  0  0  0  0 
1702990813.695766000  -2.10412  -0.0974248  0.82722  0  0  -0.0161351  0.466729  0.758946  -0.164615  0  0  0  0.281345  1.21031  0.0260937  0  0  0  0  0  0  0  0  0 
1702990813.700760000  -2.10178  -0.0936149  0.826398  0  0  -0.0164317  0.468166  0.764973  -0.164475  0  0  0  0.293331  1.2002  0.0298308  0  0  0  0  0  0  0  0  0 
1702990813.705752000  -2.09943  -0.0897751  0.825576  0  0  -0.0167345  0.469663  0.770948  -0.164316  0  0  0  0.305566  1.18983  0.0338178  0  0  0  0  0  0  0  0  0 
1702990813.710736000  -2.09708  -0.0859055  0.824755  0  0  -0.0170436  0.471222  0.776871  -0.164136  0  0  0  0.318052  1.17922  0.0380549  0  0  0  0  0  0  0  0  0 
1702990813.715769000  -2.09472  -0.0820065  0.823934  0  0  -0.0173589  0.472844  0.78274  -0.163935  0  0  0  0.330787  1.16835  0.0425419  0  0  0  0  0  0  0  0  0 
1702990813.720763000  -2.09235  -0.0780782  0.823115  0  0  -0.0176805  0.47453  0.788554  -0.163711  0  0  0  0.343773  1.15724  0.0472789  0  0  0  0  0  0  0  0  0 
1702990813.725768000  -2.08998  -0.0741211  0.822297  0  0  -0.0180083  0.476282  0.794312  -0.163462  0  0  0  0.356855  1.14587  0.052266  0  0  0  0  0  0  0  0  0 
1702990813.730738000  -2.08759  -0.0701352  0.821481  0  0  -0.0183424  0.478098  0.800012  -0.163188  0  0  0  0.369699  1.13426  0.057503  0  0  0  0  0  0  0  0  0 
1702990813.735766000  -2.08519  -0.066121  0.820665  0  0  -0.0186827  0.479978  0.805654  -0.162886  0  0  0  0.382293  1.1224  0.0629901  0  0  0  0  0  0  0  0  0 
1702990813.740767000  -2.08279  -0.0620788  0.819852  0  0  -0.0190293  0.481921  0.811236  -0.162557  0  0  0  0.394637  1.11028  0.0687271  0  0  0  0  0  0  0  0  0 
1702990813.745765000  -2.08038  -0.0580088  0.81904  0  0  -0.0193821  0.483924  0.816756  -0.162199  0  0  0  0.406731  1.09792  0.0747142  0  0  0  0  0  0  0  0  0 
1702990813.750740000  -2.07795  -0.0539113  0.81823  0  0  -0.0197412  0.485987  0.822214  -0.16181  0  0  0  0.418575  1.0853  0.0809512  0  0  0  0  0  0  0  0  0 
1702990813.755740000  -2.07552  -0.0497867  0.817422  0  0  -0.0201065  0.488109  0.827609  -0.161389  0  0  0  0.430169  1.07244  0.0874383  0  0  0  0  0  0  0  0  0 
1702990813.760751000  -2.07307  -0.0456354  0.816616  0  0  -0.0204781  0.490289  0.832938  -0.160935  0  0  0  0.441513  1.05932  0.0941753  0  0  0  0  0  0  0  0  0 
1702990813.765743000  -2.07061  -0.0414575  0.815813  0  0  -0.020856  0.492524  0.838202  -0.160447  0  0  0  0.452607  1.04596  0.101162  0  0  0  0  0  0  0  0  0 
1702990813.770738000  -2.06814  -0.0372534  0.815012  0  0  -0.02124  0.494814  0.843397  -0.159923  0  0  0  0.463451  1.03234  0.108399  0  0  0  0  0  0  0  0  0 
1702990813.775758000  -2.06566  -0.0330236  0.814213  0  0  -0.0216304  0.497158  0.848525  -0.159362  0  0  0  0.474045  1.01848  0.115886  0  0  0  0  0  0  0  0  0 
1702990813.780775000  -2.06317  -0.0287683  0.813418  0  0  -0.0220269  0.499554  0.853582  -0.158764  0  0  0  0.484389  1.00437  0.123623  0  0  0  0  0  0  0  0  0 
1702990813.785757000  -2.06067  -0.0244879  0.812626  0  0  -0.0224298  0.502002  0.858568  -0.158126  0  0  0  0.494483  0.990001  0.131611  0  0  0  0  0  0  0  0  0 
1702990813.790737000  -2.05815  -0.0201828  0.811837  0  0  -0.0228388  0.504499  0.863481  -0.157447  0  0  0  0.504327  0.975387  0.139848  0  0  0  0  0  0  0  0  0 
1702990813.795766000  -2.05562  -0.0158532  0.811051  0  0  -0.0232542  0.507045  0.868321  -0.156727  0  0  0  0.513921  0.960522  0.148335  0  0  0  0  0  0  0  0  0 
1702990813.800746000  -2.05308  -0.0114997  0.81027  0  0  -0.0236758  0.509638  0.873086  -0.155963  0  0  0  0.523265  0.945408  0.157072  0  0  0  0  0  0  0  0  0 
1702990813.805745000  -2.05053  -0.0071225  0.809492  0  0  -0.0241036  0.512277  0.877775  -0.155156  0  0  0  0.532359  0.930044  0.166059  0  0  0  0  0  0  0  0  0 
1702990813.810741000  -2.04796  -0.0027221  0.808718  0  0  -0.0245377  0.514961  0.882386  -0.154302  0  0  0  0.541203  0.914429  0.175296  0  0  0  0  0  0  0  0  0 
1702990813.815769000  -2.04538  0.0017012  0.807949  0  0  -0.024978  0.517688  0.886919  -0.153402  0  0  0  0.549797  0.898565  0.184783  0  0  0  0  0  0  0  0  0 
1702990813.820760000  -2.04278  0.006147  0.807184  0  0  -0.0254246  0.520458  0.891371  -0.152454  0  0  0  0.558142  0.88245  0.19452  0  0  0  0  0  0  0  0  0 
1702990813.825756000  -2.04017  0.0106148  0.806424  0  0  -0.0258774  0.523269  0.895743  -0.151457  0  0  0  0.566236  0.866086  0.204507  0  0  0  0  0  0  0  0  0 
1702990813.830736000  -2.03755  0.0151043  0.80567  0  0  -0.0263365  0.52612  0.900032  -0.150408  0  0  0  0.57408  0.849471  0.214744  0  0  0  0  0  0  0  0  0 
1702990813.835753000  -2.03491  0.019615  0.80492  0  0  -0.0268018  0.52901  0.904237  -0.149309  0  0  0  0.581674  0.832607  0.225231  0  0  0  0  0  0  0  0  0 
1702990813.840754000  -2.03226  0.0241465  0.804177  0  0  -0.0272734  0.531937  0.908358  -0.148156  0  0  0  0.589018  0.815493  0.235968  0  0  0  0  0  0  0  0  0 
1702990813.845748000  -2.02959  0.0286984  0.803439  0  0  -0.0277512  0.5349  0.912392  -0.146949  0  0  0  0.596112  0.798128  0.246955  0  0  0  0  0  0  0  0  0 
1702990813.850736000  -2.02691  0.0332703  0.802707  0  0  -0.0282353  0.537897  0.916338  -0.145686  0  0  0  0.602956  0.780514  0.258192  0  0  0  0  0  0  0  0  0 
1702990813.855751000  -2.02421  0.0378617  0.801982  0  0  -0.0287256  0.540929  0.920196  -0.144366  0  0  0  0.60955  0.762649  0.269679  0  0  0  0  0  0  0  0  0 
1702990813.860737000  -2.0215  0.0424721  0.801264  0  0  -0.0292222  0.543992  0.923964  -0.142989  0  0  0  0.615894  0.744535  0.281416  0  0  0  0  0  0  0  0  0 
1702990813.865747000  -2.01877  0.0471012  0.800552  0  0  -0.029725  0.547087  0.927641  -0.141552  0  0  0  0.621988  0.72617  0.293403  0  0  0  0  0  0  0  0  0 
1702990813.870742000  -2.01603  0.0517484  0.799848  0  0  -0.0302341  0.550212  0.931226  -0.140054  0  0  0  0.627832  0.707556  0.30564  0  0  0  0  0  0  0  0  0 
1702990813.875751000  -2.01327  0.0564133  0.799152  0  0  -0.0307494  0.553365  0.934716  -0.138495  0  0  0  0.633426  0.688692  0.318127  0  0  0  0  0  0  0  0  0 
1702990813.880734000  -2.0105  0.0610954  0.798464  0  0  -0.031271  0.556546  0.938112  -0.136872  0  0  0  0.63877  0.669577  0.330864  0  0  0  0  0  0  0  0  0 
1702990813.885758000  -2.00771  0.0657942  0.797783  0  0  -0.0317988  0.559752  0.941412  -0.135186  0  0  0  0.643864  0.650213  0.343851  0  0  0  0  0  0  0  0  0 
1702990813.890738000  -2.0049  0.0705093  0.797112  0  0  -0.0323329  0.562984  0.944614  -0.133434  0  0  0  0.648708  0.630598  0.356997  0  0  0  0  0  0  0  0  0 
1702990813.895751000  -2.00208  0.0752402  0.796449  0  0  -0.0328732  0.566239  0.947717  -0.131616  0  0  0  0.653302  0.610734  0.369933  0  0  0  0  0  0  0  0  0 
1702990813.900736000  -1.99924  0.0799863  0.795796  0  0  -0.0334198  0.569517  0.950721  -0.129735  0  0  0  0.657646  0.59062  0.382618  0  0  0  0  0  0  0  0  0 
1702990813.905753000  -1.99638  0.0847472  0.795152  0  0  -0.0339726  0.572815  0.953623  -0.12779  0  0  0  0.66174  0.570255  0.395053  0  0  0  0  0  0  0  0  0 
1702990813.910738000  -1.99351  0.0895224  0.794518  0  0  -0.0345317  0.576133  0.956423  -0.125785  0  0  0  0.665584  0.549641  0.407238  0  0  0  0  0  0  0  0  0 
1702990813.915748000  -1.99062  0.0943113  0.793894  0  0  -0.0350971  0.57947  0.959119  -0.123718  0  0  0  0.669178  0.528776  0.419173  0  0  0  0  0  0  0  0  0 
1702990813.920736000  -1.98771  0.0991134  0.793281  0  0  -0.0356686  0.582825  0.96171  -0.121593  0  0  0  0.672522  0.507662  0.430858  0  0  0  0  0  0  0  0  0 
1702990813.925767000  -1.98479  0.103928  0.792678  0  0  -0.0362464  0.586195  0.964195  -0.11941  0  0  0  0.675616  0.486297  0.442294  0  0  0  0  0  0  0  0  0 
1702990813.930736000  -1.98185  0.108755  0.792087  0  0  -0.0368305  0.589581  0.966573  -0.117171  0  0  0  0.67846  0.464683  0.453479  0  0  0  0  0  0  0  0  0 
1702990813.935758000  -1.97889  0.113594  0.791507  0  0  -0.0374209  0.592979  0.968842  -0.114876  0  0  0  0.681054  0.442819  0.464414  0  0  0  0  0  0  0  0  0 
1702990813.940752000  -1.97592  0.118443  0.790938  0  0  -0.0380174  0.596391  0.971001  -0.112527  0  0  0  0.683398  0.420704  0.475099  0  0  0  0  0  0  0  0  0 
1702990813.945751000  -1.97293  0.123304  0.790382  0  0  -0.0386203  0.599813  0.973048  -0.110125  0  0  0  0.685492  0.39834  0.485534  0  0  0  0  0  0  0  0  0 
1702990813.950736000  -1.96992  0.128174  0.789837  0  0  -0.0392293  0.603245  0.974984  -0.107672  0  0  0  0.687336  0.375725  0.49572  0  0  0  0  0  0  0  0  0 
1702990813.955749000  -1.9669  0.133053  0.789305  0  0  -0.0398447  0.606686  0.976805  -0.105169  0  0  0  0.68893  0.352861  0.505655  0  0  0  0  0  0  0  0  0 
1702990813.960761000  -1.96386  0.137942  0.788785  0  0  -0.0404663  0.610134  0.978512  -0.102616  0  0  0  0.690274  0.329746  0.51534  0  0  0  0  0  0  0  0  0 
1702990813.965755000  -1.9608  0.142838  0.788279  0  0  -0.0410941  0.613588  0.980102  -0.100016  0  0  0  0.691368  0.306382  0.524775  0  0  0  0  0  0  0  0  0 
1702990813.970739000  -1.95772  0.147742  0.787785  0  0  -0.0417282  0.617047  0.981575  -0.0973686  0  0  0  0.692212  0.282768  0.53396  0  0  0  0  0  0  0  0  0 
1702990813.975751000  -1.95463  0.152654  0.787305  0  0  -0.0423685  0.62051  0.98293  -0.0946764  0  0  0  0.692806  0.258903  0.542896  0  0  0  0  0  0  0  0  0 
1702990813.980772000  -1.95152  0.157572  0.786839  0  0  -0.0430151  0.623975  0.984164  -0.0919401  0  0  0  0.69315  0.234789  0.551581  0  0  0  0  0  0  0  0  0 
1702990813.985757000  -1.94839  0.162495  0.786386  0  0  -0.0436679  0.627441  0.985277  -0.089161  0  0  0  0.693244  0.210424  0.560016  0  0  0  0  0  0  0  0  0 
1702990813.990736000  -1.94524  0.167424  0.785947  0  0  -0.044327  0.630907  0.986268  -0.0863404  0  0  0  0.693088  0.18581  0.568201  0  0  0  0  0  0  0  0  0 
1702990813.995746000  -1.94208  0.172358  0.785523  0  0  -0.0449923  0.634372  0.987135  -0.0834794  0  0  0  0.692682  0.160945  0.576136  0  0  0  0  0  0  0  0  0 
1702990814.000761000  -1.9389  0.177295  0.785112  0  0  -0.0456639  0.637833  0.987877  -0.0805794  0  0  0  0.692026  0.135946  0.583822  0  0  0  0  0  0  0  0  0 
1702990814.005745000  -1.9357  0.182236  0.784717  0  0  -0.0463417  0.641291  0.988494  -0.0776416  0  0  0  0.69112  0.110946  0.591257  0  0  0  0  0  0  0  0  0 
1702990814.010735000  -1.93248  0.18718  0.784336  0  0  -0.0470258  0.644744  0.988986  -0.0746673  0  0  0  0.689964  0.0859456  0.598442  0  0  0  0  0  0  0  0  0 
1702990814.015760000  -1.92925  0.192126  0.78397  0  0  -0.0477161  0.648191  0.989354  -0.0716576  0  0  0  0.688558  0.0609456  0.605377  0  0  0  0  0  0  0  0  0 
1702990814.020765000  -1.926  0.197073  0.78362  0  0  -0.0484127  0.651629  0.989596  -0.0686139  0  0  0  0.686902  0.0359456  0.612062  0  0  0  0  0  0  0  0  0 
1702990814.025751000  -1.92274  0.202022  0.783284  0  0  -0.0491155  0.655059  0.989713  -0.0655374  0  0  0  0.684996  0.0109456  0.618498  0  0  0  0  0  0  0  0  0 
1702990814.030737000  -1.91945  0.20697  0.782964  0  0  -0.0498246  0.658479  0.989705  -0.0624293  0  0  0  0.682841  -0.0140544  0.624683  0  0  0  0  0  0  0  0  0 
1702990814.035780000  -1.91615  0.211918  0.78266  0  0  -0.0505399  0.661887  0.989573  -0.059291  0  0  0  0.680435  -0.0390544  0.630618  0  0  0  0  0  0  0  0  0 
1702990814.040761000  -1.91283  0.216866  0.782371  0  0  -0.0512615  0.665283  0.989315  -0.0561236  0  0  0  0.677779  -0.0640544  0.636303  0  0  0  0  0  0  0  0  0 
1702990814.045744000  -1.9095  0.221811  0.782099  0  0  -0.0519893  0.668665  0.988932  -0.0529284  0  0  0  0.674873  -0.0890232  0.641738  0  0  0  0  0  0  0  0  0 
