ts fx fy fz tx ty tz exfx exfy exfz extx exty extz xd yd zd rolld pitchd yawd vxd vyd vzd wxd wyd wzd axd ayd azd e_x e_y e_z e_vx e_vy e_vz e_rx e_ry e_rz e_wx e_wy e_wz
1702990812.241320000  0  0  11.9016  0.0273347  -0.086412  0.00459503  nan  nan  nan  nan  nan  nan  -2.5  -0.3  1  -4.7315e-05  -0.0119021  5.63135e-07  0  0  0  0  0  0  0  0  0  0.00190212  0.00224182  -0.0228103  0.00779548  -0.00622565  0.00460541  -0.00177202  0.0118538  -0.0128543  -0.0369658  0.0148071  0.0290098 
1702990812.245362000  0  0  11.926  0.0524706  -0.137016  0.00334099  nan  nan  nan  nan  nan  nan  -2.5  -0.3  1  0.00286184  -0.0198495  -5.68026e-05  0  0  0  0  0  0  0  0  0  0.00197215  0.00225467  -0.0228216  0.0163523  -0.0030696  0.00288778  -0.00487441  0.0195727  -0.0125697  -0.0469157  0.0107922  0.0493523 
1702990812.250358000  0  0  11.8873  0.0947285  -0.0957887  0.00383402  nan  nan  nan  nan  nan  nan  -2.5  -0.3  1  0.00991377  -0.0134085  -0.000132929  0  0  0  0  0  0  0  0  0  0.00193887  0.00230536  -0.0228027  0.00932811  0.00449355  0.00559602  -0.0117622  0.0129626  -0.0124823  -0.0363496  0.0193104  0.039607 
1702990812.255356000  0  0  11.8974  0.0283394  -0.0811161  -0.0144909  nan  nan  nan  nan  nan  nan  -2.5  -0.3  1  0.00062653  -0.0111788  -0.040007  2e-07  -2e-07  -2e-07  0  0  0  0.000125  -0.000125  -0.000125  0.00192734  0.00222982  -0.0228085  0.0069603  -0.00595805  0.00488803  -0.00203006  0.0107297  0.027344  -0.0351755  0.0203905  0.0241805 
1702990812.260340000  0  0  11.9311  0.060683  -0.139017  -0.0161804  nan  nan  nan  nan  nan  nan  -2.5  -0.3  1  0.00552629  -0.0193928  -0.0401072  1.7e-06  -1.7e-06  -1.7e-06  0  0  0  0.0005  -0.0005  -0.0005  0.00200162  0.00225332  -0.0228247  0.0160574  -0.00104891  0.00248815  -0.00670486  0.0189736  0.0277307  -0.0368331  0.0253945  0.0515587 
1702990812.265384000  0  0  11.9074  0.0953957  -0.0873264  -0.0148927  nan  nan  nan  nan  nan  nan  -2.5  -0.3  1  0.0110738  -0.0111635  -0.0401236  5.6e-06  -5.6e-06  -5.6e-06  0  0  0  0.001125  -0.001125  -0.001125  0.00195556  0.00229733  -0.0228137  0.00744048  0.00518825  0.004095  -0.0123592  0.0108715  0.0276558  -0.0282127  0.0330454  0.0287643 
1702990812.270378000  0  0  11.8999  0.0136525  -0.0879775  -0.0145142  nan  nan  nan  nan  nan  nan  -2.5  -0.3  1  -0.000364669  -0.0116551  -0.0399956  1.33e-05  -1.33e-05  -1.33e-05  0  0  0  0.002  -0.002  -0.002  0.00195816  0.00220763  -0.022812  0.00755252  -0.00719888  0.00457232  -0.000797664  0.0109681  0.02752  -0.019889  0.0330388  0.0230623 
1702990812.275349000  0  0  11.9343  0.0656108  -0.154024  -0.0160179  nan  nan  nan  nan  nan  nan  -2.5  -0.3  1  0.00781641  -0.0205674  -0.0401605  2.6e-05  -2.6e-05  -2.6e-05  0  0  0  0.003125  -0.003125  -0.003125  0.00203994  0.00225482  -0.0228306  0.0176235  0.0011332  0.00206803  -0.00861621  0.0201214  0.0278953  -0.0175131  0.0428355  0.047158 
1702990812.280391000  0  0  11.9032  0.090134  -0.0735288  -0.013465  nan  nan  nan  nan  nan  nan  -2.5  -0.3  1  0.0105116  -0.00818572  -0.0400855  4.5e-05  -4.5e-05  -4.5e-05  0  0  0  0.0045  -0.0045  -0.0045  0.00195917  0.00228118  -0.0228184  0.00449632  0.00438986  0.00413112  -0.0116605  0.00785628  0.0274994  -0.0269349  0.0490036  0.00413514 
1702990812.285374000  0  0  11.9082  0.00176125  -0.0975258  -0.0136034  nan  nan  nan  nan  nan  nan  -2.5  -0.300001  0.999999  -0.00213676  -0.0125176  -0.0399723  7.15e-05  -7.15e-05  -7.15e-05  0  0  0  0.006125  -0.006125  -0.006125  0.00198739  0.00217986  -0.0228241  0.00878077  -0.00953374  0.00367162  0.00118448  0.0117775  0.0273489  -0.0235796  0.042843  0.00797595 
1702990812.290348000  0  0  11.9359  0.0842937  -0.149601  -0.0147507  nan  nan  nan  nan  nan  nan  -2.5  -0.300001  0.999999  0.0110047  -0.0187881  -0.0402051  0.0001067  -0.0001067  -0.0001067  0  0  0  0.008  -0.008  -0.008  0.00205126  0.00226643  -0.0228415  0.0162954  0.00416732  0.00157302  -0.0115959  0.0185507  0.0276271  -0.0139104  0.0578111  0.0264297 
1702990812.295384000  0  0  11.8839  0.0802426  -0.0593389  -0.0117529  nan  nan  nan  nan  nan  nan  -2.5  -0.300002  0.999998  0.00929326  -0.00484443  -0.0400423  0.0001519  -0.0001519  -0.0001519  0  0  0  0.010125  -0.010125  -0.010125  0.00195314  0.00226279  -0.0228198  0.00138366  0.00264713  0.00505455  -0.0103056  0.00469746  0.026997  -0.025207  0.06636  -0.02264 
1702990812.300357000  0  0  11.8852  0.0134898  -0.117864  -0.0122412  nan  nan  nan  nan  nan  nan  -2.5  -0.300003  0.999997  -0.000313367  -0.0142987  -0.0399913  0.0002083  -0.0002083  -0.0002083  0  0  0  0.0125  -0.0125  -0.0125  0.00202003  0.00218054  -0.0228251  0.01136  -0.00828496  0.00479555  -0.000407169  0.013868  0.0268212  -0.025871  0.0577441  -0.0122058 
1702990812.305372000  0  0  11.9467  0.107899  -0.138006  -0.0131378  nan  nan  nan  nan  nan  nan  -2.5  -0.300004  0.999996  0.0143983  -0.0160008  -0.0402243  0.0002773  -0.0002773  -0.0002773  0  0  0  0.015125  -0.015125  -0.015125  0.00205126  0.00228396  -0.0228598  0.0141505  0.00723171  0.000263819  -0.0148943  0.0161584  0.0269501  -0.0169715  0.0689104  0.00299155 
1702990812.310358000  0  0  11.8931  0.056122  -0.0603172  -0.0101281  nan  nan  nan  nan  nan  nan  -2.49999  -0.300005  0.999995  0.00633057  -0.00427222  -0.0400184  0.00036  -0.00036  -0.00036  0  0  0  0.018  -0.018  -0.018  0.00195365  0.00223003  -0.022838  0.00145777  -0.00129616  0.00380455  -0.00710764  0.00437183  0.0261833  -0.0192644  0.0740334  -0.045097 
1702990812.315376000  0  0  11.854  0.0243219  -0.134579  -0.0107458  nan  nan  nan  nan  nan  nan  -2.49999  -0.300007  0.999993  0.00198486  -0.0156369  -0.0400191  0.0004577  -0.0004577  -0.0004577  0  0  0  0.021125  -0.021125  -0.021125  0.00203804  0.0021838  -0.0228219  0.0137339  -0.00675083  0.00630889  -0.00239279  0.0156721  0.0259517  -0.0195706  0.0685876  -0.0318178 
1702990812.320381000  0  0  11.8698  0.108393  -0.0893665  -0.0110913  nan  nan  nan  nan  nan  nan  -2.49999  -0.30001  0.99999  0.0143493  -0.00786804  -0.0400969  0.0005717  -0.0005717  -0.0005717  0  0  0  0.0245  -0.0245  -0.0245  0.00198863  0.00227444  -0.0228357  0.00630984  0.00647998  0.00492805  -0.0148114  0.00841823  0.0258148  -0.0195159  0.0780076  -0.0243258 
1702990812.325387000  0  0  11.8984  0.0375742  -0.0667157  -0.00853659  nan  nan  nan  nan  nan  nan  -2.49999  -0.300013  0.999987  0.00394039  -0.00405753  -0.0399949  0.0007031  -0.0007031  -0.0007031  0  0  0  0.028125  -0.028125  -0.028125  0.00196394  0.00219945  -0.0228494  0.00215491  -0.00487701  0.00262854  -0.00445709  0.00461584  0.0251013  -0.0178198  0.0854741  -0.0645958 
1702990812.330345000  0  0  11.8775  0.051131  -0.138275  -0.00957312  nan  nan  nan  nan  nan  nan  -2.49998  -0.300017  0.999983  0.00670317  -0.0143688  -0.040069  0.0008533  -0.0008533  -0.0008533  0  0  0  0.032  -0.032  -0.032  0.00203554  0.00220669  -0.0228407  0.0137383  -0.00274512  0.00377732  -0.00680857  0.0151527  0.0248911  -0.0121154  0.0859758  -0.0438755 
1702990812.335380000  0  0  11.8336  0.105398  -0.0869723  -0.010394  nan  nan  nan  nan  nan  nan  -2.49998  -0.300022  0.999978  0.0146661  -0.00600543  -0.0400533  0.0010235  -0.0010235  -0.0010235  0  0  0  0.036125  -0.036125  -0.036125  0.00198505  0.00226735  -0.0228211  0.00549861  0.00565846  0.00653489  -0.0148488  0.0072615  0.024746  -0.0116866  0.0911177  -0.0276545 
1702990812.340395000  0  0  11.8543  0.0337871  -0.0847186  -0.00711342  nan  nan  nan  nan  nan  nan  -2.49997  -0.300027  0.999973  0.00436481  -0.00553591  -0.0399805  0.001215  -0.001215  -0.001215  0  0  0  0.0405  -0.0405  -0.0405  0.00196834  0.00218742  -0.0228357  0.00505451  -0.0057601  0.00473342  -0.0044359  0.00678134  0.0238532  -0.00903684  0.0935227  -0.0795716 
1702990812.345364000  0  0  11.8882  0.0895787  -0.120763  -0.00919129  nan  nan  nan  nan  nan  nan  -2.49997  -0.300034  0.999966  0.0131383  -0.00984698  -0.0400751  0.001429  -0.001429  -0.001429  0  0  0  0.045125  -0.045125  -0.045125  0.00200273  0.00224357  -0.0228572  0.0105602  0.00301349  0.00198163  -0.0128892  0.0115602  0.0237164  -0.00554053  0.102403  -0.0405308 
1702990812.350380000  0  0  11.8396  0.0886178  -0.0748956  -0.00907089  nan  nan  nan  nan  nan  nan  -2.49996  -0.300042  0.999958  0.0128256  -0.00236031  -0.0399636  0.0016667  -0.0016667  -0.0016667  0  0  0  0.05  -0.05  -0.05  0.00195118  0.00224423  -0.0228326  0.00300295  0.00242884  0.00500324  -0.0126598  0.00445689  0.0233907  -0.0069675  0.107786  -0.0398677 
1702990812.355338000  0  0  11.7919  0.038435  -0.102527  -0.00559933  nan  nan  nan  nan  nan  nan  -2.49995  -0.300051  0.999949  0.00620562  -0.00642031  -0.0399588  0.0019294  -0.0019294  -0.0019294  0  0  0  0.055125  -0.055125  -0.055125  0.00197037  0.00218882  -0.0228134  0.00759  -0.00536552  0.00794157  -0.00574255  0.0086349  0.022439  0.00108778  0.106195  -0.0947475 
1702990812.360356000  0  0  11.8767  0.10159  -0.111983  -0.00782064  nan  nan  nan  nan  nan  nan  -2.49994  -0.300061  0.999939  0.015621  -0.00661166  -0.0400057  0.0022183  -0.0022183  -0.0022183  0  0  0  0.0605  -0.0605  -0.0605  0.0019746  0.002255  -0.0228597  0.00881543  0.00420766  0.00155876  -0.0149831  0.00944515  0.0222808  -0.000313803  0.115762  -0.0529068 
1702990812.365316000  0  0  11.8516  0.0747273  -0.0701347  -0.00790491  nan  nan  nan  nan  nan  nan  -2.49993  -0.300073  0.999927  0.0114797  0.000584158  -0.0398768  0.0025348  -0.0025348  -0.0025348  0  0  0  0.066125  -0.066125  -0.066125  0.00191407  0.00222773  -0.0228503  0.00153315  -0.000543064  0.00288297  -0.010851  0.00261556  0.0219326  -0.00300917  0.126366  -0.0483196 
1702990812.370420000  0  0  11.7991  0.0767293  -0.121485  -0.0043883  nan  nan  nan  nan  nan  nan  -2.49991  -0.300086  0.999914  0.0129321  -0.00642938  -0.039945  0.00288  -0.00288  -0.00288  0  0  0  0.072  -0.072  -0.072  0.00194519  0.00223163  -0.0228328  0.00973675  4.61774e-05  0.00609564  -0.0118252  0.0100086  0.0209026  0.00806582  0.129469  -0.103333 
1702990812.375349000  0  0  11.8355  0.113853  -0.0886265  -0.00735009  nan  nan  nan  nan  nan  nan  -2.4999  -0.300102  0.999898  0.0189392  -0.000916864  -0.0398551  0.0032552  -0.0032552  -0.0032552  0  0  0  0.078125  -0.0781244  -0.078125  0.00191406  0.00228006  -0.0228511  0.00474984  0.0060894  0.00306156  -0.0177032  0.00509561  0.0208072  0.0145263  0.130459  -0.0485572 
1702990812.380390000  0  0  11.8373  0.0559458  -0.0890498  -0.0052488  nan  nan  nan  nan  nan  nan  -2.49988  -0.300119  0.999881  0.0106791  -0.000167803  -0.0398124  0.0036617  -0.0036612  -0.0036617  0  0  0  0.0845  -0.084225  -0.0845  0.00188443  0.00222176  -0.0228593  0.00432677  -0.00334579  0.00242841  -0.00918492  0.0046501  0.0201363  0.0150675  0.138751  -0.080944 
1702990812.385316000  0  0  11.7877  0.090149  -0.123992  -0.00300344  nan  nan  nan  nan  nan  nan  -2.49986  -0.300138  0.999862  0.0168139  -0.00429333  -0.0398526  0.0041006  -0.004097  -0.0041006  0  0  0  0.091125  -0.0900755  -0.091125  0.00191355  0.00226355  -0.0228364  0.00967587  0.00234781  0.00536874  -0.0148923  0.00943387  0.0192466  0.0257819  0.144895  -0.114035 
1702990812.390342000  0  0  11.7953  0.105258  -0.0698432  -0.00654948  nan  nan  nan  nan  nan  nan  -2.49984  -0.30016  0.99984  0.0196995  0.00454028  -0.0396575  0.0045733  -0.0045615  -0.0045733  0  0  0  0.098  -0.0956761  -0.098  0.00184124  0.00229615  -0.0228446  0.0011418  0.00519192  0.00433059  -0.0175709  0.00121115  0.019162  0.0330832  0.148587  -0.0487148 
1702990812.395344000  0  0  11.7835  0.054059  -0.0961754  -0.0043766  nan  nan  nan  nan  nan  nan  -2.49982  -0.300184  0.999816  0.0126022  0.00180587  -0.0396876  0.005081  -0.0050534  -0.005081  0  0  0  0.105125  -0.101027  -0.105125  0.00184667  0.00224682  -0.0228438  0.00453627  -0.0030632  0.00457194  -0.0100803  0.00444105  0.018481  0.0342301  0.15934  -0.0823164 
1702990812.400409000  0  0  11.789  0.117253  -0.106564  -0.0028276  nan  nan  nan  nan  nan  nan  -2.49979  -0.300211  0.999789  0.0231486  0.00194666  -0.0396252  0.005625  -0.0055714  -0.005625  0  0  0  0.1125  -0.106127  -0.1125  0.00182841  0.0023309  -0.0228546  0.00566003  0.00761544  0.00362899  -0.0200753  0.00512005  0.0175139  0.0450487  0.173299  -0.102047 
1702990812.405333000  0  0  11.7944  0.0844859  -0.0574926  -0.00595106  nan  nan  nan  nan  nan  nan  -2.49976  -0.30024  0.999759  0.0195897  0.00944286  -0.0394417  0.0062065  -0.0061142  -0.0062065  0  0  0  0.120125  -0.110978  -0.120125  0.00176198  0.00232116  -0.0228592  -0.00164169  0.00360421  0.00267911  -0.0161307  -0.00181746  0.0174411  0.0596478  0.168252  -0.044526 
1702990812.410351000  0  0  11.7435  0.0542065  -0.110554  -0.00261743  nan  nan  nan  nan  nan  nan  -2.49973  -0.300272  0.999727  0.0161688  0.00268566  -0.0395361  0.0068267  -0.0066807  -0.0068267  0  0  0  0.128  -0.115578  -0.128  0.00179422  0.00230054  -0.0228399  0.00628743  -0.000897008  0.00557493  -0.0120693  0.0055721  0.0165515  0.0663414  0.175536  -0.0974377 
1702990812.415393000  0  0  11.7366  0.119684  -0.103448  -0.00148049  nan  nan  nan  nan  nan  nan  -2.49969  -0.300307  0.999691  0.0263827  0.0055632  -0.0393817  0.0074869  -0.0072696  -0.0074869  0  0  0  0.136125  -0.119929  -0.136125  0.00175907  0.00239034  -0.0228419  0.00456575  0.00953448  0.00546839  -0.0217803  0.00364567  0.0155842  0.0670198  0.189854  -0.109663 
1702990812.420341000  0  0  11.7702  0.0620536  -0.0631053  -0.00435507  nan  nan  nan  nan  nan  nan  -2.49965  -0.300345  0.999652  0.0190884  0.0121383  -0.0392421  0.0081883  -0.0078796  -0.0081883  0  0  0  0.1445  -0.124029  -0.1445  0.0016845  0.00235711  -0.0228633  -0.001792  0.00166032  0.00246829  -0.0139517  -0.00233716  0.0154983  0.0781532  0.190264  -0.0565587 
1702990812.425384000  0  0  11.7264  0.0573053  -0.121623  -0.000661333  nan  nan  nan  nan  nan  nan  -2.49961  -0.300385  0.999609  0.0200876  0.00440725  -0.0393266  0.0089323  -0.0085095  -0.0089323  0  0  0  0.153125  -0.12788  -0.153125  0.00172375  0.00237171  -0.0228454  0.00742918  0.00188776  0.00479631  -0.0141181  0.00616046  0.0144296  0.092315  0.192617  -0.114459 
1702990812.430357000  0  0  11.6845  0.106306  -0.0835611  -0.00105444  nan  nan  nan  nan  nan  nan  -2.49956  -0.30043  0.999563  0.0278239  0.012043  -0.0390174  0.00972  -0.009158  -0.00972  0  0  0  0.162  -0.131481  -0.162  0.00164798  0.00245209  -0.0228286  0.000700578  0.0098416  0.00714475  -0.0213306  -0.00046637  0.0136222  0.0919274  0.209037  -0.100222 
1702990812.435386000  0  0  11.7452  0.038273  -0.0716616  -0.00290687  nan  nan  nan  nan  nan  nan  -2.49951  -0.300477  0.999512  0.0186833  0.0148008  -0.0390096  0.0105527  -0.0098239  -0.0105527  0  0  0  0.171125  -0.134831  -0.171125  0.0015969  0.00240642  -0.0228633  -0.00162552  1.67229e-05  0.00213981  -0.0115424  -0.00248516  0.0134453  0.0961494  0.213305  -0.0649347 
1702990812.440377000  0  0  11.725  0.0685831  -0.121111  0.000731897  nan  nan  nan  nan  nan  nan  -2.49946  -0.300528  0.999457  0.0247534  0.00872274  -0.0389996  0.0114317  -0.0105059  -0.0114317  0  0  0  0.1805  -0.137932  -0.1805  0.00162419  0.00246615  -0.0228547  0.00611604  0.00577961  0.0027796  -0.0167413  0.00453308  0.0122482  0.107947  0.217945  -0.120708 
1702990812.445325000  0  0  11.6085  0.0906145  -0.0670735  -0.000629805  nan  nan  nan  nan  nan  nan  -2.4994  -0.300582  0.999398  0.0287797  0.018556  -0.0386068  0.0123581  -0.0112028  -0.0123581  0  0  0  0.190125  -0.140782  -0.190125  0.00152819  0.00252348  -0.0227982  -0.00286177  0.0097538  0.0103246  -0.020149  -0.00425598  0.0115904  0.110465  0.231151  -0.0901419 
1702990812.450342000  0  0  11.653  0.0263538  -0.0878917  -0.00100828  nan  nan  nan  nan  nan  nan  -2.49933  -0.30064  0.999333  0.0202142  0.0164751  -0.0387293  0.0133333  -0.0119133  -0.0133333  0  0  0  0.2  -0.143383  -0.2  0.00150143  0.00248418  -0.0228217  5.30447e-05  0.000446535  0.0063203  -0.0108192  -0.00132686  0.0112391  0.113075  0.233521  -0.0801702 
1702990812.455336000  0  0  11.7319  0.0743867  -0.117556  0.00194324  nan  nan  nan  nan  nan  nan  -2.49926  -0.300701  0.999264  0.0285257  0.0135105  -0.0385942  0.0143585  -0.0126362  -0.0143585  0  0  0  0.210125  -0.145733  -0.210044  0.00149711  0.00256739  -0.0228596  0.00455542  0.00896233  2.16376e-06  -0.0182836  0.0027044  0.0100121  0.119133  0.239224  -0.123165 
1702990812.460356000  0  0  11.6108  0.0627441  -0.0622418  0.000182402  nan  nan  nan  nan  nan  nan  -2.49919  -0.300766  0.99919  0.0273045  0.0233935  -0.0382542  0.015435  -0.0133702  -0.0154334  0  0  0  0.2205  -0.147834  -0.219886  0.00139836  0.00258997  -0.0227959  -0.00455203  0.00745161  0.00782301  -0.0164214  -0.00610846  0.00950163  0.1168  0.249742  -0.0866218 
1702990812.465371000  0  0  11.561  0.017371  -0.101568  0.000710195  nan  nan  nan  nan  nan  nan  -2.49911  -0.300835  0.99911  0.021616  0.0187156  -0.0383976  0.016564  -0.0141141  -0.0165569  0  0  0  0.231125  -0.149685  -0.229477  0.00139461  0.00257053  -0.0227695  0.00141722  0.000946259  0.0104223  -0.00991225  -0.000434234  0.0089587  0.119924  0.251917  -0.0914739 
1702990812.470356000  0  0  11.6584  0.0735417  -0.104697  0.00279835  nan  nan  nan  nan  nan  nan  -2.49902  -0.300907  0.999024  0.0306979  0.0201929  -0.0380874  0.0177467  -0.0148666  -0.0177277  0  0  0  0.242  -0.151285  -0.238818  0.00134948  0.00266608  -0.0228117  0.00130634  0.0105051  0.00293719  -0.0182295  -0.000693663  0.00774789  0.120286  0.263695  -0.118888 
1702990812.475403000  0  0  11.6301  0.0288944  -0.070485  0.0011867  nan  nan  nan  nan  nan  nan  -2.49893  -0.300984  0.998932  0.0243457  0.0272615  -0.0379448  0.0189844  -0.0156265  -0.0189447  0  0  0  0.253125  -0.152636  -0.247909  0.0012535  0.00265479  -0.0227936  -0.0050312  0.00380344  0.00423542  -0.0112077  -0.00660776  0.0073394  0.113293  0.277762  -0.0859557 
1702990812.480374000  0  0  11.5391  0.0221057  -0.110357  0.00243171  nan  nan  nan  nan  nan  nan  -2.49883  -0.301064  0.998834  0.0243606  0.0225895  -0.0379554  0.0202783  -0.0163926  -0.0202064  0  0  0  0.2645  -0.153736  -0.25675  0.00125209  0.00267727  -0.0227393  0.00134275  0.00324095  0.00980609  -0.010446  -0.000752324  0.00657002  0.117224  0.278295  -0.101884 
1702990812.485355000  0  0  11.6032  0.0678324  -0.0904845  0.00367747  nan  nan  nan  nan  nan  nan  -2.49873  -0.301148  0.99873  0.031744  0.0274571  -0.0375273  0.0216298  -0.0171635  -0.0215117  0  0  0  0.276125  -0.154587  -0.265341  0.00118502  0.00276458  -0.022763  -0.0022825  0.0111222  0.0047759  -0.0171182  -0.00430296  0.00544413  0.115909  0.28835  -0.114701 
1702990812.490322000  0  0  11.5843  0.0169531  -0.0712248  0.00268461  nan  nan  nan  nan  nan  nan  -2.49862  -0.301235  0.998619  0.0242917  0.0323778  -0.0375021  0.02304  -0.017938  -0.0228594  0  0  0  0.288  -0.155187  -0.273682  0.00110182  0.00274336  -0.0227431  -0.00630105  0.00331899  0.00541379  -0.00906752  -0.00793017  0.00505348  0.107143  0.301131  -0.0931945 
1702990812.495379000  0  0  11.5101  0.02364  -0.116458  0.00390461  nan  nan  nan  nan  nan  nan  -2.4985  -0.301327  0.998502  0.0261281  0.0270546  -0.0374674  0.0245102  -0.0187149  -0.0242482  0  0  0  0.300125  -0.155538  -0.281773  0.00109722  0.00277889  -0.0226991  0.000902515  0.00474047  0.00986666  -0.0101469  -0.00131401  0.00417077  0.108643  0.30217  -0.107674 
1702990812.500423000  0  0  11.5165  0.0402203  -0.0649928  0.00433613  nan  nan  nan  nan  nan  nan  -2.49837  -0.301423  0.998377  0.029137  0.0364042  -0.0369956  0.0260417  -0.019493  -0.0256767  0  0  0  0.3125  -0.155638  -0.289614  0.000976215  0.00283509  -0.0226946  -0.00726766  0.00813127  0.00901787  -0.0124736  -0.00931683  0.003203  0.106655  0.308743  -0.107049 
1702990812.505423000  0  0  11.544  4.30241e-05  -0.0877527  0.00395695  nan  nan  nan  nan  nan  nan  -2.49824  -0.301522  0.998245  0.023114  0.0350967  -0.0371236  0.0276356  -0.0202709  -0.0271439  0  0  0  0.325125  -0.155489  -0.297206  0.000933537  0.00282198  -0.0226965  -0.00476356  0.00182016  0.00634193  -0.00589467  -0.00659609  0.00274342  0.0961146  0.319195  -0.096114 
1702990812.510341000  0  0  11.5184  0.0309545  -0.110992  0.00486045  nan  nan  nan  nan  nan  nan  -2.4981  -0.301625  0.998105  0.0278067  0.0336691  -0.0368735  0.0292933  -0.0210475  -0.0286484  0  0  0  0.338  -0.15509  -0.304547  0.000902992  0.00288058  -0.0226666  -0.00155609  0.00654713  0.00754292  -0.0100361  -0.00370281  0.00182065  0.0892035  0.327986  -0.104478 
1702990812.515400000  0  0  11.5114  0.0235744  -0.0656711  0.00542256  nan  nan  nan  nan  nan  nan  -2.49795  -0.301732  0.997958  0.0267446  0.0423497  -0.0365487  0.031016  -0.0218214  -0.0301889  0  0  0  0.351125  -0.15444  -0.311638  0.000783041  0.00290612  -0.0226544  -0.00905923  0.00572825  0.00764679  -0.00842832  -0.0109157  0.000977193  0.0807488  0.336477  -0.107321 
1702990812.520396000  0  0  11.5096  -0.0059321  -0.0911895  0.00526799  nan  nan  nan  nan  nan  nan  -2.49779  -0.301843  0.997803  0.0224519  0.0406252  -0.0366376  0.032805  -0.0225914  -0.0317643  0  0  0  0.3645  -0.153541  -0.318479  0.000740415  0.00290092  -0.0226383  -0.00587356  0.00122595  0.00708704  -0.00368775  -0.0076102  0.000457407  0.0744942  0.344033  -0.0999489 
1702990812.525390000  0  0  11.5035  0.0396086  -0.0984721  0.0058608  nan  nan  nan  nan  nan  nan  -2.49762  -0.301958  0.99764  0.0290246  0.0421299  -0.036192  0.0346615  -0.0233564  -0.0333733  0  0  0  0.378125  -0.152391  -0.32507  0.000667772  0.00297374  -0.0226236  -0.00556464  0.0081226  0.00710522  -0.00977222  -0.00752271  -0.000569966  0.0640347  0.360159  -0.101738 
1702990812.530358000  0  0  11.4989  0.0146847  -0.0685015  0.00658157  nan  nan  nan  nan  nan  nan  -2.49744  -0.302077  0.99747  0.0257393  0.0483764  -0.036032  0.0365867  -0.0241149  -0.0350146  0  0  0  0.392  -0.150992  -0.331411  0.000564985  0.00298294  -0.0226042  -0.0105385  0.00499009  0.00701662  -0.00604346  -0.0121373  -0.00127495  0.0632496  0.36324  -0.108684 
1702990812.535337000  0  0  11.4858  -0.00863859  -0.104479  0.00637427  nan  nan  nan  nan  nan  nan  -2.49725  -0.302199  0.99729  0.0218701  0.0452102  -0.0361477  0.0385817  -0.0248659  -0.036687  0  0  0  0.405977  -0.149342  -0.337502  0.000519654  0.0029764  -0.0225835  -0.00569611  0.000946493  0.0072543  -0.00186811  -0.00728275  -0.00181429  0.0513162  0.370723  -0.10018 
1702990812.540419000  0  0  11.4669  0.0378381  -0.0931945  0.00684623  nan  nan  nan  nan  nan  nan  -2.49705  -0.302326  0.997103  0.0279931  0.0496632  -0.035603  0.040646  -0.025608  -0.0383892  0  0  0  0.419717  -0.147443  -0.343343  0.000420905  0.00304427  -0.0225633  -0.00837142  0.00751492  0.00833643  -0.00767588  -0.00996761  -0.00283957  0.0340842  0.387346  -0.099787 
1702990812.545391000  0  0  11.4602  -0.0024782  -0.0820139  0.00785999  nan  nan  nan  nan  nan  nan  -2.49684  -0.302456  0.996906  0.0218647  0.0534456  -0.035679  0.0427784  -0.0263399  -0.04012  0  0  0  0.433207  -0.145294  -0.348935  0.000319752  0.00302943  -0.0225415  -0.010862  0.00145277  0.00834775  -0.00128425  -0.0119881  -0.00345703  0.0269364  0.393375  -0.112836 
1702990812.550346000  0  0  11.475  4.10126e-05  -0.11339  0.00717676  nan  nan  nan  nan  nan  nan  -2.49663  -0.302589  0.996701  0.022107  0.0508294  -0.0355757  0.0449777  -0.0270605  -0.0418781  0  0  0  0.446448  -0.142894  -0.354276  0.000280316  0.00304964  -0.0225275  -0.00666993  0.0018322  0.00674917  -0.00134254  -0.00757683  -0.0040673  0.0218153  0.397002  -0.095043 
1702990812.555321000  0  0  11.4273  0.0371566  -0.0980543  0.00747838  nan  nan  nan  nan  nan  nan  -2.49639  -0.302726  0.996488  0.0264907  0.0557907  -0.0350713  0.0472425  -0.0277684  -0.0436624  0  0  0  0.459438  -0.140245  -0.359367  0.000166819  0.0031034  -0.0224847  -0.0098264  0.00661955  0.00989691  -0.00562086  -0.0106613  -0.00495975  0.00218303  0.410384  -0.092712 
1702990812.560325000  0  0  11.44  -0.00271373  -0.0893854  0.00910949  nan  nan  nan  nan  nan  nan  -2.49615  -0.302867  0.996265  0.0203663  0.0592696  -0.03519  0.0495716  -0.0284625  -0.0454714  0  0  0  0.472178  -0.137345  -0.364208  6.21279e-05  0.0030829  -0.0224716  -0.012149  0.000708244  0.00861536  0.000617663  -0.012239  -0.00563349  -0.00354062  0.415239  -0.116511 
1702990812.565329000  0  0  11.487  0.00983693  -0.124058  0.00755191  nan  nan  nan  nan  nan  nan  -2.4959  -0.303011  0.996033  0.021802  0.0564995  -0.0350113  0.0519639  -0.0291415  -0.047304  0  0  0  0.484668  -0.134196  -0.368799  6.25946e-06  0.00310785  -0.0224764  -0.00796296  0.00246884  0.00483234  -0.00079428  -0.00755779  -0.00617682  -0.0107469  0.422407  -0.0833812 
1702990812.570347000  0  0  11.4301  0.0274641  -0.099701  0.00835082  nan  nan  nan  nan  nan  nan  -2.49563  -0.303158  0.995792  0.0230712  0.0624885  -0.0346461  0.0544179  -0.029804  -0.049159  0  0  0  0.496909  -0.130796  -0.37314  -0.000118752  0.00313538  -0.0224253  -0.0122881  0.0041567  0.00868923  -0.00213114  -0.0115971  -0.00695352  -0.0314157  0.429628  -0.0911215 
1702990812.575407000  0  0  11.3922  -0.00625643  -0.104776  0.0100781  nan  nan  nan  nan  nan  nan  -2.49535  -0.303309  0.995541  0.0178396  0.0637546  -0.0347935  0.0569325  -0.030449  -0.051035  0  0  0  0.508899  -0.127147  -0.377231  -0.000212915  0.00311102  -0.022389  -0.0120723  -0.000904872  0.0109504  0.00305922  -0.0108691  -0.00765612  -0.0348543  0.429978  -0.116419 
1702990812.580386000  0  0  11.4511  0.0149305  -0.126525  0.00781326  nan  nan  nan  nan  nan  nan  -2.49506  -0.303463  0.995281  0.0202307  0.0631148  -0.0344959  0.0595065  -0.0310751  -0.0529309  0  0  0  0.520639  -0.123247  -0.381072  -0.000296611  0.00314111  -0.0223947  -0.0101929  0.00200384  0.00648629  0.000526921  -0.00824577  -0.00809549  -0.0445908  0.439583  -0.07132 
1702990812.585392000  0  0  11.44  0.0185368  -0.111857  0.00925284  nan  nan  nan  nan  nan  nan  -2.49476  -0.303619  0.995012  0.0191066  0.0678674  -0.034317  0.0621385  -0.0316811  -0.0548453  0  0  0  0.532129  -0.119098  -0.384663  -0.000414044  0.00314437  -0.0223666  -0.013636  0.00138549  0.00712862  0.00138147  -0.0109365  -0.00879762  -0.0672327  0.448147  -0.0913816 
1702990812.590342000  0  0  11.387  0.00389212  -0.120156  0.0104038  nan  nan  nan  nan  nan  nan  -2.49444  -0.303779  0.994733  0.0163041  0.0682246  -0.0343412  0.0648274  -0.0322657  -0.0567771  0  0  0  0.54337  -0.114699  -0.388005  -0.000513493  0.00313455  -0.022314  -0.0123311  -0.00114977  0.0104905  0.00394876  -0.00936733  -0.00950426  -0.0738373  0.442538  -0.106147 
1702990812.595369000  0  0  11.4131  0.0155973  -0.125719  0.00760571  nan  nan  nan  nan  nan  nan  -2.49411  -0.303942  0.994444  0.0173004  0.0696478  -0.0340878  0.0675718  -0.0328276  -0.0587249  0  0  0  0.55436  -0.110049  -0.391096  -0.000614121  0.00314662  -0.0223045  -0.0125199  0.00042802  0.00845629  0.00265502  -0.00875815  -0.00972032  -0.080935  0.446004  -0.0532954 
1702990812.600393000  0  0  11.4158  0.0134985  -0.127059  0.0101047  nan  nan  nan  nan  nan  nan  -2.49377  -0.304108  0.994145  0.0151481  0.0720472  -0.0340398  0.0703705  -0.0333657  -0.0606876  0  0  0  0.5651  -0.10515  -0.393937  -0.000722669  0.00313673  -0.022279  -0.0137038  -0.00120236  0.00807586  0.0043241  -0.00905281  -0.0104672  -0.10312  0.454043  -0.092258 
1702990812.605357000  0  0  11.3896  0.0165319  -0.132961  0.0104807  nan  nan  nan  nan  nan  nan  -2.49341  -0.304276  0.993837  0.0146673  0.0730202  -0.033898  0.0732224  -0.0338787  -0.0626639  0  0  0  0.57559  -0.1  -0.396528  -0.000827773  0.00313572  -0.0222393  -0.0131766  -0.00118128  0.00969588  0.00438713  -0.00805037  -0.0111598  -0.111461  0.451908  -0.0930337 
1702990812.610379000  0  0  11.3922  0.0127633  -0.128643  0.0078992  nan  nan  nan  nan  nan  nan  -2.49303  -0.304446  0.993519  0.0131523  0.0753909  -0.0338148  0.076126  -0.0343653  -0.0646525  0  0  0  0.58583  -0.0946008  -0.398869  -0.000951061  0.0031246  -0.0222133  -0.0143132  -0.00208907  0.00937818  0.00541876  -0.00842636  -0.0111594  -0.119216  0.447636  -0.0460241 
1702990812.615329000  0  0  11.3861  0.0179573  -0.144329  0.0108624  nan  nan  nan  nan  nan  nan  -2.49265  -0.304619  0.993191  0.0120225  0.07534  -0.0337375  0.0790803  -0.0348243  -0.0666522  0  0  0  0.595821  -0.0889514  -0.40096  -0.00104483  0.00311443  -0.0221817  -0.0129527  -0.00266759  0.00955647  0.00588906  -0.00633569  -0.012017  -0.139413  0.451321  -0.0924709 
1702990812.620385000  0  0  11.3883  0.0279533  -0.136646  0.010029  nan  nan  nan  nan  nan  nan  -2.49224  -0.304795  0.992852  0.0124921  0.0785591  -0.0334988  0.0820838  -0.0352544  -0.0686617  0  0  0  0.605561  -0.0830519  -0.402801  -0.00117404  0.00311534  -0.0221546  -0.014937  -0.00146219  0.0093919  0.0048638  -0.00754195  -0.0125372  -0.146773  0.45249  -0.0727328 
1702990812.625382000  0  0  11.407  0.00421833  -0.141418  0.008081  nan  nan  nan  nan  nan  nan  -2.49182  -0.304972  0.992504  0.00802019  0.0794167  -0.0336794  0.0851354  -0.0356544  -0.0706798  0  0  0  0.615051  -0.0769079  -0.404392  -0.00128744  0.00307573  -0.0221371  -0.0148198  -0.00532743  0.0078924  0.00866875  -0.00640781  -0.0123482  -0.151668  0.445482  -0.0389129 
1702990812.630383000  0  0  11.3761  0.0296058  -0.161786  0.0111602  nan  nan  nan  nan  nan  nan  -2.49139  -0.305151  0.992145  0.00987967  0.078166  -0.0333805  0.0882339  -0.0360237  -0.0727052  0  0  0  0.624291  -0.0708318  -0.405734  -0.00137656  0.00307888  -0.0220914  -0.0120103  -0.00285208  0.00982769  0.00601039  -0.00323142  -0.0134188  -0.169472  0.442732  -0.0856043 
1702990812.635417000  0  0  11.361  0.0273625  -0.13464  0.00912663  nan  nan  nan  nan  nan  nan  -2.49094  -0.305332  0.991777  0.00781535  0.0840761  -0.0333319  0.0913779  -0.0363631  -0.0747367  0  0  0  0.633282  -0.0650056  -0.406825  -0.00152747  0.00305568  -0.0220588  -0.0167731  -0.00414891  0.0110884  0.00734072  -0.007199  -0.0135073  -0.185779  0.442057  -0.047794 
1702990812.640380000  0  0  11.3984  0.0038934  -0.160352  0.0088706  nan  nan  nan  nan  nan  nan  -2.49048  -0.305515  0.991398  0.00357631  0.0816888  -0.0335325  0.0945663  -0.0366741  -0.076773  0  0  0  0.642022  -0.0594295  -0.407666  -0.00161197  0.00301101  -0.022044  -0.0135669  -0.0079132  0.00813355  0.0107407  -0.00287134  -0.0135249  -0.184705  0.433396  -0.0429771 
1702990812.645360000  0  0  11.3937  0.0517887  -0.173112  0.0112181  nan  nan  nan  nan  nan  nan  -2.49  -0.305699  0.991009  0.00875331  0.0810916  -0.0329513  0.0977977  -0.0369579  -0.0788129  0  0  0  0.650512  -0.0541034  -0.408257  -0.0017069  0.00303003  -0.0220118  -0.0115731  -0.0020557  0.00837093  0.00465669  -0.000533472  -0.0147195  -0.200847  0.425993  -0.0752563 
1702990812.650384000  0  0  11.3531  0.0332312  -0.132245  0.00953144  nan  nan  nan  nan  nan  nan  -2.4895  -0.305884  0.99061  0.00445353  0.0884097  -0.0331033  0.101071  -0.0372156  -0.0808552  0  0  0  0.658752  -0.0490273  -0.408598  -0.00186701  0.00298513  -0.0219596  -0.0177315  -0.0056654  0.0115519  0.00809156  -0.00601911  -0.0145845  -0.212182  0.417026  -0.0457224 
1702990812.655384000  0  0  11.3704  0.0244746  -0.178668  0.00986251  nan  nan  nan  nan  nan  nan  -2.48899  -0.306071  0.990201  0.00186563  0.0823043  -0.0331792  0.104385  -0.0374485  -0.0828985  0  0  0  0.666743  -0.0442011  -0.408689  -0.00193663  0.0029405  -0.0219453  -0.0105701  -0.00793422  0.00985197  0.00966601  0.001734  -0.0148201  -0.216774  0.402375  -0.0496862 
1702990812.660356000  0  0  11.3979  0.0700227  -0.168681  0.0107601  nan  nan  nan  nan  nan  nan  -2.48846  -0.306259  0.989781  0.00703142  0.0854969  -0.0325683  0.107738  -0.037658  -0.0849416  0  0  0  0.674483  -0.039625  -0.40853  -0.0020551  0.00295545  -0.0219226  -0.0127944  -0.00201319  0.00812406  0.0035444  0.000254423  -0.0157674  -0.226645  0.402452  -0.057729 
1702990812.665359000  0  0  11.3636  0.0251755  -0.135795  0.00969372  nan  nan  nan  nan  nan  nan  -2.48791  -0.306447  0.989351  -0.00138563  0.0915807  -0.0331315  0.111129  -0.0378452  -0.0869834  0  0  0  0.681973  -0.0352989  -0.408121  -0.00220748  0.00287154  -0.0218758  -0.0179459  -0.00989423  0.0108525  0.0109139  -0.00405972  -0.0153132  -0.238832  0.3936  -0.0422896 
1702990812.670364000  0  0  11.3816  0.0302362  -0.192759  0.00995261  nan  nan  nan  nan  nan  nan  -2.48734  -0.306637  0.988911  -0.00128316  0.0835361  -0.032948  0.114557  -0.0380114  -0.0890224  0  0  0  0.689213  -0.0312228  -0.407462  -0.00226349  0.002837  -0.0218584  -0.00879173  -0.00955526  0.00901412  0.00975669  0.00547039  -0.015764  -0.232142  0.375352  -0.0430518 
1702990812.675393000  0  0  11.3885  0.0703427  -0.143447  0.0102607  nan  nan  nan  nan  nan  nan  -2.48676  -0.306827  0.988461  0.00321976  0.091776  -0.0323819  0.118021  -0.0381579  -0.0910576  0  0  0  0.696203  -0.0273966  -0.406554  -0.00242373  0.00283978  -0.0218353  -0.0161087  -0.00421557  0.00917629  0.00436506  -0.00133497  -0.0165286  -0.240812  0.367569  -0.0419599 
1702990812.680387000  0  0  11.3866  0.0234046  -0.149709  0.0103413  nan  nan  nan  nan  nan  nan  -2.48616  -0.307019  0.988001  -0.00570596  0.0922115  -0.0330385  0.121519  -0.0382858  -0.0930876  0  0  0  0.702944  -0.0238205  -0.405395  -0.00253218  0.00274595  -0.0218044  -0.0158499  -0.0128511  0.0093236  0.0120422  -7.87946e-05  -0.0161536  -0.25298  0.36216  -0.0467153 
1702990812.685370000  0  0  11.4327  0.0557806  -0.203194  0.0100999  nan  nan  nan  nan  nan  nan  -2.48555  -0.30721  0.98753  -0.00152411  0.0843281  -0.0324775  0.12505  -0.0383965  -0.0951111  0  0  0  0.709434  -0.0204944  -0.403986  -0.00257148  0.0027315  -0.0218053  -0.00705159  -0.00839922  0.00558832  0.00677829  0.00903688  -0.0168704  -0.245101  0.34229  -0.0360351 
1702990812.690401000  0  0  11.407  0.0681862  -0.132223  0.0101564  nan  nan  nan  nan  nan  nan  -2.48491  -0.307402  0.987049  -0.00104576  0.0952912  -0.0322847  0.128613  -0.0384912  -0.097127  0  0  0  0.715674  -0.0174183  -0.402327  -0.0027563  0.00270125  -0.0217675  -0.0171219  -0.00714125  0.00830155  0.00537607  -0.000642676  -0.0172027  -0.252116  0.329214  -0.0341515 
1702990812.695336000  0  0  11.3641  0.0227361  -0.161715  0.0110419  nan  nan  nan  nan  nan  nan  -2.48426  -0.307595  0.986559  -0.0096469  0.0919794  -0.0329074  0.132206  -0.0385711  -0.099134  0  0  0  0.721664  -0.0145921  -0.400418  -0.00283661  0.00260199  -0.0217164  -0.0127477  -0.0156197  0.0111096  0.012662  0.00413455  -0.0169561  -0.261487  0.322325  -0.0524385 
1702990812.700376000  0  0  11.4447  0.0793472  -0.194458  0.009684  nan  nan  nan  nan  nan  nan  -2.48359  -0.307788  0.986058  -0.00166443  0.0874971  -0.0320028  0.135829  -0.0386375  -0.101131  0  0  0  0.727405  -0.012016  -0.398259  -0.0029017  0.00261031  -0.0217361  -0.00767634  -0.00725748  0.0052624  0.00368033  0.00967498  -0.0178087  -0.25134  0.310817  -0.0202347 
1702990812.705336000  0  0  11.4048  0.0779372  -0.136087  0.00985166  nan  nan  nan  nan  nan  nan  -2.4829  -0.307981  0.985548  -0.00322998  0.0966477  -0.0320052  0.13948  -0.0386917  -0.103116  0  0  0  0.732895  -0.0096899  -0.39585  -0.00306656  0.00256184  -0.0216869  -0.0159296  -0.00821979  0.0089026  0.00425732  0.00171323  -0.0179216  -0.257359  0.300073  -0.0222984 
1702990812.710404000  0  0  11.3672  0.0477024  -0.182572  0.0110083  nan  nan  nan  nan  nan  nan  -2.4822  -0.308175  0.985027  -0.00907998  0.0898287  -0.0323442  0.143158  -0.0387348  -0.105089  0  0  0  0.738135  -0.0076138  -0.393191  -0.00311105  0.00246863  -0.0216604  -0.00802721  -0.0140557  0.0111826  0.00885516  0.00962218  -0.0179598  -0.259529  0.283027  -0.0430269 
1702990812.715317000  0  0  11.4652  0.0967338  -0.183818  0.00908336  nan  nan  nan  nan  nan  nan  -2.48147  -0.308369  0.984497  -0.00233565  0.0900719  -0.0315758  0.146861  -0.0387682  -0.107048  0  0  0  0.743125  -0.0057877  -0.390283  -0.00321666  0.00247041  -0.0216763  -0.00805038  -0.00687793  0.00449777  0.00115091  0.0103381  -0.0185529  -0.251963  0.274346  -0.00277106 
1702990812.720366000  0  0  11.43  0.0740115  -0.146327  0.00994871  nan  nan  nan  nan  nan  nan  -2.48073  -0.308563  0.983957  -0.00689712  0.0963455  -0.0318653  0.150588  -0.0387931  -0.108991  0  0  0  0.747866  -0.0042115  -0.387124  -0.00334794  0.00239235  -0.0216374  -0.0136129  -0.0110572  0.00768459  0.00466819  0.00518709  -0.0184572  -0.254603  0.268052  -0.0193703 
1702990812.725399000  0  0  11.4146  0.0697615  -0.181138  0.0105059  nan  nan  nan  nan  nan  nan  -2.47997  -0.308757  0.983407  -0.00835167  0.0910707  -0.0317974  0.154339  -0.0388107  -0.110918  0  0  0  0.752356  -0.0028854  -0.383715  -0.00340473  0.00232669  -0.0216208  -0.00738835  -0.0124411  0.00857938  0.00502596  0.0113005  -0.0187684  -0.250198  0.252175  -0.0267896 
1702990812.730396000  0  0  11.4591  0.0976166  -0.161259  0.0084132  nan  nan  nan  nan  nan  nan  -2.47918  -0.308951  0.982847  -0.00491219  0.0937785  -0.0313339  0.158112  -0.0388224  -0.112828  0  0  0  0.756596  -0.0018093  -0.380056  -0.00351884  0.00229765  -0.0216248  -0.00972624  -0.00860112  0.00593706  0.000672914  0.00934872  -0.0189897  -0.246288  0.236117  0.013263 
1702990812.735350000  0  0  11.428  0.0761399  -0.155682  0.00986204  nan  nan  nan  nan  nan  nan  -2.47838  -0.309145  0.982279  -0.00889521  0.0952566  -0.0315561  0.161905  -0.0388292  -0.114719  0  0  0  0.760586  -0.0009831  -0.376147  -0.00361664  0.00222114  -0.0215842  -0.0104464  -0.0124134  0.008502  0.00363108  0.00884464  -0.0189875  -0.242805  0.2309  -0.0131422 
1702990812.740322000  0  0  11.4363  0.0794077  -0.175194  0.0103622  nan  nan  nan  nan  nan  nan  -2.47757  -0.309339  0.9817  -0.00865425  0.0924909  -0.0313454  0.165717  -0.0388326  -0.116589  0  0  0  0.764326  -0.000407  -0.371988  -0.00368269  0.00217013  -0.0215683  -0.00704279  -0.0120756  0.00797403  0.00247256  0.0123364  -0.0193712  -0.231771  0.220939  -0.0188873 
1702990812.745381000  0  0  11.5165  0.0943965  -0.166724  0.00835962  nan  nan  nan  nan  nan  nan  -2.47673  -0.309533  0.981113  -0.00703943  0.0933275  -0.0310382  0.169548  -0.0388337  -0.118438  0  0  0  0.767817  -8.09e-05  -0.367579  -0.00376557  0.00212348  -0.0216022  -0.00795931  -0.0102478  0.00276967  -1.54414e-05  0.0121186  -0.0193946  -0.227291  0.204077  0.0177883 
1702990812.750388000  0  0  11.5021  0.0895197  -0.164155  0.00972285  nan  nan  nan  nan  nan  nan  -2.47587  -0.309727  0.980516  -0.0081407  0.0934117  -0.0309776  0.173395  -0.0388338  -0.120264  0  0  0  0.771057  2.9e-06  -0.36292  -0.00385556  0.00206196  -0.0215843  -0.0073721  -0.0112323  0.00413716  0.000285486  0.0126142  -0.0196205  -0.220447  0.189795  -0.0050576 
1702990812.755346000  0  0  11.4256  0.088784  -0.167031  0.00987091  nan  nan  nan  nan  nan  nan  -2.47499  -0.309922  0.97991  -0.00807539  0.0936312  -0.0308094  0.177258  -0.0388335  -0.122067  0  0  0  0.774047  0.0001658  -0.358011  -0.00393471  0.0020123  -0.0215262  -0.00640905  -0.0109823  0.00984987  -0.000530051  0.013101  -0.0198572  -0.205362  0.18878  -0.00567931 
1702990812.760364000  0  0  11.5183  0.0872956  -0.172644  0.00829198  nan  nan  nan  nan  nan  nan  -2.4741  -0.310116  0.979295  -0.00877734  0.0925039  -0.0307012  0.181135  -0.0388318  -0.123844  0  0  0  0.776787  0.0005787  -0.352853  -0.0040041  0.00195269  -0.0215603  -0.00556485  -0.0116101  0.00365854  -0.000620036  0.0147462  -0.0197032  -0.200305  0.175458  0.0217259 
1702990812.765368000  0  0  11.5247  0.106048  -0.174675  0.00852539  nan  nan  nan  nan  nan  nan  -2.47318  -0.31031  0.978672  -0.00652568  0.0919844  -0.0303259  0.185025  -0.0388273  -0.125595  0  0  0  0.779278  0.0012416  -0.347444  -0.00407243  0.00191503  -0.0215563  -0.00454986  -0.00910716  0.00356762  -0.00358877  0.015707  -0.0200187  -0.19705  0.164669  0.0202404 
1702990812.770336000  0  0  11.4707  0.0870158  -0.156786  0.00938046  nan  nan  nan  nan  nan  nan  -2.47225  -0.310504  0.978039  -0.00880167  0.094374  -0.030392  0.188927  -0.0388189  -0.127318  0  0  0  0.781518  0.0021545  -0.341785  -0.00416388  0.00185228  -0.0215114  -0.00618448  -0.0111383  0.00797967  -0.00184841  0.013771  -0.02008  -0.17958  0.153149  0.00520604 
1702990812.775329000  0  0  11.515  0.0825196  -0.1802  0.0081054  nan  nan  nan  nan  nan  nan  -2.47129  -0.310698  0.977399  -0.00967512  0.0902461  -0.0302707  0.19284  -0.0388054  -0.129012  0  0  0  0.783508  0.0033174  -0.335876  -0.00420906  0.00179124  -0.0215304  -0.00191623  -0.0119418  0.00499524  -0.00166717  0.0182255  -0.0199429  -0.1717  0.136879  0.0272248 
1702990812.780392000  0  0  11.5528  0.113313  -0.168698  0.00740691  nan  nan  nan  nan  nan  nan  -2.47032  -0.310892  0.976749  -0.00537681  0.0918635  -0.029728  0.196762  -0.0387853  -0.130676  0  0  0  0.785248  0.0047303  -0.329717  -0.00427381  0.00177174  -0.0215446  -0.00344441  -0.00719759  0.0029376  -0.00647278  0.016881  -0.020242  -0.167487  0.131098  0.0425675 
1702990812.785347000  0  0  11.5278  0.0761747  -0.153974  0.00931689  nan  nan  nan  nan  nan  nan  -2.46932  -0.311086  0.976092  -0.0103699  0.0935739  -0.0300399  0.200692  -0.0387576  -0.132309  0  0  0  0.786739  0.0063932  -0.323308  -0.0043613  0.00169126  -0.0215216  -0.00479351  -0.0120046  0.00537774  -0.00193651  0.0154856  -0.0201519  -0.15201  0.118384  0.00699426 
1702990812.790337000  0  0  11.5294  0.0884377  -0.180397  0.00750371  nan  nan  nan  nan  nan  nan  -2.46831  -0.31128  0.975426  -0.00868352  0.0885578  -0.029675  0.204629  -0.038721  -0.133909  0  0  0  0.787979  0.0083061  -0.316649  -0.00438783  0.0016545  -0.0215149  0.000738166  -0.0101095  0.00532027  -0.00417619  0.0205654  -0.0201654  -0.145011  0.0991589  0.0401333 
1702990812.795369000  0  0  11.5575  0.115133  -0.158032  0.00623343  nan  nan  nan  nan  nan  nan  -2.46728  -0.311473  0.974753  -0.00514174  0.0916242  -0.0292136  0.208571  -0.0386742  -0.135475  0  0  0  0.788969  0.010469  -0.30974  -0.00445201  0.00163399  -0.0215298  -0.00234305  -0.00602474  0.00415691  -0.0081098  0.0176122  -0.0202359  -0.145153  0.0934527  0.0638854 
1702990812.800337000  0  0  11.5709  0.0732918  -0.157128  0.00956276  nan  nan  nan  nan  nan  nan  -2.46623  -0.311666  0.974072  -0.010634  0.0913675  -0.0295495  0.212518  -0.0386159  -0.137006  0  0  0  0.789709  0.0128819  -0.302582  -0.00451712  0.00155438  -0.0215241  -0.00209436  -0.0113759  0.00380653  -0.00297775  0.0180443  -0.0202946  -0.128064  0.0842204  0.00376699 
1702990812.805338000  0  0  11.5792  0.0933976  -0.180527  0.00656646  nan  nan  nan  nan  nan  nan  -2.46515  -0.311859  0.973383  -0.00733709  0.0869677  -0.0290525  0.216468  -0.0385449  -0.138501  0  0  0  0.7902  0.0155448  -0.295173  -0.00453806  0.00153219  -0.0215292  0.00270642  -0.00771444  0.00340028  -0.00663151  0.0223551  -0.0202617  -0.116889  0.0702608  0.0580461 
1702990812.810367000  0  0  11.5738  0.0977275  -0.151531  0.00589065  nan  nan  nan  nan  nan  nan  -2.46406  -0.312052  0.972687  -0.00675271  0.090564  -0.028862  0.22042  -0.03846  -0.139957  0  0  0  0.79044  0.0184578  -0.287514  -0.00460704  0.00149908  -0.0215217  -0.000824027  -0.00660011  0.00470659  -0.00745964  0.0187264  -0.020075  -0.113809  0.0595955  0.0687171 
1702990812.815370000  0  0  11.5986  0.0689215  -0.164792  0.00993266  nan  nan  nan  nan  nan  nan  -2.46295  -0.312244  0.971983  -0.0104197  0.0880332  -0.0290035  0.224372  -0.0383599  -0.141375  0  0  0  0.79043  0.0216207  -0.279605  -0.00463078  0.00143297  -0.0215354  0.00160844  -0.0100725  0.00342972  -0.00407091  0.0212427  -0.02042  -0.0996862  0.0504877  -0.00187024 
1702990812.820375000  0  0  11.6264  0.0892057  -0.168241  0.00546399  nan  nan  nan  nan  nan  nan  -2.46182  -0.312435  0.971273  -0.00696792  0.0866479  -0.0285265  0.228324  -0.0382434  -0.142753  0  0  0  0.79017  0.0250336  -0.271446  -0.00466469  0.00142082  -0.0215459  0.0030274  -0.0060964  0.00198165  -0.00767931  0.0224057  -0.0201426  -0.0896814  0.039817  0.0770802 
1702990812.825370000  0  0  11.6197  0.0790265  -0.154958  0.00580802  nan  nan  nan  nan  nan  nan  -2.46067  -0.312626  0.970556  -0.00865029  0.0877209  -0.0285175  0.232273  -0.0381092  -0.144089  0  0  0  0.78966  0.0286965  -0.263037  -0.00470606  0.00137444  -0.0215434  0.00195177  -0.00734776  0.00325373  -0.00621115  0.0211583  -0.0198543  -0.089109  0.0281607  0.0682875 
1702990812.830355000  0  0  11.6298  0.0759056  -0.162217  0.00940744  nan  nan  nan  nan  nan  nan  -2.45949  -0.312816  0.969832  -0.00865188  0.0857112  -0.0283364  0.23622  -0.037956  -0.145383  0  0  0  0.788901  0.0326094  -0.254378  -0.00474568  0.00134346  -0.0215436  0.00403965  -0.00693704  0.00306923  -0.00636741  0.0229054  -0.020499  -0.0790355  0.0171407  0.00838771 
1702990812.835391000  0  0  11.6487  0.072118  -0.151454  0.00358805  nan  nan  nan  nan  nan  nan  -2.4583  -0.313006  0.969102  -0.00885362  0.0864901  -0.0281966  0.240162  -0.0377827  -0.146633  0  0  0  0.787891  0.0367723  -0.245469  -0.00478372  0.00131056  -0.021561  0.00305422  -0.00662569  0.00256468  -0.00620539  0.0218084  -0.0196315  -0.0725502  0.00910159  0.106763 
1702990812.840345000  0  0  11.6549  0.0638503  -0.164952  0.00598223  nan  nan  nan  nan  nan  nan  -2.45709  -0.313194  0.968366  -0.00998973  0.0839453  -0.0281055  0.244098  -0.0375879  -0.147837  0  0  0  0.786631  0.0411852  -0.23631  -0.00479907  0.00127289  -0.0215565  0.00559637  -0.00736574  0.00264811  -0.00526698  0.0241414  -0.0196467  -0.0679385  0.00355929  0.0632942 
1702990812.845371000  0  0  11.6889  0.0805325  -0.15875  0.00876011  nan  nan  nan  nan  nan  nan  -2.45586  -0.313382  0.967624  -0.00714795  0.0839107  -0.027703  0.248028  -0.0373704  -0.148995  0  0  0  0.785121  0.0458481  -0.226902  -0.00481427  0.00126614  -0.0215822  0.00533924  -0.00386302  0.00103205  -0.00814862  0.0237522  -0.0204194  -0.0611141  -0.00503974  0.0194785 
1702990812.850359000  0  0  11.6873  0.0521943  -0.146813  0.00330116  nan  nan  nan  nan  nan  nan  -2.45461  -0.313568  0.966876  -0.0112385  0.0847324  -0.0278912  0.251949  -0.037129  -0.150106  0  0  0  0.783362  0.050761  -0.217243  -0.00485579  0.00121208  -0.0215771  0.00428464  -0.00755389  0.0020456  -0.00411879  0.0226051  -0.0191743  -0.0585836  -0.0150889  0.10798 
1702990812.855377000  0  0  11.6732  0.0583535  -0.181323  0.00650153  nan  nan  nan  nan  nan  nan  -2.45334  -0.313753  0.966123  -0.0100152  0.0787433  -0.0275639  0.255861  -0.0368624  -0.151167  0  0  0  0.781352  0.0559239  -0.207334  -0.00482148  0.00119053  -0.0215826  0.0105251  -0.0058352  0.00333087  -0.00545265  0.028153  -0.0195519  -0.0516578  -0.0224594  0.0530057 
1702990812.860381000  0  0  11.7126  0.0753111  -0.147501  0.00748528  nan  nan  nan  nan  nan  nan  -2.45205  -0.313936  0.965364  -0.00724118  0.0833147  -0.0272148  0.259762  -0.0365693  -0.152179  0  0  0  0.779092  0.0613368  -0.197299  -0.00487841  0.00119242  -0.0215996  0.00534085  -0.00220651  0.00176928  -0.00814462  0.023144  -0.0200602  -0.0485931  -0.0222274  0.0395464 
1702990812.865362000  0  0  11.7516  0.0254191  -0.152011  0.00285243  nan  nan  nan  nan  nan  nan  -2.45075  -0.314119  0.964601  -0.0152699  0.0814627  -0.0276909  0.263651  -0.0362486  -0.153141  0  0  0  0.776582  0.0669997  -0.187491  -0.00487811  0.00111065  -0.0216227  0.00653706  -0.0100969  -0.000209759  -0.000314137  0.0246049  -0.0185384  -0.056145  -0.035202  0.110577 
1702990812.870354000  0  0  11.7241  0.065258  -0.183821  0.00664319  nan  nan  nan  nan  nan  nan  -2.44942  -0.314299  0.963833  -0.00919366  0.0752936  -0.026976  0.267528  -0.0358989  -0.154054  0  0  0  0.773823  0.0729126  -0.177934  -0.00484895  0.00113031  -0.0216115  0.0131739  -0.00318702  0.00188877  -0.00647525  0.0300857  -0.0194609  -0.0516092  -0.0479864  0.0496282 
1702990812.875396000  0  0  11.7193  0.048885  -0.12226  0.00533671  nan  nan  nan  nan  nan  nan  -2.44807  -0.314477  0.963061  -0.0114509  0.0834757  -0.0270753  0.271389  -0.035519  -0.154921  0  0  0  0.770813  0.0790755  -0.168627  -0.00491573  0.00109899  -0.0216188  0.00423733  -0.00463605  0.00377337  -0.0040916  0.0213428  -0.0191842  -0.0510501  -0.0536691  0.0709955 
1702990812.880389000  0  0  11.7694  0.007214  -0.163006  0.00310087  nan  nan  nan  nan  nan  nan  -2.4467  -0.314654  0.962284  -0.0180293  0.0766109  -0.0273366  0.275235  -0.0351077  -0.155741  0  0  0  0.767553  0.0854885  -0.15957  -0.00487888  0.00102651  -0.0216467  0.0106143  -0.011109  0.000504847  0.00220894  0.0277542  -0.0181027  -0.0534458  -0.0601032  0.102233 
1702990812.885385000  0  0  11.8073  0.0777972  -0.18197  0.00664084  nan  nan  nan  nan  nan  nan  -2.44532  -0.314828  0.961503  -0.0079494  0.0721391  -0.0263656  0.279064  -0.0346637  -0.156517  0  0  0  0.764043  0.0921514  -0.150762  -0.00483258  0.00107703  -0.0216766  0.0149779  0.000135888  -0.00191269  -0.00797768  0.0313324  -0.019335  -0.0573109  -0.0727972  0.0485676 
1702990812.890371000  0  0  11.7468  0.0413473  -0.112714  0.00541406  nan  nan  nan  nan  nan  nan  -2.44391  -0.315001  0.960719  -0.013483  0.0816317  -0.0267282  0.282875  -0.0341858  -0.157249  0  0  0  0.760283  0.0990643  -0.142205  -0.00491816  0.00102849  -0.0216413  0.0048602  -0.00464698  0.00392123  -0.00241971  0.0212951  -0.0187428  -0.0601707  -0.0759015  0.0657177 
1702990812.895373000  0  0  11.7697  -0.00201509  -0.179319  0.00326432  nan  nan  nan  nan  nan  nan  -2.44249  -0.31517  0.959931  -0.0206381  0.0705048  -0.0269189  0.286667  -0.0336727  -0.157939  0  0  0  0.756274  0.106227  -0.133898  -0.00483009  0.000946821  -0.0216689  0.0158123  -0.0117526  0.00218606  0.00432961  0.0317643  -0.017689  -0.0658145  -0.0862391  0.095629 
1702990812.900346000  0  0  11.8389  0.080167  -0.163104  0.0061529  nan  nan  nan  nan  nan  nan  -2.44105  -0.315337  0.95914  -0.00911752  0.0715806  -0.025953  0.290438  -0.0331231  -0.158588  0  0  0  0.752014  0.11364  -0.125841  -0.00483916  0.00101426  -0.0217033  0.0141051  0.00122668  -0.00204346  -0.00731276  0.0297349  -0.0189435  -0.0738768  -0.0921989  0.054021 
1702990812.905402000  0  0  11.8158  0.00653857  -0.121063  0.00459498  nan  nan  nan  nan  nan  nan  -2.43959  -0.315501  0.958345  -0.0208982  0.076773  -0.0267401  0.294187  -0.0325359  -0.159198  0  0  0  0.747504  0.121303  -0.118033  -0.00486435  0.000913422  -0.0217059  0.00790396  -0.0102678  0.000859132  0.00424108  0.023898  -0.0177852  -0.084988  -0.0982639  0.0722389 
1702990812.910383000  0  0  11.7927  0.0277824  -0.192602  0.00397558  nan  nan  nan  nan  nan  nan  -2.4381  -0.315663  0.957548  -0.0178269  0.0647509  -0.0261267  0.297912  -0.0319097  -0.159769  0  0  0  0.742744  0.129216  -0.110476  -0.00477566  0.000907018  -0.0217105  0.0204053  -0.0064445  0.0020998  0.000809206  0.0350021  -0.0178294  -0.0801781  -0.107069  0.0839073 
1702990812.915350000  0  0  11.8528  0.0842659  -0.142259  0.00593814  nan  nan  nan  nan  nan  nan  -2.43661  -0.31582  0.956747  -0.0109365  0.070883  -0.0255838  0.301614  -0.0312433  -0.160303  0  0  0  0.737735  0.137379  -0.103169  -0.00479582  0.000941144  -0.021737  0.0131117  0.00187927  -0.00108555  -0.00638031  0.0279615  -0.0185506  -0.0989776  -0.1135  0.0544881 
1702990812.920391000  0  0  11.8326  -0.000637772  -0.119873  0.00503945  nan  nan  nan  nan  nan  nan  -2.43509  -0.315975  0.955945  -0.0242389  0.0735093  -0.0264258  0.305289  -0.0305355  -0.160801  0  0  0  0.732475  0.145792  -0.0961118  -0.0048045  0.000825491  -0.0217354  0.00949821  -0.0112407  0.00135249  0.00652862  0.0247145  -0.0173708  -0.105029  -0.11446  0.0605113 
1702990812.925347000  0  0  11.8336  0.0221945  -0.196383  0.00342451  nan  nan  nan  nan  nan  nan  -2.43355  -0.316126  0.955139  -0.0210878  0.0607961  -0.0257628  0.308938  -0.029785  -0.161265  0  0  0  0.726965  0.154455  -0.0893045  -0.00470125  0.00081782  -0.0217474  0.0225119  -0.00729863  0.00079431  0.00290631  0.0364377  -0.0172936  -0.100939  -0.121391  0.0892455 
1702990812.930392000  0  0  11.8541  0.0487247  -0.112881  0.00585175  nan  nan  nan  nan  nan  nan  -2.432  -0.316273  0.954332  -0.0184793  0.0717028  -0.0256414  0.312558  -0.0289905  -0.161695  0  0  0  0.721205  0.163368  -0.0827473  -0.00474681  0.00081876  -0.0217711  0.0101466  -0.0032539  0.000801867  3.58972e-06  0.0245199  -0.0177498  -0.117509  -0.128139  0.0490409 
1702990812.935389000  0  0  11.8397  -0.0150662  -0.136157  0.00490591  nan  nan  nan  nan  nan  nan  -2.43043  -0.316416  0.953523  -0.0294012  0.0674789  -0.0261365  0.31615  -0.0281509  -0.162093  0  0  0  0.715196  0.17253  -0.0764401  -0.00469243  0.000713778  -0.0217703  0.0137396  -0.0139604  0.00219383  0.0102374  0.0280541  -0.0167799  -0.130787  -0.129719  0.0577628 
1702990812.940355000  0  0  11.8636  0.0373979  -0.184985  0.00322407  nan  nan  nan  nan  nan  nan  -2.42884  -0.316554  0.952711  -0.021989  0.0592687  -0.0252923  0.31971  -0.0272648  -0.16246  0  0  0  0.708936  0.181943  -0.0703828  -0.00462091  0.000737  -0.0217868  0.0218825  -0.00530063  0.000269437  0.00232564  0.0352306  -0.0169787  -0.128109  -0.12916  0.0901351 
1702990812.945382000  0  0  11.8974  0.0442328  -0.11615  0.00560712  nan  nan  nan  nan  nan  nan  -2.42723  -0.316688  0.951898  -0.0224925  0.0676443  -0.0253463  0.323238  -0.026331  -0.162797  0  0  0  0.702426  0.191606  -0.0645756  -0.00464198  0.000711225  -0.0218168  0.0119277  -0.0045882  -0.000891748  0.00229991  0.0258225  -0.0171859  -0.144164  -0.141518  0.0485521 
1702990812.950361000  0  0  11.8596  -0.00790916  -0.147692  0.00463546  nan  nan  nan  nan  nan  nan  -2.42561  -0.316817  0.951083  -0.0317431  0.06147  -0.0256125  0.326734  -0.0253483  -0.163106  0  0  0  0.695666  0.201519  -0.0590184  -0.0045807  0.000612721  -0.0218015  0.0177464  -0.0134538  0.00192067  0.0107651  0.0310692  -0.0164208  -0.156652  -0.151131  0.05954 
1702990812.955368000  0  0  11.8545  0.0446724  -0.171936  0.00275214  nan  nan  nan  nan  nan  nan  -2.42396  -0.316942  0.950267  -0.0245234  0.0568217  -0.0248909  0.330195  -0.0243154  -0.163387  0  0  0  0.688656  0.211682  -0.0537111  -0.00450586  0.000632138  -0.0218173  0.0220966  -0.00472913  0.00229853  0.00294306  0.0345901  -0.0165138  -0.155722  -0.15016  0.0946539 
1702990812.960382000  0  0  11.8825  0.00968865  -0.120496  0.00585403  nan  nan  nan  nan  nan  nan  -2.4223  -0.31706  0.949449  -0.0311253  0.0627154  -0.0252854  0.33362  -0.0232311  -0.163643  0  0  0  0.681397  0.222095  -0.0486539  -0.00452051  0.000555329  -0.0218423  0.0146278  -0.0105081  0.00138094  0.00886109  0.0276171  -0.0164275  -0.167993  -0.160337  0.0374065 
1702990812.965394000  0  0  11.9145  0.0132643  -0.158202  0.00306498  nan  nan  nan  nan  nan  nan  -2.42063  -0.317174  0.948631  -0.0326584  0.0556939  -0.0249886  0.337008  -0.022094  -0.163874  0  0  0  0.673887  0.232758  -0.0438466  -0.00443332  0.000506549  -0.0218698  0.0210525  -0.0112402  -0.000907933  0.0094485  0.033526  -0.0159603  -0.186201  -0.165897  0.0841043 
1702990812.970349000  0  0  11.8839  0.0436279  -0.151696  0.00261983  nan  nan  nan  nan  nan  nan  -2.41893  -0.317281  0.947811  -0.0295531  0.0553905  -0.0246427  0.340358  -0.0209031  -0.164082  0  0  0  0.666127  0.243671  -0.0392894  -0.0044012  0.000494552  -0.0218563  0.0207326  -0.00660636  0.00156305  0.00551258  0.0327267  -0.0158849  -0.195146  -0.168533  0.09155 
1702990812.975347000  0  0  11.9007  0.0135855  -0.125782  0.00539573  nan  nan  nan  nan  nan  nan  -2.41722  -0.317383  0.94699  -0.0351427  0.0575177  -0.0248632  0.343669  -0.0196569  -0.164268  0  0  0  0.658117  0.254834  -0.0349822  -0.00437176  0.000418841  -0.0218783  0.0172555  -0.0113147  0.00108032  0.0102328  0.0294814  -0.0158516  -0.199777  -0.178024  0.0407045 
1702990812.980349000  0  0  11.925  0.0181748  -0.154869  0.00261389  nan  nan  nan  nan  nan  nan  -2.4155  -0.317478  0.946168  -0.0366889  0.0521491  -0.0245916  0.346939  -0.0183543  -0.164432  0  0  0  0.649858  0.266247  -0.0309249  -0.00429135  0.000365271  -0.0219007  0.0218786  -0.0119078  -0.000593647  0.0106903  0.0337237  -0.0153286  -0.218308  -0.177159  0.0867812 
1702990812.985385000  0  0  11.9179  0.0410578  -0.146477  0.00250982  nan  nan  nan  nan  nan  nan  -2.41375  -0.317566  0.945346  -0.0353133  0.0520885  -0.0243537  0.350167  -0.016994  -0.164577  0  0  0  0.641348  0.277909  -0.0271177  -0.00422927  0.000333084  -0.0219194  0.0209621  -0.00907678  0.000277598  0.00826829  0.0325792  -0.0151666  -0.233932  -0.178706  0.0872565 
1702990812.990402000  0  0  11.9198  0.0195899  -0.136436  0.00441442  nan  nan  nan  nan  nan  nan  -2.412  -0.317648  0.944522  -0.0399255  0.0514279  -0.024404  0.353352  -0.0155748  -0.164704  0  0  0  0.632588  0.289822  -0.0235605  -0.00417161  0.000257711  -0.0219376  0.0204811  -0.0126962  0.00057993  0.0118382  0.0319443  -0.0151222  -0.240455  -0.192546  0.0521809 
1702990812.995383000  0  0  11.9324  0.0276236  -0.142548  0.00136158  nan  nan  nan  nan  nan  nan  -2.41022  -0.317722  0.943699  -0.04031  0.0490023  -0.0241622  0.356493  -0.0140954  -0.164813  0  0  0  0.623578  0.301985  -0.0202532  -0.00412525  0.000208836  -0.021952  0.0220044  -0.011831  -0.000130962  0.0111137  0.0331221  -0.0145509  -0.247995  -0.197038  0.10277 
1702990813.000351000  0  0  11.9362  0.0344632  -0.142691  0.00275771  nan  nan  nan  nan  nan  nan  -2.40843  -0.317788  0.942874  -0.0415147  0.0481216  -0.0240208  0.359588  -0.0125545  -0.164907  0  0  0  0.614319  0.314398  -0.017196  -0.00407139  0.000153361  -0.0219598  0.0218098  -0.0117416  -0.000117713  0.0110664  0.0328777  -0.0144404  -0.26371  -0.192703  0.0763747 
1702990813.005347000  0  0  11.9631  0.0266572  -0.137982  0.00369774  nan  nan  nan  nan  nan  nan  -2.40663  -0.317847  0.942049  -0.0439291  0.0467537  -0.0239131  0.362636  -0.010951  -0.164986  0  0  0  0.604809  0.327061  -0.0143888  -0.0039978  8.65194e-05  -0.021991  0.0219361  -0.0130267  -0.00171291  0.012317  0.0329091  -0.0143797  -0.265306  -0.204569  0.0587236 
1702990813.010360000  0  0  11.9401  0.0258308  -0.139062  0.000867172  nan  nan  nan  nan  nan  nan  -2.4048  -0.317898  0.941224  -0.0458736  0.0450383  -0.0237616  0.365635  -0.0092835  -0.165051  0  0  0  0.595049  0.339974  -0.0118315  -0.00394321  2.1932e-05  -0.0219929  0.0227031  -0.0135913  0.00012667  0.0130077  0.0333306  -0.0136766  -0.274589  -0.208846  0.104109 
1702990813.015360000  0  0  11.9078  0.0328406  -0.147763  0.00261084  nan  nan  nan  nan  nan  nan  -2.40297  -0.31794  0.940399  -0.0472622  0.0427687  -0.0235531  0.368586  -0.0075508  -0.165105  0  0  0  0.585039  0.353137  -0.0095243  -0.00385477  -4.12906e-05  -0.0219969  0.0240041  -0.013493  0.00257109  0.013005  0.0343637  -0.0136438  -0.291442  -0.204733  0.0720662 
1702990813.020376000  0  0  11.9632  0.0349036  -0.137864  0.00219276  nan  nan  nan  nan  nan  nan  -2.40112  -0.317973  0.939573  -0.0487287  0.042747  -0.023451  0.371485  -0.0057517  -0.165147  0  0  0  0.57478  0.36655  -0.0074671  -0.00380081  -0.000107465  -0.0220381  0.0225513  -0.013755  -0.00102116  0.0131543  0.0330734  -0.013396  -0.298852  -0.207532  0.0775079 
