    ts      x      y      z   roll  pitch    yaw     vx     vy     vz     wx     wy     wz     ax     ay     az    dwx    dwy    dwz
 0.0050000  -2.5000000  -0.3000000   1.0000000   0.0000000   0.0000000  -0.0400000   0.0000002  -0.0000002  -0.0000002   0.0000000   0.0000000   0.0000000   0.0001250  -0.0001250  -0.0001250   0.0000000   0.0000000   0.0000000
 0.0100000  -2.5000000  -0.3000000   1.0000000   0.0000000   0.0000000  -0.0400000   0.0000017  -0.0000017  -0.0000017   0.0000000   0.0000000   0.0000000   0.0005000  -0.0005000  -0.0005000   0.0000000   0.0000000   0.0000000
 0.0150000  -2.5000000  -0.3000000   1.0000000   0.0000000   0.0000000  -0.0400000   0.0000056  -0.0000056  -0.0000056   0.0000000   0.0000000   0.0000000   0.0011250  -0.0011250  -0.0011250   0.0000000   0.0000000   0.0000000
 0.0200000  -2.5000000  -0.3000000   1.0000000   0.0000000   0.0000000  -0.0399999   0.0000133  -0.0000133  -0.0000133   0.0000000   0.0000000   0.0000000   0.0020000  -0.0020000  -0.0020000   0.0000000   0.0000000   0.0000000
 0.0250000  -2.5000000  -0.3000000   1.0000000   0.0000000   0.0000000  -0.0399997   0.0000260  -0.0000260  -0.0000260   0.0000000   0.0000000   0.0000000   0.0031250  -0.0031250  -0.0031250   0.0000000   0.0000000   0.0000000
 0.0300000  -2.5000000  -0.3000000   1.0000000   0.0000000   0.0000000  -0.0399995   0.0000450  -0.0000450  -0.0000450   0.0000000   0.0000000   0.0000000   0.0045000  -0.0045000  -0.0045000   0.0000000   0.0000000   0.0000000
 0.0350000  -2.5000000  -0.3000010   0.9999990   0.0000000   0.0000000  -0.0399990   0.0000715  -0.0000715  -0.0000715   0.0000000   0.0000000   0.0000000   0.0061250  -0.0061250  -0.0061250   0.0000000   0.0000000   0.0000000
 0.0400000  -2.5000000  -0.3000010   0.9999990   0.0000000   0.0000000  -0.0399983   0.0001067  -0.0001067  -0.0001067   0.0000000   0.0000000   0.0000000   0.0080000  -0.0080000  -0.0080000   0.0000000   0.0000000   0.0000000
 0.0450000  -2.5000000  -0.3000020   0.9999980   0.0000000   0.0000000  -0.0399973   0.0001519  -0.0001519  -0.0001519   0.0000000   0.0000000   0.0000000   0.0101250  -0.0101250  -0.0101250   0.0000000   0.0000000   0.0000000
 0.0500000  -2.5000000  -0.3000030   0.9999970   0.0000000   0.0000000  -0.0399958   0.0002083  -0.0002083  -0.0002083   0.0000000   0.0000000   0.0000000   0.0125000  -0.0125000  -0.0125000   0.0000000   0.0000000   0.0000000
 0.0550000  -2.5000000  -0.3000040   0.9999960   0.0000000   0.0000000  -0.0399939   0.0002773  -0.0002773  -0.0002773   0.0000000   0.0000000   0.0000000   0.0151250  -0.0151250  -0.0151250   0.0000000   0.0000000   0.0000000
 0.0600000  -2.4999900  -0.3000050   0.9999950   0.0000000   0.0000000  -0.0399914   0.0003600  -0.0003600  -0.0003600   0.0000000   0.0000000   0.0000000   0.0180000  -0.0180000  -0.0180000   0.0000000   0.0000000   0.0000000
 0.0650000  -2.4999900  -0.3000070   0.9999930   0.0000000   0.0000000  -0.0399881   0.0004577  -0.0004577  -0.0004577   0.0000000   0.0000000   0.0000000   0.0211250  -0.0211250  -0.0211250   0.0000000   0.0000000   0.0000000
 0.0700000  -2.4999900  -0.3000100   0.9999900   0.0000000   0.0000000  -0.0399840   0.0005717  -0.0005717  -0.0005717   0.0000000   0.0000000   0.0000000   0.0245000  -0.0245000  -0.0245000   0.0000000   0.0000000   0.0000000
 0.0750000  -2.4999900  -0.3000130   0.9999870   0.0000000   0.0000000  -0.0399789   0.0007031  -0.0007031  -0.0007031   0.0000000   0.0000000   0.0000000   0.0281250  -0.0281250  -0.0281250   0.0000000   0.0000000   0.0000000
 0.0800000  -2.4999800  -0.3000170   0.9999830   0.0000000   0.0000000  -0.0399727   0.0008533  -0.0008533  -0.0008533   0.0000000   0.0000000   0.0000000   0.0320000  -0.0320000  -0.0320000   0.0000000   0.0000000   0.0000000
 0.0850000  -2.4999800  -0.3000220   0.9999780   0.0000000   0.0000000  -0.0399652   0.0010235  -0.0010235  -0.0010235   0.0000000   0.0000000   0.0000000   0.0361250  -0.0361250  -0.0361250   0.0000000   0.0000000   0.0000000
 0.0900000  -2.4999700  -0.3000270   0.9999730   0.0000000   0.0000000  -0.0399563   0.0012150  -0.0012150  -0.0012150   0.0000000   0.0000000   0.0000000   0.0405000  -0.0405000  -0.0405000   0.0000000   0.0000000   0.0000000
 0.0950000  -2.4999700  -0.3000340   0.9999660   0.0000000   0.0000000  -0.0399457   0.0014290  -0.0014290  -0.0014290   0.0000000   0.0000000   0.0000000   0.0451250  -0.0451250  -0.0451250   0.0000000   0.0000000   0.0000000
 0.1000000  -2.4999600  -0.3000420   0.9999580   0.0000000   0.0000000  -0.0399333   0.0016667  -0.0016667  -0.0016667   0.0000000   0.0000000   0.0000000   0.0500000  -0.0500000  -0.0500000   0.0000000   0.0000000   0.0000000
 0.1050000  -2.4999500  -0.3000510   0.9999490   0.0000000   0.0000000  -0.0399190   0.0019294  -0.0019294  -0.0019294   0.0000000   0.0000000   0.0000000   0.0551250  -0.0551250  -0.0551250   0.0000000   0.0000000   0.0000000
 0.1100000  -2.4999400  -0.3000610   0.9999390   0.0000000   0.0000000  -0.0399024   0.0022183  -0.0022183  -0.0022183   0.0000000   0.0000000   0.0000000   0.0605000  -0.0605000  -0.0605000   0.0000000   0.0000000   0.0000000
 0.1150000  -2.4999300  -0.3000730   0.9999270   0.0000000   0.0000000  -0.0398835   0.0025348  -0.0025348  -0.0025348   0.0000000   0.0000000   0.0000000   0.0661250  -0.0661250  -0.0661250   0.0000000   0.0000000   0.0000000
 0.1200000  -2.4999100  -0.3000860   0.9999140   0.0000000   0.0000000  -0.0398619   0.0028800  -0.0028800  -0.0028800   0.0000000   0.0000000   0.0000000   0.0720000  -0.0720000  -0.0720000   0.0000000   0.0000000   0.0000000
 0.1250000  -2.4999000  -0.3001020   0.9998980   0.0000000   0.0000000  -0.0398377   0.0032552  -0.0032552  -0.0032552   0.0000000   0.0000000   0.0000000   0.0781250  -0.0781244  -0.0781250   0.0000000   0.0000000   0.0000000
 0.1300000  -2.4998800  -0.3001190   0.9998810   0.0000000   0.0000000  -0.0398106   0.0036617  -0.0036612  -0.0036617   0.0000000   0.0000000   0.0000000   0.0845000  -0.0842250  -0.0845000   0.0000000   0.0000000   0.0000000
 0.1350000  -2.4998600  -0.3001380   0.9998620   0.0000000   0.0000000  -0.0397804   0.0041006  -0.0040970  -0.0041006   0.0000000   0.0000000   0.0000000   0.0911250  -0.0900755  -0.0911250   0.0000000   0.0000000   0.0000000
 0.1400000  -2.4998400  -0.3001600   0.9998400   0.0000000   0.0000000  -0.0397470   0.0045733  -0.0045615  -0.0045733   0.0000000   0.0000000   0.0000000   0.0980000  -0.0956761  -0.0980000   0.0000000   0.0000000   0.0000000
 0.1450000  -2.4998200  -0.3001840   0.9998160   0.0000000   0.0000000  -0.0397104   0.0050810  -0.0050534  -0.0050810   0.0000000   0.0000000   0.0000000   0.1051250  -0.1010270  -0.1051250   0.0000000   0.0000000   0.0000000
 0.1500000  -2.4997900  -0.3002110   0.9997890   0.0000000   0.0000000  -0.0396703   0.0056250  -0.0055714  -0.0056250   0.0000000   0.0000000   0.0000000   0.1125000  -0.1061270  -0.1125000   0.0000000   0.0000000   0.0000000
 0.1550000  -2.4997600  -0.3002400   0.9997590   0.0000000   0.0000000  -0.0396267   0.0062065  -0.0061142  -0.0062065   0.0000000   0.0000000   0.0000000   0.1201250  -0.1109780  -0.1201250   0.0000000   0.0000000   0.0000000
 0.1600000  -2.4997300  -0.3002720   0.9997270   0.0000000   0.0000000  -0.0395795   0.0068267  -0.0066807  -0.0068267   0.0000000   0.0000000   0.0000000   0.1280000  -0.1155780  -0.1280000   0.0000000   0.0000000   0.0000000
 0.1650000  -2.4996900  -0.3003070   0.9996910   0.0000000   0.0000000  -0.0395285   0.0074869  -0.0072696  -0.0074869   0.0000000   0.0000000   0.0000000   0.1361250  -0.1199290  -0.1361250   0.0000000   0.0000000   0.0000000
 0.1700000  -2.4996500  -0.3003450   0.9996520   0.0000000   0.0000000  -0.0394738   0.0081883  -0.0078796  -0.0081883   0.0000000   0.0000000   0.0000000   0.1445000  -0.1240290  -0.1445000   0.0000000   0.0000000   0.0000000
 0.1750000  -2.4996100  -0.3003850   0.9996090   0.0000000   0.0000000  -0.0394151   0.0089323  -0.0085095  -0.0089323   0.0000000   0.0000000   0.0000000   0.1531250  -0.1278800  -0.1531250   0.0000000   0.0000000   0.0000000
 0.1800000  -2.4995600  -0.3004300   0.9995630   0.0000000   0.0000000  -0.0393526   0.0097200  -0.0091580  -0.0097200   0.0000000   0.0000000   0.0000000   0.1620000  -0.1314810  -0.1620000   0.0000000   0.0000000   0.0000000
 0.1850000  -2.4995100  -0.3004770   0.9995120   0.0000000   0.0000000  -0.0392861   0.0105527  -0.0098239  -0.0105527   0.0000000   0.0000000   0.0000000   0.1711250  -0.1348310  -0.1711250   0.0000000   0.0000000   0.0000000
 0.1900000  -2.4994600  -0.3005280   0.9994570   0.0000000   0.0000000  -0.0392156   0.0114317  -0.0105059  -0.0114317   0.0000000   0.0000000   0.0000000   0.1805000  -0.1379320  -0.1805000   0.0000000   0.0000000   0.0000000
 0.1950000  -2.4994000  -0.3005820   0.9993980   0.0000000   0.0000000  -0.0391410   0.0123581  -0.0112028  -0.0123581   0.0000000   0.0000000   0.0000000   0.1901250  -0.1407820  -0.1901250   0.0000000   0.0000000   0.0000000
 0.2000000  -2.4993300  -0.3006400   0.9993330   0.0000000   0.0000000  -0.0390624   0.0133333  -0.0119133  -0.0133333   0.0000000   0.0000000   0.0000000   0.2000000  -0.1433830  -0.2000000   0.0000000   0.0000000   0.0000000
 0.2050000  -2.4992600  -0.3007010   0.9992640   0.0000000   0.0000000  -0.0389797   0.0143585  -0.0126362  -0.0143585   0.0000000   0.0000000   0.0000000   0.2101250  -0.1457330  -0.2100440   0.0000000   0.0000000   0.0000000
 0.2100000  -2.4991900  -0.3007660   0.9991900   0.0000000   0.0000000  -0.0388930   0.0154350  -0.0133702  -0.0154334   0.0000000   0.0000000   0.0000000   0.2205000  -0.1478340  -0.2198860   0.0000000   0.0000000   0.0000000
 0.2150000  -2.4991100  -0.3008350   0.9991100   0.0000000   0.0000000  -0.0388022   0.0165640  -0.0141141  -0.0165569   0.0000000   0.0000000   0.0000000   0.2311250  -0.1496850  -0.2294770   0.0000000   0.0000000   0.0000000
 0.2200000  -2.4990200  -0.3009070   0.9990240   0.0000000   0.0000000  -0.0387074   0.0177467  -0.0148666  -0.0177277   0.0000000   0.0000000   0.0000000   0.2420000  -0.1512850  -0.2388180   0.0000000   0.0000000   0.0000000
 0.2250000  -2.4989300  -0.3009840   0.9989320   0.0000000   0.0000000  -0.0386086   0.0189844  -0.0156265  -0.0189447   0.0000000   0.0000000   0.0000000   0.2531250  -0.1526360  -0.2479090   0.0000000   0.0000000   0.0000000
 0.2300000  -2.4988300  -0.3010640   0.9988340   0.0000000   0.0000000  -0.0385058   0.0202783  -0.0163926  -0.0202064   0.0000000   0.0000000   0.0000000   0.2645000  -0.1537360  -0.2567500   0.0000000   0.0000000   0.0000000
 0.2350000  -2.4987300  -0.3011480   0.9987300   0.0000000   0.0000000  -0.0383991   0.0216298  -0.0171635  -0.0215117   0.0000000   0.0000000   0.0000000   0.2761250  -0.1545870  -0.2653410   0.0000000   0.0000000   0.0000000
 0.2400000  -2.4986200  -0.3012350   0.9986190   0.0000000   0.0000000  -0.0382886   0.0230400  -0.0179380  -0.0228594   0.0000000   0.0000000   0.0000000   0.2880000  -0.1551870  -0.2736820   0.0000000   0.0000000   0.0000000
 0.2450000  -2.4985000  -0.3013270   0.9985020   0.0000000   0.0000000  -0.0381744   0.0245102  -0.0187149  -0.0242482   0.0000000   0.0000000   0.0000000   0.3001250  -0.1555380  -0.2817730   0.0000000   0.0000000   0.0000000
 0.2500000  -2.4983700  -0.3014230   0.9983770   0.0000000   0.0000000  -0.0380564   0.0260417  -0.0194930  -0.0256767   0.0000000   0.0000000   0.0000000   0.3125000  -0.1556380  -0.2896140   0.0000000   0.0000000   0.0000000
 0.2550000  -2.4982400  -0.3015220   0.9982450   0.0000000   0.0000000  -0.0379348   0.0276356  -0.0202709  -0.0271439   0.0000000   0.0000000   0.0000000   0.3251250  -0.1554890  -0.2972060   0.0000000   0.0000000   0.0000000
 0.2600000  -2.4981000  -0.3016250   0.9981050   0.0000000   0.0000000  -0.0378098   0.0292933  -0.0210475  -0.0286484   0.0000000   0.0000000   0.0000000   0.3380000  -0.1550900  -0.3045470   0.0000000   0.0000000   0.0000000
 0.2650000  -2.4979500  -0.3017320   0.9979580   0.0000000   0.0000000  -0.0376813   0.0310160  -0.0218214  -0.0301889   0.0000000   0.0000000   0.0000000   0.3511250  -0.1544400  -0.3116380   0.0000000   0.0000000   0.0000000
 0.2700000  -2.4977900  -0.3018430   0.9978030   0.0000000   0.0000000  -0.0375496   0.0328050  -0.0225914  -0.0317643   0.0000000   0.0000000   0.0000000   0.3645000  -0.1535410  -0.3184790   0.0000000   0.0000000   0.0000000
 0.2750000  -2.4976200  -0.3019580   0.9976400   0.0000000   0.0000000  -0.0374148   0.0346615  -0.0233564  -0.0333733   0.0000000   0.0000000   0.0000000   0.3781250  -0.1523910  -0.3250700   0.0000000   0.0000000   0.0000000
 0.2800000  -2.4974400  -0.3020770   0.9974700   0.0000000   0.0000000  -0.0372770   0.0365867  -0.0241149  -0.0350146   0.0000000   0.0000000   0.0000000   0.3920000  -0.1509920  -0.3314110   0.0000000   0.0000000   0.0000000
 0.2850000  -2.4972500  -0.3021990   0.9972900   0.0000000   0.0000000  -0.0371363   0.0385817  -0.0248659  -0.0366870   0.0000000   0.0000000   0.0000000   0.4059770  -0.1493420  -0.3375020   0.0000000   0.0000000   0.0000000
 0.2900000  -2.4970500  -0.3023260   0.9971030   0.0000000   0.0000000  -0.0369930   0.0406460  -0.0256080  -0.0383892   0.0000000   0.0000000   0.0000000   0.4197170  -0.1474430  -0.3433430   0.0000000   0.0000000   0.0000000
 0.2950000  -2.4968400  -0.3024560   0.9969060   0.0000000   0.0000000  -0.0368472   0.0427784  -0.0263399  -0.0401200   0.0000000   0.0000000   0.0000000   0.4332070  -0.1452940  -0.3489350   0.0000000   0.0000000   0.0000000
 0.3000000  -2.4966300  -0.3025890   0.9967010   0.0000000   0.0000000  -0.0366991   0.0449777  -0.0270605  -0.0418781   0.0000000   0.0000000   0.0000000   0.4464480  -0.1428940  -0.3542760   0.0000000   0.0000000   0.0000000
 0.3050000  -2.4963900  -0.3027260   0.9964880   0.0000000   0.0000000  -0.0365488   0.0472425  -0.0277684  -0.0436624   0.0000000   0.0000000   0.0000000   0.4594380  -0.1402450  -0.3593670   0.0000000   0.0000000   0.0000000
 0.3100000  -2.4961500  -0.3028670   0.9962650   0.0000000   0.0000000  -0.0363966   0.0495716  -0.0284625  -0.0454714   0.0000000   0.0000000   0.0000000   0.4721780  -0.1373450  -0.3642080   0.0000000   0.0000000   0.0000000
 0.3150000  -2.4959000  -0.3030110   0.9960330   0.0000000   0.0000000  -0.0362426   0.0519639  -0.0291415  -0.0473040   0.0000000   0.0000000   0.0000000   0.4846680  -0.1341960  -0.3687990   0.0000000   0.0000000   0.0000000
 0.3200000  -2.4956300  -0.3031580   0.9957920   0.0000000   0.0000000  -0.0360871   0.0544179  -0.0298040  -0.0491590   0.0000000   0.0000000   0.0000000   0.4969090  -0.1307960  -0.3731400   0.0000000   0.0000000   0.0000000
 0.3250000  -2.4953500  -0.3033090   0.9955410   0.0000000   0.0000000  -0.0359302   0.0569325  -0.0304490  -0.0510350   0.0000000   0.0000000   0.0000000   0.5088990  -0.1271470  -0.3772310   0.0000000   0.0000000   0.0000000
 0.3300000  -2.4950600  -0.3034630   0.9952810   0.0000000   0.0000000  -0.0357721   0.0595065  -0.0310751  -0.0529309   0.0000000   0.0000000   0.0000000   0.5206390  -0.1232470  -0.3810720   0.0000000   0.0000000   0.0000000
 0.3350000  -2.4947600  -0.3036190   0.9950120   0.0000000   0.0000000  -0.0356129   0.0621385  -0.0316811  -0.0548453   0.0000000   0.0000000   0.0000000   0.5321290  -0.1190980  -0.3846630   0.0000000   0.0000000   0.0000000
 0.3400000  -2.4944400  -0.3037790   0.9947330   0.0000000   0.0000000  -0.0354528   0.0648274  -0.0322657  -0.0567771   0.0000000   0.0000000   0.0000000   0.5433700  -0.1146990  -0.3880050   0.0000000   0.0000000   0.0000000
 0.3450000  -2.4941100  -0.3039420   0.9944440   0.0000000   0.0000000  -0.0352919   0.0675718  -0.0328276  -0.0587249   0.0000000   0.0000000   0.0000000   0.5543600  -0.1100490  -0.3910960   0.0000000   0.0000000   0.0000000
 0.3500000  -2.4937700  -0.3041080   0.9941450   0.0000000   0.0000000  -0.0351303   0.0703705  -0.0333657  -0.0606876   0.0000000   0.0000000   0.0000000   0.5651000  -0.1051500  -0.3939370   0.0000000   0.0000000   0.0000000
 0.3550000  -2.4934100  -0.3042760   0.9938370   0.0000000   0.0000000  -0.0349681   0.0732224  -0.0338787  -0.0626639   0.0000000   0.0000000   0.0000000   0.5755900  -0.1000000  -0.3965280   0.0000000   0.0000000   0.0000000
 0.3600000  -2.4930300  -0.3044460   0.9935190   0.0000000   0.0000000  -0.0348055   0.0761260  -0.0343653  -0.0646525   0.0000000   0.0000000   0.0000000   0.5858300  -0.0946008  -0.3988690   0.0000000   0.0000000   0.0000000
 0.3650000  -2.4926500  -0.3046190   0.9931910   0.0000000   0.0000000  -0.0346425   0.0790803  -0.0348243  -0.0666522   0.0000000   0.0000000   0.0000000   0.5958210  -0.0889514  -0.4009600   0.0000000   0.0000000   0.0000000
 0.3700000  -2.4922400  -0.3047950   0.9928520   0.0000000   0.0000000  -0.0344792   0.0820838  -0.0352544  -0.0686617   0.0000000   0.0000000   0.0000000   0.6055610  -0.0830519  -0.4028010   0.0000000   0.0000000   0.0000000
 0.3750000  -2.4918200  -0.3049720   0.9925040   0.0000000   0.0000000  -0.0343157   0.0851354  -0.0356544  -0.0706798   0.0000000   0.0000000   0.0000000   0.6150510  -0.0769079  -0.4043920   0.0000000   0.0000000   0.0000000
 0.3800000  -2.4913900  -0.3051510   0.9921450   0.0000000   0.0000000  -0.0341520   0.0882339  -0.0360237  -0.0727052   0.0000000   0.0000000   0.0000000   0.6242910  -0.0708318  -0.4057340   0.0000000   0.0000000   0.0000000
 0.3850000  -2.4909400  -0.3053320   0.9917770   0.0000000   0.0000000  -0.0339882   0.0913779  -0.0363631  -0.0747367   0.0000000   0.0000000   0.0000000   0.6332820  -0.0650056  -0.4068250   0.0000000   0.0000000   0.0000000
 0.3900000  -2.4904800  -0.3055150   0.9913980   0.0000000   0.0000000  -0.0338243   0.0945663  -0.0366741  -0.0767730   0.0000000   0.0000000   0.0000000   0.6420220  -0.0594295  -0.4076660   0.0000000   0.0000000   0.0000000
 0.3950000  -2.4900000  -0.3056990   0.9910090   0.0000000   0.0000000  -0.0336604   0.0977977  -0.0369579  -0.0788129   0.0000000   0.0000000   0.0000000   0.6505120  -0.0541034  -0.4082570   0.0000000   0.0000000   0.0000000
 0.4000000  -2.4895000  -0.3058840   0.9906100   0.0000000   0.0000000  -0.0334965   0.1010710  -0.0372156  -0.0808552   0.0000000   0.0000000   0.0000000   0.6587520  -0.0490273  -0.4085980   0.0000000   0.0000000   0.0000000
 0.4050000  -2.4889900  -0.3060710   0.9902010   0.0000000   0.0000000  -0.0333326   0.1043850  -0.0374485  -0.0828985   0.0000000   0.0000000   0.0000000   0.6667430  -0.0442011  -0.4086890   0.0000000   0.0000000   0.0000000
 0.4100000  -2.4884600  -0.3062590   0.9897810   0.0000000   0.0000000  -0.0331687   0.1077380  -0.0376580  -0.0849416   0.0000000   0.0000000   0.0000000   0.6744830  -0.0396250  -0.4085300   0.0000000   0.0000000   0.0000000
 0.4150000  -2.4879100  -0.3064470   0.9893510   0.0000000   0.0000000  -0.0330048   0.1111290  -0.0378452  -0.0869834   0.0000000   0.0000000   0.0000000   0.6819730  -0.0352989  -0.4081210   0.0000000   0.0000000   0.0000000
 0.4200000  -2.4873400  -0.3066370   0.9889110   0.0000000   0.0000000  -0.0328409   0.1145570  -0.0380114  -0.0890224   0.0000000   0.0000000   0.0000000   0.6892130  -0.0312228  -0.4074620   0.0000000   0.0000000   0.0000000
 0.4250000  -2.4867600  -0.3068270   0.9884610   0.0000000   0.0000000  -0.0326770   0.1180210  -0.0381579  -0.0910576   0.0000000   0.0000000   0.0000000   0.6962030  -0.0273966  -0.4065540   0.0000000   0.0000000   0.0000000
 0.4300000  -2.4861600  -0.3070190   0.9880010   0.0000000   0.0000000  -0.0325131   0.1215190  -0.0382858  -0.0930876   0.0000000   0.0000000   0.0000000   0.7029440  -0.0238205  -0.4053950   0.0000000   0.0000000   0.0000000
 0.4350000  -2.4855500  -0.3072100   0.9875300   0.0000000   0.0000000  -0.0323491   0.1250500  -0.0383965  -0.0951111   0.0000000   0.0000000   0.0000000   0.7094340  -0.0204944  -0.4039860   0.0000000   0.0000000   0.0000000
 0.4400000  -2.4849100  -0.3074020   0.9870490   0.0000000   0.0000000  -0.0321852   0.1286130  -0.0384912  -0.0971270   0.0000000   0.0000000   0.0000000   0.7156740  -0.0174183  -0.4023270   0.0000000   0.0000000   0.0000000
 0.4450000  -2.4842600  -0.3075950   0.9865590   0.0000000   0.0000000  -0.0320213   0.1322060  -0.0385711  -0.0991340   0.0000000   0.0000000   0.0000000   0.7216640  -0.0145921  -0.4004180   0.0000000   0.0000000   0.0000000
 0.4500000  -2.4835900  -0.3077880   0.9860580   0.0000000   0.0000000  -0.0318574   0.1358290  -0.0386375  -0.1011310   0.0000000   0.0000000   0.0000000   0.7274050  -0.0120160  -0.3982590   0.0000000   0.0000000   0.0000000
 0.4550000  -2.4829000  -0.3079810   0.9855480   0.0000000   0.0000000  -0.0316935   0.1394800  -0.0386917  -0.1031160   0.0000000   0.0000000   0.0000000   0.7328950  -0.0096899  -0.3958500   0.0000000   0.0000000   0.0000000
 0.4600000  -2.4822000  -0.3081750   0.9850270   0.0000000   0.0000000  -0.0315296   0.1431580  -0.0387348  -0.1050890   0.0000000   0.0000000   0.0000000   0.7381350  -0.0076138  -0.3931910   0.0000000   0.0000000   0.0000000
 0.4650000  -2.4814700  -0.3083690   0.9844970   0.0000000   0.0000000  -0.0313657   0.1468610  -0.0387682  -0.1070480   0.0000000   0.0000000   0.0000000   0.7431250  -0.0057877  -0.3902830   0.0000000   0.0000000   0.0000000
 0.4700000  -2.4807300  -0.3085630   0.9839570   0.0000000   0.0000000  -0.0312018   0.1505880  -0.0387931  -0.1089910   0.0000000   0.0000000   0.0000000   0.7478660  -0.0042115  -0.3871240   0.0000000   0.0000000   0.0000000
 0.4750000  -2.4799700  -0.3087570   0.9834070   0.0000000   0.0000000  -0.0310378   0.1543390  -0.0388107  -0.1109180   0.0000000   0.0000000   0.0000000   0.7523560  -0.0028854  -0.3837150   0.0000000   0.0000000   0.0000000
 0.4800000  -2.4791800  -0.3089510   0.9828470   0.0000000   0.0000000  -0.0308739   0.1581120  -0.0388224  -0.1128280   0.0000000   0.0000000   0.0000000   0.7565960  -0.0018093  -0.3800560   0.0000000   0.0000000   0.0000000
 0.4850000  -2.4783800  -0.3091450   0.9822790   0.0000000   0.0000000  -0.0307100   0.1619050  -0.0388292  -0.1147190   0.0000000   0.0000000   0.0000000   0.7605860  -0.0009831  -0.3761470   0.0000000   0.0000000   0.0000000
 0.4900000  -2.4775700  -0.3093390   0.9817000   0.0000000   0.0000000  -0.0305461   0.1657170  -0.0388326  -0.1165890   0.0000000   0.0000000   0.0000000   0.7643260  -0.0004070  -0.3719880   0.0000000   0.0000000   0.0000000
 0.4950000  -2.4767300  -0.3095330   0.9811130   0.0000000   0.0000000  -0.0303822   0.1695480  -0.0388337  -0.1184380   0.0000000   0.0000000   0.0000000   0.7678170  -0.0000809  -0.3675790   0.0000000   0.0000000   0.0000000
 0.5000000  -2.4758700  -0.3097270   0.9805160   0.0000000   0.0000000  -0.0302183   0.1733950  -0.0388338  -0.1202640   0.0000000   0.0000000   0.0000000   0.7710570   0.0000029  -0.3629200   0.0000000   0.0000000   0.0000000
 0.5050000  -2.4749900  -0.3099220   0.9799100   0.0000000   0.0000000  -0.0300544   0.1772580  -0.0388335  -0.1220670   0.0000000   0.0000000   0.0000000   0.7740470   0.0001658  -0.3580110   0.0000000   0.0000000   0.0000000
 0.5100000  -2.4741000  -0.3101160   0.9792950   0.0000000   0.0000000  -0.0298904   0.1811350  -0.0388318  -0.1238440   0.0000000   0.0000000   0.0000000   0.7767870   0.0005787  -0.3528530   0.0000000   0.0000000   0.0000000
 0.5150000  -2.4731800  -0.3103100   0.9786720   0.0000000   0.0000000  -0.0297265   0.1850250  -0.0388273  -0.1255950   0.0000000   0.0000000   0.0000000   0.7792780   0.0012416  -0.3474440   0.0000000   0.0000000   0.0000000
 0.5200000  -2.4722500  -0.3105040   0.9780390   0.0000000   0.0000000  -0.0295626   0.1889270  -0.0388189  -0.1273180   0.0000000   0.0000000   0.0000000   0.7815180   0.0021545  -0.3417850   0.0000000   0.0000000   0.0000000
 0.5250000  -2.4712900  -0.3106980   0.9773990   0.0000000   0.0000000  -0.0293987   0.1928400  -0.0388054  -0.1290120   0.0000000   0.0000000   0.0000000   0.7835080   0.0033174  -0.3358760   0.0000000   0.0000000   0.0000000
 0.5300000  -2.4703200  -0.3108920   0.9767490   0.0000000   0.0000000  -0.0292348   0.1967620  -0.0387853  -0.1306760   0.0000000   0.0000000   0.0000000   0.7852480   0.0047303  -0.3297170   0.0000000   0.0000000   0.0000000
 0.5350000  -2.4693200  -0.3110860   0.9760920   0.0000000   0.0000000  -0.0290709   0.2006920  -0.0387576  -0.1323090   0.0000000   0.0000000   0.0000000   0.7867390   0.0063932  -0.3233080   0.0000000   0.0000000   0.0000000
 0.5400000  -2.4683100  -0.3112800   0.9754260   0.0000000   0.0000000  -0.0289070   0.2046290  -0.0387210  -0.1339090   0.0000000   0.0000000   0.0000000   0.7879790   0.0083061  -0.3166490   0.0000000   0.0000000   0.0000000
 0.5450000  -2.4672800  -0.3114730   0.9747530   0.0000000   0.0000000  -0.0287431   0.2085710  -0.0386742  -0.1354750   0.0000000   0.0000000   0.0000000   0.7889690   0.0104690  -0.3097400   0.0000000   0.0000000   0.0000000
 0.5500000  -2.4662300  -0.3116660   0.9740720   0.0000000   0.0000000  -0.0285792   0.2125180  -0.0386159  -0.1370060   0.0000000   0.0000000   0.0000000   0.7897090   0.0128819  -0.3025820   0.0000000   0.0000000   0.0000000
 0.5550000  -2.4651500  -0.3118590   0.9733830   0.0000000   0.0000000  -0.0284152   0.2164680  -0.0385449  -0.1385010   0.0000000   0.0000000   0.0000000   0.7902000   0.0155448  -0.2951730   0.0000000   0.0000000   0.0000000
 0.5600000  -2.4640600  -0.3120520   0.9726870   0.0000000   0.0000000  -0.0282513   0.2204200  -0.0384600  -0.1399570   0.0000000   0.0000000   0.0000000   0.7904400   0.0184578  -0.2875140   0.0000000   0.0000000   0.0000000
 0.5650000  -2.4629500  -0.3122440   0.9719830   0.0000000   0.0000000  -0.0280874   0.2243720  -0.0383599  -0.1413750   0.0000000   0.0000000   0.0000000   0.7904300   0.0216207  -0.2796050   0.0000000   0.0000000   0.0000000
 0.5700000  -2.4618200  -0.3124350   0.9712730   0.0000000   0.0000000  -0.0279235   0.2283240  -0.0382434  -0.1427530   0.0000000   0.0000000   0.0000000   0.7901700   0.0250336  -0.2714460   0.0000000   0.0000000   0.0000000
 0.5750000  -2.4606700  -0.3126260   0.9705560   0.0000000   0.0000000  -0.0277596   0.2322730  -0.0381092  -0.1440890   0.0000000   0.0000000   0.0000000   0.7896600   0.0286965  -0.2630370   0.0000000   0.0000000   0.0000000
 0.5800000  -2.4594900  -0.3128160   0.9698320   0.0000000   0.0000000  -0.0275957   0.2362200  -0.0379560  -0.1453830   0.0000000   0.0000000   0.0000000   0.7889010   0.0326094  -0.2543780   0.0000000   0.0000000   0.0000000
 0.5850000  -2.4583000  -0.3130060   0.9691020   0.0000000   0.0000000  -0.0274318   0.2401620  -0.0377827  -0.1466330   0.0000000   0.0000000   0.0000000   0.7878910   0.0367723  -0.2454690   0.0000000   0.0000000   0.0000000
 0.5900000  -2.4570900  -0.3131940   0.9683660   0.0000000   0.0000000  -0.0272679   0.2440980  -0.0375879  -0.1478370   0.0000000   0.0000000   0.0000000   0.7866310   0.0411852  -0.2363100   0.0000000   0.0000000   0.0000000
 0.5950000  -2.4558600  -0.3133820   0.9676240   0.0000000   0.0000000  -0.0271039   0.2480280  -0.0373704  -0.1489950   0.0000000   0.0000000   0.0000000   0.7851210   0.0458481  -0.2269020   0.0000000   0.0000000   0.0000000
 0.6000000  -2.4546100  -0.3135680   0.9668760   0.0000000   0.0000000  -0.0269400   0.2519490  -0.0371290  -0.1501060   0.0000000   0.0000000   0.0000000   0.7833620   0.0507610  -0.2172430   0.0000000   0.0000000   0.0000000
 0.6050000  -2.4533400  -0.3137530   0.9661230   0.0000000   0.0000000  -0.0267761   0.2558610  -0.0368624  -0.1511670   0.0000000   0.0000000   0.0000000   0.7813520   0.0559239  -0.2073340   0.0000000   0.0000000   0.0000000
 0.6100000  -2.4520500  -0.3139360   0.9653640   0.0000000   0.0000000  -0.0266122   0.2597620  -0.0365693  -0.1521790   0.0000000   0.0000000   0.0000000   0.7790920   0.0613368  -0.1972990   0.0000000   0.0000000   0.0000000
 0.6150000  -2.4507500  -0.3141190   0.9646010   0.0000000   0.0000000  -0.0264483   0.2636510  -0.0362486  -0.1531410   0.0000000   0.0000000   0.0000000   0.7765820   0.0669997  -0.1874910   0.0000000   0.0000000   0.0000000
 0.6200000  -2.4494200  -0.3142990   0.9638330   0.0000000   0.0000000  -0.0262844   0.2675280  -0.0358989  -0.1540540   0.0000000   0.0000000   0.0000000   0.7738230   0.0729126  -0.1779340   0.0000000   0.0000000   0.0000000
 0.6250000  -2.4480700  -0.3144770   0.9630610   0.0000000   0.0000000  -0.0261205   0.2713890  -0.0355190  -0.1549210   0.0000000   0.0000000   0.0000000   0.7708130   0.0790755  -0.1686270   0.0000000   0.0000000   0.0000000
 0.6300000  -2.4467000  -0.3146540   0.9622840   0.0000000   0.0000000  -0.0259566   0.2752350  -0.0351077  -0.1557410   0.0000000   0.0000000   0.0000000   0.7675530   0.0854885  -0.1595700   0.0000000   0.0000000   0.0000000
 0.6350000  -2.4453200  -0.3148280   0.9615030   0.0000000   0.0000000  -0.0257926   0.2790640  -0.0346637  -0.1565170   0.0000000   0.0000000   0.0000000   0.7640430   0.0921514  -0.1507620   0.0000000   0.0000000   0.0000000
 0.6400000  -2.4439100  -0.3150010   0.9607190   0.0000000   0.0000000  -0.0256287   0.2828750  -0.0341858  -0.1572490   0.0000000   0.0000000   0.0000000   0.7602830   0.0990643  -0.1422050   0.0000000   0.0000000   0.0000000
 0.6450000  -2.4424900  -0.3151700   0.9599310   0.0000000   0.0000000  -0.0254648   0.2866670  -0.0336727  -0.1579390   0.0000000   0.0000000   0.0000000   0.7562740   0.1062270  -0.1338980   0.0000000   0.0000000   0.0000000
 0.6500000  -2.4410500  -0.3153370   0.9591400   0.0000000   0.0000000  -0.0253009   0.2904380  -0.0331231  -0.1585880   0.0000000   0.0000000   0.0000000   0.7520140   0.1136400  -0.1258410   0.0000000   0.0000000   0.0000000
 0.6550000  -2.4395900  -0.3155010   0.9583450   0.0000000   0.0000000  -0.0251370   0.2941870  -0.0325359  -0.1591980   0.0000000   0.0000000   0.0000000   0.7475040   0.1213030  -0.1180330   0.0000000   0.0000000   0.0000000
 0.6600000  -2.4381000  -0.3156630   0.9575480   0.0000000   0.0000000  -0.0249731   0.2979120  -0.0319097  -0.1597690   0.0000000   0.0000000   0.0000000   0.7427440   0.1292160  -0.1104760   0.0000000   0.0000000   0.0000000
 0.6650000  -2.4366100  -0.3158200   0.9567470   0.0000000   0.0000000  -0.0248092   0.3016140  -0.0312433  -0.1603030   0.0000000   0.0000000   0.0000000   0.7377350   0.1373790  -0.1031690   0.0000000   0.0000000   0.0000000
 0.6700000  -2.4350900  -0.3159750   0.9559450   0.0000000   0.0000000  -0.0246453   0.3052890  -0.0305355  -0.1608010   0.0000000   0.0000000   0.0000000   0.7324750   0.1457920  -0.0961118   0.0000000   0.0000000   0.0000000
 0.6750000  -2.4335500  -0.3161260   0.9551390   0.0000000   0.0000000  -0.0244813   0.3089380  -0.0297850  -0.1612650   0.0000000   0.0000000   0.0000000   0.7269650   0.1544550  -0.0893045   0.0000000   0.0000000   0.0000000
 0.6800000  -2.4320000  -0.3162730   0.9543320   0.0000000   0.0000000  -0.0243174   0.3125580  -0.0289905  -0.1616950   0.0000000   0.0000000   0.0000000   0.7212050   0.1633680  -0.0827473   0.0000000   0.0000000   0.0000000
 0.6850000  -2.4304300  -0.3164160   0.9535230   0.0000000   0.0000000  -0.0241535   0.3161500  -0.0281509  -0.1620930   0.0000000   0.0000000   0.0000000   0.7151960   0.1725300  -0.0764401   0.0000000   0.0000000   0.0000000
 0.6900000  -2.4288400  -0.3165540   0.9527110   0.0000000   0.0000000  -0.0239896   0.3197100  -0.0272648  -0.1624600   0.0000000   0.0000000   0.0000000   0.7089360   0.1819430  -0.0703828   0.0000000   0.0000000   0.0000000
 0.6950000  -2.4272300  -0.3166880   0.9518980   0.0000000   0.0000000  -0.0238257   0.3232380  -0.0263310  -0.1627970   0.0000000   0.0000000   0.0000000   0.7024260   0.1916060  -0.0645756   0.0000000   0.0000000   0.0000000
 0.7000000  -2.4256100  -0.3168170   0.9510830   0.0000000   0.0000000  -0.0236618   0.3267340  -0.0253483  -0.1631060   0.0000000   0.0000000   0.0000000   0.6956660   0.2015190  -0.0590184   0.0000000   0.0000000   0.0000000
 0.7050000  -2.4239600  -0.3169420   0.9502670   0.0000000   0.0000000  -0.0234979   0.3301950  -0.0243154  -0.1633870   0.0000000   0.0000000   0.0000000   0.6886560   0.2116820  -0.0537111   0.0000000   0.0000000   0.0000000
 0.7100000  -2.4223000  -0.3170600   0.9494490   0.0000000   0.0000000  -0.0233340   0.3336200  -0.0232311  -0.1636430   0.0000000   0.0000000   0.0000000   0.6813970   0.2220950  -0.0486539   0.0000000   0.0000000   0.0000000
 0.7150000  -2.4206300  -0.3171740   0.9486310   0.0000000   0.0000000  -0.0231700   0.3370080  -0.0220940  -0.1638740   0.0000000   0.0000000   0.0000000   0.6738870   0.2327580  -0.0438466   0.0000000   0.0000000   0.0000000
 0.7200000  -2.4189300  -0.3172810   0.9478110   0.0000000   0.0000000  -0.0230061   0.3403580  -0.0209031  -0.1640820   0.0000000   0.0000000   0.0000000   0.6661270   0.2436710  -0.0392894   0.0000000   0.0000000   0.0000000
 0.7250000  -2.4172200  -0.3173830   0.9469900   0.0000000   0.0000000  -0.0228422   0.3436690  -0.0196569  -0.1642680   0.0000000   0.0000000   0.0000000   0.6581170   0.2548340  -0.0349822   0.0000000   0.0000000   0.0000000
 0.7300000  -2.4155000  -0.3174780   0.9461680   0.0000000   0.0000000  -0.0226783   0.3469390  -0.0183543  -0.1644320   0.0000000   0.0000000   0.0000000   0.6498580   0.2662470  -0.0309249   0.0000000   0.0000000   0.0000000
 0.7350000  -2.4137500  -0.3175660   0.9453460   0.0000000   0.0000000  -0.0225144   0.3501670  -0.0169940  -0.1645770   0.0000000   0.0000000   0.0000000   0.6413480   0.2779090  -0.0271177   0.0000000   0.0000000   0.0000000
 0.7400000  -2.4120000  -0.3176480   0.9445220   0.0000000   0.0000000  -0.0223505   0.3533520  -0.0155748  -0.1647040   0.0000000   0.0000000   0.0000000   0.6325880   0.2898220  -0.0235605   0.0000000   0.0000000   0.0000000
 0.7450000  -2.4102200  -0.3177220   0.9436990   0.0000000   0.0000000  -0.0221866   0.3564930  -0.0140954  -0.1648130   0.0000000   0.0000000   0.0000000   0.6235780   0.3019850  -0.0202532   0.0000000   0.0000000   0.0000000
 0.7500000  -2.4084300  -0.3177880   0.9428740   0.0000000   0.0000000  -0.0220227   0.3595880  -0.0125545  -0.1649070   0.0000000   0.0000000   0.0000000   0.6143190   0.3143980  -0.0171960   0.0000000   0.0000000   0.0000000
 0.7550000  -2.4066300  -0.3178470   0.9420490   0.0000000   0.0000000  -0.0218587   0.3626360  -0.0109510  -0.1649860   0.0000000   0.0000000   0.0000000   0.6048090   0.3270610  -0.0143888   0.0000000   0.0000000   0.0000000
 0.7600000  -2.4048000  -0.3178980   0.9412240   0.0000000   0.0000000  -0.0216948   0.3656350  -0.0092835  -0.1650510   0.0000000   0.0000000   0.0000000   0.5950490   0.3399740  -0.0118315   0.0000000   0.0000000   0.0000000
 0.7650000  -2.4029700  -0.3179400   0.9403990   0.0000000   0.0000000  -0.0215309   0.3685860  -0.0075508  -0.1651050   0.0000000   0.0000000   0.0000000   0.5850390   0.3531370  -0.0095243   0.0000000   0.0000000   0.0000000
 0.7700000  -2.4011200  -0.3179730   0.9395730   0.0000000   0.0000000  -0.0213670   0.3714850  -0.0057517  -0.1651470   0.0000000   0.0000000   0.0000000   0.5747800   0.3665500  -0.0074671   0.0000000   0.0000000   0.0000000
 0.7750000  -2.3992500  -0.3179970   0.9387480   0.0000000   0.0000000  -0.0212031   0.3743330  -0.0038849  -0.1651800   0.0000000   0.0000000   0.0000000   0.5642700   0.3802130  -0.0056598   0.0000000   0.0000000   0.0000000
 0.7800000  -2.3973800  -0.3180120   0.9379220   0.0000000   0.0000000  -0.0210392   0.3771280  -0.0019492  -0.1652040   0.0000000   0.0000000   0.0000000   0.5535100   0.3941260  -0.0041026   0.0000000   0.0000000   0.0000000
 0.7850000  -2.3954800  -0.3180170   0.9370960   0.0000000   0.0000000  -0.0208753   0.3798680   0.0000568  -0.1652210   0.0000000   0.0000000   0.0000000   0.5425000   0.4082890  -0.0027954   0.0000000   0.0000000   0.0000000
 0.7900000  -2.3935800  -0.3180110   0.9362690   0.0000000   0.0000000  -0.0207114   0.3825520   0.0021341  -0.1652320   0.0000000   0.0000000   0.0000000   0.5312400   0.4227010  -0.0017381   0.0000000   0.0000000   0.0000000
 0.7950000  -2.3916600  -0.3179950   0.9354430   0.0000000   0.0000000  -0.0205475   0.3851800   0.0042842  -0.1652390   0.0000000   0.0000000   0.0000000   0.5197310   0.4373640  -0.0009309   0.0000000   0.0000000   0.0000000
 0.8000000  -2.3897300  -0.3179680   0.9346170   0.0000000   0.0000000  -0.0203835   0.3877490   0.0065082  -0.1652420   0.0000000   0.0000000   0.0000000   0.5079710   0.4522770  -0.0003737   0.0000000   0.0000000   0.0000000
 0.8050000  -2.3877800  -0.3179300   0.9337910   0.0000000   0.0000000  -0.0202196   0.3902590   0.0088074  -0.1652430   0.0000000   0.0000000   0.0000000   0.4959610   0.4674400  -0.0000664   0.0000000   0.0000000   0.0000000
 0.8100000  -2.3858200  -0.3178800   0.9329650   0.0000000   0.0000000  -0.0200557   0.3927080   0.0111830  -0.1652430   0.0000000   0.0000000   0.0000000   0.4837010   0.4828530  -0.0000000   0.0000000   0.0000000   0.0000000
 0.8150000  -2.3838500  -0.3178180   0.9321380   0.0000000   0.0000000  -0.0198918   0.3950960   0.0136363  -0.1652430   0.0000000   0.0000000   0.0000000   0.4711920   0.4985160  -0.0000000   0.0000000   0.0000000   0.0000000
 0.8200000  -2.3818700  -0.3177440   0.9313120   0.0000000   0.0000000  -0.0197279   0.3974200   0.0161686  -0.1652430   0.0000000   0.0000000   0.0000000   0.4584320   0.5144290  -0.0000000   0.0000000   0.0000000   0.0000000
 0.8250000  -2.3798800  -0.3176560   0.9304860   0.0000000   0.0000000  -0.0195640   0.3996790   0.0187810  -0.1652430   0.0000000   0.0000000   0.0000000   0.4454220   0.5305920  -0.0000000   0.0000000   0.0000000   0.0000000
 0.8300000  -2.3778800  -0.3175560   0.9296600   0.0000000   0.0000000  -0.0194001   0.4018730   0.0214749  -0.1652430   0.0000000   0.0000000   0.0000000   0.4321620   0.5470050  -0.0000000   0.0000000   0.0000000   0.0000000
 0.8350000  -2.3758600  -0.3174410   0.9288340   0.0000000   0.0000000  -0.0192362   0.4040010   0.0242515  -0.1652430   0.0000000   0.0000000   0.0000000   0.4186530   0.5636680  -0.0000000   0.0000000   0.0000000   0.0000000
 0.8400000  -2.3738400  -0.3173130   0.9280070   0.0000000   0.0000000  -0.0190722   0.4060600   0.0271120  -0.1652430   0.0000000   0.0000000   0.0000000   0.4048930   0.5805810  -0.0000000   0.0000000   0.0000000   0.0000000
 0.8450000  -2.3718000  -0.3171700   0.9271810   0.0000000   0.0000000  -0.0189083   0.4080490   0.0300577  -0.1652430   0.0000000   0.0000000   0.0000000   0.3909070   0.5977430  -0.0000000   0.0000000   0.0000000   0.0000000
 0.8500000  -2.3697500  -0.3170120   0.9263550   0.0000000   0.0000000  -0.0187444   0.4099690   0.0330899  -0.1652430   0.0000000   0.0000000   0.0000000   0.3770510   0.6151560  -0.0000000   0.0000000   0.0000000   0.0000000
 0.8550000  -2.3677000  -0.3168390   0.9255290   0.0000000   0.0000000  -0.0185805   0.4118200   0.0362097  -0.1652430   0.0000000   0.0000000   0.0000000   0.3634460   0.6328190  -0.0000000   0.0000000   0.0000000   0.0000000
 0.8600000  -2.3656400  -0.3166500   0.9247020   0.0000000   0.0000000  -0.0184166   0.4136040   0.0394185  -0.1652430   0.0000000   0.0000000   0.0000000   0.3500900   0.6507320  -0.0000000   0.0000000   0.0000000   0.0000000
 0.8650000  -2.3635600  -0.3164450   0.9238760   0.0000000   0.0000000  -0.0182527   0.4153210   0.0427174  -0.1652430   0.0000000   0.0000000   0.0000000   0.3369850   0.6688950  -0.0000000   0.0000000   0.0000000   0.0000000
 0.8700000  -2.3614800  -0.3162230   0.9230500   0.0000000   0.0000000  -0.0180888   0.4169740   0.0461078  -0.1652430   0.0000000   0.0000000   0.0000000   0.3241290   0.6873080  -0.0000000   0.0000000   0.0000000   0.0000000
 0.8750000  -2.3593900  -0.3159840   0.9222240   0.0000000   0.0000000  -0.0179249   0.4185630   0.0495909  -0.1652430   0.0000000   0.0000000   0.0000000   0.3115240   0.7059700  -0.0000000   0.0000000   0.0000000   0.0000000
 0.8800000  -2.3573000  -0.3157270   0.9213980   0.0000000   0.0000000  -0.0177609   0.4200900   0.0531675  -0.1652430   0.0000000   0.0000000   0.0000000   0.2991690   0.7246060  -0.0000000   0.0000000   0.0000000   0.0000000
 0.8850000  -2.3551900  -0.3154520   0.9205710   0.0000000   0.0000000  -0.0175970   0.4215550   0.0568366  -0.1652430   0.0000000   0.0000000   0.0000000   0.2870630   0.7429910  -0.0000000   0.0000000   0.0000000   0.0000000
 0.8900000  -2.3530800  -0.3151580   0.9197450   0.0000000   0.0000000  -0.0174331   0.4229610   0.0605970  -0.1652430   0.0000000   0.0000000   0.0000000   0.2752080   0.7611270  -0.0000000   0.0000000   0.0000000   0.0000000
 0.8950000  -2.3509600  -0.3148460   0.9189190   0.0000000   0.0000000  -0.0172692   0.4243080   0.0644474  -0.1652430   0.0000000   0.0000000   0.0000000   0.2636020   0.7790120  -0.0000000   0.0000000   0.0000000   0.0000000
 0.9000000  -2.3488400  -0.3145140   0.9180930   0.0000000   0.0000000  -0.0171053   0.4255970   0.0683867  -0.1652430   0.0000000   0.0000000   0.0000000   0.2522470   0.7966480  -0.0000000   0.0000000   0.0000000   0.0000000
 0.9050000  -2.3467100  -0.3141620   0.9172660   0.0000000   0.0000000  -0.0169414   0.4268310   0.0724135  -0.1652430   0.0000000   0.0000000   0.0000000   0.2411410   0.8140340  -0.0000000   0.0000000   0.0000000   0.0000000
 0.9100000  -2.3445700  -0.3137890   0.9164400   0.0000000   0.0000000  -0.0167775   0.4280090   0.0765266  -0.1652430   0.0000000   0.0000000   0.0000000   0.2302860   0.8311690  -0.0000000   0.0000000   0.0000000   0.0000000
 0.9150000  -2.3424300  -0.3133960   0.9156140   0.0000000   0.0000000  -0.0166136   0.4291340   0.0807248  -0.1652430   0.0000000   0.0000000   0.0000000   0.2196800   0.8480550  -0.0000000   0.0000000   0.0000000   0.0000000
 0.9200000  -2.3402800  -0.3129820   0.9147880   0.0000000   0.0000000  -0.0164496   0.4302060   0.0850067  -0.1652430   0.0000000   0.0000000   0.0000000   0.2093250   0.8646900  -0.0000000   0.0000000   0.0000000   0.0000000
 0.9250000  -2.3381300  -0.3125460   0.9139620   0.0000000   0.0000000  -0.0162857   0.4312280   0.0893712  -0.1652430   0.0000000   0.0000000   0.0000000   0.1992190   0.8810760  -0.0000000   0.0000000   0.0000000   0.0000000
 0.9300000  -2.3359700  -0.3120880   0.9131350   0.0000000   0.0000000  -0.0161218   0.4321990   0.0938171  -0.1652430   0.0000000   0.0000000   0.0000000   0.1893640   0.8972110  -0.0000000   0.0000000   0.0000000   0.0000000
 0.9350000  -2.3338000  -0.3116080   0.9123090   0.0000000   0.0000000  -0.0159579   0.4331220   0.0983429  -0.1652430   0.0000000   0.0000000   0.0000000   0.1797580   0.9130970  -0.0000000   0.0000000   0.0000000   0.0000000
 0.9400000  -2.3316400  -0.3111040   0.9114830   0.0000000   0.0000000  -0.0157940   0.4339970   0.1029480  -0.1652430   0.0000000   0.0000000   0.0000000   0.1704030   0.9287330  -0.0000000   0.0000000   0.0000000   0.0000000
 0.9450000  -2.3294600  -0.3105780   0.9106570   0.0000000   0.0000000  -0.0156301   0.4348260   0.1076300  -0.1652430   0.0000000   0.0000000   0.0000000   0.1612980   0.9441180  -0.0000000   0.0000000   0.0000000   0.0000000
 0.9500000  -2.3272900  -0.3100280   0.9098310   0.0000000   0.0000000  -0.0154662   0.4356100   0.1123880  -0.1652430   0.0000000   0.0000000   0.0000000   0.1524420   0.9592540  -0.0000000   0.0000000   0.0000000   0.0000000
 0.9550000  -2.3251100  -0.3094540   0.9090040   0.0000000   0.0000000  -0.0153023   0.4363510   0.1172220  -0.1652430   0.0000000   0.0000000   0.0000000   0.1438370   0.9741390  -0.0000000   0.0000000   0.0000000   0.0000000
 0.9600000  -2.3229300  -0.3088560   0.9081780   0.0000000   0.0000000  -0.0151383   0.4370490   0.1221290  -0.1652430   0.0000000   0.0000000   0.0000000   0.1354810   0.9887750  -0.0000000   0.0000000   0.0000000   0.0000000
 0.9650000  -2.3207400  -0.3082330   0.9073520   0.0000000   0.0000000  -0.0149744   0.4377060   0.1271090  -0.1652430   0.0000000   0.0000000   0.0000000   0.1273760   1.0031600  -0.0000000   0.0000000   0.0000000   0.0000000
 0.9700000  -2.3185500  -0.3075840   0.9065260   0.0000000   0.0000000  -0.0148105   0.4383230   0.1321610  -0.1652430   0.0000000   0.0000000   0.0000000   0.1195200   1.0173000  -0.0000000   0.0000000   0.0000000   0.0000000
 0.9750000  -2.3163600  -0.3069110   0.9056990   0.0000000   0.0000000  -0.0146467   0.4389020   0.1372820  -0.1652430   0.0000000   0.0000000   0.0000000   0.1119150   1.0311800  -0.0000000   0.0000000   0.0000000   0.0000000
 0.9800000  -2.3141600  -0.3062120   0.9048730   0.0000000   0.0000000  -0.0144828   0.4394430   0.1424720  -0.1652430   0.0000000   0.0000000   0.0000000   0.1045590   1.0448200  -0.0000000   0.0000000   0.0000000   0.0000000
 0.9850000  -2.3119600  -0.3054860   0.9040470   0.0000000   0.0000000  -0.0143191   0.4399480   0.1477300  -0.1652430   0.0000000   0.0000000   0.0000000   0.0974538   1.0582000  -0.0000000   0.0000000   0.0000000   0.0000000
 0.9900000  -2.3097600  -0.3047340   0.9032210   0.0000000   0.0000000  -0.0141555   0.4404180   0.1530540  -0.1652430   0.0000000   0.0000000   0.0000000   0.0905983   1.0713400  -0.0000000   0.0000000   0.0000000   0.0000000
 0.9950000  -2.3075600  -0.3039550   0.9023950   0.0000000   0.0000000  -0.0139921   0.4408540   0.1584430  -0.1652430   0.0000000   0.0000000   0.0000000   0.0839929   1.0842200  -0.0000000   0.0000000   0.0000000   0.0000000
 1.0000000  -2.3053500  -0.3031500   0.9015680   0.0000000   0.0000000  -0.0138289   0.4412580   0.1638950  -0.1652430   0.0000000   0.0000000   0.0000000   0.0776374   1.0968600  -0.0000000   0.0000000   0.0000000   0.0000000
 1.0050000  -2.3031400  -0.3023160   0.9007420   0.0000000   0.0000000  -0.0136661   0.4416310   0.1694110  -0.1652430   0.0000000   0.0000000   0.0000000   0.0715319   1.1092500  -0.0000000   0.0000000   0.0000000   0.0000000
 1.0100000  -2.3009400  -0.3014550   0.8999160   0.0000000   0.0000000  -0.0135037   0.4419740   0.1749870  -0.1652430   0.0000000   0.0000000   0.0000000   0.0656765   1.1213800  -0.0000000   0.0000000   0.0000000   0.0000000
 1.0150000  -2.2987200  -0.3005660   0.8990900   0.0000000   0.0000000  -0.0133418   0.4422880   0.1806240  -0.1652430   0.0000000   0.0000000   0.0000000   0.0600710   1.1332700  -0.0000000   0.0000000   0.0000000   0.0000000
 1.0200000  -2.2965100  -0.2996490   0.8982640   0.0000000   0.0000000  -0.0131806   0.4425750   0.1863200  -0.1652430   0.0000000   0.0000000   0.0000000   0.0547155   1.1449000  -0.0000000   0.0000000   0.0000000   0.0000000
 1.0250000  -2.2943000  -0.2987030   0.8974370   0.0000000   0.0000000  -0.0130201   0.4428360   0.1920730  -0.1652430   0.0000000   0.0000000   0.0000000   0.0496101   1.1562900  -0.0000000   0.0000000   0.0000000   0.0000000
 1.0300000  -2.2920800  -0.2977280   0.8966110   0.0000000   0.0000000  -0.0128604   0.4430710   0.1978820  -0.1652430   0.0000000   0.0000000   0.0000000   0.0447546   1.1674200  -0.0000000   0.0000000   0.0000000   0.0000000
 1.0350000  -2.2898700  -0.2967240   0.8957850   0.0000000   0.0000000  -0.0127018   0.4432840   0.2037470  -0.1652430   0.0000000   0.0000000   0.0000000   0.0401491   1.1783100  -0.0000000   0.0000000   0.0000000   0.0000000
 1.0400000  -2.2876500  -0.2956910   0.8949590   0.0000000   0.0000000  -0.0125443   0.4434730   0.2096650  -0.1652430   0.0000000   0.0000000   0.0000000   0.0357937   1.1889400  -0.0000000   0.0000000   0.0000000   0.0000000
 1.0450000  -2.2854300  -0.2946270   0.8941320   0.0000000   0.0000000  -0.0123881   0.4436420   0.2156360  -0.1652430   0.0000000   0.0000000   0.0000000   0.0316882   1.1993300  -0.0000000   0.0000000   0.0000000   0.0000000
 1.0500000  -2.2832100  -0.2935340   0.8933060   0.0000000   0.0000000  -0.0122334   0.4437910   0.2216580  -0.1652430   0.0000000   0.0000000   0.0000000   0.0278327   1.2094700  -0.0000000   0.0000000   0.0000000   0.0000000
 1.0550000  -2.2810000  -0.2924110   0.8924800   0.0000000   0.0000000  -0.0120804   0.4439210   0.2277300  -0.1652430   0.0000000   0.0000000   0.0000000   0.0242273   1.2193500  -0.0000000   0.0000000   0.0000000   0.0000000
 1.0600000  -2.2787800  -0.2912570   0.8916540   0.0000000   0.0000000  -0.0119292   0.4440330   0.2338510  -0.1652430   0.0000000   0.0000000   0.0000000   0.0208718   1.2289900  -0.0000000   0.0000000   0.0000000   0.0000000
 1.0650000  -2.2765600  -0.2900720   0.8908280   0.0000000   0.0000000  -0.0117800   0.4441300   0.2400190  -0.1652430   0.0000000   0.0000000   0.0000000   0.0177663   1.2383700  -0.0000000   0.0000000   0.0000000   0.0000000
 1.0700000  -2.2743300  -0.2888570   0.8900010   0.0000000   0.0000000  -0.0116331   0.4442110   0.2462340  -0.1652430   0.0000000   0.0000000   0.0000000   0.0149109   1.2475100  -0.0000000   0.0000000   0.0000000   0.0000000
 1.0750000  -2.2721100  -0.2876100   0.8891750   0.0000000   0.0000000  -0.0114886   0.4442790   0.2524940  -0.1652430   0.0000000   0.0000000   0.0000000   0.0123054   1.2563900  -0.0000000   0.0000000   0.0000000   0.0000000
 1.0800000  -2.2698900  -0.2863320   0.8883490   0.0000000   0.0000000  -0.0113468   0.4443350   0.2587980  -0.1652430   0.0000000   0.0000000   0.0000000   0.0099500   1.2650300  -0.0000000   0.0000000   0.0000000   0.0000000
 1.0850000  -2.2676700  -0.2850220   0.8875230   0.0000000   0.0000000  -0.0112080   0.4443790   0.2651440  -0.1652430   0.0000000   0.0000000   0.0000000   0.0078445   1.2734100  -0.0000000   0.0000000   0.0000000   0.0000000
 1.0900000  -2.2654500  -0.2836800   0.8866970   0.0000000   0.0000000  -0.0110723   0.4444140   0.2715310  -0.1652430   0.0000000   0.0000000   0.0000000   0.0059890   1.2815500  -0.0000000   0.0000000   0.0000000   0.0000000
 1.0950000  -2.2632300  -0.2823060   0.8858700   0.0000000   0.0000000  -0.0109400   0.4444400   0.2779590  -0.1652430   0.0000000   0.0000000   0.0000000   0.0043836   1.2894400  -0.0000000   0.0000000   0.0000000   0.0000000
 1.1000000  -2.2610000  -0.2809000   0.8850440   0.0000000   0.0000000  -0.0108114   0.4444580   0.2844250  -0.1652430   0.0000000   0.0000000   0.0000000   0.0030281   1.2970700  -0.0000000   0.0000000   0.0000000   0.0000000
 1.1050000  -2.2587800  -0.2794620   0.8842180   0.0000000   0.0000000  -0.0106867   0.4444700   0.2909290  -0.1652430   0.0000000   0.0000000   0.0000000   0.0019226   1.3044600  -0.0000000   0.0000000   0.0000000   0.0000000
 1.1100000  -2.2565600  -0.2779910   0.8833920   0.0000000   0.0000000  -0.0105660   0.4444780   0.2974690  -0.1652430   0.0000000   0.0000000   0.0000000   0.0010672   1.3115900  -0.0000000   0.0000000   0.0000000   0.0000000
 1.1150000  -2.2543400  -0.2764870   0.8825650   0.0000000   0.0000000  -0.0104496   0.4444810   0.3040450  -0.1652430   0.0000000   0.0000000   0.0000000   0.0004617   1.3184800  -0.0000000   0.0000000   0.0000000   0.0000000
 1.1200000  -2.2521100  -0.2749510   0.8817390   0.0000000   0.0000000  -0.0103377   0.4444830   0.3106540  -0.1652430   0.0000000   0.0000000   0.0000000   0.0001062   1.3251100  -0.0000000   0.0000000   0.0000000   0.0000000
 1.1250000  -2.2498900  -0.2733810   0.8809130   0.0000000   0.0000000  -0.0102304   0.4444830   0.3172950  -0.1652430   0.0000000   0.0000000   0.0000000   0.0000000   1.3315000  -0.0000000   0.0000000   0.0000000   0.0000000
 1.1300000  -2.2476700  -0.2717780   0.8800870   0.0000000   0.0000000  -0.0101280   0.4444830   0.3239680  -0.1652430   0.0000000   0.0000000   0.0000000   0.0000000   1.3376300  -0.0000000   0.0000000   0.0000000   0.0000000
 1.1350000  -2.2454500  -0.2701410   0.8792610   0.0000000   0.0000000  -0.0100306   0.4444830   0.3306710  -0.1652430   0.0000000   0.0000000   0.0000000   0.0000000   1.3435200  -0.0000000   0.0000000   0.0000000   0.0000000
 1.1400000  -2.2432200  -0.2684710   0.8784340   0.0000000   0.0000000  -0.0099383   0.4444830   0.3374030  -0.1652430   0.0000000   0.0000000   0.0000000   0.0000000   1.3491600  -0.0000000   0.0000000   0.0000000   0.0000000
 1.1450000  -2.2410000  -0.2667670   0.8776080   0.0000000   0.0000000  -0.0098513   0.4444830   0.3441620  -0.1652430   0.0000000   0.0000000   0.0000000   0.0000000   1.3545400  -0.0000000   0.0000000   0.0000000   0.0000000
 1.1500000  -2.2387800  -0.2650290   0.8767820   0.0000000   0.0000000  -0.0097698   0.4444830   0.3509480  -0.1652430   0.0000000   0.0000000   0.0000000   0.0000000   1.3596800  -0.0000000   0.0000000   0.0000000   0.0000000
 1.1550000  -2.2365600  -0.2632570   0.8759560   0.0000000   0.0000000  -0.0096938   0.4444830   0.3577590  -0.1652430   0.0000000   0.0000000   0.0000000   0.0000000   1.3645600  -0.0000000   0.0000000   0.0000000   0.0000000
 1.1600000  -2.2343300  -0.2614520   0.8751300   0.0000000   0.0000000  -0.0096235   0.4444830   0.3645930  -0.1652430   0.0000000   0.0000000   0.0000000   0.0000000   1.3692000  -0.0000000   0.0000000   0.0000000   0.0000000
 1.1650000  -2.2321100  -0.2596110   0.8743030   0.0000000   0.0000000  -0.0095589   0.4444830   0.3714500  -0.1652430   0.0000000   0.0000000   0.0000000   0.0000000   1.3735800  -0.0000000   0.0000000   0.0000000   0.0000000
 1.1700000  -2.2298900  -0.2577370   0.8734770   0.0000000   0.0000000  -0.0095002   0.4444830   0.3783290  -0.1652430   0.0000000   0.0000000   0.0000000   0.0000000   1.3777200  -0.0000000   0.0000000   0.0000000   0.0000000
 1.1750000  -2.2276700  -0.2558280   0.8726510   0.0000000   0.0000000  -0.0094474   0.4444830   0.3852270  -0.1652430   0.0000000   0.0000000   0.0000000   0.0000000   1.3816000  -0.0000000   0.0000000   0.0000000   0.0000000
 1.1800000  -2.2254400  -0.2538850   0.8718250   0.0000000   0.0000000  -0.0094007   0.4444830   0.3921440  -0.1652430   0.0000000   0.0000000   0.0000000   0.0000000   1.3852400  -0.0000000   0.0000000   0.0000000   0.0000000
 1.1850000  -2.2232200  -0.2519070   0.8709980   0.0000000   0.0000000  -0.0093600   0.4444830   0.3990790  -0.1652430   0.0000000   0.0000000   0.0000000   0.0000000   1.3886300  -0.0000000   0.0000000   0.0000000   0.0000000
 1.1900000  -2.2210000  -0.2498940   0.8701720   0.0000000   0.0000000  -0.0093255   0.4444830   0.4060300  -0.1652430   0.0000000   0.0000000   0.0000000   0.0000000   1.3917600  -0.0000000   0.0000000   0.0000000   0.0000000
 1.1950000  -2.2187800  -0.2478460   0.8693460   0.0000000   0.0000000  -0.0092971   0.4444830   0.4129960  -0.1652430   0.0000000   0.0000000   0.0000000   0.0000000   1.3946500  -0.0000000   0.0000000   0.0000000   0.0000000
 1.2000000  -2.2165600  -0.2457640   0.8685200   0.0000000   0.0000000  -0.0092750   0.4444830   0.4199760  -0.1652430   0.0000000   0.0000000   0.0000000   0.0000000   1.3972800  -0.0000000   0.0000000   0.0000000   0.0000000
 1.2050000  -2.2143300  -0.2436470   0.8676940   0.0000000   0.0000000  -0.0092590   0.4444830   0.4269690  -0.1652430   0.0000000   0.0000000   0.0000000   0.0000000   1.3996700  -0.0000000   0.0000000   0.0000000   0.0000000
 1.2100000  -2.2121100  -0.2414940   0.8668670   0.0000000   0.0000000  -0.0092494   0.4444830   0.4339720  -0.1652430   0.0000000   0.0000000   0.0000000   0.0000000   1.4018000  -0.0000000   0.0000000   0.0000000   0.0000000
 1.2150000  -2.2098900  -0.2393070   0.8660410   0.0000000   0.0000000  -0.0092459   0.4444830   0.4409860  -0.1652430   0.0000000   0.0000000   0.0000000   0.0000244   1.4036900  -0.0000000   0.0000000   0.0000000   0.0000000
 1.2200000  -2.2076700  -0.2370840   0.8652150   0.0000000   0.0000000  -0.0092488   0.4444840   0.4480090  -0.1652430   0.0000000   0.0000000   0.0000000   0.0002600   1.4053200  -0.0000000   0.0000000   0.0000000   0.0000000
 1.2250000  -2.2054400  -0.2348270   0.8643890   0.0000000   0.0000000  -0.0092578   0.4444860   0.4550390  -0.1652430   0.0000000   0.0000000   0.0000000   0.0007455   1.4067100  -0.0000000   0.0000000   0.0000000   0.0000000
 1.2300000  -2.2032200  -0.2325340   0.8635620   0.0000000   0.0000000  -0.0092732   0.4444910   0.4620760  -0.1652430   0.0000000   0.0000000   0.0000000   0.0014811   1.4078500  -0.0000000   0.0000000   0.0000000   0.0000000
 1.2350000  -2.2010000  -0.2302060   0.8627360   0.0000000   0.0000000  -0.0092948   0.4445010   0.4691170  -0.1652430   0.0000000   0.0000000   0.0000000   0.0024666   1.4087300  -0.0000000   0.0000000   0.0000000   0.0000000
 1.2400000  -2.1987800  -0.2278430   0.8619100   0.0000000   0.0000000  -0.0093226   0.4445160   0.4761630  -0.1652430   0.0000000   0.0000000   0.0000000   0.0037022   1.4093700  -0.0000000   0.0000000   0.0000000   0.0000000
 1.2450000  -2.1965500  -0.2254440   0.8610840   0.0000000   0.0000000  -0.0093567   0.4445390   0.4832100  -0.1652430   0.0000000   0.0000000   0.0000000   0.0051877   1.4097500  -0.0000000   0.0000000   0.0000000   0.0000000
 1.2500000  -2.1943300  -0.2230110   0.8602580   0.0000000   0.0000000  -0.0093970   0.4445690   0.4902600  -0.1652430   0.0000000   0.0000000   0.0000000   0.0069233   1.4098900  -0.0000000   0.0000000   0.0000000   0.0000000
 1.2550000  -2.1921100  -0.2205420   0.8594310   0.0000000   0.0000000  -0.0094436   0.4446080   0.4973090  -0.1652430   0.0000000   0.0000000   0.0000000   0.0089088   1.4097700  -0.0000000   0.0000000   0.0000000   0.0000000
 1.2600000  -2.1898800  -0.2180380   0.8586050   0.0000000   0.0000000  -0.0094964   0.4446580   0.5043570  -0.1652430   0.0000000   0.0000000   0.0000000   0.0111443   1.4094100  -0.0000000   0.0000000   0.0000000   0.0000000
 1.2650000  -2.1876600  -0.2154980   0.8577790   0.0000000   0.0000000  -0.0095555   0.4447200   0.5114030  -0.1652430   0.0000000   0.0000000   0.0000000   0.0136299   1.4087900  -0.0000000   0.0000000   0.0000000   0.0000000
 1.2700000  -2.1854400  -0.2129230   0.8569530   0.0000000   0.0000000  -0.0096208   0.4447950   0.5184450  -0.1652430   0.0000000   0.0000000   0.0000000   0.0163654   1.4079300  -0.0000000   0.0000000   0.0000000   0.0000000
 1.2750000  -2.1832100  -0.2103140   0.8561270   0.0000000   0.0000000  -0.0096924   0.4448840   0.5254810  -0.1652430   0.0000000   0.0000000   0.0000000   0.0193510   1.4068200  -0.0000000   0.0000000   0.0000000   0.0000000
 1.2800000  -2.1809900  -0.2076690   0.8553000   0.0000000   0.0000000  -0.0097702   0.4449890   0.5325120  -0.1652430   0.0000000   0.0000000   0.0000000   0.0225865   1.4054500  -0.0000000   0.0000000   0.0000000   0.0000000
 1.2850000  -2.1787600  -0.2049890   0.8544740   0.0000000   0.0000000  -0.0098543   0.4451100   0.5395360  -0.1652430   0.0000000   0.0000000   0.0000000   0.0260721   1.4038400  -0.0000000   0.0000000   0.0000000   0.0000000
 1.2900000  -2.1765400  -0.2022730   0.8536480   0.0000000   0.0000000  -0.0099446   0.4452500   0.5465500  -0.1652430   0.0000000   0.0000000   0.0000000   0.0298076   1.4019700  -0.0000000   0.0000000   0.0000000   0.0000000
 1.2950000  -2.1743100  -0.1995230   0.8528220   0.0000000   0.0000000  -0.0100412   0.4454090   0.5535550  -0.1652430   0.0000000   0.0000000   0.0000000   0.0337932   1.3998600  -0.0000000   0.0000000   0.0000000   0.0000000
 1.3000000  -2.1720800  -0.1967380   0.8519950   0.0000000   0.0000000  -0.0101440   0.4455880   0.5605480  -0.1652430   0.0000000   0.0000000   0.0000000   0.0380287   1.3974900  -0.0000000   0.0000000   0.0000000   0.0000000
 1.3050000  -2.1698500  -0.1939180   0.8511690   0.0000000   0.0000000  -0.0102531   0.4457900   0.5675290  -0.1652430   0.0000000   0.0000000   0.0000000   0.0425143   1.3948800  -0.0000000   0.0000000   0.0000000   0.0000000
 1.3100000  -2.1676300  -0.1910630   0.8503430   0.0000000   0.0000000  -0.0103684   0.4460140   0.5744970  -0.1652430   0.0000000   0.0000000   0.0000000   0.0472498   1.3920100  -0.0000000   0.0000000   0.0000000   0.0000000
 1.3150000  -2.1653900  -0.1881730   0.8495170   0.0000000   0.0000000  -0.0104900   0.4462630   0.5814490  -0.1652430   0.0000000   0.0000000   0.0000000   0.0522353   1.3889000  -0.0000000   0.0000000   0.0000000   0.0000000
