ts fx fy fz tx ty tz exfx exfy exfz extx exty extz xd yd zd rolld pitchd yawd vxd vyd vzd wxd wyd wzd axd ayd azd e_x e_y e_z e_vx e_vy e_vz e_rx e_ry e_rz e_wx e_wy e_wz
1699974325.917401000  0  0  12.1237  0.274011  -0.275241  0.00444495  nan  nan  nan  nan  nan  nan  -1  0  1  0.0455824  -0.0647977  -0.00295361  0  0  0  0  0  0  0  0  0  0.0421038  0.0181757  -0.0350337  -0.0059782  0.0209219  -0.00857673  -0.0564123  0.0544457  -0.00177338  -0.0290283  0.0495822  -0.0378281 
1699974325.920574000  0  0  12.0914  0.29306  -0.302187  0.00443117  nan  nan  nan  nan  nan  nan  -1  0  1  0.0455379  -0.0649823  -0.00295911  0  0  0  0  0  0  0  0  0  0.0421103  0.0181594  -0.0350511  -0.00597154  0.0207381  -0.00591073  -0.0568208  0.055318  -0.00187169  -0.063369  0.0954479  -0.0366727 
1699974325.925426000  0  0  12.1135  0.286369  -0.323643  0.00388536  nan  nan  nan  nan  nan  nan  -1  0  1  0.0463188  -0.0646426  -0.00299422  0  0  0  0  0  0  0  0  0  0.0420796  0.0182644  -0.0350954  -0.00619095  0.0216732  -0.00772978  -0.0576916  0.0558706  -0.00196212  -0.0419752  0.133277  -0.0289457 
1699974325.930445000  0  0  12.127  0.276325  -0.304973  0.00309718  nan  nan  nan  nan  nan  nan  -1  0  1  0.045913  -0.0650754  -0.00298779  0  0  0  0  0  0  0  0  0  0.0421015  0.0182681  -0.0351595  -0.00555824  0.0211862  -0.00872686  -0.0573184  0.0565625  -0.0019952  -0.0253214  0.0895718  -0.0187628 
1699974325.935511000  0  0  12.0244  0.269867  -0.285415  0.00147681  nan  nan  nan  nan  nan  nan  -1  0  1  0.0458697  -0.0656465  -0.00301113  0  0  0  0  0  0  0  0  0  0.0421245  0.0182733  -0.035145  -0.00558632  0.0205917  -0.000205857  -0.0572972  0.0571612  -0.00185541  -0.0125997  0.0449467  9.39861e-05 
1699974325.940484000  0  0  12.0651  0.228436  -0.265011  0.000529453  nan  nan  nan  nan  nan  nan  -1  0  1  0.0461805  -0.0648526  -0.00299495  0  0  0  0  0  0  0  0  0  0.042092  0.0183766  -0.03519  -0.00628807  0.0209867  -0.00346588  -0.0568447  0.056276  -0.00177097  0.0660995  0.0122825  0.0110916 
1699974325.945484000  0  0  12.0797  0.210366  -0.23613  -0.000203279  nan  nan  nan  nan  nan  nan  -1  0  1  0.0455046  -0.0649117  -0.00295374  0  0  0  0  0  0  0  0  0  0.0421124  0.0183792  -0.0352216  -0.00615932  0.0201444  -0.0045494  -0.0555724  0.0558975  -0.00163991  0.0905349  -0.0419979  0.01894 
1699974325.950392000  0  0  12.0311  0.214295  -0.221667  -0.00024738  nan  nan  nan  nan  nan  nan  -1  0  1  0.0461117  -0.0649161  -0.0029934  0  0  0  0  0  0  0  0  0  0.0420819  0.0184796  -0.0352084  -0.00643636  0.0204845  -0.000481964  -0.0557889  0.0554227  -0.00152276  0.084667  -0.0665558  0.0183198 
1699974325.956357000  0  0  12.0545  0.207479  -0.234167  0.00114681  nan  nan  nan  nan  nan  nan  -1  0  1  0.0460602  -0.0646718  -0.00297882  0  0  0  0  0  0  0  0  0  0.042089  0.0184893  -0.0352371  -0.00661482  0.0205128  -0.00234367  -0.0551486  0.0551621  -0.00161529  0.0924088  -0.0391565  0.00181776 
1699974325.961374000  0  0  12.0966  0.234689  -0.247744  0.00352716  nan  nan  nan  nan  nan  nan  -1  0  1  0.0455115  -0.0649532  -0.00295607  0  0  0  0  0  0  0  0  0  0.042109  0.0184628  -0.0352732  -0.00597883  0.0200489  -0.00578417  -0.0547504  0.0555461  -0.00191197  0.0343265  -0.0155359  -0.0249698 
1699974325.965519000  0  0  12.0873  0.272485  -0.277737  0.00384659  nan  nan  nan  nan  nan  nan  -1  0  1  0.046279  -0.0653128  -0.00302261  0  0  0  0  0  0  0  0  0  0.0420887  0.0185498  -0.0352859  -0.00550339  0.0208417  -0.00504805  -0.0560945  0.0563955  -0.00201129  -0.0289015  0.036636  -0.0279695 
1699974325.970390000  0  0  12.0856  0.288934  -0.299259  0.00367834  nan  nan  nan  nan  nan  nan  -1  0  1  0.0471467  -0.0650962  -0.00306917  0  0  0  0  0  0  0  0  0  0.0420594  0.0186555  -0.0353067  -0.00573034  0.0217686  -0.00493041  -0.057362  0.056823  -0.00209208  -0.050138  0.0757465  -0.0250585 
1699974325.976353000  0  0  12.1046  0.296831  -0.30643  0.00338165  nan  nan  nan  nan  nan  nan  -1  0  1  0.047064  -0.0651342  -0.00306557  0  0  0  0  0  0  0  0  0  0.0420751  0.0186622  -0.0353523  -0.00557082  0.0217457  -0.00648247  -0.0577418  0.0574872  -0.00217045  -0.0624364  0.0839782  -0.0205661 
1699974325.980428000  0  0  12.0583  0.306389  -0.302293  0.00275427  nan  nan  nan  nan  nan  nan  -1  0  1  0.0468577  -0.0661286  -0.00309863  0  0  0  0  0  0  0  0  0  0.0421236  0.0186277  -0.0353386  -0.00467328  0.0213016  -0.00267953  -0.0579793  0.0586795  -0.00213587  -0.0793685  0.0647356  -0.0130697 
1699974325.985767000  0  0  12.004  0.296182  -0.3009  0.00237731  nan  nan  nan  nan  nan  nan  -1  0  1  0.0469962  -0.0664106  -0.00312104  0  0  0  0  0  0  0  0  0  0.042162  0.0186237  -0.0353155  -0.00477722  0.0212131  0.00177617  -0.0582722  0.0592516  -0.00212657  -0.0562597  0.0566848  -0.00845073 
1699974325.991354000  0  0  12.0042  0.261647  -0.259072  0.0019419  nan  nan  nan  nan  nan  nan  -1  0  1  0.0474483  -0.065728  -0.00311876  0  0  0  0  0  0  0  0  0  0.0421292  0.0187408  -0.0353192  -0.00561997  0.021557  0.00181423  -0.0582157  0.0580393  -0.00211225  0.0122907  -0.0158175  -0.00315118 
1699974325.995509000  0  0  11.9813  0.249452  -0.229953  0.00129983  nan  nan  nan  nan  nan  nan  -1  0  1  0.0466582  -0.0664444  -0.00310013  0  0  0  0  0  0  0  0  0  0.0421989  0.018695  -0.0353057  -0.00499559  0.0204787  0.00376613  -0.0571385  0.0580614  -0.00204783  0.0267709  -0.0742587  0.00423043 
1699974326.000349000  0  0  11.9758  0.23171  -0.228286  0.000586108  nan  nan  nan  nan  nan  nan  -1  -0  1  0.0474175  -0.065981  -0.00312872  6e-07  -6e-07  6e-07  0  0  0  0  0  0  0.0421716  0.0187984  -0.0352925  -0.00559287  0.0212308  0.0042308  -0.057358  0.0572777  -0.00193012  0.064273  -0.0703821  0.0119748 
1699974326.005393000  0  0  12.0503  0.217845  -0.227593  0.00106929  nan  nan  nan  nan  nan  nan  -1  -0  1  0.0468068  -0.065351  -0.00305892  5e-06  -5e-06  5e-06  0  0  0  0  0  0  0.0421963  0.0187694  -0.0353113  -0.00595803  0.020869  -0.00188835  -0.0562055  0.0564287  -0.00197121  0.0814007  -0.0639583  0.00634596 
1699974326.010866000  0  0  12.0636  0.236675  -0.233246  0.00211062  nan  nan  nan  nan  nan  nan  -1  -1e-07  1  0.046209  -0.0659874  -0.00304916  1.69e-05  -1.69e-05  1.69e-05  0  0  0  0  0  0  0.0422403  0.01875  -0.0353164  -0.00510787  0.0201756  -0.00295827  -0.0555962  0.0567874  -0.00208434  0.0381358  -0.0559531  -0.00553933 
1699974326.015400000  0  0  12.0751  0.261153  -0.255931  0.00263095  nan  nan  nan  nan  nan  nan  -1  -2e-07  1  0.0468343  -0.0660813  -0.00309477  4e-05  -4e-05  4e-05  0  0  0  0  0  0  0.042221  0.0188447  -0.0353292  -0.00484501  0.0208648  -0.00392677  -0.0565457  0.0571096  -0.00214976  -0.00208525  -0.0135461  -0.0113893 
1699974326.020400000  0  0  12.1364  0.268224  -0.298108  0.00311432  nan  nan  nan  nan  nan  nan  -1  -5e-07  1  0.0467153  -0.0658221  -0.00307471  7.81e-05  -7.81e-05  7.81e-05  0  0  0  0  0  0  0.0422474  0.018826  -0.0353761  -0.00479898  0.0210694  -0.00900246  -0.0566058  0.0577361  -0.0022838  -0.0156743  0.0650446  -0.0160911 
1699974326.025395000  0  0  12.0821  0.298222  -0.300448  0.00410502  nan  nan  nan  nan  nan  nan  -0.999999  -1e-06  1  0.0473498  -0.0663204  -0.00313989  0.000135  -0.000135  0.000135  0  0  0  0  0  0  0.0422268  0.0189296  -0.0353692  -0.00446782  0.0214115  -0.00455165  -0.0578693  0.0585394  -0.00244649  -0.0640455  0.0623329  -0.0268478 
1699974326.031364000  0  0  12.0382  0.304428  -0.308892  0.00457759  nan  nan  nan  nan  nan  nan  -0.999998  -1.9e-06  1  0.0476285  -0.0668146  -0.00318171  0.0002141  -0.0002144  0.0002134  0  0  0  0  0  0  0.0422738  0.0189372  -0.0353639  -0.00422462  0.0215379  -0.000955748  -0.058569  0.0595204  -0.00264272  -0.0700201  0.0701962  -0.0307927 
1699974326.035749000  0  0  12.0789  0.26985  -0.305555  0.00388004  nan  nan  nan  nan  nan  nan  -0.999997  -3.2e-06  1  0.0470571  -0.0667577  -0.0031406  0.0003149  -0.00032  0.0003113  0  0  0  0  0  0  0.0423246  0.0189264  -0.035401  -0.00411732  0.0210095  -0.00425606  -0.0575837  0.0597256  -0.00273432  -0.00992974  0.0616349  -0.0211572 
1699974326.041359000  0  0  11.9927  0.25115  -0.260032  0.00206364  nan  nan  nan  nan  nan  nan  -0.999995  -5.1e-06  1.00001  0.0476715  -0.0666877  -0.00317814  0.0004338  -0.0004556  0.0004249  0  0  0  0  0  0  0.0422976  0.0190408  -0.0353698  -0.00479324  0.0211202  0.00292367  -0.0577391  0.0590018  -0.00256346  0.0288991  -0.0227529  -0.000160941 
1699974326.045562000  0  0  11.9761  0.2337  -0.241583  0.000586813  nan  nan  nan  nan  nan  nan  -0.999992  -7.8e-06  1.00001  0.047306  -0.0668824  -0.00316273  0.0005669  -0.000625  0.0005504  0  0  0  0  0  0  0.0423496  0.0190053  -0.0353615  -0.00477992  0.0206204  0.00435104  -0.0568933  0.0587526  -0.00239284  0.0560184  -0.0573571  0.0165933 
1699974326.050420000  0  0  12.0529  0.207844  -0.23512  0.000495617  nan  nan  nan  nan  nan  nan  -0.999989  -1.14e-05  1.00001  0.0474281  -0.0659086  -0.00312459  0.0007105  -0.0008319  0.0006841  0  0  0  0  0  0  0.0423236  0.0191055  -0.0354016  -0.00546577  0.0209653  -0.00191439  -0.0562179  0.0574937  -0.00234192  0.101516  -0.0587018  0.017224 
1699974326.056355000  0  0  12.072  0.194886  -0.226562  0.00186511  nan  nan  nan  nan  nan  nan  -0.999985  -1.62e-05  1.00001  0.0471435  -0.0657566  -0.00309845  0.000861  -0.00108  0.0008222  0  0  0  0  0  0  0.0423597  0.0190998  -0.0354179  -0.00561961  0.0206927  -0.00339619  -0.0550461  0.0568629  -0.00246908  0.116652  -0.0700149  0.00137689 
1699974326.060787000  0  0  12.0603  0.217982  -0.229757  0.00204047  nan  nan  nan  nan  nan  nan  -0.999981  -2.23e-05  1.00002  0.0470249  -0.0660791  -0.00310568  0.0010145  -0.0013731  0.000961  0  0  0  0  0  0  0.0423861  0.0190751  -0.035413  -0.00533204  0.0205247  -0.00241002  -0.0548732  0.0569322  -0.00248032  0.0688703  -0.0642624  -0.000702595 
1699974326.065404000  0  0  12.1358  0.250584  -0.272239  0.00320065  nan  nan  nan  nan  nan  nan  -0.999975  -3e-05  1.00002  0.0478319  -0.0653275  -0.00312309  0.0011672  -0.001715  0.0010968  0  0  0  0  0  0  0.0423595  0.0191768  -0.0354667  -0.00572448  0.0217877  -0.00865123  -0.0559971  0.056813  -0.00263292  0.0140047  0.0217989  -0.0136789 
1699974326.070418000  0  0  12.1839  0.272909  -0.293322  0.00435355  nan  nan  nan  nan  nan  nan  -0.999969  -3.96e-05  1.00003  0.0486445  -0.0651558  -0.00316802  0.0013155  -0.0021094  0.0012257  0  0  0  0  0  0  0.042335  0.0192897  -0.0355327  -0.00554102  0.0228973  -0.0125874  -0.0571505  0.0572234  -0.00283632  -0.0200332  0.0601894  -0.0260562 
1699974326.075408000  0  0  12.1054  0.306635  -0.301038  0.0044608  nan  nan  nan  nan  nan  nan  -0.999962  -5.12e-05  1.00004  0.0489305  -0.066063  -0.00323132  0.0014556  -0.0025587  0.0013441  0  0  0  0  0  0  0.042364  0.0192783  -0.0355128  -0.00493999  0.0228834  -0.00614315  -0.0581591  0.0584549  -0.00293171  -0.0782059  0.0642913  -0.0264429 
1699974326.080406000  0  0  12.121  0.306206  -0.315979  0.00426345  nan  nan  nan  nan  nan  nan  -0.999954  -6.52e-05  1.00004  0.0491196  -0.0661047  -0.00324637  0.0015837  -0.0030604  0.0014482  0  0  0  0  0  0  0.0423996  0.0192601  -0.0355378  -0.00484072  0.0232669  -0.00745008  -0.0586917  0.0591345  -0.00302106  -0.0724475  0.0879206  -0.0230825 
1699974326.086410000  0  0  12.1282  0.27944  -0.293767  0.00368118  nan  nan  nan  nan  nan  nan  -0.999946  -8.19e-05  1.00005  0.049094  -0.0662403  -0.00325222  0.0016961  -0.0036108  0.0015342  0  0  0  0  0  0  0.0424452  0.0192846  -0.0356042  -0.00470604  0.0232157  -0.00790217  -0.0584899  0.0593258  -0.00309218  -0.020772  0.041737  -0.015093 
1699974326.091353000  0  0  12.042  0.278455  -0.269771  0.00292526  nan  nan  nan  nan  nan  nan  -0.999938  -0.0001014  1.00006  0.0500764  -0.0665335  -0.00333338  0.001789  -0.0042061  0.0015988  0  0  0  0  0  0  0.0424223  0.0193983  -0.0355827  -0.00488996  0.0238058  -0.000743456  -0.0594323  0.0592334  -0.00300297  -0.0101326  -0.00540599  -0.00653605 
1699974326.095353000  0  0  12.0852  0.252439  -0.258136  0.000711153  nan  nan  nan  nan  nan  nan  -0.999928  -0.000124  1.00007  0.0501886  -0.0658116  -0.00330647  0.0018593  -0.0048425  0.0016434  0  0  0  0  0  0  0.0424422  0.0193949  -0.0356075  -0.00559107  0.0242051  -0.00426367  -0.059001  0.058356  -0.00276617  0.0379313  -0.020603  0.0187723 
1699974326.100351000  0  0  12.1379  0.226445  -0.233712  -0.000165786  nan  nan  nan  nan  nan  nan  -0.999919  -0.0001499  1.00007  0.0506378  -0.0648397  -0.00328934  0.0019086  -0.0055164  0.0016716  0  0  0  0  0  0  0.0424102  0.0195148  -0.0356601  -0.00645472  0.0248377  -0.00847571  -0.0586073  0.0568603  -0.00256579  0.0862979  -0.0556904  0.0277302 
1699974326.105391000  0  0  12.0777  0.215771  -0.200622  7.21242e-05  nan  nan  nan  nan  nan  nan  -0.999909  -0.0001792  1.00008  0.0506418  -0.0656932  -0.00333596  0.0019405  -0.0062239  0.0016872  0  0  0  0  0  0  0.0424399  0.0195195  -0.0356308  -0.00581322  0.0244823  -0.00340118  -0.0578912  0.0566186  -0.00242447  0.101058  -0.119646  0.0233431 
1699974326.110813000  0  0  12.1077  0.225999  -0.230169  0.000864715  nan  nan  nan  nan  nan  nan  -0.9999  -0.0002122  1.00009  0.051066  -0.065591  -0.00336267  0.0019589  -0.0069612  0.0016939  0  0  0  0  0  0  0.042457  0.0195173  -0.0356423  -0.00576612  0.0252263  -0.00587178  -0.0579698  0.0566085  -0.00241345  0.0813231  -0.0604594  0.0133256 
1699974326.115419000  0  0  12.2138  0.240063  -0.255366  0.00288156  nan  nan  nan  nan  nan  nan  -0.99989  -0.0002489  1.0001  0.0516062  -0.0650378  -0.00337475  0.0019674  -0.0077248  0.0016954  0  0  0  0  0  0  0.042432  0.0196381  -0.0357493  -0.00568263  0.0262962  -0.0145153  -0.0584304  0.0564569  -0.0026479  0.0574338  -0.00867277  -0.00954054 
1699974326.121349000  0  0  12.1823  0.27907  -0.274766  0.00505419  nan  nan  nan  nan  nan  nan  -0.99988  -0.0002895  1.00011  0.0524193  -0.0655663  -0.00346161  0.0019699  -0.0085107  0.0016955  0  0  0  0  0  0  0.0424532  0.0196947  -0.0357665  -0.0052259  0.0270913  -0.0119023  -0.0596864  0.0572867  -0.00294836  -0.00902533  0.0224936  -0.0336937 
1699974326.126360000  0  0  12.1803  0.308304  -0.308336  0.00521967  nan  nan  nan  nan  nan  nan  -0.99987  -0.000334  1.00012  0.0537314  -0.0657979  -0.00356775  0.0019701  -0.0093153  0.0016955  0  0  0  0  0  0  0.0424307  0.0198351  -0.0358179  -0.00485419  0.028549  -0.0117153  -0.0615857  0.0583239  -0.00308594  -0.0500197  0.080091  -0.0343865 
1699974326.130411000  0  0  12.1964  0.309235  -0.319508  0.00419758  nan  nan  nan  nan  nan  nan  -0.99986  -0.0003826  1.00013  0.0541495  -0.0658002  -0.00360445  0.0019701  -0.0101348  0.0016955  0  0  0  0  0  0  0.0424652  0.0198554  -0.0358505  -0.00480066  0.0291693  -0.0130363  -0.0621541  0.058877  -0.00306006  -0.0466525  0.0973468  -0.0218692 
1699974326.135802000  0  0  12.1467  0.301188  -0.302155  0.00323481  nan  nan  nan  nan  nan  nan  -0.99985  -0.0004354  1.00013  0.0545842  -0.0664002  -0.00367643  0.0019701  -0.0109655  0.0016955  0  0  0  0  0  0  0.0425057  0.0199006  -0.0358415  -0.00443462  0.0293537  -0.00891512  -0.0625591  0.0595309  -0.00300026  -0.0268324  0.0566264  -0.0104326 
1699974326.140423000  0  0  12.0848  0.296753  -0.278989  0.000631751  nan  nan  nan  nan  nan  nan  -0.999841  -0.0004923  1.00014  0.0558963  -0.066316  -0.00377145  0.0019701  -0.0118035  0.0016955  0  0  0  0  0  0  0.0424821  0.0200415  -0.0358437  -0.00494179  0.0304274  -0.00374135  -0.0637957  0.0591909  -0.0026578  -0.00658593  0.0134223  0.0186811 
1699974326.145401000  0  0  12.1081  0.256049  -0.266404  -0.000109885  nan  nan  nan  nan  nan  nan  -0.999831  -0.0005534  1.00015  0.0557396  -0.066011  -0.00375855  0.0019701  -0.0126452  0.0016955  0  0  0  0  0  0  0.0425289  0.0200328  -0.0358497  -0.00529207  0.0303765  -0.00561413  -0.0628228  0.0587528  -0.00252287  0.0658715  -0.00771816  0.0266022 
1699974326.150416000  0  0  12.0969  0.242388  -0.225131  -8.64545e-05  nan  nan  nan  nan  nan  nan  -0.999821  -0.0006188  1.00016  0.0562886  -0.0660948  -0.00381639  0.0019701  -0.0134869  0.0016955  0  0  0  0  0  0  0.0425059  0.0201807  -0.0358747  -0.00521162  0.030708  -0.00453473  -0.0626973  0.057927  -0.00235315  0.092039  -0.0826672  0.0246122 
1699974326.155418000  0  0  12.0426  0.240625  -0.219467  0.000510415  nan  nan  nan  nan  nan  nan  -0.999811  -0.0006883  1.00017  0.0566019  -0.0662057  -0.00386262  0.0019701  -0.0143246  0.0016955  0  0  0  0  0  0  0.0425151  0.0202034  -0.0358075  -0.00548387  0.0307313  -9.10106e-05  -0.0624782  0.0575516  -0.00229899  0.0935493  -0.0905403  0.0166097 
1699974326.160409000  0  0  12.1229  0.236804  -0.23305  0.0025169  nan  nan  nan  nan  nan  nan  -0.999801  -0.000762  1.00018  0.0575096  -0.0654828  -0.00390313  0.0019701  -0.0151548  0.0016955  0  0  0  0  0  0  0.0424873  0.0203632  -0.0358759  -0.00580174  0.0321034  -0.00660303  -0.062785  0.056772  -0.00246484  0.104014  -0.0562025  -0.00681289 
1699974326.165356000  0  0  12.1462  0.248166  -0.243582  0.00467002  nan  nan  nan  nan  nan  nan  -0.999791  -0.0008398  1.00018  0.0577281  -0.0656242  -0.00395043  0.0019701  -0.0159736  0.0016955  0  0  0  0  0  0  0.0425152  0.0204037  -0.0358683  -0.00549843  0.0324528  -0.00854333  -0.0627267  0.0568579  -0.00272127  0.0807539  -0.0359287  -0.0311626 
1699974326.170411000  0  0  12.1135  0.28274  -0.260356  0.00508984  nan  nan  nan  nan  nan  nan  -0.999781  -0.0009217  1.00019  0.0580736  -0.0665134  -0.00405275  0.0019701  -0.0167773  0.0016955  0  0  0  0  0  0  0.042531  0.0204725  -0.0358425  -0.00455924  0.0325507  -0.00589803  -0.0634371  0.05785  -0.00284877  0.0181414  -0.0115078  -0.0351353 
1699974326.175415000  0  0  12.1808  0.292658  -0.311497  0.00389491  nan  nan  nan  nan  nan  nan  -0.999772  -0.0010076  1.0002  0.059354  -0.0657779  -0.00412583  0.0019701  -0.0175622  0.0016955  0  0  0  0  0  0  0.042505  0.0206451  -0.0359179  -0.00498137  0.0343431  -0.0114289  -0.064755  0.0582581  -0.00283629  0.01043  0.0870203  -0.0203234 
1699974326.180886000  0  0  12.1366  0.299258  -0.317801  0.00235422  nan  nan  nan  nan  nan  nan  -0.999762  -0.0010973  1.00021  0.0593442  -0.0669377  -0.00422894  0.0019701  -0.0183245  0.0016955  0  0  0  0  0  0  0.0425492  0.0206713  -0.0359016  -0.00382265  0.0339732  -0.0078082  -0.0648329  0.059916  -0.00269539  -0.00205369  0.0843742  -0.00247379 
1699974326.185872000  0  0  12.0487  0.312741  -0.305958  0.0013859  nan  nan  nan  nan  nan  nan  -0.999752  -0.0011908  1.00022  0.0597415  -0.0674577  -0.00432554  0.0019701  -0.0190604  0.0016955  0  0  0  0  0  0  0.0425689  0.0207022  -0.03581  -0.00381232  0.0338534  -0.000697741  -0.0654987  0.060537  -0.00252708  -0.0228929  0.0549764  0.00794707 
1699974326.190409000  0  0  12.0708  0.280732  -0.300257  0.00137696  nan  nan  nan  nan  nan  nan  -0.999742  -0.0012879  1.00023  0.0605193  -0.0670121  -0.00439422  0.0019701  -0.0197662  0.0016955  0  0  0  0  0  0  0.0425473  0.0208664  -0.0358429  -0.00419015  0.0346762  -0.00244483  -0.0656658  0.0602875  -0.00246001  0.0426622  0.0458699  0.00738805 
1699974326.195884000  0  0  12.0295  0.254991  -0.276929  0.00163252  nan  nan  nan  nan  nan  nan  -0.999732  -0.0013884  1.00024  0.0602011  -0.06734  -0.00443976  0.0019701  -0.0204382  0.0016955  0  0  0  0  0  0  0.0425818  0.0209145  -0.0357895  -0.00414025  0.0338545  0.000952828  -0.0645677  0.0603337  -0.00242544  0.0840404  -0.00121147  0.00384796 
1699974326.200416000  0  0  11.9695  0.24675  -0.242787  0.00165123  nan  nan  nan  nan  nan  nan  -0.999722  -0.0014922  1.00024  0.0611568  -0.0674241  -0.00456114  0.0019701  -0.0210726  0.0016955  0  0  0  0  0  0  0.0425609  0.0210783  -0.0357441  -0.00442464  0.0343507  0.00593841  -0.0648931  0.0596886  -0.00232441  0.103517  -0.063561  0.00260374 
1699974326.205386000  0  0  11.9987  0.230703  -0.240592  0.00185098  nan  nan  nan  nan  nan  nan  -0.999712  -0.001599  1.00025  0.0608231  -0.0673782  -0.00459218  0.0019701  -0.0216656  0.0016955  0  0  0  0  0  0  0.042587  0.0210972  -0.0356971  -0.00433004  0.0340507  0.00347911  -0.0637775  0.0593671  -0.00230466  0.125347  -0.0649938  -9.06913e-05 
1699974326.210836000  0  0  12.0463  0.2172  -0.241304  0.00245132  nan  nan  nan  nan  nan  nan  -0.999703  -0.0017087  1.00026  0.0602625  -0.0670505  -0.00459568  0.0019701  -0.0222136  0.0016955  0  0  0  0  0  0  0.0426299  0.0211326  -0.0356848  -0.00451762  0.0335325  -0.000437152  -0.0622846  0.0587556  -0.00236225  0.138619  -0.057943  -0.00701895 
1699974326.216404000  0  0  12.0593  0.239938  -0.24574  0.00323123  nan  nan  nan  nan  nan  nan  -0.999693  -0.0018211  1.00027  0.0609122  -0.0674532  -0.00473007  0.0019701  -0.0227126  0.0016955  0  0  0  0  0  0  0.0426152  0.0213084  -0.0356903  -0.00383406  0.0340885  -0.00147126  -0.0626056  0.0589076  -0.00240438  0.0960956  -0.05047  -0.0163466 
1699974326.220355000  0  0  12.0789  0.250304  -0.273541  0.00282049  nan  nan  nan  nan  nan  nan  -0.999683  -0.0019358  1.00028  0.0607829  -0.0675985  -0.00480155  0.0019701  -0.0231591  0.0016955  0  0  0  0  0  0  0.0426516  0.0213292  -0.0356723  -0.00356569  0.0339943  -0.00314917  -0.0622971  0.0593969  -0.00235643  0.0725258  0.000631066  -0.0116918 
1699974326.225399000  0  0  12.155  0.265168  -0.314219  0.00246067  nan  nan  nan  nan  nan  nan  -0.999673  -0.0020526  1.00029  0.0613561  -0.0669076  -0.00487466  0.0019701  -0.0235507  0.0016955  0  0  0  0  0  0  0.0426314  0.0215038  -0.0357351  -0.00386762  0.0348968  -0.0094221  -0.0628097  0.0597155  -0.00231773  0.0475136  0.0790551  -0.00758114 
1699974326.230409000  0  0  12.0955  0.290108  -0.312005  0.00210663  nan  nan  nan  nan  nan  nan  -0.999663  -0.0021712  1.0003  0.0610733  -0.0679745  -0.00500277  0.0019701  -0.0238899  0.0016955  0  0  0  0  0  0  0.0426683  0.0215433  -0.0356812  -0.00294291  0.0340117  -0.00460986  -0.0628899  0.0610418  -0.00222827  -0.00162997  0.0624263  -0.00405024 
1699974326.235737000  0  0  12.0601  0.296395  -0.316564  0.00207131  nan  nan  nan  nan  nan  nan  -0.999653  -0.0022914  1.0003  0.0612623  -0.0683444  -0.0051259  0.0019701  -0.0241806  0.0016955  0  0  0  0  0  0  0.0427148  0.0215937  -0.0356371  -0.00280296  0.0339057  -0.00178475  -0.063215  0.0617757  -0.00215978  -0.0112124  0.0647927  -0.00429354 
1699974326.240404000  0  0  12.0841  0.274946  -0.310557  0.00261368  nan  nan  nan  nan  nan  nan  -0.999643  -0.0024129  1.00031  0.0616379  -0.0675972  -0.00519893  0.0019701  -0.0244265  0.0016955  0  0  0  0  0  0  0.0426949  0.0217597  -0.0356682  -0.0035756  0.0342003  -0.00370717  -0.0631331  0.0612739  -0.00219105  0.0309318  0.0573942  -0.0107605 
1699974326.245345000  0  0  12.0251  0.260708  -0.272323  0.00322294  nan  nan  nan  nan  nan  nan  -0.999634  -0.0025356  1.00032  0.0612138  -0.0680765  -0.00529849  0.0019701  -0.0246313  0.0016955  0  0  0  0  0  0  0.0427349  0.0218253  -0.035624  -0.00346884  0.0330656  0.00119115  -0.0622831  0.061074  -0.00224678  0.0515871  -0.017235  -0.0178189 
1699974326.250407000  0  0  12.0005  0.243115  -0.2404  0.00276121  nan  nan  nan  nan  nan  nan  -0.999624  -0.0026592  1.00033  0.0617634  -0.0676224  -0.0054129  0.0019701  -0.0247989  0.0016955  0  0  0  0  0  0  0.0427132  0.021992  -0.0356056  -0.00421012  0.0332486  0.00328694  -0.062166  0.0598328  -0.00217047  0.0856975  -0.0696622  -0.0128104 
1699974326.255409000  0  0  12.0695  0.211712  -0.223261  0.00186321  nan  nan  nan  nan  nan  nan  -0.999614  -0.0027835  1.00034  0.0606704  -0.0669846  -0.00541092  0.0019701  -0.0249328  0.0016955  0  0  0  0  0  0  0.0427431  0.02204  -0.035617  -0.00462974  0.0321346  -0.00234985  -0.0601045  0.0586069  -0.00208295  0.129538  -0.0926619  -0.0024606 
1699974326.260408000  0  0  12.0343  0.21322  -0.198308  0.00155698  nan  nan  nan  nan  nan  nan  -0.999604  -0.0029085  1.00035  0.0609712  -0.066952  -0.00554603  0.0019701  -0.025037  0.0016955  0  0  0  0  0  0  0.0427213  0.0221994  -0.0355961  -0.0048841  0.0319282  0.000633506  -0.0597875  0.0576233  -0.00192816  0.123606  -0.133517  -0.000180678 
1699974326.265397000  0  0  12.071  0.225498  -0.217071  0.000772285  nan  nan  nan  nan  nan  nan  -0.999594  -0.0030339  1.00035  0.0605252  -0.06692  -0.00563705  0.0019701  -0.0251151  0.0016955  0  0  0  0  0  0  0.0427433  0.022252  -0.0355825  -0.00469995  0.0314474  -0.0024236  -0.0590437  0.0573603  -0.00172828  0.0922064  -0.0935734  0.00762923 
1699974326.270409000  0  0  12.1363  0.243371  -0.253164  0.000352351  nan  nan  nan  nan  nan  nan  -0.999584  -0.0031596  1.00036  0.0598062  -0.0666053  -0.00569909  0.0019701  -0.0251709  0.0016955  0  0  0  0  0  0  0.0427523  0.0223065  -0.0356139  -0.00465589  0.0307863  -0.00781894  -0.0583002  0.0574134  -0.00156034  0.0496194  -0.0218751  0.011199 
1699974326.275409000  0  0  12.1239  0.264186  -0.268033  0.000564292  nan  nan  nan  nan  nan  nan  -0.999575  -0.0032855  1.00037  0.0602328  -0.0666974  -0.00586834  0.0019701  -0.0252082  0.0016955  0  0  0  0  0  0  0.0427323  0.0224616  -0.03563  -0.00455998  0.0309237  -0.00677644  -0.0588894  0.0577412  -0.00140962  0.013411  0.00484564  0.00704255 
1699974326.280408000  0  0  12.1123  0.294394  -0.288994  0.00130132  nan  nan  nan  nan  nan  nan  -0.999565  -0.0034116  1.00038  0.0597951  -0.0674008  -0.00602247  0.0019701  -0.0252306  0.0016955  0  0  0  0  0  0  0.0427648  0.0224917  -0.0356249  -0.00375473  0.0301756  -0.00587599  -0.0590873  0.0588661  -0.00133505  -0.0451855  0.0364197  -0.00291598 
1699974326.285826000  0  0  12.1226  0.291968  -0.316515  0.00298432  nan  nan  nan  nan  nan  nan  -0.999555  -0.0035378  1.00039  0.0598445  -0.0672601  -0.0061651  0.0019701  -0.025242  0.0016955  0  0  0  0  0  0  0.0427892  0.0225458  -0.0356339  -0.00390397  0.0301831  -0.00677885  -0.0593456  0.0595639  -0.00145766  -0.0379565  0.085043  -0.0227273 
1699974326.290414000  0  0  12.0644  0.280565  -0.286866  0.00423814  nan  nan  nan  nan  nan  nan  -0.999545  -0.003664  1.0004  0.0600167  -0.0673378  -0.00633528  0.0019701  -0.0252461  0.0016955  0  0  0  0  0  0  0.0427687  0.0226889  -0.0356222  -0.00417832  0.0296943  -0.00193393  -0.0594211  0.0594112  -0.0015767  -0.0144548  0.027148  -0.0372097 
1699974326.295411000  0  0  12.0016  0.265648  -0.256092  0.00380683  nan  nan  nan  nan  nan  nan  -0.999535  -0.0037903  1.00041  0.0602219  -0.0673908  -0.00651252  0.0019701  -0.0252466  0.0016955  0  0  0  0  0  0  0.042746  0.0228331  -0.0355966  -0.00451832  0.0292123  0.00328831  -0.0593587  0.0588977  -0.00153683  0.0148048  -0.0296758  -0.0322171 
1699974326.300411000  0  0  12.0354  0.233312  -0.250006  0.00190484  nan  nan  nan  nan  nan  nan  -0.999525  -0.0039165  1.00041  0.0596704  -0.0669406  -0.00661482  0.0019701  -0.0252462  0.0016955  0  0  0  0  0  0  0.0427659  0.0228754  -0.0355813  -0.00491263  0.0285905  0.000486177  -0.0581249  0.0582933  -0.00134148  0.0681245  -0.0362857  -0.0103958 
1699974326.305349000  0  0  12.0274  0.212495  -0.230643  0.000103514  nan  nan  nan  nan  nan  nan  -0.999515  -0.0040427  1.00042  0.0588533  -0.0665868  -0.00671187  0.0019701  -0.0252424  0.0016955  0  0  0  0  0  0  0.0427901  0.0228813  -0.0355476  -0.00550633  0.0274149  0.0011449  -0.0566337  0.0574486  -0.00104  0.0960397  -0.0672405  0.00910602 
1699974326.310792000  0  0  11.9675  0.206325  -0.202973  -0.00119631  nan  nan  nan  nan  nan  nan  -0.999506  -0.0041689  1.00043  0.0575567  -0.0673286  -0.00684685  0.0019701  -0.0252316  0.0016955  0  0  0  0  0  0  0.0428432  0.0228478  -0.03546  -0.0050906  0.0253443  0.00604963  -0.0548055  0.0571087  -0.000666687  0.091561  -0.119453  0.0216207 
1699974326.315413000  0  0  12.0858  0.211162  -0.23236  -0.00247749  nan  nan  nan  nan  nan  nan  -0.999496  -0.004295  1.00044  0.0575526  -0.0664663  -0.0069822  0.0019701  -0.02521  0.0016955  0  0  0  0  0  0  0.0428196  0.0229805  -0.0355287  -0.00529854  0.0257883  -0.00366598  -0.0545246  0.0564791  -0.000265943  0.0793026  -0.054887  0.0336281 
1699974326.320408000  0  0  12.127  0.216332  -0.256813  -0.0018999  nan  nan  nan  nan  nan  nan  -0.999486  -0.004421  1.00045  0.056597  -0.0665848  -0.00711663  0.0019701  -0.0251737  0.0016955  0  0  0  0  0  0  0.0428645  0.0229627  -0.0355243  -0.00492981  0.0247843  -0.00711354  -0.0533635  0.0568881  -8.36243e-05  0.058281  -0.0097446  0.0245849 
1699974326.325397000  0  0  12.0629  0.260641  -0.257956  -0.000140722  nan  nan  nan  nan  nan  nan  -0.999476  -0.0045467  1.00046  0.0571495  -0.0673026  -0.00739218  0.0019701  -0.0251192  0.0016955  0  0  0  0  0  0  0.0428469  0.0230873  -0.0354971  -0.00437466  0.0248236  -0.00184936  -0.0545716  0.057503  1.22609e-05  -0.0192226  -0.0131153  0.00163642 
1699974326.330418000  0  0  12.114  0.281474  -0.30292  0.00176695  nan  nan  nan  nan  nan  nan  -0.999466  -0.0046722  1.00046  0.0569016  -0.0673628  -0.00758278  0.0019701  -0.0250426  0.0016955  0  0  0  0  0  0  0.0428774  0.0231073  -0.0354905  -0.00395605  0.0247557  -0.00621057  -0.0549393  0.0584774  -8.23226e-05  -0.0575058  0.067848  -0.0212637 
1699974326.335839000  0  0  12.1147  0.279728  -0.319592  0.00388433  nan  nan  nan  nan  nan  nan  -0.999456  -0.0047971  1.00047  0.0564551  -0.0675339  -0.00777237  0.0019701  -0.0249402  0.0016955  0  0  0  0  0  0  0.0429164  0.0231313  -0.0354721  -0.00379135  0.0240888  -0.00636354  -0.0548405  0.0593672  -0.000336635  -0.0549225  0.0930052  -0.0451878 
1699974326.340416000  0  0  12.0294  0.28921  -0.297315  0.0040021  nan  nan  nan  nan  nan  nan  -0.999446  -0.0049215  1.00048  0.0570707  -0.0680534  -0.00806006  0.0019701  -0.0248082  0.0016955  0  0  0  0  0  0  0.0428996  0.0232518  -0.0354333  -0.00367297  0.0240878  0.000654344  -0.0558094  0.0597167  -0.000312585  -0.0649732  0.0452374  -0.0469004 
1699974326.345345000  0  0  12.0051  0.295975  -0.294486  0.00274493  nan  nan  nan  nan  nan  nan  -0.999437  -0.0050451  1.00049  0.0568801  -0.0680533  -0.00826975  0.0019701  -0.0246429  0.0016955  0  0  0  0  0  0  0.0429216  0.0233073  -0.0353916  -0.00388952  0.0235398  0.00254964  -0.0561236  0.0598571  -0.000131417  -0.0756124  0.0382872  -0.0329974 
1699974326.350412000  0  0  12.0097  0.253637  -0.263564  0.0016391  nan  nan  nan  nan  nan  nan  -0.999427  -0.0051679  1.0005  0.0569349  -0.0673543  -0.00846264  0.0019701  -0.0244405  0.0016955  0  0  0  0  0  0  0.0428958  0.0234239  -0.0353943  -0.00472352  0.0233655  0.00222785  -0.0555794  0.0587543  5.50597e-05  0.00405693  -0.0134119  -0.0210394 
1699974326.355414000  0  0  11.9267  0.243087  -0.22765  -0.000309158  nan  nan  nan  nan  nan  nan  -0.999417  -0.0052895  1.00051  0.05629  -0.0678044  -0.0086796  0.0019701  -0.0241973  0.0016955  0  0  0  0  0  0  0.0429429  0.0234334  -0.0352917  -0.00485297  0.0219371  0.00899288  -0.0547405  0.0583159  0.00044919  0.0174391  -0.0812075  -0.000627435 
1699974326.360831000  0  0  11.9244  0.240367  -0.211819  -0.00210677  nan  nan  nan  nan  nan  nan  -0.999407  -0.0054098  1.00052  0.0558139  -0.0677544  -0.00888586  0.0019701  -0.0239095  0.0016955  0  0  0  0  0  0  0.0429623  0.023463  -0.0352239  -0.00497444  0.0212016  0.00908734  -0.0542051  0.0575123  0.000935966  0.0179517  -0.105476  0.016975 
1699974326.366361000  0  0  12.0012  0.221968  -0.214954  -0.00288466  nan  nan  nan  nan  nan  nan  -0.999397  -0.0055285  1.00052  0.0553998  -0.0666873  -0.00904639  0.0019701  -0.0235734  0.0016955  0  0  0  0  0  0  0.0429317  0.0235669  -0.0352332  -0.00574839  0.0208786  0.00274772  -0.0533043  0.0561096  0.00130712  0.0464635  -0.0863006  0.0229871 
1699974326.370414000  0  0  11.9951  0.232524  -0.221623  -0.00291791  nan  nan  nan  nan  nan  nan  -0.999387  -0.0056454  1.00053  0.0547688  -0.0672969  -0.00929146  0.0019701  -0.0231852  0.0016955  0  0  0  0  0  0  0.0429527  0.0235919  -0.0351755  -0.0050157  0.0199139  0.00314353  -0.0527445  0.0565133  0.00162806  0.0202023  -0.0766773  0.0201932 
1699974326.375417000  0  0  12.0172  0.26895  -0.2536  -0.00226151  nan  nan  nan  nan  nan  nan  -0.999378  -0.0057603  1.00054  0.0547959  -0.0670615  -0.0095406  0.0019701  -0.0227412  0.0016955  0  0  0  0  0  0  0.0429291  0.0236936  -0.0351722  -0.00508899  0.0198407  0.00124328  -0.053451  0.0566176  0.00187453  -0.046151  -0.0136829  0.00952355 
1699974326.380423000  0  0  12.0676  0.271235  -0.284419  -0.00102699  nan  nan  nan  nan  nan  nan  -0.999368  -0.0058727  1.00055  0.0545486  -0.0667592  -0.00977391  0.0019701  -0.0222377  0.0016955  0  0  0  0  0  0  0.0429372  0.0237209  -0.0351587  -0.00511588  0.0197366  -0.00304135  -0.0535048  0.0569672  0.00199157  -0.0502272  0.0447406  -0.00707831 
1699974326.385877000  0  0  12.0529  0.282791  -0.292024  0.000192699  nan  nan  nan  nan  nan  nan  -0.999358  -0.0059825  1.00056  0.0534444  -0.067746  -0.0100253  0.0019701  -0.0216708  0.0016955  0  0  0  0  0  0  0.0429711  0.0237235  -0.0351161  -0.00396688  0.0181295  -0.00195392  -0.0530083  0.0583017  0.00203568  -0.0779054  0.0476728  -0.0227655 
1699974326.390413000  0  0  11.9854  0.292699  -0.306064  0.00116556  nan  nan  nan  nan  nan  nan  -0.999348  -0.0060893  1.00057  0.0540411  -0.0677683  -0.010346  0.0019701  -0.0210368  0.0016955  0  0  0  0  0  0  0.0429481  0.0238204  -0.0350705  -0.00436355  0.0182893  0.00352647  -0.0540915  0.0587836  0.0020867  -0.087756  0.0713192  -0.0354365 
1699974326.395419000  0  0  12.0087  0.274809  -0.307702  0.00167891  nan  nan  nan  nan  nan  nan  -0.999338  -0.0061928  1.00057  0.052925  -0.0676074  -0.0105468  0.0019701  -0.0203326  0.0016955  0  0  0  0  0  0  0.0429982  0.0237953  -0.0350244  -0.00451119  0.0169734  0.00145112  -0.0531574  0.0590318  0.00206573  -0.0605701  0.0723113  -0.0416436 
1699974326.400412000  0  0  11.9372  0.245026  -0.261695  0.000784644  nan  nan  nan  nan  nan  nan  -0.999328  -0.0062925  1.00058  0.0523673  -0.0678421  -0.0108127  0.0019701  -0.0195595  0.0016955  0  0  0  0  0  0  0.0429757  0.0238713  -0.0349668  -0.00468536  0.0156154  0.00734198  -0.0522975  0.0586401  0.00223994  -0.00891523  -0.0160989  -0.0322075 
1699974326.406366000  0  0  11.8994  0.219406  -0.24499  -0.00214065  nan  nan  nan  nan  nan  nan  -0.999318  -0.0063883  1.00059  0.0509001  -0.0681181  -0.0110247  0.0019701  -0.0187213  0.0016955  0  0  0  0  0  0  0.0430578  0.0237875  -0.034836  -0.0048004  0.0136108  0.0102649  -0.050497  0.0584187  0.00268996  0.0257606  -0.0474715  -0.000141495 
1699974326.410751000  0  0  11.9268  0.193157  -0.233018  -0.00371395  nan  nan  nan  nan  nan  nan  -0.999309  -0.0064796  1.0006  0.0496446  -0.0677158  -0.011223  0.0019701  -0.0178216  0.0016955  0  0  0  0  0  0  0.0430894  0.0237582  -0.0347827  -0.00520634  0.0121415  0.00791705  -0.0487034  0.0576252  0.00312162  0.0617577  -0.0641163  0.0152082 
1699974326.416348000  0  0  11.9179  0.178277  -0.207481  -0.00357617  nan  nan  nan  nan  nan  nan  -0.999299  -0.0065664  1.00061  0.048753  -0.0673114  -0.011453  0.0019701  -0.0168643  0.0016955  0  0  0  0  0  0  0.0430601  0.0238098  -0.0347371  -0.00575126  0.0107722  0.00863261  -0.0472077  0.0563443  0.00342457  0.0777564  -0.103405  0.0104564 
1699974326.421355000  0  0  11.9571  0.19214  -0.219741  -0.00258408  nan  nan  nan  nan  nan  nan  -0.999289  -0.0066482  1.00062  0.0473382  -0.0673864  -0.0116776  0.0019701  -0.0158531  0.0016955  0  0  0  0  0  0  0.043096  0.0237294  -0.0346724  -0.00544357  0.009252  0.00524134  -0.0459457  0.0561486  0.00358061  0.0384205  -0.0770845  -0.0035051 
1699974326.425400000  0  0  12.0496  0.209989  -0.250151  -0.00140185  nan  nan  nan  nan  nan  nan  -0.999279  -0.0067248  1.00063  0.0467804  -0.0666864  -0.01193  0.0019701  -0.0147918  0.0016955  0  0  0  0  0  0  0.0430724  0.0237848  -0.0347142  -0.00562183  0.00884702  -0.00242085  -0.0456904  0.0559192  0.00365817  0.0003748  -0.0141538  -0.0190586 
1699974326.430417000  0  0  12.0412  0.235578  -0.272115  -0.0012823  nan  nan  nan  nan  nan  nan  -0.999269  -0.006796  1.00063  0.045629  -0.0670351  -0.0121979  0.0019701  -0.0136841  0.0016955  0  0  0  0  0  0  0.0431122  0.0236981  -0.0346734  -0.00530308  0.00742513  -0.00185438  -0.0452179  0.056644  0.0038212  -0.0551512  0.0231047  -0.0221833 
1699974326.436364000  0  0  12.0213  0.265753  -0.290555  -0.00152701  nan  nan  nan  nan  nan  nan  -0.999259  -0.0068616  1.00064  0.044733  -0.0675822  -0.0124974  0.0019701  -0.0125337  0.0016955  0  0  0  0  0  0  0.0431321  0.0236526  -0.0346485  -0.0047539  0.00619601  -0.000319699  -0.0454051  0.0576516  0.00403868  -0.113778  0.0507148  -0.0212991 
1699974326.440410000  0  0  12.0433  0.267692  -0.318363  -0.00121842  nan  nan  nan  nan  nan  nan  -0.999249  -0.0069213  1.00065  0.0443808  -0.0671756  -0.0127969  0.0019701  -0.0113444  0.0016955  0  0  0  0  0  0  0.0431087  0.0236908  -0.0346651  -0.00506288  0.00572815  -0.00219421  -0.0455497  0.0580747  0.00421197  -0.116326  0.102438  -0.0268895 
1699974326.445359000  0  0  12.004  0.253391  -0.303523  -0.000744312  nan  nan  nan  nan  nan  nan  -0.99924  -0.006975  1.00066  0.0434567  -0.0673273  -0.0130889  0.0019701  -0.01012  0.0016955  0  0  0  0  0  0  0.0431414  0.0236337  -0.034636  -0.00522625  0.00439999  0.00100376  -0.0449643  0.0583543  0.00431334  -0.0931096  0.0701859  -0.0338295 
1699974326.451361000  0  0  11.9242  0.25958  -0.261872  -0.00122645  nan  nan  nan  nan  nan  nan  -0.99923  -0.0070225  1.00067  0.0426599  -0.0673742  -0.0133912  0.0019701  -0.0088642  0.0016955  0  0  0  0  0  0  0.0431101  0.0236409  -0.0345749  -0.00569434  0.00291795  0.00752831  -0.0448922  0.0577851  0.00450833  -0.106153  -0.00787871  -0.0297526 
1699974326.455373000  0  0  11.9298  0.231494  -0.247168  -0.00201006  nan  nan  nan  nan  nan  nan  -0.99922  -0.0070636  1.00068  0.0414974  -0.0671458  -0.0136635  0.0019701  -0.0075807  0.0016955  0  0  0  0  0  0  0.0431475  0.0235611  -0.0345468  -0.00604754  0.00155248  0.00702901  -0.0436715  0.0571805  0.00478068  -0.0612098  -0.0317246  -0.022681 
1699974326.460414000  0  0  11.9722  0.19171  -0.207869  -0.00214536  nan  nan  nan  nan  nan  nan  -0.99921  -0.0070982  1.00069  0.0402255  -0.0660237  -0.0137873  0.0019701  -0.0062733  0.0016955  0  0  0  0  0  0  0.0431101  0.0235615  -0.0345547  -0.00716583  4.79386e-05  0.00357584  -0.0418863  0.0551796  0.00487203  0.00193481  -0.091915  -0.0219033 
1699974326.466369000  0  0  11.931  0.193634  -0.180999  -0.00248683  nan  nan  nan  nan  nan  nan  -0.9992  -0.0071263  1.00069  0.0385866  -0.0662587  -0.0136881  0.0019701  -0.0049458  0.0016954  0  0  0  0  0  0  0.0431299  0.0234386  -0.0344726  -0.00724263  -0.00203638  0.0068965  -0.0405193  0.0541788  0.00476817  -0.0144903  -0.136447  -0.0165963 
1699974326.470409000  0  0  12.0195  0.202378  -0.204528  -0.00314539  nan  nan  nan  nan  nan  nan  -0.99919  -0.0071477  1.0007  0.0375797  -0.0657247  -0.0136013  0.0019701  -0.0036019  0.0016932  0  0  0  0  0  0  0.043139  0.0233348  -0.0344853  -0.00734225  -0.00276636  -0.000467897  -0.039908  0.0536514  0.00475224  -0.0376023  -0.0845378  -0.00820494 
1699974326.475424000  0  0  12.1167  0.206976  -0.230491  -0.00283532  nan  nan  nan  nan  nan  nan  -0.999181  -0.0071623  1.00071  0.0366018  -0.0648213  -0.013504  0.0019701  -0.0022454  0.0016853  0  0  0  0  0  0  0.0431026  0.0233185  -0.0345494  -0.0077849  -0.00362914  -0.00847249  -0.0393131  0.0530948  0.00462779  -0.0522709  -0.0274895  -0.0108364 
1699974326.481359000  0  0  12.0754  0.242508  -0.234731  -0.00279642  nan  nan  nan  nan  nan  nan  -0.999171  -0.0071701  1.00072  0.0352114  -0.0655277  -0.0134386  0.0019701  -0.0008799  0.001668  0  0  0  0  0  0  0.0430995  0.0231816  -0.0345056  -0.0071522  -0.00536321  -0.00515601  -0.0392299  0.0536293  0.00454229  -0.124101  -0.0239266  -0.0104677 
1699974326.485359000  0  0  12.1064  0.26929  -0.267827  -0.00286375  nan  nan  nan  nan  nan  nan  -0.999161  -0.0071711  1.00073  0.0348306  -0.0651429  -0.0134003  0.0019701  0.0004907  0.0016374  0  0  0  0  0  0  0.0430678  0.0231644  -0.0345443  -0.00737535  -0.00570714  -0.00773773  -0.0399383  0.0539236  0.00451261  -0.171148  0.0395563  -0.00932923 
1699974326.490372000  0  0  12.1281  0.271472  -0.293689  -0.00111854  nan  nan  nan  nan  nan  nan  -0.999151  -0.0071652  1.00074  0.0331972  -0.0657001  -0.0133123  0.0019701  0.0018626  0.0015898  0  0  0  0  0  0  0.0431194  0.022984  -0.0345942  -0.00660602  -0.00742947  -0.00950227  -0.0394119  0.0550978  0.0041651  -0.180354  0.0804777  -0.0276692 
1699974326.495422000  0  0  12.0631  0.276284  -0.286068  0.000828093  nan  nan  nan  nan  nan  nan  -0.999141  -0.0071525  1.00074  0.0322614  -0.0662495  -0.0132685  0.0019701  0.0032323  0.0015215  0  0  0  0  0  0  0.0431344  0.0228684  -0.0345771  -0.0063932  -0.00866666  -0.00416407  -0.0395599  0.0557637  0.00375277  -0.188617  0.059111  -0.0478789 
1699974326.501360000  0  0  12.0549  0.271956  -0.277983  0.00128337  nan  nan  nan  nan  nan  nan  -0.999131  -0.0071329  1.00075  0.0317752  -0.0656748  -0.013218  0.0019701  0.0045958  0.0014287  0  0  0  0  0  0  0.0430922  0.0228193  -0.0346008  -0.00713934  -0.00922409  -0.00348415  -0.0400799  0.0553686  0.00343327  -0.175178  0.0465754  -0.0503748 
1699974326.506371000  0  0  12.0403  0.235372  -0.254818  0.000991674  nan  nan  nan  nan  nan  nan  -0.999121  -0.0071065  1.00076  0.0306325  -0.0653882  -0.0131342  0.0019701  0.0059495  0.0013081  0  0  0  0  0  0  0.0430818  0.022703  -0.0345938  -0.00763368  -0.0105379  -0.00226237  -0.0390833  0.0547889  0.00319328  -0.111178  0.00557851  -0.0443287 
1699974326.510749000  0  0  12.0005  0.221265  -0.23659  -0.000449186  nan  nan  nan  nan  nan  nan  -0.999112  -0.0070734  1.00076  0.0292075  -0.0656405  -0.0130484  0.0019701  0.0072895  0.0011611  0  0  0  0  0  0  0.0430814  0.0225737  -0.0345654  -0.00761647  -0.0122845  0.0010148  -0.0379774  0.0546484  0.00316395  -0.0931373  -0.029586  -0.0260247 
1699974326.516360000  0  0  12.0107  0.209878  -0.217815  -0.00249406  nan  nan  nan  nan  nan  nan  -0.999102  -0.0070336  1.00077  0.0285355  -0.0649826  -0.0129855  0.0019701  0.0086123  0.0009912  0  0  0  0  0  0  0.0430361  0.0225082  -0.03458  -0.00833744  -0.012991  0.000207539  -0.0376103  0.053469  0.00331307  -0.0737421  -0.0562852  -0.00195494 
1699974326.520423000  0  0  12.0611  0.190099  -0.21625  -0.00328329  nan  nan  nan  nan  nan  nan  -0.999092  -0.0069873  1.00077  0.0270053  -0.0646176  -0.0128762  0.0019701  0.0099139  0.0008024  0  0  0  0  0  0  0.0430648  0.0223204  -0.0346103  -0.00855857  -0.0144597  -0.00390231  -0.0361669  0.0528654  0.0033425  -0.0474625  -0.0538614  0.0076161 
1699974326.525407000  0  0  12.0706  0.211592  -0.225482  -0.00318508  nan  nan  nan  nan  nan  nan  -0.999082  -0.0069346  1.00078  0.0262871  -0.0649781  -0.0128393  0.0019701  0.0111906  0.0005983  0  0  0  0  0  0  0.0430308  0.0222459  -0.0346375  -0.00794167  -0.0152338  -0.00465033  -0.0361388  0.0531433  0.00337178  -0.0907063  -0.0379543  0.00609573 
1699974326.530416000  0  0  12.0683  0.247659  -0.260203  -0.00169372  nan  nan  nan  nan  nan  nan  -0.999072  -0.0068755  1.00078  0.0251568  -0.0653732  -0.0127758  0.0019701  0.0124388  0.0003827  0  0  0  0  0  0  0.0430652  0.022017  -0.0346415  -0.00751945  -0.0162492  -0.00450723  -0.0363988  0.0540047  0.00316708  -0.160449  0.0235617  -0.0104993 
1699974326.535412000  0  0  12.131  0.255964  -0.285417  0.000195793  nan  nan  nan  nan  nan  nan  -0.999062  -0.0068102  1.00078  0.0251216  -0.0647378  -0.0127575  0.0019701  0.0136546  0.0001593  0  0  0  0  0  0  0.0430255  0.0219409  -0.0347056  -0.00782718  -0.0159441  -0.00967628  -0.0372814  0.0540884  0.00287322  -0.168939  0.0732208  -0.0311796 
1699974326.540418000  0  0  12.098  0.275442  -0.296052  0.00190942  nan  nan  nan  nan  nan  nan  -0.999052  -0.006739  1.00078  0.023908  -0.0656794  -0.0127014  0.0019701  0.0148343  -6.81e-05  0  0  0  0  0  0  0.043053  0.0217466  -0.0346972  -0.0068744  -0.0172443  -0.00699566  -0.0374419  0.0554602  0.00247989  -0.206419  0.0818701  -0.0486666 
1699974326.545411000  0  0  12.0334  0.288982  -0.310241  0.00292172  nan  nan  nan  nan  nan  nan  -0.999043  -0.0066619  1.00078  0.0233738  -0.0663527  -0.0126821  0.0019701  0.0159741  -0.0002958  0  0  0  0  0  0  0.0430833  0.0215564  -0.034658  -0.00651535  -0.0177099  -0.00176735  -0.0382896  0.056686  0.00210979  -0.225699  0.0989715  -0.0576194 
1699974326.550424000  0  0  12.074  0.276902  -0.308453  0.00267486  nan  nan  nan  nan  nan  nan  -0.999033  -0.0065793  1.00078  0.0232074  -0.0654953  -0.0126512  0.0019701  0.0170704  -0.00052  0  0  0  0  0  0  0.0430437  0.0214689  -0.0347083  -0.00727981  -0.01762  -0.00510713  -0.0389266  0.0563471  0.00186706  -0.19568  0.0985115  -0.0521063 
1699974326.555424000  0  0  11.9932  0.262725  -0.26811  0.00114996  nan  nan  nan  nan  nan  nan  -0.999023  -0.0064913  1.00077  0.0226582  -0.0656933  -0.0126197  0.0019701  0.0181193  -0.000737  0  0  0  0  0  0  0.0430064  0.0213741  -0.034668  -0.00753417  -0.0183448  0.00155067  -0.0390252  0.0561521  0.00183158  -0.166418  0.0196215  -0.0326903 
1699974326.560420000  0  0  11.9386  0.246809  -0.243659  -0.0013027  nan  nan  nan  nan  nan  nan  -0.999013  -0.0063982  1.00077  0.0214714  -0.0661949  -0.0125525  0.0019701  0.019117  -0.000943  0  0  0  0  0  0  0.0430758  0.0211268  -0.0346252  -0.00744483  -0.0195085  0.00603483  -0.0384948  0.0561562  0.00193459  -0.139465  -0.0293192  -0.0030622 
1699974326.565408000  0  0  12.0172  0.216994  -0.230696  -0.0021105  nan  nan  nan  nan  nan  nan  -0.999003  -0.0063002  1.00077  0.0206946  -0.065492  -0.0124866  0.0019701  0.02006  -0.0011342  0  0  0  0  0  0  0.0431093  0.0209262  -0.0346668  -0.00789706  -0.0199059  -0.000408422  -0.037864  0.0551223  0.00197196  -0.0856394  -0.0457341  0.00666169 
1699974326.570989000  0  0  12.0173  0.217277  -0.204169  -0.00212544  nan  nan  nan  nan  nan  nan  -0.998993  -0.0061977  1.00076  0.0199083  -0.0655443  -0.0124361  0.0019701  0.0209443  -0.001307  0  0  0  0  0  0  0.0431152  0.0207469  -0.0346625  -0.00785738  -0.0205569  -0.000386577  -0.0375983  0.0543469  0.00200764  -0.0886508  -0.0916538  0.00649154 
1699974326.575411000  0  0  12.0094  0.239214  -0.213598  -0.00169484  nan  nan  nan  nan  nan  nan  -0.998984  -0.0060909  1.00075  0.0200686  -0.0654051  -0.0124438  0.0019701  0.0217663  -0.0014575  0  0  0  0  0  0  0.0430814  0.0206477  -0.0346523  -0.00802178  -0.0201369  0.000230245  -0.0385514  0.0540131  0.00200667  -0.123756  -0.0697252  0.00111884 
1699974326.580421000  0  0  12.1067  0.254163  -0.248731  -0.000552162  nan  nan  nan  nan  nan  nan  -0.998974  -0.0059802  1.00074  0.0193378  -0.0652379  -0.0123928  0.0019703  0.0225221  -0.0015821  0  0  0  0  0  0  0.043111  0.0204172  -0.0347033  -0.0076122  -0.0203932  -0.00781944  -0.0388086  0.054205  0.00184272  -0.151286  -0.00122461  -0.0115252 
1699974326.586365000  0  0  12.1235  0.280833  -0.26482  0.000836312  nan  nan  nan  nan  nan  nan  -0.998964  -0.0058658  1.00074  0.0193633  -0.065297  -0.0123956  0.0019731  0.0232082  -0.0016769  0  0  0  0  0  0  0.0431169  0.0202348  -0.0347482  -0.00741543  -0.0199181  -0.00920523  -0.0402806  0.0545821  0.00159445  -0.191084  0.0274847  -0.0263984 
1699974326.590421000  0  0  12.0724  0.32114  -0.280148  0.00157579  nan  nan  nan  nan  nan  nan  -0.998954  -0.0057482  1.00073  0.0196478  -0.0659248  -0.0124265  0.0019823  0.0238206  -0.0017383  0  0  0  0  0  0  0.0430903  0.0201333  -0.0347371  -0.00687096  -0.0194257  -0.00504643  -0.0420862  0.055566  0.00144835  -0.255087  0.0490898  -0.0341809 
1699974326.595415000  0  0  12.0993  0.321629  -0.30323  0.0024052  nan  nan  nan  nan  nan  nan  -0.998944  -0.0056277  1.00072  0.0194852  -0.0657601  -0.0124126  0.0020015  0.0243556  -0.0017624  0  0  0  0  0  0  0.0431019  0.019945  -0.0347637  -0.0069154  -0.0191637  -0.0073319  -0.0431976  0.056108  0.00115404  -0.245841  0.0902668  -0.0416054 
1699974326.600405000  0  0  12.1179  0.301575  -0.294535  0.0021986  nan  nan  nan  nan  nan  nan  -0.998934  -0.0055048  1.00071  0.0200655  -0.0651901  -0.0124393  0.0020346  0.0248096  -0.0017455  0  0  0  0  0  0  0.0430635  0.0198528  -0.0348082  -0.00744868  -0.0181291  -0.00884811  -0.0443769  0.0558272  0.00100296  -0.194882  0.0754601  -0.0375121 
1699974326.605411000  0  0  12.0112  0.304702  -0.265974  0.000571735  nan  nan  nan  nan  nan  nan  -0.998924  -0.0053798  1.0007  0.0196867  -0.0659554  -0.0124297  0.0020853  0.0251787  -0.0016839  0  0  0  0  0  0  0.0430842  0.0196609  -0.0347604  -0.00725173  -0.0184489  -6.13181e-05  -0.0450191  0.0561905  0.0010753  -0.195229  0.0149959  -0.0178996 
1699974326.610369000  0  0  11.9776  0.287339  -0.250262  -0.000744925  nan  nan  nan  nan  nan  nan  -0.998913  -0.0052531  1.00069  0.0204241  -0.0653584  -0.0124661  0.0021573  0.0254592  -0.0015738  0  0  0  0  0  0  0.043041  0.0195728  -0.034745  -0.00818569  -0.0173333  0.00268005  -0.0461883  0.0553609  0.00121037  -0.149745  -0.00879565  -0.00279214 
1699974326.615361000  0  0  12.0552  0.243948  -0.227545  -0.000791348  nan  nan  nan  nan  nan  nan  -0.998902  -0.0051253  1.00069  0.0198818  -0.0647078  -0.0124178  0.0022544  0.0256473  -0.0014115  0  0  0  0  0  0  0.0430532  0.019382  -0.0348113  -0.00853536  -0.0174551  -0.00360939  -0.0454695  0.0542478  0.00114855  -0.0695762  -0.0439899  -0.00159363 
1699974326.620356000  0  0  12.0214  0.24336  -0.20958  -0.000698568  nan  nan  nan  nan  nan  nan  -0.99889  -0.0049968  1.00068  0.0194777  -0.0652495  -0.0124022  0.0023803  0.0257393  -0.0011932  0  0  0  0  0  0  0.0430863  0.0191779  -0.0347636  -0.00813741  -0.0176224  -0.000848455  -0.0453367  0.0540602  0.0010968  -0.0696216  -0.0781937  -0.00223589 
1699974326.625399000  0  0  12.0571  0.254766  -0.222564  -0.000677181  nan  nan  nan  nan  nan  nan  -0.998878  -0.0048681  1.00067  0.0205729  -0.0642989  -0.0124541  0.0025388  0.0257315  -0.0009152  0  0  0  0  0  0  0.0430405  0.0190994  -0.0347899  -0.00902907  -0.0158912  -0.00383698  -0.0469037  0.0531292  0.00111304  -0.0780188  -0.0436607  -0.00266565 
1699974326.630345000  0  0  12.1486  0.254964  -0.242615  0.000137267  nan  nan  nan  nan  nan  nan  -0.998865  -0.0047397  1.00067  0.020153  -0.0639375  -0.0124198  0.0027337  0.0256201  -0.0005737  0  0  0  0  0  0  0.0430548  0.0188403  -0.034845  -0.00889914  -0.0156731  -0.0113747  -0.0468604  0.0530717  0.000927368  -0.078812  -0.00302883  -0.0109895 
1699974326.635368000  0  0  12.1282  0.292172  -0.269146  0.00243701  nan  nan  nan  nan  nan  nan  -0.998851  -0.0046121  1.00067  0.0210912  -0.0644437  -0.0124905  0.0029687  0.0254013  -0.0001649  0  0  0  0  0  0  0.0430195  0.0187648  -0.0348718  -0.00825504  -0.0142927  -0.00971823  -0.0488736  0.0540678  0.000622427  -0.134707  0.0408676  -0.0366869 
1699974326.640357000  0  0  12.1368  0.312201  -0.300078  0.00344417  nan  nan  nan  nan  nan  nan  -0.998835  -0.0044858  1.00067  0.0217355  -0.0644327  -0.0125317  0.0032475  0.0250714  0.0003148  0  0  0  0  0  0  0.0430413  0.0185683  -0.0348571  -0.00823506  -0.0129657  -0.0105756  -0.0504324  0.0548625  0.000285912  -0.160423  0.0954221  -0.0459113 
1699974326.645346000  0  0  12.1877  0.319596  -0.318892  0.00370971  nan  nan  nan  nan  nan  nan  -0.998818  -0.0043615  1.00067  0.0227961  -0.0638029  -0.0125857  0.0035738  0.0246267  0.0008692  0  0  0  0  0  0  0.0429988  0.0185063  -0.034936  -0.00860003  -0.0112601  -0.0147837  -0.0522717  0.0551675  6.47629e-05  -0.158294  0.130243  -0.047019 
1699974326.650406000  0  0  12.1299  0.322112  -0.314536  0.00357144  nan  nan  nan  nan  nan  nan  -0.998799  -0.0042398  1.00068  0.023131  -0.0644732  -0.0126226  0.0039516  0.0240634  0.0015022  0  0  0  0  0  0  0.0430136  0.0183202  -0.0349602  -0.00812452  -0.0105466  -0.00998487  -0.053383  0.0562842  -0.000131909  -0.1531  0.111257  -0.0433239 
1699974326.655357000  0  0  12.0976  0.302259  -0.318799  0.00310668  nan  nan  nan  nan  nan  nan  -0.998779  -0.0041211  1.00069  0.0235527  -0.0646018  -0.0126528  0.0043844  0.0233777  0.0022173  0  0  0  0  0  0  0.0430523  0.0180913  -0.0349709  -0.00825673  -0.00955247  -0.00732581  -0.0540539  0.0570183  -0.000318289  -0.107222  0.113029  -0.0356506 
1699974326.660733000  0  0  12.1219  0.282629  -0.297413  0.00223898  nan  nan  nan  nan  nan  nan  -0.998755  -0.0040062  1.0007  0.0240688  -0.0636698  -0.0126637  0.004876  0.0225659  0.0030185  0  0  0  0  0  0  0.0430507  0.017924  -0.0350103  -0.00932646  -0.00840749  -0.00931003  -0.054563  0.0562731  -0.00039882  -0.0632779  0.077114  -0.023999 
1699974326.665344000  0  0  12.07  0.268983  -0.253512  0.000400964  nan  nan  nan  nan  nan  nan  -0.99873  -0.0038957  1.00072  0.025543  -0.0632814  -0.0127477  0.0054303  0.0216242  0.0039094  0  0  0  0  0  0  0.0430049  0.0178803  -0.0350174  -0.0100902  -0.00646264  -0.00496191  -0.0558249  0.055269  -0.000194096  -0.0243763  -0.00145168  -0.00307109 
1699974326.670356000  0  0  12.0807  0.258361  -0.240073  -0.000870988  nan  nan  nan  nan  nan  nan  -0.998701  -0.0037902  1.00074  0.0255899  -0.0631561  -0.0127474  0.0060509  0.020549  0.0048937  0  0  0  0  0  0  0.0430224  0.0176499  -0.03501  -0.0102229  -0.00585683  -0.00585216  -0.055741  0.0548623  -8.89267e-05  -0.00390505  -0.024586  0.0117766 
1699974326.675407000  0  0  12.1764  0.2463  -0.239822  -0.00045346  nan  nan  nan  nan  nan  nan  -0.998669  -0.0036904  1.00077  0.0272708  -0.0614767  -0.0128079  0.0067415  0.0193364  0.0059753  0  0  0  0  0  0  0.0429639  0.0176296  -0.0351093  -0.0116641  -0.00324384  -0.0136707  -0.0569797  0.0532428  -8.67602e-05  0.0316131  -0.0101895  0.00653585 
1699974326.680357000  0  0  12.179  0.261446  -0.23393  0.000730824  nan  nan  nan  nan  nan  nan  -0.998633  -0.0035971  1.0008  0.0283325  -0.061669  -0.0128786  0.0075047  0.0179827  0.0071579  0  0  0  0  0  0  0.0429731  0.0174881  -0.0351276  -0.0113823  -0.00148805  -0.0138714  -0.0581222  0.0532273  -0.000188151  0.0118315  -0.021831  -0.00725379 
1699974326.685346000  0  0  12.168  0.300009  -0.246228  0.00207776  nan  nan  nan  nan  nan  nan  -0.998594  -0.0035108  1.00084  0.0303247  -0.0612988  -0.0129903  0.0083378  0.0164841  0.0084452  0  0  0  0  0  0  0.0429189  0.0174866  -0.0351744  -0.0117921  0.00118496  -0.0129689  -0.0607727  0.0530459  -0.000352921  -0.0409098  0.00443315  -0.0224427 
1699974326.690355000  0  0  12.2734  0.305663  -0.293761  0.00386501  nan  nan  nan  nan  nan  nan  -0.99855  -0.0034325  1.00088  0.0311966  -0.0603947  -0.0130156  0.009237  0.0148369  0.009841  0  0  0  0  0  0  0.0429271  0.0172895  -0.0352651  -0.0122993  0.00317923  -0.0216835  -0.0618572  0.0532993  -0.000783138  -0.0422393  0.0971685  -0.0404812 
1699974326.695401000  0  0  12.2119  0.333743  -0.294624  0.00532655  nan  nan  nan  nan  nan  nan  -0.998501  -0.0033627  1.00094  0.0327151  -0.0606675  -0.0131162  0.0101986  0.0130374  0.011349  0  0  0  0  0  0  0.0429272  0.017162  -0.0352826  -0.0123039  0.00531461  -0.0166245  -0.0639787  0.0540149  -0.00115943  -0.0788829  0.0923116  -0.0549876 
1699974326.700359000  0  0  12.1342  0.361147  -0.290798  0.0051003  nan  nan  nan  nan  nan  nan  -0.998448  -0.0033023  1.001  0.0355366  -0.0603464  -0.0132761  0.0112189  0.0110818  0.012973  0  0  0  0  0  0  0.0428647  0.017197  -0.0353031  -0.0130582  0.00877894  -0.010258  -0.0674788  0.0540157  -0.00129566  -0.10149  0.0846519  -0.0507972 
1699974326.706356000  0  0  12.2338  0.332553  -0.30122  0.00446089  nan  nan  nan  nan  nan  nan  -0.998389  -0.0032522  1.00107  0.0373398  -0.0588557  -0.0133294  0.012294  0.0089663  0.0147168  0  0  0  0  0  0  0.0428472  0.0171399  -0.035406  -0.0143371  0.0117764  -0.0184575  -0.0690351  0.0533843  -0.00152726  -0.029984  0.111304  -0.0404885 
1699974326.710742000  0  0  12.1757  0.319727  -0.268421  0.00379254  nan  nan  nan  nan  nan  nan  -0.998325  -0.003213  1.00115  0.0389138  -0.0582733  -0.0133995  0.0134203  0.0066872  0.016584  0  0  0  0  0  0  0.0428227  0.0170739  -0.0354105  -0.0154251  0.0138293  -0.0136139  -0.0702778  0.052611  -0.00160744  0.00710186  0.0528209  -0.0313323 
1699974326.715357000  0  0  12.0988  0.320976  -0.219451  0.00167418  nan  nan  nan  nan  nan  nan  -0.998255  -0.0031856  1.00123  0.0418925  -0.0574039  -0.0135369  0.0145941  0.0042408  0.0185784  0  0  0  0  0  0  0.0427423  0.0171434  -0.0354166  -0.0168598  0.0173749  -0.00722359  -0.0729334  0.0509653  -0.00137405  0.0290353  -0.0299797  -0.00718665 
1699974326.720877000  0  0  12.2336  0.285927  -0.215879  -0.000115668  nan  nan  nan  nan  nan  nan  -0.998179  -0.0031708  1.00133  0.0432286  -0.0559542  -0.0135511  0.0158114  0.0016233  0.0207039  0  0  0  0  0  0  0.0427125  0.0170934  -0.0355217  -0.0178806  0.0199475  -0.0182118  -0.0731356  0.0494238  -0.00120755  0.100994  -0.0229418  0.0135213 
1699974326.725400000  0  0  12.3274  0.265342  -0.201853  -0.000583679  nan  nan  nan  nan  nan  nan  -0.998097  -0.0031696  1.00144  0.0450761  -0.0541136  -0.0135717  0.0170687  -0.0011691  0.022964  0  0  0  0  0  0  0.0426182  0.0171827  -0.0356693  -0.0195782  0.0227615  -0.025712  -0.0738951  0.0473743  -0.00110571  0.149152  -0.0321376  0.0183531 
1699974326.730400000  0  0  12.2948  0.275464  -0.18871  0.000360406  nan  nan  nan  nan  nan  nan  -0.998008  -0.0031828  1.00156  0.0475709  -0.0537262  -0.0136885  0.0183621  -0.0041401  0.0253627  0  0  0  0  0  0  0.0425889  0.0171612  -0.0357086  -0.0201901  0.0260693  -0.0228984  -0.0756124  0.0465463  -0.0011114  0.144705  -0.0508054  0.00660893 
1699974326.735410000  0  0  12.4007  0.312336  -0.219849  0.00275911  nan  nan  nan  nan  nan  nan  -0.997913  -0.0032113  1.00169  0.0505545  -0.0525796  -0.0137912  0.0196879  -0.0072916  0.0279036  0  0  0  0  0  0  0.0424916  0.0173045  -0.0358836  -0.0208469  0.0304537  -0.0314882  -0.0784984  0.0459207  -0.00139414  0.0975131  0.017228  -0.0205475 
1699974326.740400000  0  0  12.5155  0.315417  -0.265689  0.0056835  nan  nan  nan  nan  nan  nan  -0.997811  -0.003256  1.00184  0.0519005  -0.0515505  -0.0138087  0.0210424  -0.0106205  0.0305904  0  0  0  0  0  0  0.0424737  0.0172384  -0.0360601  -0.0215322  0.0331385  -0.0407535  -0.079309  0.046038  -0.00196214  0.0988092  0.107829  -0.0514224 
1699974326.745399000  0  0  12.4897  0.331774  -0.276217  0.0069775  nan  nan  nan  nan  nan  nan  -0.997703  -0.0033178  1.002  0.0539907  -0.0517341  -0.0139266  0.0224217  -0.0141232  0.033427  0  0  0  0  0  0  0.042458  0.0172079  -0.0361559  -0.0213381  0.0359691  -0.0384643  -0.0810085  0.0469099  -0.00235778  0.0817299  0.120863  -0.063641 
1699974326.750412000  0  0  12.4766  0.372045  -0.304496  0.00720332  nan  nan  nan  nan  nan  nan  -0.997587  -0.0033976  1.00217  0.0580676  -0.050579  -0.014071  0.0238222  -0.0177958  0.0364171  0  0  0  0  0  0  0.0423452  0.0174047  -0.0363101  -0.0226678  0.041162  -0.0372477  -0.0852321  0.047004  -0.00266255  0.0400441  0.176555  -0.0634161 
1699974326.755406000  0  0  12.5548  0.344761  -0.318221  0.00750279  nan  nan  nan  nan  nan  nan  -0.997464  -0.0034961  1.00236  0.0594948  -0.0501217  -0.0141162  0.0252401  -0.0216346  0.0395644  0  0  0  0  0  0  0.0423563  0.0173418  -0.0364817  -0.0228526  0.0438106  -0.0434282  -0.0857057  0.0476902  -0.00302978  0.0989699  0.197692  -0.063487 
