    ts      x      y      z   roll  pitch    yaw     vx     vy     vz     wx     wy     wz     ax     ay     az    dwx    dwy    dwz
 0.0050000  -2.5000000  -0.3000000   1.0000000   0.0000000   0.0000000  -0.0000000   0.0000002   0.0000002   0.0000002   0.0000000   0.0000000   0.0000000   0.0001250   0.0001250   0.0001250   0.0000000   0.0000000   0.0000000
 0.0100000  -2.5000000  -0.3000000   1.0000000   0.0000000   0.0000000  -0.0000000   0.0000017   0.0000017   0.0000017   0.0000000   0.0000000   0.0000000   0.0005000   0.0005000   0.0005000   0.0000000   0.0000000   0.0000000
 0.0150000  -2.5000000  -0.3000000   1.0000000   0.0000000   0.0000000  -0.0000000   0.0000056   0.0000056   0.0000056   0.0000000   0.0000000   0.0000000   0.0011250   0.0011250   0.0011250   0.0000000   0.0000000   0.0000000
 0.0200000  -2.5000000  -0.3000000   1.0000000   0.0000000   0.0000000  -0.0000001   0.0000133   0.0000133   0.0000133   0.0000000   0.0000000   0.0000000   0.0020000   0.0020000   0.0020000   0.0000000   0.0000000   0.0000000
 0.0250000  -2.5000000  -0.3000000   1.0000000   0.0000000   0.0000000  -0.0000003   0.0000260   0.0000260   0.0000260   0.0000000   0.0000000   0.0000000   0.0031250   0.0031250   0.0031250   0.0000000   0.0000000   0.0000000
 0.0300000  -2.5000000  -0.3000000   1.0000000   0.0000000   0.0000000  -0.0000005   0.0000450   0.0000450   0.0000450   0.0000000   0.0000000   0.0000000   0.0045000   0.0045000   0.0045000   0.0000000   0.0000000   0.0000000
 0.0350000  -2.5000000  -0.2999990   1.0000000   0.0000000   0.0000000  -0.0000010   0.0000715   0.0000715   0.0000715   0.0000000   0.0000000   0.0000000   0.0061250   0.0061250   0.0061250   0.0000000   0.0000000   0.0000000
 0.0400000  -2.5000000  -0.2999990   1.0000000   0.0000000   0.0000000  -0.0000017   0.0001067   0.0001067   0.0001067   0.0000000   0.0000000   0.0000000   0.0080000   0.0080000   0.0080000   0.0000000   0.0000000   0.0000000
 0.0450000  -2.5000000  -0.2999980   1.0000000   0.0000000   0.0000000  -0.0000027   0.0001519   0.0001519   0.0001519   0.0000000   0.0000000   0.0000000   0.0101250   0.0101250   0.0101250   0.0000000   0.0000000   0.0000000
 0.0500000  -2.5000000  -0.2999970   1.0000000   0.0000000   0.0000000  -0.0000042   0.0002083   0.0002083   0.0002083   0.0000000   0.0000000   0.0000000   0.0125000   0.0125000   0.0125000   0.0000000   0.0000000   0.0000000
 0.0550000  -2.5000000  -0.2999960   1.0000000   0.0000000   0.0000000  -0.0000061   0.0002773   0.0002773   0.0002773   0.0000000   0.0000000   0.0000000   0.0151250   0.0151250   0.0151250   0.0000000   0.0000000   0.0000000
 0.0600000  -2.4999900  -0.2999950   1.0000100   0.0000000   0.0000000  -0.0000086   0.0003600   0.0003600   0.0003600   0.0000000   0.0000000   0.0000000   0.0180000   0.0180000   0.0180000   0.0000000   0.0000000   0.0000000
 0.0650000  -2.4999900  -0.2999930   1.0000100   0.0000000   0.0000000  -0.0000119   0.0004577   0.0004577   0.0004577   0.0000000   0.0000000   0.0000000   0.0211250   0.0211250   0.0211250   0.0000000   0.0000000   0.0000000
 0.0700000  -2.4999900  -0.2999900   1.0000100   0.0000000   0.0000000  -0.0000160   0.0005717   0.0005717   0.0005717   0.0000000   0.0000000   0.0000000   0.0245000   0.0245000   0.0245000   0.0000000   0.0000000   0.0000000
 0.0750000  -2.4999900  -0.2999870   1.0000100   0.0000000   0.0000000  -0.0000211   0.0007031   0.0007031   0.0007031   0.0000000   0.0000000   0.0000000   0.0281250   0.0281250   0.0281250   0.0000000   0.0000000   0.0000000
 0.0800000  -2.4999800  -0.2999830   1.0000200   0.0000000   0.0000000  -0.0000273   0.0008533   0.0008533   0.0008533   0.0000000   0.0000000   0.0000000   0.0319374   0.0320000   0.0320000   0.0000000   0.0000000   0.0000000
 0.0850000  -2.4999800  -0.2999780   1.0000200   0.0000000   0.0000000  -0.0000348   0.0010221   0.0010235   0.0010235   0.0000000   0.0000000   0.0000000   0.0355621   0.0361250   0.0361250   0.0000000   0.0000000   0.0000000
 0.0900000  -2.4999700  -0.2999730   1.0000300   0.0000000   0.0000000  -0.0000437   0.0012085   0.0012150   0.0012150   0.0000000   0.0000000   0.0000000   0.0389369   0.0405000   0.0405000   0.0000000   0.0000000   0.0000000
 0.0950000  -2.4999700  -0.2999660   1.0000300   0.0000000   0.0000000  -0.0000543   0.0014111   0.0014290   0.0014290   0.0000000   0.0000000   0.0000000   0.0420616   0.0451250   0.0451250   0.0000000   0.0000000   0.0000000
 0.1000000  -2.4999600  -0.2999580   1.0000400   0.0000000   0.0000000  -0.0000667   0.0016287   0.0016667   0.0016667   0.0000000   0.0000000   0.0000000   0.0449364   0.0500000   0.0500000   0.0000000   0.0000000   0.0000000
 0.1050000  -2.4999500  -0.2999490   1.0000500   0.0000000   0.0000000  -0.0000810   0.0018600   0.0019294   0.0019294   0.0000000   0.0000000   0.0000000   0.0475611   0.0551250   0.0551250   0.0000000   0.0000000   0.0000000
 0.1100000  -2.4999400  -0.2999390   1.0000600   0.0000000   0.0000000  -0.0000975   0.0021039   0.0022183   0.0022183   0.0000000   0.0000000   0.0000000   0.0499359   0.0605000   0.0605000   0.0000000   0.0000000   0.0000000
 0.1150000  -2.4999300  -0.2999270   1.0000700   0.0000000   0.0000000  -0.0001162   0.0023590   0.0025348   0.0025348   0.0000000   0.0000000   0.0000000   0.0520606   0.0661250   0.0661250   0.0000000   0.0000000   0.0000000
 0.1200000  -2.4999200  -0.2999140   1.0000900   0.0000000   0.0000000  -0.0001374   0.0026241   0.0028800   0.0028800   0.0000000   0.0000000   0.0000000   0.0539354   0.0720000   0.0720000   0.0000000   0.0000000   0.0000000
 0.1250000  -2.4999000  -0.2998980   1.0001000   0.0000000   0.0000000  -0.0001612   0.0028979   0.0032552   0.0032552   0.0000000   0.0000000   0.0000000   0.0555601   0.0781250   0.0781250   0.0000000   0.0000000   0.0000000
 0.1300000  -2.4998900  -0.2998810   1.0001200   0.0000000   0.0000000  -0.0001877   0.0031792   0.0036617   0.0036617   0.0000000   0.0000000   0.0000000   0.0569349   0.0845000   0.0845000   0.0000000   0.0000000   0.0000000
 0.1350000  -2.4998700  -0.2998620   1.0001400   0.0000000   0.0000000  -0.0002169   0.0034668   0.0041006   0.0041006   0.0000000   0.0000000   0.0000000   0.0580596   0.0911250   0.0911250   0.0000000   0.0000000   0.0000000
 0.1400000  -2.4998500  -0.2998400   1.0001600   0.0000000   0.0000000  -0.0002491   0.0037594   0.0045733   0.0045733   0.0000000   0.0000000   0.0000000   0.0589343   0.0980000   0.0980000   0.0000000   0.0000000   0.0000000
 0.1450000  -2.4998300  -0.2998160   1.0001800   0.0000000   0.0000000  -0.0002843   0.0040558   0.0050810   0.0050810   0.0000000   0.0000000   0.0000000   0.0595591   0.1051250   0.1051250   0.0000000   0.0000000   0.0000000
 0.1500000  -2.4998100  -0.2997890   1.0002100   0.0000000   0.0000000  -0.0003225   0.0043546   0.0056250   0.0056250   0.0000000   0.0000000   0.0000000   0.0599338   0.1125000   0.1125000   0.0000000   0.0000000   0.0000000
 0.1550000  -2.4997900  -0.2997590   1.0002400   0.0000000   0.0000000  -0.0003639   0.0046547   0.0062065   0.0062065   0.0000000   0.0000000   0.0000000   0.0600586   0.1201250   0.1201250   0.0000000   0.0000000   0.0000000
 0.1600000  -2.4997700  -0.2997270   1.0002700   0.0000000   0.0000000  -0.0004086   0.0049548   0.0068267   0.0068267   0.0000000   0.0000000   0.0000000   0.0599333   0.1280000   0.1280000   0.0000000   0.0000000   0.0000000
 0.1650000  -2.4997400  -0.2996910   1.0003100   0.0000000   0.0000000  -0.0004565   0.0052536   0.0074869   0.0074869   0.0000000   0.0000000   0.0000000   0.0595581   0.1361250   0.1361250   0.0000000   0.0000000   0.0000000
 0.1700000  -2.4997100  -0.2996520   1.0003500   0.0000000   0.0000000  -0.0005077   0.0055499   0.0081883   0.0081883   0.0000000   0.0000000   0.0000000   0.0589328   0.1445000   0.1444610   0.0000000   0.0000000   0.0000000
 0.1750000  -2.4996800  -0.2996090   1.0003900   0.0000000   0.0000000  -0.0005623   0.0058425   0.0089323   0.0089312   0.0000000   0.0000000   0.0000000   0.0580576   0.1531250   0.1526400   0.0000000   0.0000000   0.0000000
 0.1800000  -2.4996500  -0.2995630   1.0004400   0.0000000   0.0000000  -0.0006203   0.0061301   0.0097200   0.0097143   0.0000000   0.0000000   0.0000000   0.0569323   0.1620000   0.1605680   0.0000000   0.0000000   0.0000000
 0.1850000  -2.4996200  -0.2995120   1.0004900   0.0000000   0.0000000  -0.0006816   0.0064114   0.0105527   0.0105364   0.0000000   0.0000000   0.0000000   0.0555571   0.1711250   0.1682460   0.0000000   0.0000000   0.0000000
 0.1900000  -2.4995900  -0.2994570   1.0005400   0.0000000   0.0000000  -0.0007464   0.0066853   0.0114317   0.0113963   0.0000000   0.0000000   0.0000000   0.0539318   0.1805000   0.1756740   0.0000000   0.0000000   0.0000000
 0.1950000  -2.4995600  -0.2993980   1.0006000   0.0000000   0.0000000  -0.0008145   0.0069503   0.0123581   0.0122928   0.0000000   0.0000000   0.0000000   0.0520566   0.1901250   0.1828520   0.0000000   0.0000000   0.0000000
 0.2000000  -2.4995200  -0.2993330   1.0006700   0.0000000   0.0000000  -0.0008860   0.0072054   0.0133333   0.0132244   0.0000000   0.0000000   0.0000000   0.0499313   0.2000000   0.1897810   0.0000000   0.0000000   0.0000000
 0.2050000  -2.4994800  -0.2992640   1.0007300   0.0000000   0.0000000  -0.0009608   0.0074492   0.0143585   0.0141901   0.0000000   0.0000000   0.0000000   0.0475561   0.2101250   0.1964590   0.0000000   0.0000000   0.0000000
 0.2100000  -2.4994500  -0.2991900   1.0008100   0.0000000   0.0000000  -0.0010390   0.0076806   0.0154350   0.0151886   0.0000000   0.0000000   0.0000000   0.0449308   0.2205000   0.2028870   0.0000000   0.0000000   0.0000000
 0.2150000  -2.4994100  -0.2991100   1.0008900   0.0000000   0.0000000  -0.0011204   0.0078981   0.0165640   0.0162186   0.0000000   0.0000000   0.0000000   0.0420556   0.2311250   0.2090650   0.0000000   0.0000000   0.0000000
 0.2200000  -2.4993700  -0.2990240   1.0009700   0.0000000   0.0000000  -0.0012050   0.0081007   0.0177467   0.0172788   0.0000000   0.0000000   0.0000000   0.0389303   0.2420000   0.2149940   0.0000000   0.0000000   0.0000000
 0.2250000  -2.4993300  -0.2989320   1.0010600   0.0000000   0.0000000  -0.0012928   0.0082870   0.0189844   0.0183681   0.0000000   0.0000000   0.0000000   0.0355551   0.2531250   0.2206720   0.0000000   0.0000000   0.0000000
 0.2300000  -2.4992800  -0.2988340   1.0011500   0.0000000   0.0000000  -0.0013836   0.0084558   0.0202783   0.0194851   0.0000000   0.0000000   0.0000000   0.0319298   0.2645000   0.2261000   0.0000000   0.0000000   0.0000000
 0.2350000  -2.4992400  -0.2987290   1.0012500   0.0000000   0.0000000  -0.0014773   0.0086059   0.0216298   0.0206287   0.0000000   0.0000000   0.0000000   0.0281174   0.2761250   0.2312780   0.0000000   0.0000000   0.0000000
 0.2400000  -2.4992000  -0.2986180   1.0013600   0.0000000   0.0000000  -0.0015740   0.0087374   0.0230400   0.0217975   0.0000000   0.0000000   0.0000000   0.0244929   0.2880000   0.2362070   0.0000000   0.0000000   0.0000000
 0.2450000  -2.4991500  -0.2984990   1.0014700   0.0000000   0.0000000  -0.0016734   0.0088513   0.0245102   0.0229903   0.0000000   0.0000000   0.0000000   0.0211184   0.3001250   0.2408850   0.0000000   0.0000000   0.0000000
 0.2500000  -2.4991100  -0.2983720   1.0015900   0.0000000   0.0000000  -0.0017755   0.0089490   0.0260417   0.0242059   0.0000000   0.0000000   0.0000000   0.0179940   0.3125000   0.2453130   0.0000000   0.0000000   0.0000000
 0.2550000  -2.4990700  -0.2982380   1.0017100   0.0000000   0.0000000  -0.0018801   0.0090316   0.0276356   0.0254431   0.0000000   0.0000000   0.0000000   0.0151195   0.3251250   0.2494910   0.0000000   0.0000000   0.0000000
 0.2600000  -2.4990200  -0.2980960   1.0018400   0.0000000   0.0000000  -0.0019871   0.0091006   0.0292933   0.0267004   0.0000000   0.0000000   0.0000000   0.0124950   0.3380000   0.2534190   0.0000000   0.0000000   0.0000000
 0.2650000  -2.4989700  -0.2979450   1.0019800   0.0000000   0.0000000  -0.0020963   0.0091570   0.0310160   0.0279768   0.0000000   0.0000000   0.0000000   0.0101205   0.3511250   0.2570980   0.0000000   0.0000000   0.0000000
 0.2700000  -2.4989300  -0.2977860   1.0021200   0.0000000   0.0000000  -0.0022077   0.0092022   0.0328050   0.0292710   0.0000000   0.0000000   0.0000000   0.0079960   0.3645000   0.2605260   0.0000000   0.0000000   0.0000000
 0.2750000  -2.4988800  -0.2976170   1.0022700   0.0000000   0.0000000  -0.0023209   0.0092374   0.0346615   0.0305817   0.0000000   0.0000000   0.0000000   0.0061215   0.3781250   0.2637040   0.0000000   0.0000000   0.0000000
 0.2800000  -2.4988400  -0.2974390   1.0024300   0.0000000   0.0000000  -0.0024359   0.0092638   0.0365867   0.0319076   0.0000000   0.0000000   0.0000000   0.0044970   0.3919860   0.2666320   0.0000000   0.0000000   0.0000000
 0.2850000  -2.4987900  -0.2972510   1.0025900   0.0000000   0.0000000  -0.0025525   0.0092828   0.0385811   0.0332476   0.0000000   0.0000000   0.0000000   0.0031225   0.4057400   0.2693110   0.0000000   0.0000000   0.0000000
 0.2900000  -2.4987400  -0.2970530   1.0027600   0.0000000   0.0000000  -0.0026704   0.0092955   0.0406436   0.0346003   0.0000000   0.0000000   0.0000000   0.0019980   0.4192450   0.2717390   0.0000000   0.0000000   0.0000000
 0.2950000  -2.4987000  -0.2968440   1.0029400   0.0000000   0.0000000  -0.0027896   0.0093032   0.0427731   0.0359646   0.0000000   0.0000000   0.0000000   0.0011235   0.4325000   0.2739170   0.0000000   0.0000000   0.0000000
 0.3000000  -2.4986500  -0.2966250   1.0031200   0.0000000   0.0000000  -0.0029099   0.0093071   0.0449682   0.0373391   0.0000000   0.0000000   0.0000000   0.0004990   0.4455050   0.2758450   0.0000000   0.0000000   0.0000000
 0.3050000  -2.4986000  -0.2963950   1.0033100   0.0000000   0.0000000  -0.0030311   0.0093086   0.0472277   0.0387226   0.0000000   0.0000000   0.0000000   0.0001245   0.4582600   0.2775240   0.0000000   0.0000000   0.0000000
 0.3100000  -2.4985600  -0.2961530   1.0035100   0.0000000   0.0000000  -0.0031531   0.0093088   0.0495504   0.0401139   0.0000000   0.0000000   0.0000000   0.0000000   0.4707640   0.2789520   0.0000000   0.0000000   0.0000000
 0.3150000  -2.4985100  -0.2958990   1.0037100   0.0000000   0.0000000  -0.0032758   0.0093088   0.0519350   0.0415117   0.0000000   0.0000000   0.0000000   0.0000000   0.4830190   0.2801300   0.0000000   0.0000000   0.0000000
 0.3200000  -2.4984600  -0.2956330   1.0039200   0.0000000   0.0000000  -0.0033991   0.0093088   0.0543802   0.0429148   0.0000000   0.0000000   0.0000000   0.0000000   0.4950240   0.2810580   0.0000000   0.0000000   0.0000000
 0.3250000  -2.4984200  -0.2953550   1.0041400   0.0000000   0.0000000  -0.0035228   0.0093088   0.0568848   0.0443219   0.0000000   0.0000000   0.0000000   0.0000000   0.5067790   0.2817360   0.0000000   0.0000000   0.0000000
 0.3300000  -2.4983700  -0.2950640   1.0043700   0.0000000   0.0000000  -0.0036469   0.0093088   0.0594476   0.0457317   0.0000000   0.0000000   0.0000000   0.0000000   0.5182830   0.2821650   0.0000000   0.0000000   0.0000000
 0.3350000  -2.4983200  -0.2947610   1.0046000   0.0000000   0.0000000  -0.0037713   0.0093088   0.0620672   0.0471431   0.0000000   0.0000000   0.0000000   0.0000000   0.5295380   0.2823430   0.0000000   0.0000000   0.0000000
 0.3400000  -2.4982800  -0.2944440   1.0048400   0.0000000   0.0000000  -0.0038960   0.0093088   0.0647425   0.0485547   0.0000000   0.0000000   0.0000000   0.0000000   0.5405430   0.2822710   0.0000000   0.0000000   0.0000000
 0.3450000  -2.4982300  -0.2941130   1.0050900   0.0000000   0.0000000  -0.0040208   0.0093088   0.0674722   0.0499654   0.0000000   0.0000000   0.0000000   0.0000000   0.5512980   0.2819490   0.0000000   0.0000000   0.0000000
 0.3500000  -2.4981800  -0.2937690   1.0053400   0.0000000   0.0000000  -0.0041456   0.0093088   0.0702551   0.0513738   0.0000000   0.0000000   0.0000000   0.0000000   0.5618030   0.2813780   0.0000000   0.0000000   0.0000000
 0.3550000  -2.4981400  -0.2934100   1.0056000   0.0000000   0.0000000  -0.0042706   0.0093088   0.0730898   0.0527788   0.0000000   0.0000000   0.0000000   0.0000000   0.5720570   0.2805560   0.0000000   0.0000000   0.0000000
 0.3600000  -2.4980900  -0.2930380   1.0058700   0.0000000   0.0000000  -0.0043956   0.0093088   0.0759752   0.0541790   0.0000000   0.0000000   0.0000000   0.0000000   0.5820620   0.2794840   0.0000000   0.0000000   0.0000000
 0.3650000  -2.4980500  -0.2926510   1.0061400   0.0000000   0.0000000  -0.0045207   0.0093088   0.0789100   0.0555732   0.0000000   0.0000000   0.0000000   0.0000000   0.5918170   0.2781620   0.0000000   0.0000000   0.0000000
 0.3700000  -2.4980000  -0.2922490   1.0064200   0.0000000   0.0000000  -0.0046457   0.0093088   0.0818930   0.0569602   0.0000000   0.0000000   0.0000000   0.0000000   0.6013220   0.2765910   0.0000000   0.0000000   0.0000000
 0.3750000  -2.4979500  -0.2918320   1.0067100   0.0000000   0.0000000  -0.0047707   0.0093088   0.0849228   0.0583387   0.0000000   0.0000000   0.0000000   0.0000000   0.6105770   0.2747690   0.0000000   0.0000000   0.0000000
 0.3800000  -2.4979100  -0.2913990   1.0070100   0.0000000   0.0000000  -0.0048957   0.0093088   0.0879983   0.0597074   0.0000000   0.0000000   0.0000000   0.0000000   0.6195810   0.2726970   0.0000000   0.0000000   0.0000000
 0.3850000  -2.4978600  -0.2909520   1.0073100   0.0000000   0.0000000  -0.0050208   0.0093088   0.0911182   0.0610652   0.0000000   0.0000000   0.0000000   0.0000000   0.6283360   0.2703750   0.0000000   0.0000000   0.0000000
 0.3900000  -2.4978100  -0.2904880   1.0076200   0.0000000   0.0000000  -0.0051458   0.0093088   0.0942813   0.0624108   0.0000000   0.0000000   0.0000000   0.0000000   0.6368410   0.2678040   0.0000000   0.0000000   0.0000000
 0.3950000  -2.4977700  -0.2900090   1.0079300   0.0000000   0.0000000  -0.0052708   0.0093088   0.0974862   0.0637428   0.0000000   0.0000000   0.0000000   0.0000000   0.6450960   0.2649820   0.0000000   0.0000000   0.0000000
 0.4000000  -2.4977200  -0.2895130   1.0082500   0.0000000   0.0000000  -0.0053959   0.0093088   0.1007320   0.0650602   0.0000000   0.0000000   0.0000000   0.0000000   0.6531010   0.2619100   0.0000000   0.0000000   0.0000000
 0.4050000  -2.4976700  -0.2890010   1.0085800   0.0000000   0.0000000  -0.0055209   0.0093088   0.1040170   0.0663615   0.0000000   0.0000000   0.0000000   0.0000000   0.6608550   0.2585880   0.0000000   0.0000000   0.0000000
 0.4100000  -2.4976300  -0.2884730   1.0089200   0.0000000   0.0000000  -0.0056459   0.0093088   0.1073400   0.0676456   0.0000000   0.0000000   0.0000000   0.0000000   0.6683600   0.2550160   0.0000000   0.0000000   0.0000000
 0.4150000  -2.4975800  -0.2879280   1.0092600   0.0000000   0.0000000  -0.0057710   0.0093088   0.1107000   0.0689113   0.0000000   0.0000000   0.0000000   0.0000000   0.6756150   0.2511950   0.0000000   0.0000000   0.0000000
 0.4200000  -2.4975300  -0.2873660   1.0096100   0.0000000   0.0000000  -0.0058960   0.0093088   0.1140960   0.0701572   0.0000000   0.0000000   0.0000000   0.0000000   0.6826200   0.2471230   0.0000000   0.0000000   0.0000000
 0.4250000  -2.4974900  -0.2867870   1.0099600   0.0000000   0.0000000  -0.0060210   0.0093088   0.1175260   0.0713821   0.0000000   0.0000000   0.0000000   0.0000000   0.6893740   0.2428010   0.0000000   0.0000000   0.0000000
 0.4300000  -2.4974400  -0.2861910   1.0103200   0.0000000   0.0000000  -0.0061461   0.0093088   0.1209890   0.0725848   0.0000000   0.0000000   0.0000000   0.0000000   0.6958790   0.2382290   0.0000000   0.0000000   0.0000000
 0.4350000  -2.4973900  -0.2855770   1.0106900   0.0000000   0.0000000  -0.0062711   0.0093088   0.1244840   0.0737640   0.0000000   0.0000000   0.0000000   0.0000000   0.7021340   0.2334080   0.0000000   0.0000000   0.0000000
 0.4400000  -2.4973500  -0.2849460   1.0110600   0.0000000   0.0000000  -0.0063961   0.0093088   0.1280100   0.0749184   0.0000000   0.0000000   0.0000000   0.0000000   0.7081390   0.2283360   0.0000000   0.0000000   0.0000000
 0.4450000  -2.4973000  -0.2842970   1.0114400   0.0000000   0.0000000  -0.0065211   0.0093088   0.1315650   0.0760469   0.0000000   0.0000000   0.0000000   0.0000000   0.7138940   0.2230140   0.0000000   0.0000000   0.0000000
 0.4500000  -2.4972500  -0.2836300   1.0118200   0.0000000   0.0000000  -0.0066462   0.0093088   0.1351480   0.0771481   0.0000000   0.0000000   0.0000000   0.0000000   0.7193980   0.2174420   0.0000000   0.0000000   0.0000000
 0.4550000  -2.4972100  -0.2829450   1.0122100   0.0000000   0.0000000  -0.0067712   0.0093088   0.1387590   0.0782209   0.0000000   0.0000000   0.0000000   0.0000000   0.7246530   0.2116210   0.0000000   0.0000000   0.0000000
 0.4600000  -2.4971600  -0.2822420   1.0126000   0.0000000   0.0000000  -0.0068962   0.0093088   0.1423950   0.0792639   0.0000000   0.0000000   0.0000000   0.0000000   0.7296580   0.2055490   0.0000000   0.0000000   0.0000000
 0.4650000  -2.4971100  -0.2815210   1.0130000   0.0000000   0.0000000  -0.0070212   0.0093088   0.1460550   0.0802760   0.0000000   0.0000000   0.0000000   0.0000000   0.7344130   0.1992270   0.0000000   0.0000000   0.0000000
 0.4700000  -2.4970700  -0.2807820   1.0134000   0.0000000   0.0000000  -0.0071463   0.0093088   0.1497380   0.0812558   0.0000000   0.0000000   0.0000000   0.0000000   0.7389180   0.1926550   0.0000000   0.0000000   0.0000000
 0.4750000  -2.4970200  -0.2800240   1.0138100   0.0000000   0.0000000  -0.0072713   0.0093088   0.1534440   0.0822021   0.0000000   0.0000000   0.0000000   0.0000000   0.7431720   0.1858330   0.0000000   0.0000000   0.0000000
 0.4800000  -2.4969700  -0.2792470   1.0142300   0.0000000   0.0000000  -0.0073963   0.0093088   0.1571700   0.0831137   0.0000000   0.0000000   0.0000000   0.0000000   0.7471770   0.1787620   0.0000000   0.0000000   0.0000000
 0.4850000  -2.4969300  -0.2784520   1.0146400   0.0000000   0.0000000  -0.0075214   0.0093088   0.1609150   0.0839893   0.0000000   0.0000000   0.0000000   0.0000000   0.7509320   0.1714400   0.0000000   0.0000000   0.0000000
 0.4900000  -2.4968800  -0.2776380   1.0150600   0.0000000   0.0000000  -0.0076464   0.0093088   0.1646790   0.0848277   0.0000000   0.0000000   0.0000000   0.0000000   0.7544370   0.1638680   0.0000000   0.0000000   0.0000000
 0.4950000  -2.4968300  -0.2768050   1.0154900   0.0000000   0.0000000  -0.0077714   0.0093088   0.1684590   0.0856276   0.0000000   0.0000000   0.0000000   0.0000000   0.7576920   0.1560460   0.0000000   0.0000000   0.0000000
 0.5000000  -2.4967900  -0.2759530   1.0159200   0.0000000   0.0000000  -0.0078965   0.0093088   0.1722550   0.0863877   0.0000000   0.0000000   0.0000000   0.0000000   0.7606960   0.1479750   0.0000000   0.0000000   0.0000000
 0.5050000  -2.4967400  -0.2750830   1.0163500   0.0000000   0.0000000  -0.0080215   0.0093088   0.1760650   0.0871069   0.0000000   0.0000000   0.0000000   0.0000000   0.7634510   0.1396610   0.0000000   0.0000000   0.0000000
 0.5100000  -2.4967000  -0.2741930   1.0167900   0.0000000   0.0000000  -0.0081465   0.0093088   0.1798890   0.0877845   0.0000000   0.0000000   0.0000000   0.0000000   0.7659560   0.1314300   0.0000000   0.0000000   0.0000000
 0.5150000  -2.4966500  -0.2732840   1.0172300   0.0000000   0.0000000  -0.0082716   0.0093088   0.1837250   0.0884216   0.0000000   0.0000000   0.0000000   0.0000000   0.7682110   0.1234480   0.0000000   0.0000000   0.0000000
 0.5200000  -2.4966000  -0.2723560   1.0176800   0.0000000   0.0000000  -0.0083966   0.0093088   0.1875710   0.0890194   0.0000000   0.0000000   0.0000000   0.0000000   0.7702150   0.1157170   0.0000000   0.0000000   0.0000000
 0.5250000  -2.4965600  -0.2714080   1.0181200   0.0000000   0.0000000  -0.0085216   0.0093088   0.1914260   0.0895792   0.0000000   0.0000000   0.0000000   0.0000000   0.7719700   0.1082350   0.0000000   0.0000000   0.0000000
 0.5300000  -2.4965100  -0.2704410   1.0185700   0.0000000   0.0000000  -0.0086466   0.0093088   0.1952900   0.0901022   0.0000000   0.0000000   0.0000000   0.0000000   0.7734750   0.1010040   0.0000000   0.0000000   0.0000000
 0.5350000  -2.4964600  -0.2694550   1.0190200   0.0000000   0.0000000  -0.0087717   0.0093088   0.1991610   0.0905897   0.0000000   0.0000000   0.0000000   0.0000000   0.7747300   0.0940222   0.0000000   0.0000000   0.0000000
 0.5400000  -2.4964200  -0.2684500   1.0194800   0.0000000   0.0000000  -0.0088967   0.0093088   0.2030370   0.0910428   0.0000000   0.0000000   0.0000000   0.0000000   0.7757350   0.0872908   0.0000000   0.0000000   0.0000000
 0.5450000  -2.4963700  -0.2674250   1.0199300   0.0000000   0.0000000  -0.0090217   0.0093088   0.2069180   0.0914630   0.0000000   0.0000000   0.0000000   0.0000000   0.7764890   0.0808093   0.0000000   0.0000000   0.0000000
 0.5500000  -2.4963200  -0.2663800   1.0203900   0.0000000   0.0000000  -0.0091468   0.0093088   0.2108010   0.0918513   0.0000000   0.0000000   0.0000000   0.0000000   0.7769940   0.0745778   0.0000000   0.0000000   0.0000000
 0.5550000  -2.4962800  -0.2653170   1.0208500   0.0000000   0.0000000  -0.0092718   0.0093088   0.2146870   0.0922092   0.0000000   0.0000000   0.0000000   0.0000000   0.7772490   0.0685964   0.0000000   0.0000000   0.0000000
 0.5600000  -2.4962300  -0.2642340   1.0213100   0.0000000   0.0000000  -0.0093968   0.0093088   0.2185740   0.0925377   0.0000000   0.0000000   0.0000000   0.0000000   0.7772540   0.0628649   0.0000000   0.0000000   0.0000000
 0.5650000  -2.4961800  -0.2631310   1.0217800   0.0000000   0.0000000  -0.0095218   0.0093088   0.2224590   0.0928382   0.0000000   0.0000000   0.0000000   0.0000000   0.7770090   0.0573834   0.0000000   0.0000000   0.0000000
 0.5700000  -2.4961400  -0.2620090   1.0222400   0.0000000   0.0000000  -0.0096469   0.0093088   0.2263430   0.0931120   0.0000000   0.0000000   0.0000000   0.0000000   0.7765130   0.0521520   0.0000000   0.0000000   0.0000000
 0.5750000  -2.4960900  -0.2608680   1.0227100   0.0000000   0.0000000  -0.0097719   0.0093088   0.2302240   0.0933602   0.0000000   0.0000000   0.0000000   0.0000000   0.7757680   0.0471705   0.0000000   0.0000000   0.0000000
 0.5800000  -2.4960400  -0.2597070   1.0231800   0.0000000   0.0000000  -0.0098969   0.0093088   0.2341000   0.0935841   0.0000000   0.0000000   0.0000000   0.0000000   0.7747730   0.0424391   0.0000000   0.0000000   0.0000000
 0.5850000  -2.4960000  -0.2585270   1.0236400   0.0000000   0.0000000  -0.0100220   0.0093088   0.2379710   0.0937850   0.0000000   0.0000000   0.0000000   0.0000000   0.7735280   0.0379576   0.0000000   0.0000000   0.0000000
 0.5900000  -2.4959500  -0.2573270   1.0241100   0.0000000   0.0000000  -0.0101470   0.0093088   0.2418350   0.0939641   0.0000000   0.0000000   0.0000000   0.0000000   0.7720330   0.0337261   0.0000000   0.0000000   0.0000000
 0.5950000  -2.4959000  -0.2561080   1.0245800   0.0000000   0.0000000  -0.0102720   0.0093088   0.2456910   0.0941227   0.0000000   0.0000000   0.0000000   0.0000000   0.7702870   0.0297447   0.0000000   0.0000000   0.0000000
 0.6000000  -2.4958600  -0.2548700   1.0250600   0.0000000   0.0000000  -0.0103970   0.0093088   0.2495380   0.0942620   0.0000000   0.0000000   0.0000000   0.0000000   0.7682920   0.0260132   0.0000000   0.0000000   0.0000000
 0.6050000  -2.4958100  -0.2536130   1.0255300   0.0000000   0.0000000  -0.0105221   0.0093088   0.2533740   0.0943832   0.0000000   0.0000000   0.0000000   0.0000000   0.7660470   0.0225317   0.0000000   0.0000000   0.0000000
 0.6100000  -2.4957600  -0.2523360   1.0260000   0.0000000   0.0000000  -0.0106471   0.0093088   0.2571980   0.0944877   0.0000000   0.0000000   0.0000000   0.0000000   0.7635520   0.0193003   0.0000000   0.0000000   0.0000000
 0.6150000  -2.4957200  -0.2510410   1.0264700   0.0000000   0.0000000  -0.0107721   0.0093088   0.2610090   0.0945766   0.0000000   0.0000000   0.0000000   0.0000000   0.7608070   0.0163188   0.0000000   0.0000000   0.0000000
 0.6200000  -2.4956700  -0.2497260   1.0269400   0.0000000   0.0000000  -0.0108972   0.0093088   0.2648050   0.0946513   0.0000000   0.0000000   0.0000000   0.0000000   0.7578110   0.0135873   0.0000000   0.0000000   0.0000000
 0.6250000  -2.4956200  -0.2483930   1.0274200   0.0000000   0.0000000  -0.0110222   0.0093088   0.2685870   0.0947129   0.0000000   0.0000000   0.0000000   0.0000000   0.7545660   0.0111059   0.0000000   0.0000000   0.0000000
 0.6300000  -2.4955800  -0.2470410   1.0278900   0.0000000   0.0000000  -0.0111472   0.0093088   0.2723510   0.0947628   0.0000000   0.0000000   0.0000000   0.0000000   0.7510710   0.0088744   0.0000000   0.0000000   0.0000000
 0.6350000  -2.4955300  -0.2456690   1.0283700   0.0000000   0.0000000  -0.0112723   0.0093088   0.2760970   0.0948021   0.0000000   0.0000000   0.0000000   0.0000000   0.7473260   0.0068929   0.0000000   0.0000000   0.0000000
 0.6400000  -2.4954900  -0.2442800   1.0288400   0.0000000   0.0000000  -0.0113973   0.0093088   0.2798240   0.0948321   0.0000000   0.0000000   0.0000000   0.0000000   0.7433300   0.0051615   0.0000000   0.0000000   0.0000000
 0.6450000  -2.4954400  -0.2428710   1.0293100   0.0000000   0.0000000  -0.0115223   0.0093088   0.2835300   0.0948541   0.0000000   0.0000000   0.0000000   0.0000000   0.7390850   0.0036800   0.0000000   0.0000000   0.0000000
 0.6500000  -2.4953900  -0.2414440   1.0297900   0.0000000   0.0000000  -0.0116473   0.0093088   0.2872140   0.0948693   0.0000000   0.0000000   0.0000000   0.0000000   0.7345900   0.0024485   0.0000000   0.0000000   0.0000000
 0.6550000  -2.4953500  -0.2399990   1.0302600   0.0000000   0.0000000  -0.0117724   0.0093088   0.2908750   0.0948790   0.0000000   0.0000000   0.0000000   0.0000000   0.7298450   0.0014671   0.0000000   0.0000000   0.0000000
 0.6600000  -2.4953000  -0.2385360   1.0307400   0.0000000   0.0000000  -0.0118974   0.0093088   0.2945120   0.0948844   0.0000000   0.0000000   0.0000000   0.0000000   0.7248500   0.0007356   0.0000000   0.0000000   0.0000000
 0.6650000  -2.4952500  -0.2370540   1.0312100   0.0000000   0.0000000  -0.0120224   0.0093088   0.2981230   0.0948868   0.0000000   0.0000000   0.0000000   0.0000000   0.7196040   0.0002541   0.0000000   0.0000000   0.0000000
 0.6700000  -2.4952100  -0.2355540   1.0316900   0.0000000   0.0000000  -0.0121475   0.0093088   0.3017080   0.0948874   0.0000000   0.0000000   0.0000000   0.0000000   0.7141090   0.0000227   0.0000000   0.0000000   0.0000000
 0.6750000  -2.4951600  -0.2340370   1.0321600   0.0000000   0.0000000  -0.0122725   0.0093088   0.3052640   0.0948874   0.0000000   0.0000000   0.0000000   0.0000000   0.7083640   0.0000000   0.0000000   0.0000000   0.0000000
 0.6800000  -2.4951100  -0.2325020   1.0326400   0.0000000   0.0000000  -0.0123975   0.0093088   0.3087910   0.0948874   0.0000000   0.0000000   0.0000000   0.0000000   0.7023690   0.0000000   0.0000000   0.0000000   0.0000000
 0.6850000  -2.4950700  -0.2309490   1.0331100   0.0000000   0.0000000  -0.0125225   0.0093088   0.3122870   0.0948874   0.0000000   0.0000000   0.0000000   0.0000000   0.6961240   0.0000000   0.0000000   0.0000000   0.0000000
 0.6900000  -2.4950200  -0.2293790   1.0335800   0.0000000   0.0000000  -0.0126476   0.0093088   0.3157520   0.0948874   0.0000000   0.0000000   0.0000000   0.0000000   0.6896280   0.0000000   0.0000000   0.0000000   0.0000000
 0.6950000  -2.4949700  -0.2277920   1.0340600   0.0000000   0.0000000  -0.0127726   0.0093089   0.3191830   0.0948874   0.0000000   0.0000000   0.0000000   0.0001052   0.6828830   0.0000000   0.0000000   0.0000000   0.0000000
 0.7000000  -2.4949300  -0.2261870   1.0345300   0.0000000   0.0000000  -0.0128976   0.0093103   0.3225800   0.0948874   0.0000000   0.0000000   0.0000000   0.0004596   0.6758880   0.0000000   0.0000000   0.0000000   0.0000000
 0.7050000  -2.4948800  -0.2245660   1.0350100   0.0000000   0.0000000  -0.0130227   0.0093139   0.3259420   0.0948874   0.0000000   0.0000000   0.0000000   0.0010640   0.6686430   0.0000000   0.0000000   0.0000000   0.0000000
 0.7100000  -2.4948300  -0.2229280   1.0354800   0.0000000   0.0000000  -0.0131477   0.0093213   0.3292660   0.0948874   0.0000000   0.0000000   0.0000000   0.0019184   0.6611480   0.0000000   0.0000000   0.0000000   0.0000000
 0.7150000  -2.4947900  -0.2212730   1.0359600   0.0000000   0.0000000  -0.0132727   0.0093335   0.3325530   0.0948874   0.0000000   0.0000000   0.0000000   0.0030228   0.6534020   0.0000000   0.0000000   0.0000000   0.0000000
 0.7200000  -2.4947400  -0.2196020   1.0364300   0.0000000   0.0000000  -0.0133978   0.0093519   0.3358000   0.0948874   0.0000000   0.0000000   0.0000000   0.0043771   0.6454070   0.0000000   0.0000000   0.0000000   0.0000000
 0.7250000  -2.4946900  -0.2179150   1.0369100   0.0000000   0.0000000  -0.0135228   0.0093777   0.3390060   0.0948874   0.0000000   0.0000000   0.0000000   0.0059815   0.6371620   0.0000000   0.0000000   0.0000000   0.0000000
 0.7300000  -2.4946500  -0.2162120   1.0373800   0.0000000   0.0000000  -0.0136478   0.0094122   0.3421710   0.0948874   0.0000000   0.0000000   0.0000000   0.0078359   0.6286670   0.0000000   0.0000000   0.0000000   0.0000000
 0.7350000  -2.4946000  -0.2144940   1.0378500   0.0000000   0.0000000  -0.0137728   0.0094565   0.3452920   0.0948874   0.0000000   0.0000000   0.0000000   0.0099403   0.6199210   0.0000000   0.0000000   0.0000000   0.0000000
 0.7400000  -2.4945500  -0.2127600   1.0383300   0.0000000   0.0000000  -0.0138979   0.0095120   0.3483700   0.0948874   0.0000000   0.0000000   0.0000000   0.0122947   0.6109260   0.0000000   0.0000000   0.0000000   0.0000000
 0.7450000  -2.4945000  -0.2110100   1.0388000   0.0000000   0.0000000  -0.0140229   0.0095799   0.3514010   0.0948874   0.0000000   0.0000000   0.0000000   0.0148990   0.6016810   0.0000000   0.0000000   0.0000000   0.0000000
 0.7500000  -2.4944600  -0.2092460   1.0392800   0.0000000   0.0000000  -0.0141479   0.0096614   0.3543860   0.0948874   0.0000000   0.0000000   0.0000000   0.0177534   0.5921860   0.0000000   0.0000000   0.0000000   0.0000000
 0.7550000  -2.4944100  -0.2074660   1.0397500   0.0000000   0.0000000  -0.0142730   0.0097578   0.3573230   0.0948874   0.0000000   0.0000000   0.0000000   0.0208578   0.5824410   0.0000000   0.0000000   0.0000000   0.0000000
 0.7600000  -2.4943600  -0.2056730   1.0402300   0.0000000   0.0000000  -0.0143980   0.0098704   0.3602100   0.0948874   0.0000000   0.0000000   0.0000000   0.0242122   0.5724450   0.0000000   0.0000000   0.0000000   0.0000000
 0.7650000  -2.4943100  -0.2038640   1.0407000   0.0000000   0.0000000  -0.0145230   0.0100004   0.3630470   0.0948874   0.0000000   0.0000000   0.0000000   0.0278166   0.5622000   0.0000000   0.0000000   0.0000000   0.0000000
 0.7700000  -2.4942600  -0.2020420   1.0411700   0.0000000   0.0000000  -0.0146480   0.0101490   0.3658320   0.0948874   0.0000000   0.0000000   0.0000000   0.0316710   0.5517050   0.0000000   0.0000000   0.0000000   0.0000000
 0.7750000  -2.4942100  -0.2002060   1.0416500   0.0000000   0.0000000  -0.0147731   0.0103175   0.3685630   0.0948874   0.0000000   0.0000000   0.0000000   0.0357753   0.5409600   0.0000000   0.0000000   0.0000000   0.0000000
 0.7800000  -2.4941600  -0.1983570   1.0421200   0.0000000   0.0000000  -0.0148981   0.0105072   0.3712410   0.0948874   0.0000000   0.0000000   0.0000000   0.0401297   0.5299650   0.0000000   0.0000000   0.0000000   0.0000000
 0.7850000  -2.4941000  -0.1964940   1.0426000   0.0000000   0.0000000  -0.0150231   0.0107192   0.3738630   0.0948874   0.0000000   0.0000000   0.0000000   0.0447341   0.5187190   0.0000000   0.0000000   0.0000000   0.0000000
 0.7900000  -2.4940500  -0.1946180   1.0430700   0.0000000   0.0000000  -0.0151482   0.0109549   0.3764280   0.0948874   0.0000000   0.0000000   0.0000000   0.0495885   0.5072240   0.0000000   0.0000000   0.0000000   0.0000000
 0.7950000  -2.4939900  -0.1927300   1.0435500   0.0000000   0.0000000  -0.0152732   0.0112155   0.3789350   0.0948874   0.0000000   0.0000000   0.0000000   0.0546929   0.4954790   0.0000000   0.0000000   0.0000000   0.0000000
 0.8000000  -2.4939400  -0.1908290   1.0440200   0.0000000   0.0000000  -0.0153982   0.0115023   0.3813820   0.0948874   0.0000000   0.0000000   0.0000000   0.0600472   0.4834840   0.0000000   0.0000000   0.0000000   0.0000000
 0.8050000  -2.4938800  -0.1889160   1.0445000   0.0000000   0.0000000  -0.0155233   0.0118164   0.3837690   0.0948874   0.0000000   0.0000000   0.0000000   0.0656516   0.4712390   0.0000000   0.0000000   0.0000000   0.0000000
 0.8100000  -2.4938200  -0.1869910   1.0449700   0.0000000   0.0000000  -0.0156483   0.0121592   0.3860940   0.0948874   0.0000000   0.0000000   0.0000000   0.0715060   0.4587430   0.0000000   0.0000000   0.0000000   0.0000000
 0.8150000  -2.4937600  -0.1850550   1.0454400   0.0000000   0.0000000  -0.0157733   0.0125319   0.3883560   0.0948874   0.0000000   0.0000000   0.0000000   0.0776104   0.4459980   0.0000000   0.0000000   0.0000000   0.0000000
 0.8200000  -2.4936900  -0.1831080   1.0459200   0.0000000   0.0000000  -0.0158983   0.0129357   0.3905540   0.0948874   0.0000000   0.0000000   0.0000000   0.0839648   0.4330030   0.0000000   0.0000000   0.0000000   0.0000000
 0.8250000  -2.4936300  -0.1811500   1.0463900   0.0000000   0.0000000  -0.0160234   0.0133719   0.3926860   0.0948874   0.0000000   0.0000000   0.0000000   0.0905692   0.4197580   0.0000000   0.0000000   0.0000000   0.0000000
 0.8300000  -2.4935600  -0.1791810   1.0468700   0.0000000   0.0000000  -0.0161484   0.0138418   0.3947510   0.0948874   0.0000000   0.0000000   0.0000000   0.0974235   0.4062620   0.0000000   0.0000000   0.0000000   0.0000000
 0.8350000  -2.4934900  -0.1772020   1.0473400   0.0000000   0.0000000  -0.0162734   0.0143466   0.3967480   0.0948874   0.0000000   0.0000000   0.0000000   0.1045280   0.3925170   0.0000000   0.0000000   0.0000000   0.0000000
 0.8400000  -2.4934100  -0.1752140   1.0478200   0.0000000   0.0000000  -0.0163985   0.0148875   0.3986760   0.0948874   0.0000000   0.0000000   0.0000000   0.1118820   0.3786520   0.0000000   0.0000000   0.0000000   0.0000000
 0.8450000  -2.4933400  -0.1732160   1.0482900   0.0000000   0.0000000  -0.0165235   0.0154658   0.4005350   0.0948874   0.0000000   0.0000000   0.0000000   0.1194870   0.3650180   0.0000000   0.0000000   0.0000000   0.0000000
 0.8500000  -2.4932600  -0.1712080   1.0487700   0.0000000   0.0000000  -0.0166485   0.0160828   0.4023260   0.0948874   0.0000000   0.0000000   0.0000000   0.1273410   0.3516330   0.0000000   0.0000000   0.0000000   0.0000000
 0.8550000  -2.4931800  -0.1691920   1.0492400   0.0000000   0.0000000  -0.0167735   0.0167397   0.4040510   0.0948874   0.0000000   0.0000000   0.0000000   0.1354450   0.3384980   0.0000000   0.0000000   0.0000000   0.0000000
 0.8600000  -2.4930900  -0.1671680   1.0497100   0.0000000   0.0000000  -0.0168986   0.0174377   0.4057120   0.0948874   0.0000000   0.0000000   0.0000000   0.1438000   0.3256140   0.0000000   0.0000000   0.0000000   0.0000000
 0.8650000  -2.4930000  -0.1651350   1.0501900   0.0000000   0.0000000  -0.0170236   0.0181781   0.4073080   0.0948874   0.0000000   0.0000000   0.0000000   0.1524040   0.3129790   0.0000000   0.0000000   0.0000000   0.0000000
 0.8700000  -2.4929100  -0.1630950   1.0506600   0.0000000   0.0000000  -0.0171486   0.0189621   0.4088420   0.0948874   0.0000000   0.0000000   0.0000000   0.1612590   0.3005950   0.0000000   0.0000000   0.0000000   0.0000000
 0.8750000  -2.4928100  -0.1610470   1.0511400   0.0000000   0.0000000  -0.0172737   0.0197911   0.4103140   0.0948874   0.0000000   0.0000000   0.0000000   0.1703630   0.2884600   0.0000000   0.0000000   0.0000000   0.0000000
 0.8800000  -2.4927100  -0.1589920   1.0516100   0.0000000   0.0000000  -0.0173987   0.0206662   0.4117270   0.0948874   0.0000000   0.0000000   0.0000000   0.1797170   0.2765750   0.0000000   0.0000000   0.0000000   0.0000000
 0.8850000  -2.4926100  -0.1569300   1.0520900   0.0000000   0.0000000  -0.0175237   0.0215887   0.4130810   0.0948874   0.0000000   0.0000000   0.0000000   0.1893220   0.2649410   0.0000000   0.0000000   0.0000000   0.0000000
 0.8900000  -2.4925000  -0.1548610   1.0525600   0.0000000   0.0000000  -0.0176488   0.0225598   0.4143770   0.0948874   0.0000000   0.0000000   0.0000000   0.1991760   0.2535560   0.0000000   0.0000000   0.0000000   0.0000000
 0.8950000  -2.4923800  -0.1527860   1.0530400   0.0000000   0.0000000  -0.0177738   0.0235808   0.4156170   0.0948874   0.0000000   0.0000000   0.0000000   0.2092810   0.2424220   0.0000000   0.0000000   0.0000000   0.0000000
 0.9000000  -2.4922600  -0.1507050   1.0535100   0.0000000   0.0000000  -0.0178988   0.0246530   0.4168010   0.0948874   0.0000000   0.0000000   0.0000000   0.2196350   0.2315370   0.0000000   0.0000000   0.0000000   0.0000000
 0.9050000  -2.4921300  -0.1486180   1.0539800   0.0000000   0.0000000  -0.0180238   0.0257776   0.4179320   0.0948874   0.0000000   0.0000000   0.0000000   0.2302390   0.2209030   0.0000000   0.0000000   0.0000000   0.0000000
 0.9100000  -2.4920000  -0.1465260   1.0544600   0.0000000   0.0000000  -0.0181489   0.0269558   0.4190110   0.0948874   0.0000000   0.0000000   0.0000000   0.2410940   0.2105180   0.0000000   0.0000000   0.0000000   0.0000000
 0.9150000  -2.4918700  -0.1444280   1.0549300   0.0000000   0.0000000  -0.0182739   0.0281890   0.4200380   0.0948874   0.0000000   0.0000000   0.0000000   0.2521980   0.2003830   0.0000000   0.0000000   0.0000000   0.0000000
 0.9200000  -2.4917200  -0.1423260   1.0554100   0.0000000   0.0000000  -0.0183989   0.0294782   0.4210150   0.0948874   0.0000000   0.0000000   0.0000000   0.2635520   0.1904990   0.0000000   0.0000000   0.0000000   0.0000000
 0.9250000  -2.4915700  -0.1402180   1.0558800   0.0000000   0.0000000  -0.0185240   0.0308249   0.4219430   0.0948874   0.0000000   0.0000000   0.0000000   0.2751570   0.1808640   0.0000000   0.0000000   0.0000000   0.0000000
 0.9300000  -2.4914100  -0.1381060   1.0563600   0.0000000   0.0000000  -0.0186490   0.0322302   0.4228240   0.0948874   0.0000000   0.0000000   0.0000000   0.2870110   0.1714800   0.0000000   0.0000000   0.0000000   0.0000000
 0.9350000  -2.4912500  -0.1359900   1.0568300   0.0000000   0.0000000  -0.0187740   0.0336954   0.4236590   0.0948874   0.0000000   0.0000000   0.0000000   0.2991160   0.1623450   0.0000000   0.0000000   0.0000000   0.0000000
 0.9400000  -2.4910800  -0.1338700   1.0573100   0.0000000   0.0000000  -0.0188990   0.0352218   0.4244480   0.0948874   0.0000000   0.0000000   0.0000000   0.3114700   0.1534610   0.0000000   0.0000000   0.0000000   0.0000000
 0.9450000  -2.4909000  -0.1317460   1.0577800   0.0000000   0.0000000  -0.0190241   0.0368106   0.4251940   0.0948874   0.0000000   0.0000000   0.0000000   0.3240740   0.1448260   0.0000000   0.0000000   0.0000000   0.0000000
 0.9500000  -2.4907100  -0.1296180   1.0582500   0.0000000   0.0000000  -0.0191491   0.0384630   0.4258970   0.0948874   0.0000000   0.0000000   0.0000000   0.3369290   0.1364410   0.0000000   0.0000000   0.0000000   0.0000000
 0.9550000  -2.4905100  -0.1274870   1.0587300   0.0000000   0.0000000  -0.0192741   0.0401803   0.4265580   0.0948874   0.0000000   0.0000000   0.0000000   0.3500330   0.1283070   0.0000000   0.0000000   0.0000000   0.0000000
 0.9600000  -2.4903100  -0.1253520   1.0592000   0.0000000   0.0000000  -0.0193992   0.0419637   0.4271800   0.0948874   0.0000000   0.0000000   0.0000000   0.3633870   0.1204220   0.0000000   0.0000000   0.0000000   0.0000000
 0.9650000  -2.4900900  -0.1232150   1.0596800   0.0000000   0.0000000  -0.0195242   0.0438145   0.4277630   0.0948874   0.0000000   0.0000000   0.0000000   0.3769920   0.1127880   0.0000000   0.0000000   0.0000000   0.0000000
 0.9700000  -2.4898700  -0.1210750   1.0601500   0.0000000   0.0000000  -0.0196492   0.0457340   0.4283080   0.0948874   0.0000000   0.0000000   0.0000000   0.3908460   0.1054030   0.0000000   0.0000000   0.0000000   0.0000000
 0.9750000  -2.4896300  -0.1189320   1.0606300   0.0000000   0.0000000  -0.0197743   0.0477234   0.4288170   0.0948874   0.0000000   0.0000000   0.0000000   0.4049510   0.0982684   0.0000000   0.0000000   0.0000000   0.0000000
 0.9800000  -2.4893900  -0.1167870   1.0611000   0.0000000   0.0000000  -0.0198994   0.0497840   0.4292910   0.0948874   0.0000000   0.0000000   0.0000000   0.4193050   0.0913839   0.0000000   0.0000000   0.0000000   0.0000000
 0.9850000  -2.4891400  -0.1146390   1.0615800   0.0000000   0.0000000  -0.0200246   0.0519169   0.4297320   0.0948874   0.0000000   0.0000000   0.0000000   0.4339090   0.0847493   0.0000000   0.0000000   0.0000000   0.0000000
 0.9900000  -2.4888700  -0.1124900   1.0620500   0.0000000   0.0000000  -0.0201500   0.0541235   0.4301390   0.0948874   0.0000000   0.0000000   0.0000000   0.4487640   0.0783647   0.0000000   0.0000000   0.0000000   0.0000000
 0.9950000  -2.4885900  -0.1103380   1.0625200   0.0000000   0.0000000  -0.0202756   0.0564049   0.4305160   0.0948874   0.0000000   0.0000000   0.0000000   0.4638680   0.0722301   0.0000000   0.0000000   0.0000000   0.0000000
 1.0000000  -2.4883100  -0.1081840   1.0630000   0.0000000   0.0000000  -0.0204014   0.0587626   0.4308620   0.0948874   0.0000000   0.0000000   0.0000000   0.4792230   0.0663455   0.0000000   0.0000000   0.0000000   0.0000000
 1.0050000  -2.4880100  -0.1060290   1.0634700   0.0000000   0.0000000  -0.0205276   0.0611976   0.4311800   0.0948874   0.0000000   0.0000000   0.0000000   0.4948270   0.0607110   0.0000000   0.0000000   0.0000000   0.0000000
 1.0100000  -2.4876900  -0.1038730   1.0639500   0.0000000   0.0000000  -0.0206542   0.0637113   0.4314700   0.0948874   0.0000000   0.0000000   0.0000000   0.5106810   0.0553264   0.0000000   0.0000000   0.0000000   0.0000000
 1.0150000  -2.4873700  -0.1017150   1.0644200   0.0000000   0.0000000  -0.0207813   0.0663048   0.4317330   0.0948874   0.0000000   0.0000000   0.0000000   0.5267860   0.0501918   0.0000000   0.0000000   0.0000000   0.0000000
 1.0200000  -2.4870300  -0.0995554   1.0649000   0.0000000   0.0000000  -0.0209091   0.0689795   0.4319720   0.0948874   0.0000000   0.0000000   0.0000000   0.5431400   0.0453072   0.0000000   0.0000000   0.0000000   0.0000000
 1.0250000  -2.4866800  -0.0973950   1.0653700   0.0000000   0.0000000  -0.0210377   0.0717366   0.4321870   0.0948874   0.0000000   0.0000000   0.0000000   0.5597440   0.0406726   0.0000000   0.0000000   0.0000000   0.0000000
 1.0300000  -2.4863100  -0.0952335   1.0658500   0.0000000   0.0000000  -0.0211671   0.0745774   0.4323790   0.0948874   0.0000000   0.0000000   0.0000000   0.5765990   0.0362881   0.0000000   0.0000000   0.0000000   0.0000000
 1.0350000  -2.4859300  -0.0930712   1.0663200   0.0000000   0.0000000  -0.0212975   0.0775030   0.4325500   0.0948874   0.0000000   0.0000000   0.0000000   0.5937030   0.0321535   0.0000000   0.0000000   0.0000000   0.0000000
 1.0400000  -2.4855400  -0.0909081   1.0667900   0.0000000   0.0000000  -0.0214292   0.0805148   0.4327010   0.0948874   0.0000000   0.0000000   0.0000000   0.6110580   0.0282689   0.0000000   0.0000000   0.0000000   0.0000000
 1.0450000  -2.4851300  -0.0887442   1.0672700   0.0000000   0.0000000  -0.0215621   0.0836140   0.4328330   0.0948874   0.0000000   0.0000000   0.0000000   0.6286620   0.0246343   0.0000000   0.0000000   0.0000000   0.0000000
 1.0500000  -2.4847000  -0.0865798   1.0677400   0.0000000   0.0000000  -0.0216966   0.0868019   0.4329480   0.0948874   0.0000000   0.0000000   0.0000000   0.6465160   0.0212497   0.0000000   0.0000000   0.0000000   0.0000000
 1.0550000  -2.4842600  -0.0844148   1.0682200   0.0000000   0.0000000  -0.0218327   0.0900796   0.4330460   0.0948874   0.0000000   0.0000000   0.0000000   0.6646210   0.0181152   0.0000000   0.0000000   0.0000000   0.0000000
 1.0600000  -2.4838000  -0.0822493   1.0686900   0.0000000   0.0000000  -0.0219708   0.0934485   0.4331290   0.0948874   0.0000000   0.0000000   0.0000000   0.6829750   0.0152306   0.0000000   0.0000000   0.0000000   0.0000000
 1.0650000  -2.4833300  -0.0800835   1.0691700   0.0000000   0.0000000  -0.0221108   0.0969098   0.4331990   0.0948874   0.0000000   0.0000000   0.0000000   0.7015790   0.0125960   0.0000000   0.0000000   0.0000000   0.0000000
 1.0700000  -2.4828300  -0.0779174   1.0696400   0.0000000   0.0000000  -0.0222532   0.1004650   0.4332560   0.0948874   0.0000000   0.0000000   0.0000000   0.7204340   0.0102114   0.0000000   0.0000000   0.0000000   0.0000000
 1.0750000  -2.4823200  -0.0757510   1.0701200   0.0000000   0.0000000  -0.0223980   0.1041150   0.4333010   0.0948874   0.0000000   0.0000000   0.0000000   0.7395380   0.0080768   0.0000000   0.0000000   0.0000000   0.0000000
 1.0800000  -2.4817900  -0.0735844   1.0705900   0.0000000   0.0000000  -0.0225456   0.1078600   0.4333370   0.0948874   0.0000000   0.0000000   0.0000000   0.7588210   0.0061922   0.0000000   0.0000000   0.0000000   0.0000000
 1.0850000  -2.4812400  -0.0714176   1.0710600   0.0000000   0.0000000  -0.0226961   0.1117020   0.4333640   0.0948874   0.0000000   0.0000000   0.0000000   0.7779080   0.0045577   0.0000000   0.0000000   0.0000000   0.0000000
 1.0900000  -2.4806700  -0.0692508   1.0715400   0.0000000   0.0000000  -0.0228498   0.1156390   0.4333830   0.0948874   0.0000000   0.0000000   0.0000000   0.7967450   0.0031731   0.0000000   0.0000000   0.0000000   0.0000000
 1.0950000  -2.4800900  -0.0670838   1.0720100   0.0000000   0.0000000  -0.0230070   0.1196690   0.4333960   0.0948874   0.0000000   0.0000000   0.0000000   0.8153320   0.0020385   0.0000000   0.0000000   0.0000000   0.0000000
 1.1000000  -2.4794800  -0.0649168   1.0724900   0.0000000   0.0000000  -0.0231678   0.1237920   0.4334040   0.0948874   0.0000000   0.0000000   0.0000000   0.8336690   0.0011539   0.0000000   0.0000000   0.0000000   0.0000000
 1.1050000  -2.4788500  -0.0627498   1.0729600   0.0000000   0.0000000  -0.0233325   0.1280060   0.4334080   0.0948874   0.0000000   0.0000000   0.0000000   0.8517560   0.0005193   0.0000000   0.0000000   0.0000000   0.0000000
 1.1100000  -2.4782000  -0.0605827   1.0734400   0.0000000   0.0000000  -0.0235014   0.1323090   0.4334090   0.0948874   0.0000000   0.0000000   0.0000000   0.8695930   0.0001348   0.0000000   0.0000000   0.0000000   0.0000000
 1.1150000  -2.4775200  -0.0584157   1.0739100   0.0000000   0.0000000  -0.0236746   0.1367010   0.4334100   0.0948874   0.0000000   0.0000000   0.0000000   0.8871800   0.0000002   0.0000000   0.0000000   0.0000000   0.0000000
 1.1200000  -2.4768300  -0.0562486   1.0743900   0.0000000   0.0000000  -0.0238522   0.1411810   0.4334100   0.0948874   0.0000000   0.0000000   0.0000000   0.9045170   0.0001141   0.0000000   0.0000000   0.0000000   0.0000000
 1.1250000  -2.4761100  -0.0540816   1.0748600   0.0000000   0.0000000  -0.0240346   0.1457460   0.4334110   0.0948874   0.0000000   0.0000000   0.0000000   0.9216040   0.0004779   0.0000000   0.0000000   0.0000000   0.0000000
 1.1300000  -2.4753700  -0.0519145   1.0753300   0.0000000   0.0000000  -0.0242218   0.1503960   0.4334150   0.0948874   0.0000000   0.0000000   0.0000000   0.9384410   0.0010917   0.0000000   0.0000000   0.0000000   0.0000000
 1.1350000  -2.4746100  -0.0497474   1.0758100   0.0000000   0.0000000  -0.0244140   0.1551300   0.4334220   0.0948874   0.0000000   0.0000000   0.0000000   0.9550280   0.0019555   0.0000000   0.0000000   0.0000000   0.0000000
 1.1400000  -2.4738200  -0.0475803   1.0762800   0.0000000   0.0000000  -0.0246114   0.1599460   0.4334350   0.0948874   0.0000000   0.0000000   0.0000000   0.9713650   0.0030693   0.0000000   0.0000000   0.0000000   0.0000000
 1.1450000  -2.4730100  -0.0454131   1.0767600   0.0000000   0.0000000  -0.0248141   0.1648430   0.4334540   0.0948874   0.0000000   0.0000000   0.0000000   0.9874520   0.0044331   0.0000000   0.0000000   0.0000000   0.0000000
 1.1500000  -2.4721700  -0.0432457   1.0772300   0.0000000   0.0000000  -0.0250223   0.1698200   0.4334800   0.0948874   0.0000000   0.0000000   0.0000000   1.0032900   0.0060469   0.0000000   0.0000000   0.0000000   0.0000000
 1.1550000  -2.4713100  -0.0410783   1.0777100   0.0000000   0.0000000  -0.0252360   0.1748760   0.4335140   0.0948874   0.0000000   0.0000000   0.0000000   1.0188800   0.0079107   0.0000000   0.0000000   0.0000000   0.0000000
 1.1600000  -2.4704200  -0.0389106   1.0781800   0.0000000   0.0000000  -0.0254554   0.1800080   0.4335590   0.0948874   0.0000000   0.0000000   0.0000000   1.0342100   0.0100245   0.0000000   0.0000000   0.0000000   0.0000000
 1.1650000  -2.4695100  -0.0367426   1.0786600   0.0000000   0.0000000  -0.0256806   0.1852170   0.4336150   0.0948874   0.0000000   0.0000000   0.0000000   1.0493000   0.0123883   0.0000000   0.0000000   0.0000000   0.0000000
 1.1700000  -2.4685700  -0.0345744   1.0791300   0.0000000   0.0000000  -0.0259116   0.1905010   0.4336840   0.0948874   0.0000000   0.0000000   0.0000000   1.0641400   0.0150021   0.0000000   0.0000000   0.0000000   0.0000000
 1.1750000  -2.4676000  -0.0324058   1.0796000   0.0000000   0.0000000  -0.0261486   0.1958580   0.4337660   0.0948874   0.0000000   0.0000000   0.0000000   1.0787200   0.0178659   0.0000000   0.0000000   0.0000000   0.0000000
 1.1800000  -2.4666100  -0.0302367   1.0800800   0.0000000   0.0000000  -0.0263917   0.2012880   0.4338630   0.0948874   0.0000000   0.0000000   0.0000000   1.0930600   0.0209798   0.0000000   0.0000000   0.0000000   0.0000000
 1.1850000  -2.4655900  -0.0280671   1.0805500   0.0000000   0.0000000  -0.0266408   0.2067880   0.4339760   0.0948874   0.0000000   0.0000000   0.0000000   1.1071500   0.0243436   0.0000000   0.0000000   0.0000000   0.0000000
 1.1900000  -2.4645400  -0.0258969   1.0810300   0.0000000   0.0000000  -0.0268961   0.2123590   0.4341060   0.0948874   0.0000000   0.0000000   0.0000000   1.1209800   0.0279574   0.0000000   0.0000000   0.0000000   0.0000000
 1.1950000  -2.4634700  -0.0237260   1.0815000   0.0000000   0.0000000  -0.0271575   0.2179980   0.4342560   0.0948874   0.0000000   0.0000000   0.0000000   1.1345700   0.0318212   0.0000000   0.0000000   0.0000000   0.0000000
 1.2000000  -2.4623600  -0.0215543   1.0819800   0.0000000   0.0000000  -0.0274252   0.2237040   0.4344250   0.0948874   0.0000000   0.0000000   0.0000000   1.1479100   0.0359350   0.0000000   0.0000000   0.0000000   0.0000000
 1.2050000  -2.4612300  -0.0193818   1.0824500   0.0000000   0.0000000  -0.0276991   0.2294770   0.4346160   0.0948874   0.0000000   0.0000000   0.0000000   1.1610000   0.0402988   0.0000000   0.0000000   0.0000000   0.0000000
 1.2100000  -2.4600700  -0.0172082   1.0829300   0.0000000   0.0000000  -0.0279792   0.2353140   0.4348280   0.0948874   0.0000000   0.0000000   0.0000000   1.1738300   0.0449126   0.0000000   0.0000000   0.0000000   0.0000000
 1.2150000  -2.4588800  -0.0150334   1.0834000   0.0000000   0.0000000  -0.0282656   0.2412150   0.4350650   0.0948874   0.0000000   0.0000000   0.0000000   1.1864200   0.0497764   0.0000000   0.0000000   0.0000000   0.0000000
 1.2200000  -2.4576600  -0.0128575   1.0838700   0.0000000   0.0000000  -0.0285582   0.2471780   0.4353270   0.0948874   0.0000000   0.0000000   0.0000000   1.1987600   0.0548902   0.0000000   0.0000000   0.0000000   0.0000000
 1.2250000  -2.4564100  -0.0106801   1.0843500   0.0000000   0.0000000  -0.0288571   0.2532020   0.4356140   0.0948874   0.0000000   0.0000000   0.0000000   1.2108400   0.0602540   0.0000000   0.0000000   0.0000000   0.0000000
 1.2300000  -2.4551200  -0.0085013   1.0848200   0.0000000   0.0000000  -0.0291623   0.2592860   0.4359300   0.0948874   0.0000000   0.0000000   0.0000000   1.2226800   0.0658678   0.0000000   0.0000000   0.0000000   0.0000000
 1.2350000  -2.4538100  -0.0063208   1.0853000   0.0000000   0.0000000  -0.0294736   0.2654280   0.4362730   0.0948874   0.0000000   0.0000000   0.0000000   1.2342700   0.0717316   0.0000000   0.0000000   0.0000000   0.0000000
 1.2400000  -2.4524700  -0.0041385   1.0857700   0.0000000   0.0000000  -0.0297913   0.2716280   0.4366470   0.0948874   0.0000000   0.0000000   0.0000000   1.2456000   0.0778454   0.0000000   0.0000000   0.0000000   0.0000000
 1.2450000  -2.4511000  -0.0019542   1.0862500   0.0000000   0.0000000  -0.0301152   0.2778840   0.4370520   0.0948874   0.0000000   0.0000000   0.0000000   1.2566900   0.0842093   0.0000000   0.0000000   0.0000000   0.0000000
 1.2500000  -2.4496900   0.0002321   1.0867200   0.0000000   0.0000000  -0.0304453   0.2841940   0.4374900   0.0948874   0.0000000   0.0000000   0.0000000   1.2675300   0.0908231   0.0000000   0.0000000   0.0000000   0.0000000
 1.2550000  -2.4482500   0.0024207   1.0872000   0.0000000   0.0000000  -0.0307817   0.2905590   0.4379610   0.0948874   0.0000000   0.0000000   0.0000000   1.2781200   0.0976869   0.0000000   0.0000000   0.0000000   0.0000000
 1.2600000  -2.4467900   0.0046118   1.0876700   0.0000000   0.0000000  -0.0311243   0.2969750   0.4384670   0.0948874   0.0000000   0.0000000   0.0000000   1.2884500   0.1048010   0.0000000   0.0000000   0.0000000   0.0000000
 1.2650000  -2.4452800   0.0068054   1.0881400   0.0000000   0.0000000  -0.0314732   0.3034430   0.4390090   0.0948874   0.0000000   0.0000000   0.0000000   1.2985400   0.1121640   0.0000000   0.0000000   0.0000000   0.0000000
 1.2700000  -2.4437500   0.0090019   1.0886200   0.0000000   0.0000000  -0.0318284   0.3099600   0.4395890   0.0948874   0.0000000   0.0000000   0.0000000   1.3083800   0.1197780   0.0000000   0.0000000   0.0000000   0.0000000
 1.2750000  -2.4421800   0.0112014   1.0890900   0.0000000   0.0000000  -0.0321897   0.3165260   0.4402080   0.0948874   0.0000000   0.0000000   0.0000000   1.3179600   0.1276420   0.0000000   0.0000000   0.0000000   0.0000000
 1.2800000  -2.4405900   0.0134041   1.0895700   0.0000000   0.0000000  -0.0325574   0.3231390   0.4408660   0.0948874   0.0000000   0.0000000   0.0000000   1.3273000   0.1357560   0.0000000   0.0000000   0.0000000   0.0000000
 1.2850000  -2.4389500   0.0156101   1.0900400   0.0000000   0.0000000  -0.0329313   0.3297990   0.4415660   0.0948874   0.0000000   0.0000000   0.0000000   1.3363900   0.1441200   0.0000000   0.0000000   0.0000000   0.0000000
 1.2900000  -2.4372900   0.0178198   1.0905200   0.0000000   0.0000000  -0.0333114   0.3365030   0.4423080   0.0948874   0.0000000   0.0000000   0.0000000   1.3452200   0.1527340   0.0000000   0.0000000   0.0000000   0.0000000
 1.2950000  -2.4355900   0.0200333   1.0909900   0.0000000   0.0000000  -0.0336978   0.3432500   0.4430930   0.0948874   0.0000000   0.0000000   0.0000000   1.3538100   0.1615970   0.0000000   0.0000000   0.0000000   0.0000000
 1.3000000  -2.4338600   0.0222508   1.0914700   0.0000000   0.0000000  -0.0340904   0.3500400   0.4439240   0.0948874   0.0000000   0.0000000   0.0000000   1.3621500   0.1707110   0.0000000   0.0000000   0.0000000   0.0000000
 1.3050000  -2.4320900   0.0244726   1.0919400   0.0000000   0.0000000  -0.0344893   0.3568710   0.4448010   0.0948874   0.0000000   0.0000000   0.0000000   1.3702400   0.1800750   0.0000000   0.0000000   0.0000000   0.0000000
 1.3100000  -2.4302900   0.0266989   1.0924100   0.0000000   0.0000000  -0.0348945   0.3637420   0.4457250   0.0948874   0.0000000   0.0000000   0.0000000   1.3780700   0.1896890   0.0000000   0.0000000   0.0000000   0.0000000
 1.3150000  -2.4284500   0.0289299   1.0928900   0.0000000   0.0000000  -0.0353059   0.3706520   0.4466980   0.0948874   0.0000000   0.0000000   0.0000000   1.3856600   0.1995530   0.0000000   0.0000000   0.0000000   0.0000000
