ts x y z roll pitch yaw vx vy vz wx wy wz ax ay az dwx dwy dwz jx jy jz ddwx ddwy ddwz
1704289982.939694000  -2.5  -0.3  1  0  0  0  -2e-07  2e-07  -2e-07  0  0  0  -0.000125  0.000125  -0.000125  0  0  0  0  0  0  0  0  0 
1704289982.943484000  -2.5  -0.3  1  0  0  0  -1.7e-06  1.7e-06  -1.7e-06  0  0  0  -0.0005  0.0005  -0.0005  0  0  0  0  0  0  0  0  0 
1704289982.948481000  -2.5  -0.3  1  0  0  0  -5.6e-06  5.6e-06  -5.6e-06  0  0  0  -0.001125  0.001125  -0.001125  0  0  0  0  0  0  0  0  0 
1704289982.953478000  -2.5  -0.3  1  0  0  1e-07  -1.33e-05  1.33e-05  -1.33e-05  0  0  0  -0.002  0.002  -0.002  0  0  0  0  0  0  0  0  0 
1704289982.958482000  -2.5  -0.3  1  0  0  3e-07  -2.6e-05  2.6e-05  -2.6e-05  0  0  0  -0.003125  0.003125  -0.003125  0  0  0  0  0  0  0  0  0 
1704289982.963478000  -2.5  -0.3  1  0  0  5e-07  -4.5e-05  4.5e-05  -4.5e-05  0  0  0  -0.0045  0.0045  -0.0045  0  0  0  0  0  0  0  0  0 
1704289982.968494000  -2.5  -0.299999  0.999999  0  0  1e-06  -7.15e-05  7.15e-05  -7.15e-05  0  0  0  -0.006125  0.006125  -0.006125  0  0  0  0  0  0  0  0  0 
1704289982.973488000  -2.5  -0.299999  0.999999  0  0  1.7e-06  -0.0001067  0.0001067  -0.0001067  0  0  0  -0.008  0.008  -0.008  0  0  0  0  0  0  0  0  0 
1704289982.978483000  -2.5  -0.299998  0.999998  0  0  2.7e-06  -0.0001519  0.0001519  -0.0001519  0  0  0  -0.010125  0.010125  -0.010125  0  0  0  0  0  0  0  0  0 
1704289982.983482000  -2.5  -0.299997  0.999997  0  0  4.2e-06  -0.0002083  0.0002083  -0.0002083  0  0  0  -0.0125  0.0125  -0.0125  0  0  0  0  0  0  0  0  0 
1704289982.988484000  -2.5  -0.299996  0.999996  0  0  6.1e-06  -0.0002773  0.0002773  -0.0002773  0  0  0  -0.015125  0.015125  -0.015125  0  0  0  0  0  0  0  0  0 
1704289982.993488000  -2.50001  -0.299995  0.999995  0  0  8.6e-06  -0.00036  0.00036  -0.00036  0  0  0  -0.018  0.018  -0.018  0  0  0  0  0  0  0  0  0 
1704289982.998483000  -2.50001  -0.299993  0.999993  0  0  1.19e-05  -0.0004577  0.0004577  -0.0004577  0  0  0  -0.021125  0.021125  -0.021125  0  0  0  0  0  0  0  0  0 
1704289983.003484000  -2.50001  -0.29999  0.99999  0  0  1.6e-05  -0.0005717  0.0005717  -0.0005717  0  0  0  -0.0245  0.0245  -0.0245  0  0  0  0  0  0  0  0  0 
1704289983.008482000  -2.50001  -0.299987  0.999987  0  0  2.11e-05  -0.0007031  0.0007031  -0.0007031  0  0  0  -0.028125  0.028125  -0.028125  0  0  0  0  0  0  0  0  0 
1704289983.013481000  -2.50002  -0.299983  0.999983  0  0  2.73e-05  -0.0008533  0.0008533  -0.0008533  0  0  0  -0.032  0.032  -0.032  0  0  0  0  0  0  0  0  0 
1704289983.018490000  -2.50002  -0.299978  0.999978  0  0  3.48e-05  -0.0010235  0.0010235  -0.0010235  0  0  0  -0.036125  0.036125  -0.036125  0  0  0  0  0  0  0  0  0 
1704289983.023501000  -2.50003  -0.299973  0.999973  0  0  4.37e-05  -0.001215  0.001215  -0.001215  0  0  0  -0.0404783  0.0405  -0.0405  0  0  0  0  0  0  0  0  0 
1704289983.028498000  -2.50003  -0.299966  0.999966  0  0  5.43e-05  -0.001428  0.001429  -0.001429  0  0  0  -0.0447059  0.045125  -0.045125  0  0  0  0  0  0  0  0  0 
1704289983.033500000  -2.50004  -0.299958  0.999958  0  0  6.67e-05  -0.0016616  0.0016667  -0.0016667  0  0  0  -0.0486836  0.05  -0.05  0  0  0  0  0  0  0  0  0 
1704289983.038499000  -2.50005  -0.299949  0.999949  0  0  8.1e-05  -0.0019145  0.0019294  -0.0019294  0  0  0  -0.0524112  0.055125  -0.055125  0  0  0  0  0  0  0  0  0 
1704289983.043498000  -2.50006  -0.299939  0.999939  0  0  9.76e-05  -0.0021853  0.0022183  -0.0022183  0  0  0  -0.0558888  0.0605  -0.0605  0  0  0  0  0  0  0  0  0 
1704289983.048497000  -2.50007  -0.299927  0.999927  0  0  0.0001166  -0.0024729  0.0025348  -0.0025348  0  0  0  -0.0591165  0.066125  -0.066125  0  0  0  0  0  0  0  0  0 
1704289983.053502000  -2.50009  -0.299914  0.999914  0  0  0.0001382  -0.0027761  0.00288  -0.00288  0  0  0  -0.0620941  0.072  -0.072  0  0  0  0  0  0  0  0  0 
1704289983.058499000  -2.5001  -0.299898  0.999898  0  0  0.0001627  -0.0030935  0.0032552  -0.0032552  0  0  0  -0.0648217  0.078125  -0.078125  0  0  0  0  0  0  0  0  0 
1704289983.063500000  -2.50012  -0.299881  0.999881  0  0  0.0001903  -0.0034239  0.0036617  -0.0036617  0  0  0  -0.0672994  0.0845  -0.0845  0  0  0  0  0  0  0  0  0 
1704289983.068490000  -2.50013  -0.299862  0.999862  0  0  0.0002211  -0.003766  0.0041006  -0.0041006  0  0  0  -0.069527  0.091125  -0.091125  0  0  0  0  0  0  0  0  0 
1704289983.073501000  -2.50015  -0.29984  0.99984  0  0  0.0002553  -0.0041187  0.0045733  -0.0045733  0  0  0  -0.0715046  0.098  -0.098  0  0  0  0  0  0  0  0  0 
1704289983.078494000  -2.50018  -0.299816  0.999816  0  0  0.0002932  -0.0044807  0.005081  -0.005081  0  0  0  -0.0732323  0.105125  -0.105125  0  0  0  0  0  0  0  0  0 
1704289983.083491000  -2.5002  -0.299789  0.999789  0  0  0.0003348  -0.0048506  0.005625  -0.005625  0  0  0  -0.0747099  0.1125  -0.1125  0  0  0  0  0  0  0  0  0 
1704289983.088494000  -2.50022  -0.299759  0.999759  0  0  0.0003804  -0.0052274  0.0062065  -0.0062065  0  0  0  -0.0759375  0.120125  -0.120125  0  0  0  0  0  0  0  0  0 
1704289983.093491000  -2.50025  -0.299727  0.999727  0  0  0.00043  -0.0056096  0.0068267  -0.0068266  0  0  0  -0.0769152  0.128  -0.127929  0  0  0  0  0  0  0  0  0 
1704289983.098494000  -2.50028  -0.299691  0.999691  0  0  0.0004838  -0.0059961  0.0074869  -0.0074854  0  0  0  -0.0776428  0.136125  -0.135538  0  0  0  0  0  0  0  0  0 
1704289983.103563000  -2.50031  -0.299652  0.999652  0  0  0.000542  -0.0063856  0.0081883  -0.0081816  0  0  0  -0.0781204  0.1445  -0.142897  0  0  0  0  0  0  0  0  0 
1704289983.108480000  -2.50034  -0.299609  0.999609  0  0  0.0006046  -0.0067769  0.0089323  -0.0089139  0  0  0  -0.0783481  0.153125  -0.150006  0  0  0  0  0  0  0  0  0 
1704289983.113480000  -2.50038  -0.299563  0.999563  0  0  0.0006718  -0.0071687  0.00972  -0.0096812  0  0  0  -0.0783257  0.162  -0.156865  0  0  0  0  0  0  0  0  0 
1704289983.118482000  -2.50042  -0.299512  0.999512  0  0  0.0007436  -0.0075597  0.0105527  -0.0104822  0  0  0  -0.0780533  0.171125  -0.163474  0  0  0  0  0  0  0  0  0 
1704289983.123492000  -2.50045  -0.299457  0.999458  0  0  0.0008201  -0.0079488  0.0114317  -0.0113155  0  0  0  -0.077531  0.1805  -0.169833  0  0  0  0  0  0  0  0  0 
1704289983.128481000  -2.5005  -0.299398  0.999399  0  0  0.0009015  -0.0083346  0.0123581  -0.0121801  0  0  0  -0.0767586  0.190125  -0.175942  0  0  0  0  0  0  0  0  0 
1704289983.133499000  -2.50054  -0.299333  0.999336  0  0  0.0009877  -0.008716  0.0133333  -0.0130745  0  0  0  -0.0757362  0.2  -0.181801  0  0  0  0  0  0  0  0  0 
1704289983.138490000  -2.50058  -0.299264  0.999268  0  0  0.0010788  -0.0090916  0.0143585  -0.0139977  0  0  0  -0.0744639  0.210125  -0.18741  0  0  0  0  0  0  0  0  0 
1704289983.143490000  -2.50063  -0.29919  0.999196  0  0  0.0011749  -0.0094602  0.015435  -0.0149482  0  0  0  -0.0729415  0.2205  -0.192769  0  0  0  0  0  0  0  0  0 
1704289983.148490000  -2.50068  -0.29911  0.999119  0  0  0.001276  -0.0098206  0.016564  -0.015925  0  0  0  -0.0711692  0.231125  -0.197878  0  0  0  0  0  0  0  0  0 
1704289983.153501000  -2.50073  -0.299024  0.999037  0  0  0.0013821  -0.0101715  0.0177467  -0.0169266  0  0  0  -0.0691468  0.242  -0.202737  0  0  0  0  0  0  0  0  0 
1704289983.158491000  -2.50078  -0.298932  0.99895  0  0  0.0014932  -0.0105116  0.0189844  -0.0179519  0  0  0  -0.0668744  0.253125  -0.207346  0  0  0  0  0  0  0  0  0 
1704289983.163489000  -2.50083  -0.298834  0.998857  0  0  0.0016094  -0.0108398  0.0202783  -0.0189996  0  0  0  -0.0643521  0.2645  -0.211705  0  0  0  0  0  0  0  0  0 
1704289983.168489000  -2.50089  -0.298729  0.99876  0  0  0.0017307  -0.0111547  0.0216298  -0.0200685  0  0  0  -0.0615797  0.276125  -0.215814  0  0  0  0  0  0  0  0  0 
1704289983.173499000  -2.50094  -0.298618  0.998657  0  0  0.0018569  -0.0114552  0.02304  -0.0211574  0  0  0  -0.0585573  0.288  -0.219673  0  0  0  0  0  0  0  0  0 
1704289983.178489000  -2.501  -0.298499  0.998548  0  0  0.0019881  -0.0117399  0.0245102  -0.0222649  0  0  0  -0.055285  0.300125  -0.223282  0  0  0  0  0  0  0  0  0 
1704289983.183491000  -2.50106  -0.298372  0.998434  0  0  0.0021243  -0.0120076  0.0260417  -0.0233898  0  0  0  -0.0517626  0.3125  -0.226641  0  0  0  0  0  0  0  0  0 
1704289983.188489000  -2.50112  -0.298238  0.998314  0  0  0.0022654  -0.0122571  0.0276356  -0.0245309  0  0  0  -0.0479902  0.325125  -0.22975  0  0  0  0  0  0  0  0  0 
1704289983.193498000  -2.50118  -0.298096  0.998188  0  0  0.0024114  -0.0124871  0.0292933  -0.0256869  0  0  0  -0.0439679  0.338  -0.232609  0  0  0  0  0  0  0  0  0 
1704289983.198490000  -2.50125  -0.297945  0.998057  0  0  0.0025621  -0.0126963  0.031016  -0.0268565  0  0  0  -0.0396955  0.351125  -0.235218  0  0  0  0  0  0  0  0  0 
1704289983.203489000  -2.50131  -0.297786  0.99792  0  0  0.0027176  -0.0128839  0.032805  -0.0280386  0  0  0  -0.0353686  0.3645  -0.237577  0  0  0  0  0  0  0  0  0 
1704289983.208489000  -2.50138  -0.297617  0.997777  0  0  0.0028777  -0.0130504  0.0346615  -0.0292319  0  0  0  -0.0312883  0.378125  -0.239686  0  0  0  0  0  0  0  0  0 
1704289983.213501000  -2.50144  -0.297439  0.997628  0  0  0.0030423  -0.0131972  0.0365867  -0.0304351  0  0  0  -0.027458  0.392  -0.241545  0  0  0  0  0  0  0  0  0 
1704289983.218488000  -2.50151  -0.297251  0.997472  0  0  0.0032113  -0.0133254  0.0385819  -0.0316469  0  0  0  -0.0238778  0.406125  -0.243154  0  0  0  0  0  0  0  0  0 
1704289983.223482000  -2.50157  -0.297053  0.997311  0  0  0.0033847  -0.0134364  0.0406483  -0.0328662  0  0  0  -0.0205475  0.4205  -0.244513  0  0  0  0  0  0  0  0  0 
1704289983.228489000  -2.50164  -0.296844  0.997144  0  0  0.0035622  -0.0135313  0.0427873  -0.0340916  0  0  0  -0.0174672  0.435125  -0.245622  0  0  0  0  0  0  0  0  0 
1704289983.233491000  -2.50171  -0.296625  0.99697  0  0  0.0037438  -0.0136115  0.045  -0.035322  0  0  0  -0.014637  0.45  -0.246481  0  0  0  0  0  0  0  0  0 
1704289983.238495000  -2.50178  -0.296394  0.99679  0  0  0.0039293  -0.0136781  0.0472877  -0.036556  0  0  0  -0.0120567  0.465125  -0.24709  0  0  0  0  0  0  0  0  0 
1704289983.243494000  -2.50185  -0.296152  0.996605  0  0  0.0041185  -0.0137325  0.0496517  -0.0377925  0  0  0  -0.0097264  0.4805  -0.247449  0  0  0  0  0  0  0  0  0 
1704289983.248493000  -2.50192  -0.295898  0.996413  0  0  0.0043114  -0.0137758  0.0520931  -0.0390301  0  0  0  -0.0076462  0.496125  -0.247558  0  0  0  0  0  0  0  0  0 
1704289983.253501000  -2.50198  -0.295631  0.996214  0  0  0.0045076  -0.0138093  0.0546133  -0.0402676  0  0  0  -0.0058159  0.512  -0.247417  0  0  0  0  0  0  0  0  0 
1704289983.258494000  -2.50205  -0.295351  0.99601  0  0  0.004707  -0.0138344  0.0572135  -0.0415039  0  0  0  -0.0042356  0.528125  -0.247026  0  0  0  0  0  0  0  0  0 
1704289983.263488000  -2.50212  -0.295059  0.995799  0  0  0.0049095  -0.0138521  0.059895  -0.0427375  0  0  0  -0.0029054  0.5445  -0.246385  0  0  0  0  0  0  0  0  0 
1704289983.268494000  -2.50219  -0.294752  0.995583  0  0  0.0051147  -0.0138638  0.062659  -0.0439673  0  0  0  -0.0018251  0.561125  -0.245494  0  0  0  0  0  0  0  0  0 
1704289983.273502000  -2.50226  -0.294432  0.99536  0  0  0.0053226  -0.0138708  0.0655066  -0.045192  0  0  0  -0.0009948  0.577936  -0.244353  0  0  0  0  0  0  0  0  0 
1704289983.278493000  -2.50233  -0.294097  0.995131  0  0  0.0055329  -0.0138742  0.068438  -0.0464104  0  0  0  -0.0004145  0.594559  -0.242962  0  0  0  0  0  0  0  0  0 
1704289983.283488000  -2.5024  -0.293747  0.994896  0  0  0.0057453  -0.0138754  0.0714518  -0.0476212  0  0  0  -8.43e-05  0.610932  -0.241321  0  0  0  0  0  0  0  0  0 
1704289983.288494000  -2.50247  -0.293382  0.994654  0  0  0.0059597  -0.0138755  0.0745469  -0.0488232  0  0  0  -0  0.627055  -0.23943  0  0  0  0  0  0  0  0  0 
1704289983.293499000  -2.50254  -0.293002  0.994407  0  0  0.0061758  -0.0138755  0.0777219  -0.0500151  0  0  0  -0  0.642928  -0.237289  0  0  0  0  0  0  0  0  0 
1704289983.298496000  -2.50261  -0.292605  0.994154  0  0  0.0063935  -0.0138755  0.0809757  -0.0511957  0  0  0  -0  0.658551  -0.234898  0  0  0  0  0  0  0  0  0 
1704289983.303494000  -2.50268  -0.292192  0.993895  0  0  0.0066127  -0.0138755  0.084307  -0.0523637  0  0  0  -0  0.673923  -0.232257  0  0  0  0  0  0  0  0  0 
1704289983.308493000  -2.50275  -0.291762  0.993631  0  0  0.0068331  -0.0138755  0.0877145  -0.0535178  0  0  0  -0  0.689046  -0.229366  0  0  0  0  0  0  0  0  0 
1704289983.313502000  -2.50282  -0.291315  0.99336  0  0  0.0070546  -0.0138755  0.0911971  -0.0546569  0  0  0  -0  0.703919  -0.226225  0  0  0  0  0  0  0  0  0 
1704289983.318494000  -2.50289  -0.29085  0.993084  0  0  0.0072771  -0.0138755  0.0947533  -0.0557797  0  0  0  -0  0.718542  -0.222834  0  0  0  0  0  0  0  0  0 
1704289983.323494000  -2.50295  -0.290367  0.992802  0  0  0.0075004  -0.0138755  0.0983821  -0.0568848  0  0  0  -0  0.732915  -0.219193  0  0  0  0  0  0  0  0  0 
1704289983.328495000  -2.50302  -0.289866  0.992515  0  0  0.0077243  -0.0138755  0.102082  -0.0579712  0  0  0  -0  0.747038  -0.215302  0  0  0  0  0  0  0  0  0 
1704289983.333500000  -2.50309  -0.289346  0.992223  0  0  0.0079489  -0.0138755  0.105852  -0.0590374  0  0  0  -0  0.76091  -0.211161  0  0  0  0  0  0  0  0  0 
1704289983.338495000  -2.50316  -0.288807  0.991925  0  0  0.0081739  -0.0138755  0.109691  -0.0600824  0  0  0  -0  0.774533  -0.20677  0  0  0  0  0  0  0  0  0 
1704289983.343494000  -2.50323  -0.288249  0.991622  0  0  0.0083994  -0.0138755  0.113597  -0.0611047  0  0  0  -0  0.787906  -0.202129  0  0  0  0  0  0  0  0  0 
1704289983.348494000  -2.5033  -0.287671  0.991314  0  0  0.0086251  -0.0138755  0.117569  -0.0621032  0  0  0  -0  0.801029  -0.197238  0  0  0  0  0  0  0  0  0 
1704289983.353499000  -2.50337  -0.287073  0.991001  0  0  0.0088511  -0.0138755  0.121607  -0.0630767  0  0  0  -0  0.813902  -0.192097  0  0  0  0  0  0  0  0  0 
1704289983.358494000  -2.50344  -0.286455  0.990683  0  0  0.0090772  -0.0138755  0.125708  -0.0640238  0  0  0  -0  0.826525  -0.186706  0  0  0  0  0  0  0  0  0 
1704289983.363494000  -2.50351  -0.285816  0.990361  0  0  0.0093035  -0.0138755  0.129872  -0.0649433  0  0  0  -0  0.838897  -0.181065  0  0  0  0  0  0  0  0  0 
1704289983.368494000  -2.50358  -0.285156  0.990034  0  0  0.0095298  -0.0138755  0.134097  -0.065834  0  0  0  -0  0.85102  -0.175174  0  0  0  0  0  0  0  0  0 
1704289983.373501000  -2.50365  -0.284475  0.989703  0  0  0.0097562  -0.0138755  0.138381  -0.0666946  0  0  0  -0  0.862893  -0.169033  0  0  0  0  0  0  0  0  0 
1704289983.378493000  -2.50372  -0.283772  0.989367  0  0  0.0099826  -0.0138755  0.142725  -0.0675239  0  0  0  -0  0.874516  -0.162642  0  0  0  0  0  0  0  0  0 
1704289983.383494000  -2.50379  -0.283048  0.989027  0  0  0.010209  -0.0138755  0.147126  -0.0683206  0  0  0  -0  0.885889  -0.156001  0  0  0  0  0  0  0  0  0 
1704289983.388494000  -2.50386  -0.282301  0.988684  0  0  0.0104354  -0.0138755  0.151584  -0.0690835  0  0  0  -0  0.897011  -0.14911  0  0  0  0  0  0  0  0  0 
1704289983.393501000  -2.50393  -0.281532  0.988337  0  0  0.0106618  -0.0138755  0.156096  -0.0698113  0  0  0  -0  0.907884  -0.141969  0  0  0  0  0  0  0  0  0 
1704289983.398495000  -2.504  -0.28074  0.987986  0  0  0.0108882  -0.0138755  0.160662  -0.0705028  0  0  0  -0  0.918507  -0.134578  0  0  0  0  0  0  0  0  0 
1704289983.403495000  -2.50406  -0.279925  0.987632  0  0  0.0111146  -0.0138755  0.165281  -0.0711567  0  0  0  -0  0.92888  -0.126937  0  0  0  0  0  0  0  0  0 
1704289983.408495000  -2.50413  -0.279087  0.987274  0  0  0.011341  -0.0138755  0.16995  -0.0717718  0  0  0  -0  0.939003  -0.119135  0  0  0  0  0  0  0  0  0 
1704289983.413501000  -2.5042  -0.278225  0.986914  0  0  0.0115674  -0.0138755  0.17467  -0.0723484  0  0  0  -0  0.948876  -0.111542  0  0  0  0  0  0  0  0  0 
1704289983.418494000  -2.50427  -0.27734  0.986551  0  0  0.0117938  -0.0138755  0.179439  -0.0728877  0  0  0  -0  0.958498  -0.104199  0  0  0  0  0  0  0  0  0 
1704289983.423494000  -2.50434  -0.276431  0.986185  0  0  0.0120202  -0.0138755  0.184255  -0.0733908  0  0  0  -0  0.967871  -0.0971058  0  0  0  0  0  0  0  0  0 
1704289983.428494000  -2.50441  -0.275498  0.985817  0  0  0.0122466  -0.0138755  0.189117  -0.0738592  0  0  0  -0  0.976994  -0.0902628  0  0  0  0  0  0  0  0  0 
1704289983.433501000  -2.50448  -0.27454  0.985447  0  0  0.012473  -0.0138755  0.194024  -0.0742939  0  0  0  -0  0.985867  -0.0836698  0  0  0  0  0  0  0  0  0 
1704289983.438495000  -2.50455  -0.273557  0.985074  0  0  0.0126994  -0.0138755  0.198975  -0.0746963  0  0  0  -0  0.99449  -0.0773268  0  0  0  0  0  0  0  0  0 
1704289983.443488000  -2.50462  -0.27255  0.9847  0  0  0.0129258  -0.0138755  0.203969  -0.0750676  0  0  0  -0  1.00286  -0.0712338  0  0  0  0  0  0  0  0  0 
1704289983.448494000  -2.50469  -0.271517  0.984323  0  0  0.0131522  -0.0138755  0.209003  -0.075409  0  0  0  -0  1.01099  -0.0653908  0  0  0  0  0  0  0  0  0 
1704289983.453500000  -2.50476  -0.27046  0.983946  0  0  0.0133786  -0.0138755  0.214078  -0.0757219  0  0  0  -0  1.01886  -0.0597978  0  0  0  0  0  0  0  0  0 
1704289983.458490000  -2.50483  -0.269377  0.983566  0  0  0.013605  -0.0138755  0.219192  -0.0760074  0  0  0  -0  1.02648  -0.0544548  0  0  0  0  0  0  0  0  0 
1704289983.463490000  -2.5049  -0.268268  0.983186  0  0  0.0138313  -0.0138755  0.224343  -0.0762669  0  0  0  -0  1.03385  -0.0493618  0  0  0  0  0  0  0  0  0 
1704289983.468491000  -2.50497  -0.267133  0.982804  0  0  0.0140577  -0.0138755  0.22953  -0.0765014  0  0  0  -0  1.04098  -0.0445189  0  0  0  0  0  0  0  0  0 
1704289983.473500000  -2.50504  -0.265972  0.982421  0  0  0.0142841  -0.0138755  0.234752  -0.0767125  0  0  0  -0  1.04785  -0.0399259  0  0  0  0  0  0  0  0  0 
1704289983.478489000  -2.50511  -0.264786  0.982037  0  0  0.0145105  -0.0138755  0.240008  -0.0769011  0  0  0  -0  1.05447  -0.0355829  0  0  0  0  0  0  0  0  0 
1704289983.483489000  -2.50517  -0.263572  0.981652  0  0  0.0147369  -0.0138755  0.245296  -0.0770687  0  0  0  -0  1.06085  -0.0314899  0  0  0  0  0  0  0  0  0 
1704289983.488491000  -2.50524  -0.262333  0.981266  0  0  0.0149633  -0.0138755  0.250616  -0.0772164  0  0  0  -0  1.06697  -0.0276469  0  0  0  0  0  0  0  0  0 
1704289983.493499000  -2.50531  -0.261066  0.98088  0  0  0.0151897  -0.0138755  0.255965  -0.0773456  0  0  0  -0  1.07284  -0.0240539  0  0  0  0  0  0  0  0  0 
1704289983.498490000  -2.50538  -0.259773  0.980492  0  0  0.0154161  -0.0138755  0.261344  -0.0774574  0  0  0  -0  1.07846  -0.0207109  0  0  0  0  0  0  0  0  0 
1704289983.503489000  -2.50545  -0.258453  0.980105  0  0  0.0156425  -0.0138755  0.26675  -0.0775531  0  0  0  -0  1.08384  -0.0176179  0  0  0  0  0  0  0  0  0 
1704289983.508491000  -2.50552  -0.257105  0.979717  0  0  0.0158689  -0.0138755  0.272182  -0.077634  0  0  0  -0  1.08896  -0.0147749  0  0  0  0  0  0  0  0  0 
1704289983.513500000  -2.50559  -0.255731  0.979329  0  0  0.0160953  -0.0138755  0.277639  -0.0777013  0  0  0  -0  1.09383  -0.0121819  0  0  0  0  0  0  0  0  0 
1704289983.518489000  -2.50566  -0.254329  0.97894  0  0  0.0163217  -0.0138755  0.28312  -0.0777562  0  0  0  -0  1.09846  -0.009839  0  0  0  0  0  0  0  0  0 
1704289983.523490000  -2.50573  -0.2529  0.978551  0  0  0.0165481  -0.0138755  0.288623  -0.0778001  0  0  0  -0  1.10283  -0.007746  0  0  0  0  0  0  0  0  0 
1704289983.528498000  -2.5058  -0.251443  0.978162  0  0  0.0167745  -0.0138755  0.294148  -0.0778341  0  0  0  -0  1.10695  -0.005903  0  0  0  0  0  0  0  0  0 
1704289983.533501000  -2.50587  -0.249958  0.977773  0  0  0.0170009  -0.0138755  0.299692  -0.0778595  0  0  0  -0  1.11082  -0.00431  0  0  0  0  0  0  0  0  0 
1704289983.538495000  -2.50594  -0.248446  0.977383  0  0  0.0172273  -0.0138755  0.305255  -0.0778776  0  0  0  -0  1.11445  -0.002967  0  0  0  0  0  0  0  0  0 
1704289983.543494000  -2.50601  -0.246905  0.976994  0  0  0.0174537  -0.0138755  0.310836  -0.0778896  0  0  0  -0  1.11782  -0.001874  0  0  0  0  0  0  0  0  0 
1704289983.548502000  -2.50608  -0.245337  0.976605  0  0  0.0176801  -0.0138755  0.316433  -0.0778968  0  0  0  -0  1.12094  -0.001031  0  0  0  0  0  0  0  0  0 
1704289983.553499000  -2.50615  -0.243741  0.976215  0  0  0.0179065  -0.0138755  0.322045  -0.0779003  0  0  0  -0  1.12381  -0.000438  0  0  0  0  0  0  0  0  0 
1704289983.558503000  -2.50622  -0.242117  0.975826  0  0  0.0181329  -0.0138755  0.327671  -0.0779016  0  0  0  -0  1.12644  -9.5e-05  0  0  0  0  0  0  0  0  0 
1704289983.563508000  -2.50628  -0.240464  0.975436  0  0  0.0183593  -0.0138755  0.333309  -0.0779017  0  0  0  -0  1.12881  0  0  0  0  0  0  0  0  0  0 
1704289983.568507000  -2.50635  -0.238784  0.975047  0  0  0.0185857  -0.0138755  0.338959  -0.0779017  0  0  0  -0  1.13093  0  0  0  0  0  0  0  0  0  0 
1704289983.573502000  -2.50642  -0.237075  0.974657  0  0  0.0188121  -0.0138755  0.344618  -0.0779017  0  0  0  -0  1.13281  0  0  0  0  0  0  0  0  0  0 
1704289983.578506000  -2.50649  -0.235338  0.974267  0  0  0.0190385  -0.0138755  0.350286  -0.0779017  0  0  0  -0  1.13443  0  0  0  0  0  0  0  0  0  0 
1704289983.583506000  -2.50656  -0.233572  0.973878  0  0  0.0192649  -0.0138755  0.355962  -0.0779017  0  0  0  -0  1.1358  0  0  0  0  0  0  0  0  0  0 
1704289983.588507000  -2.50663  -0.231778  0.973488  0  0  0.0194913  -0.0138755  0.361644  -0.0779017  0  0  0  -0  1.13692  0  0  0  0  0  0  0  0  0  0 
1704289983.593502000  -2.5067  -0.229955  0.973099  0  0  0.0197177  -0.0138755  0.367331  -0.0779017  0  0  0  -0  1.1378  0  0  0  0  0  0  0  0  0  0 
1704289983.598505000  -2.50677  -0.228105  0.972709  0  0  0.0199441  -0.0138755  0.373021  -0.0779017  0  0  0  -0  1.13842  0  0  0  0  0  0  0  0  0  0 
1704289983.603507000  -2.50684  -0.226225  0.97232  0  0  0.0201705  -0.0138755  0.378714  -0.0779017  0  0  0  -0  1.13879  0  0  0  0  0  0  0  0  0  0 
1704289983.608506000  -2.50691  -0.224317  0.97193  0  0  0.0203969  -0.0138755  0.384409  -0.0779017  0  0  0  -0  1.13892  0  0  0  0  0  0  0  0  0  0 
1704289983.613485000  -2.50698  -0.222381  0.971541  0  0  0.0206233  -0.0138755  0.390103  -0.0779017  0  0  0  -0  1.13879  0  0  0  0  0  0  0  0  0  0 
1704289983.618506000  -2.50705  -0.220416  0.971151  0  0  0.0208496  -0.0138755  0.395796  -0.0779017  0  0  0  -0  1.13841  0  0  0  0  0  0  0  0  0  0 
1704289983.623506000  -2.50712  -0.218423  0.970762  0  0  0.021076  -0.0138755  0.401487  -0.0779017  0  0  0  -0  1.13778  0  0  0  0  0  0  0  0  0  0 
1704289983.628506000  -2.50719  -0.216402  0.970372  0  0  0.0213024  -0.0138755  0.407174  -0.0779017  0  0  0  -0  1.13691  0  0  0  0  0  0  0  0  0  0 
1704289983.633502000  -2.50726  -0.214351  0.969983  0  0  0.0215288  -0.0138755  0.412856  -0.0779017  0  0  0  -0  1.13578  0  0  0  0  0  0  0  0  0  0 
1704289983.638505000  -2.50733  -0.212273  0.969593  0  0  0.0217552  -0.0138755  0.418531  -0.0779017  0  0  0  -0  1.1344  0  0  0  0  0  0  0  0  0  0 
1704289983.643507000  -2.50739  -0.210166  0.969204  0  0  0.0219816  -0.0138755  0.424199  -0.0779017  0  0  0  -0  1.13278  0  0  0  0  0  0  0  0  0  0 
1704289983.648506000  -2.50746  -0.208031  0.968814  0  0  0.022208  -0.0138755  0.429858  -0.0779017  0  0  0  -0  1.1309  0  0  0  0  0  0  0  0  0  0 
1704289983.653501000  -2.50753  -0.205868  0.968425  0  0  0.0224344  -0.0138755  0.435508  -0.0779017  0  0  0  -0  1.12877  0  0  0  0  0  0  0  0  0  0 
1704289983.658494000  -2.5076  -0.203676  0.968035  0  0  0.0226608  -0.0138755  0.441146  -0.0779017  0  0  0  -0  1.12639  0  0  0  0  0  0  0  0  0  0 
1704289983.663484000  -2.50767  -0.201456  0.967646  0  0  0.0228872  -0.0138755  0.446771  -0.0779017  0  0  0  -0  1.12377  0  0  0  0  0  0  0  0  0  0 
1704289983.668489000  -2.50774  -0.199208  0.967256  0  0  0.0231136  -0.0138755  0.452383  -0.0779017  0  0  0  -0  1.12089  0  0  0  0  0  0  0  0  0  0 
1704289983.673496000  -2.50781  -0.196932  0.966867  0  0  0.02334  -0.0138755  0.45798  -0.0779017  0  0  0  -0  1.11776  0  0  0  0  0  0  0  0  0  0 
1704289983.678492000  -2.50788  -0.194628  0.966477  0  0  0.0235664  -0.0138755  0.46356  -0.0779017  0  0  0  -0  1.11439  0  0  0  0  0  0  0  0  0  0 
1704289983.683489000  -2.50795  -0.192297  0.966088  0  0  0.0237928  -0.0138755  0.469123  -0.0779017  0  0  0  -0  1.11076  0  0  0  0  0  0  0  0  0  0 
1704289983.688488000  -2.50802  -0.189937  0.965698  0  0  0.0240192  -0.0138755  0.474667  -0.0779017  0  0  0  -0  1.10688  0  0  0  0  0  0  0  0  0  0 
1704289983.693495000  -2.50809  -0.18755  0.965309  0  0  0.0242456  -0.0138755  0.480192  -0.0779017  0  0  0  -0  1.10275  0  0  0  0  0  0  0  0  0  0 
1704289983.698487000  -2.50816  -0.185135  0.964919  0  0  0.024472  -0.0138755  0.485695  -0.0779017  0  0  0  -0  1.09838  0  0  0  0  0  0  0  0  0  0 
1704289983.703490000  -2.50823  -0.182693  0.96453  0  0  0.0246984  -0.0138755  0.491175  -0.0779017  0  0  0  -0  1.09375  0  0  0  0  0  0  0  0  0  0 
1704289983.708500000  -2.5083  -0.180224  0.96414  0  0  0.0249248  -0.0138755  0.496632  -0.0779017  0  0  0  -0  1.08887  0  0  0  0  0  0  0  0  0  0 
1704289983.713491000  -2.50837  -0.177727  0.963751  0  0  0.0251512  -0.0138755  0.502063  -0.0779017  0  0  0  -0  1.08375  0  0  0  0  0  0  0  0  0  0 
1704289983.718498000  -2.50844  -0.175203  0.963361  0  0  0.0253776  -0.0138755  0.507469  -0.0779017  0  0  0  -0  1.07837  0  0  0  0  0  0  0  0  0  0 
1704289983.723497000  -2.5085  -0.172652  0.962972  0  0  0.025604  -0.0138755  0.512847  -0.0779017  0  0  0  -0  1.07274  0  0  0  0  0  0  0  0  0  0 
1704289983.728495000  -2.50857  -0.170075  0.962582  0  0  0.0258304  -0.0138753  0.518196  -0.0779017  0  0  0  0.00012  1.06686  0  0  0  0  0  0  0  0  0  0 
1704289983.733489000  -2.50864  -0.16747  0.962193  0  0  0.0260568  -0.0138739  0.523515  -0.0779017  0  0  0  0.0004899  1.06074  0  0  0  0  0  0  0  0  0  0 
1704289983.738494000  -2.50871  -0.16484  0.961803  0  0  0.0262832  -0.01387  0.528803  -0.0779017  0  0  0  0.0011098  1.05436  0  0  0  0  0  0  0  0  0  0 
1704289983.743495000  -2.50878  -0.162182  0.961414  0  0  0.0265096  -0.0138623  0.534058  -0.0779017  0  0  0  0.0019797  1.04773  0  0  0  0  0  0  0  0  0  0 
1704289983.748493000  -2.50885  -0.159499  0.961024  0  0  0.026736  -0.0138497  0.53928  -0.0779017  0  0  0  0.0030996  1.04086  0  0  0  0  0  0  0  0  0  0 
1704289983.753490000  -2.50892  -0.15679  0.960635  0  0  0.0269624  -0.0138309  0.544466  -0.0779017  0  0  0  0.0044695  1.03373  0  0  0  0  0  0  0  0  0  0 
1704289983.758494000  -2.50899  -0.154054  0.960245  0  0  0.0271888  -0.0138046  0.549616  -0.0779017  0  0  0  0.0060895  1.02635  0  0  0  0  0  0  0  0  0  0 
1704289983.763494000  -2.50906  -0.151294  0.959856  0  0  0.0274152  -0.0137696  0.554729  -0.0779017  0  0  0  0.0079594  1.01872  0  0  0  0  0  0  0  0  0  0 
1704289983.768494000  -2.50913  -0.148507  0.959466  0  0  0.0276415  -0.0137246  0.559803  -0.0779017  0  0  0  0.0100793  1.01085  0  0  0  0  0  0  0  0  0  0 
1704289983.773500000  -2.5092  -0.145696  0.959077  0  0  0.0278679  -0.0136684  0.564837  -0.0779017  0  0  0  0.0124492  1.00272  0  0  0  0  0  0  0  0  0  0 
1704289983.778495000  -2.50926  -0.142859  0.958687  0  0  0.0280943  -0.0135997  0.56983  -0.0779017  0  0  0  0.0150691  0.994342  0  0  0  0  0  0  0  0  0  0 
1704289983.783494000  -2.50933  -0.139997  0.958298  0  0  0.0283207  -0.0135173  0.57478  -0.0779017  0  0  0  0.017939  0.985715  0  0  0  0  0  0  0  0  0  0 
1704289983.788494000  -2.5094  -0.137111  0.957908  0  0  0.0285471  -0.0134199  0.579687  -0.0779017  0  0  0  0.0210589  0.976838  0  0  0  0  0  0  0  0  0  0 
1704289983.793504000  -2.50947  -0.134201  0.957519  0  0  0.0287735  -0.0133063  0.584548  -0.0779017  0  0  0  0.0244289  0.967711  0  0  0  0  0  0  0  0  0  0 
1704289983.798494000  -2.50953  -0.131266  0.957129  0  0  0.0289999  -0.0131752  0.589363  -0.0779017  0  0  0  0.0280488  0.958334  0  0  0  0  0  0  0  0  0  0 
1704289983.803495000  -2.5096  -0.128307  0.95674  0  0  0.0292263  -0.0130254  0.594131  -0.0779017  0  0  0  0.0319187  0.948706  0  0  0  0  0  0  0  0  0  0 
1704289983.808496000  -2.50966  -0.125325  0.95635  0  0  0.0294527  -0.0128556  0.59885  -0.0779017  0  0  0  0.0360386  0.938829  0  0  0  0  0  0  0  0  0  0 
1704289983.813501000  -2.50973  -0.122319  0.955961  0  0  0.0296791  -0.0126646  0.603519  -0.0779017  0  0  0  0.0404085  0.928702  0  0  0  0  0  0  0  0  0  0 
1704289983.818498000  -2.50979  -0.119289  0.955571  0  0  0.0299055  -0.0124511  0.608137  -0.0779017  0  0  0  0.0450284  0.918325  0  0  0  0  0  0  0  0  0  0 
1704289983.823497000  -2.50985  -0.116237  0.955182  0  0  0.0301319  -0.0122139  0.612702  -0.0779017  0  0  0  0.0498984  0.907698  0  0  0  0  0  0  0  0  0  0 
1704289983.828490000  -2.50991  -0.113163  0.954792  0  0  0.0303583  -0.0119517  0.617213  -0.0779017  0  0  0  0.0550183  0.896821  0  0  0  0  0  0  0  0  0  0 
1704289983.833506000  -2.50997  -0.110065  0.954403  0  0  0.0305847  -0.0116633  0.62167  -0.0779017  0  0  0  0.0603882  0.885693  0  0  0  0  0  0  0  0  0  0 
1704289983.838503000  -2.51003  -0.106946  0.954013  0  0  0.0308111  -0.0113474  0.62607  -0.0779017  0  0  0  0.0660081  0.874316  0  0  0  0  0  0  0  0  0  0 
1704289983.843489000  -2.51008  -0.103805  0.953624  0  0  0.0310375  -0.0110028  0.630412  -0.0779017  0  0  0  0.071878  0.862689  0  0  0  0  0  0  0  0  0  0 
1704289983.848489000  -2.51014  -0.100642  0.953234  0  0  0.0312639  -0.0106282  0.634696  -0.0779017  0  0  0  0.0779979  0.850812  0  0  0  0  0  0  0  0  0  0 
1704289983.853488000  -2.51019  -0.0974578  0.952845  0  0  0.0314903  -0.0102224  0.63892  -0.0779017  0  0  0  0.0843678  0.838685  0  0  0  0  0  0  0  0  0  0 
1704289983.858496000  -2.51024  -0.0942528  0.952455  0  0  0.0317167  -0.0097841  0.643083  -0.0779017  0  0  0  0.0909878  0.826307  0  0  0  0  0  0  0  0  0  0 
1704289983.863496000  -2.51029  -0.0910271  0.952066  0  0  0.0319431  -0.0093121  0.647183  -0.0779017  0  0  0  0.0978577  0.81368  0  0  0  0  0  0  0  0  0  0 
1704289983.868495000  -2.51033  -0.0877811  0.951676  0  0  0.0321695  -0.0088051  0.651219  -0.0779017  0  0  0  0.104978  0.800803  0  0  0  0  0  0  0  0  0  0 
1704289983.873503000  -2.51038  -0.084515  0.951286  0  0  0.0323959  -0.0082619  0.65519  -0.0779017  0  0  0  0.112348  0.787676  0  0  0  0  0  0  0  0  0  0 
1704289983.878492000  -2.51042  -0.0812293  0.950897  0  0  0.0326223  -0.0076812  0.659095  -0.0779017  0  0  0  0.119967  0.774299  0  0  0  0  0  0  0  0  0  0 
1704289983.883491000  -2.51045  -0.0779242  0.950507  0  0  0.0328487  -0.0070618  0.662933  -0.0779017  0  0  0  0.127837  0.760672  0  0  0  0  0  0  0  0  0  0 
1704289983.888491000  -2.51049  -0.0746001  0.950118  0  0  0.0330751  -0.0064024  0.666702  -0.0779017  0  0  0  0.135957  0.746794  0  0  0  0  0  0  0  0  0  0 
1704289983.893500000  -2.51052  -0.0712573  0.949728  0  0  0.0333015  -0.0057018  0.6704  -0.0779017  0  0  0  0.144327  0.732667  0  0  0  0  0  0  0  0  0  0 
1704289983.898492000  -2.51054  -0.0678962  0.949339  0  0  0.0335279  -0.0049587  0.674028  -0.0779017  0  0  0  0.152947  0.71829  0  0  0  0  0  0  0  0  0  0 
1704289983.903491000  -2.51057  -0.0645171  0.948949  0  0  0.0337543  -0.0041719  0.677583  -0.0779017  0  0  0  0.161817  0.703663  0  0  0  0  0  0  0  0  0  0 
1704289983.908500000  -2.51058  -0.0611205  0.94856  0  0  0.0339807  -0.0033402  0.681064  -0.0779017  0  0  0  0.170937  0.688786  0  0  0  0  0  0  0  0  0  0 
1704289983.913502000  -2.5106  -0.0577066  0.94817  0  0  0.0342071  -0.0024622  0.68447  -0.0779017  0  0  0  0.180307  0.673659  0  0  0  0  0  0  0  0  0  0 
1704289983.918493000  -2.51061  -0.0542759  0.947781  0  0  0.0344335  -0.0015367  0.6878  -0.0779017  0  0  0  0.189927  0.658281  0  0  0  0  0  0  0  0  0  0 
1704289983.923490000  -2.51061  -0.0508287  0.947391  0  0  0.0346598  -0.0005625  0.691053  -0.0779017  0  0  0  0.199797  0.642654  0  0  0  0  0  0  0  0  0  0 
1704289983.928489000  -2.51061  -0.0473655  0.947002  0  0  0.0348862  0.0004617  0.694226  -0.0779017  0  0  0  0.209917  0.626777  0  0  0  0  0  0  0  0  0  0 
1704289983.933499000  -2.51061  -0.0438866  0.946612  0  0  0.0351126  0.0015371  0.69732  -0.0779017  0  0  0  0.220286  0.61065  0  0  0  0  0  0  0  0  0  0 
1704289983.938492000  -2.5106  -0.0403925  0.946223  0  0  0.035339  0.002665  0.700333  -0.0779017  0  0  0  0.230906  0.594273  0  0  0  0  0  0  0  0  0  0 
1704289983.943503000  -2.51058  -0.0368834  0.945833  0  0  0.0355654  0.0038466  0.703262  -0.0779017  0  0  0  0.241776  0.577646  0  0  0  0  0  0  0  0  0  0 
1704289983.948501000  -2.51056  -0.03336  0.945444  0  0  0.0357918  0.0050832  0.706109  -0.0779017  0  0  0  0.252896  0.560834  0  0  0  0  0  0  0  0  0  0 
1704289983.953503000  -2.51053  -0.0298225  0.945054  0  0  0.0360182  0.006376  0.708871  -0.0779017  0  0  0  0.264266  0.544214  0  0  0  0  0  0  0  0  0  0 
1704289983.958493000  -2.5105  -0.0262714  0.944665  0  0  0.0362446  0.0077262  0.711551  -0.0779017  0  0  0  0.275886  0.527843  0  0  0  0  0  0  0  0  0  0 
1704289983.963485000  -2.51045  -0.0227071  0.944275  0  0  0.036471  0.0091353  0.71415  -0.0779017  0  0  0  0.287756  0.511722  0  0  0  0  0  0  0  0  0  0 
1704289983.968495000  -2.51041  -0.01913  0.943886  0  0  0.0366974  0.0106042  0.716669  -0.0779017  0  0  0  0.299876  0.495852  0  0  0  0  0  0  0  0  0  0 
1704289983.973489000  -2.51035  -0.0155405  0.943496  0  0  0.0369238  0.0121344  0.719109  -0.0779017  0  0  0  0.312246  0.480231  0  0  0  0  0  0  0  0  0  0 
1704289983.978497000  -2.51028  -0.0119391  0.943107  0  0  0.0371502  0.0137271  0.721472  -0.0779017  0  0  0  0.324866  0.46486  0  0  0  0  0  0  0  0  0  0 
1704289983.983489000  -2.51021  -0.008326  0.942717  0  0  0.0373766  0.0153835  0.723758  -0.0779017  0  0  0  0.337736  0.44974  0  0  0  0  0  0  0  0  0  0 
1704289983.988488000  -2.51013  -0.0047016  0.942328  0  0  0.037603  0.0171049  0.725969  -0.0779017  0  0  0  0.350856  0.434869  0  0  0  0  0  0  0  0  0  0 
1704289983.993500000  -2.51004  -0.0010664  0.941938  0  0  0.0378294  0.0188925  0.728107  -0.0779017  0  0  0  0.364225  0.420248  0  0  0  0  0  0  0  0  0  0 
1704289983.998490000  -2.50994  0.0025793  0.941549  0  0  0.0380558  0.0207475  0.730172  -0.0779017  0  0  0  0.377845  0.405878  0  0  0  0  0  0  0  0  0  0 
1704289984.003492000  -2.50983  0.0062352  0.941159  0  0  0.0382822  0.0226713  0.732166  -0.0779017  0  0  0  0.391715  0.391757  0  0  0  0  0  0  0  0  0  0 
1704289984.008493000  -2.50971  0.0099009  0.94077  0  0  0.0385086  0.0246651  0.73409  -0.0779017  0  0  0  0.405835  0.377886  0  0  0  0  0  0  0  0  0  0 
1704289984.013495000  -2.50959  0.013576  0.94038  0  0  0.038735  0.0267301  0.735946  -0.0779017  0  0  0  0.420205  0.364266  0  0  0  0  0  0  0  0  0  0 
1704289984.018493000  -2.50945  0.0172602  0.939991  0  0  0.0389614  0.0288676  0.737733  -0.0779017  0  0  0  0.434825  0.350895  0  0  0  0  0  0  0  0  0  0 
1704289984.023499000  -2.5093  0.0209532  0.939601  0  0  0.0391878  0.0310788  0.739455  -0.0779017  0  0  0  0.449695  0.337774  0  0  0  0  0  0  0  0  0  0 
1704289984.028498000  -2.50914  0.0246547  0.939212  0  0  0.0394142  0.033365  0.741111  -0.0779017  0  0  0  0.464815  0.324904  0  0  0  0  0  0  0  0  0  0 
1704289984.033493000  -2.50896  0.0283642  0.938822  0  0  0.0396406  0.0357273  0.742704  -0.0779017  0  0  0  0.480185  0.312283  0  0  0  0  0  0  0  0  0  0 
1704289984.038492000  -2.50878  0.0320816  0.938433  0  0  0.039867  0.0381672  0.744235  -0.0779017  0  0  0  0.495805  0.299912  0  0  0  0  0  0  0  0  0  0 
1704289984.043491000  -2.50858  0.0358065  0.938043  0  0  0.0400934  0.0406858  0.745704  -0.0779017  0  0  0  0.511671  0.287792  0  0  0  0  0  0  0  0  0  0 
1704289984.048503000  -2.50837  0.0395385  0.937654  0  0  0.0403198  0.0432838  0.747113  -0.0779017  0  0  0  0.527483  0.275921  0  0  0  0  0  0  0  0  0  0 
1704289984.053496000  -2.50815  0.0432775  0.937264  0  0  0.0405462  0.0459602  0.748463  -0.0779017  0  0  0  0.543044  0.2643  0  0  0  0  0  0  0  0  0  0 
1704289984.058496000  -2.50791  0.0470231  0.936875  0  0  0.0407726  0.0487138  0.749756  -0.0779017  0  0  0  0.558356  0.25293  0  0  0  0  0  0  0  0  0  0 
1704289984.063494000  -2.50766  0.050775  0.936485  0  0  0.040999  0.0515434  0.750993  -0.0779017  0  0  0  0.573417  0.241809  0  0  0  0  0  0  0  0  0  0 
1704289984.068495000  -2.5074  0.0545329  0.936096  0  0  0.0412254  0.0544476  0.752175  -0.0779017  0  0  0  0.588228  0.230938  0  0  0  0  0  0  0  0  0  0 
1704289984.073496000  -2.50712  0.0582966  0.935706  0  0  0.0414518  0.0574252  0.753303  -0.0779017  0  0  0  0.60279  0.220318  0  0  0  0  0  0  0  0  0  0 
1704289984.078494000  -2.50682  0.0620659  0.935317  0  0  0.0416781  0.0604751  0.754379  -0.0779017  0  0  0  0.617101  0.209947  0  0  0  0  0  0  0  0  0  0 
1704289984.083495000  -2.50651  0.0658403  0.934927  0  0  0.0419045  0.0635958  0.755403  -0.0779017  0  0  0  0.631163  0.199826  0  0  0  0  0  0  0  0  0  0 
1704289984.088501000  -2.50619  0.0696198  0.934538  0  0  0.0421309  0.0667863  0.756377  -0.0779017  0  0  0  0.644974  0.189956  0  0  0  0  0  0  0  0  0  0 
1704289984.093494000  -2.50584  0.073404  0.934148  0  0  0.0423573  0.0700452  0.757303  -0.0779017  0  0  0  0.658536  0.180335  0  0  0  0  0  0  0  0  0  0 
1704289984.098495000  -2.50549  0.0771928  0.933759  0  0  0.0425837  0.0733712  0.758181  -0.0779017  0  0  0  0.671847  0.170964  0  0  0  0  0  0  0  0  0  0 
1704289984.103494000  -2.50511  0.0809858  0.933369  0  0  0.0428101  0.0767632  0.759013  -0.0779017  0  0  0  0.684909  0.161844  0  0  0  0  0  0  0  0  0  0 
1704289984.108491000  -2.50472  0.0847828  0.93298  0  0  0.0430365  0.0802199  0.7598  -0.0779017  0  0  0  0.69772  0.152973  0  0  0  0  0  0  0  0  0  0 
1704289984.113496000  -2.50431  0.0885837  0.93259  0  0  0.0432629  0.08374  0.760543  -0.0779017  0  0  0  0.710282  0.144352  0  0  0  0  0  0  0  0  0  0 
1704289984.118494000  -2.50388  0.0923882  0.932201  0  0  0.0434893  0.0873223  0.761244  -0.0779017  0  0  0  0.722593  0.135982  0  0  0  0  0  0  0  0  0  0 
1704289984.123491000  -2.50343  0.0961961  0.931811  0  0  0.0437157  0.0909655  0.761903  -0.0779017  0  0  0  0.734655  0.127861  0  0  0  0  0  0  0  0  0  0 
1704289984.128492000  -2.50297  0.100007  0.931422  0  0  0.0439421  0.0946684  0.762523  -0.0779017  0  0  0  0.746466  0.11999  0  0  0  0  0  0  0  0  0  0 
1704289984.133495000  -2.50249  0.103821  0.931032  0  0  0.0441685  0.0984297  0.763104  -0.0779017  0  0  0  0.758027  0.11237  0  0  0  0  0  0  0  0  0  0 
1704289984.138493000  -2.50199  0.107638  0.930643  0  0  0.0443949  0.102248  0.763647  -0.0779017  0  0  0  0.769339  0.104999  0  0  0  0  0  0  0  0  0  0 
1704289984.143497000  -2.50147  0.111458  0.930253  0  0  0.0446213  0.106123  0.764154  -0.0779017  0  0  0  0.7804  0.0978785  0  0  0  0  0  0  0  0  0  0 
1704289984.148492000  -2.50092  0.11528  0.929864  0  0  0.0448477  0.110052  0.764626  -0.0779017  0  0  0  0.791212  0.0910078  0  0  0  0  0  0  0  0  0  0 
1704289984.153496000  -2.50036  0.119104  0.929474  0  0  0.0450741  0.114034  0.765065  -0.0779017  0  0  0  0.801773  0.0843872  0  0  0  0  0  0  0  0  0  0 
1704289984.158492000  -2.49978  0.12293  0.929085  0  0  0.0453005  0.118069  0.76547  -0.0779017  0  0  0  0.812085  0.0780165  0  0  0  0  0  0  0  0  0  0 
1704289984.163488000  -2.49918  0.126758  0.928695  0  0  0.0455269  0.122155  0.765845  -0.0779017  0  0  0  0.822146  0.0718959  0  0  0  0  0  0  0  0  0  0 
1704289984.168489000  -2.49856  0.130589  0.928305  0  0  0.0457533  0.12629  0.76619  -0.0779017  0  0  0  0.831958  0.0660252  0  0  0  0  0  0  0  0  0  0 
1704289984.173493000  -2.49792  0.13442  0.927916  0  0  0.0459797  0.130474  0.766506  -0.0779017  0  0  0  0.841519  0.0604045  0  0  0  0  0  0  0  0  0  0 
1704289984.178489000  -2.49726  0.138254  0.927526  0  0  0.0462061  0.134705  0.766794  -0.0779017  0  0  0  0.850831  0.0550339  0  0  0  0  0  0  0  0  0  0 
1704289984.183489000  -2.49657  0.142088  0.927137  0  0  0.0464325  0.138982  0.767057  -0.0779017  0  0  0  0.859892  0.0499132  0  0  0  0  0  0  0  0  0  0 
1704289984.188488000  -2.49587  0.145924  0.926747  0  0  0.0466589  0.143303  0.767294  -0.0779017  0  0  0  0.868703  0.0450426  0  0  0  0  0  0  0  0  0  0 
1704289984.193492000  -2.49514  0.149761  0.926358  0  0  0.0468853  0.147669  0.767507  -0.0779017  0  0  0  0.877265  0.0404219  0  0  0  0  0  0  0  0  0  0 
1704289984.198493000  -2.49439  0.153599  0.925968  0  0  0.0471117  0.152076  0.767698  -0.0779017  0  0  0  0.885576  0.0360513  0  0  0  0  0  0  0  0  0  0 
1704289984.203490000  -2.49362  0.157438  0.925579  0  0  0.0473381  0.156524  0.767868  -0.0779017  0  0  0  0.893638  0.0319306  0  0  0  0  0  0  0  0  0  0 
1704289984.208490000  -2.49283  0.161278  0.925189  0  0  0.0475645  0.161012  0.768018  -0.0779017  0  0  0  0.901449  0.0280599  0  0  0  0  0  0  0  0  0  0 
1704289984.213500000  -2.49201  0.165118  0.9248  0  0  0.0477909  0.165538  0.768149  -0.0779017  0  0  0  0.909011  0.0244393  0  0  0  0  0  0  0  0  0  0 
1704289984.218498000  -2.49117  0.168959  0.92441  0  0  0.0480173  0.170101  0.768263  -0.0779017  0  0  0  0.916322  0.0210686  0  0  0  0  0  0  0  0  0  0 
1704289984.223498000  -2.49031  0.172801  0.924021  0  0  0.0482437  0.174701  0.76836  -0.0779017  0  0  0  0.923384  0.017948  0  0  0  0  0  0  0  0  0  0 
1704289984.228491000  -2.48942  0.176643  0.923631  0  0  0.04847  0.179335  0.768443  -0.0779017  0  0  0  0.930195  0.0150773  0  0  0  0  0  0  0  0  0  0 
1704289984.233508000  -2.48851  0.180485  0.923242  0  0  0.0486964  0.184002  0.768512  -0.0779017  0  0  0  0.936757  0.0124566  0  0  0  0  0  0  0  0  0  0 
1704289984.238486000  -2.48758  0.184328  0.922852  0  0  0.0489228  0.188702  0.768568  -0.0779017  0  0  0  0.943068  0.010086  0  0  0  0  0  0  0  0  0  0 
1704289984.243513000  -2.48663  0.188171  0.922463  0  0  0.0491492  0.193433  0.768613  -0.0779017  0  0  0  0.94913  0.0079653  0  0  0  0  0  0  0  0  0  0 
1704289984.248493000  -2.48565  0.192014  0.922073  0  0  0.0493756  0.198193  0.768648  -0.0779017  0  0  0  0.954941  0.0060947  0  0  0  0  0  0  0  0  0  0 
1704289984.253498000  -2.48465  0.195857  0.921684  0  0  0.049602  0.202982  0.768674  -0.0779017  0  0  0  0.960502  0.004474  0  0  0  0  0  0  0  0  0  0 
1704289984.258485000  -2.48362  0.199701  0.921294  0  0  0.0498284  0.207797  0.768693  -0.0779017  0  0  0  0.965814  0.0031033  0  0  0  0  0  0  0  0  0  0 
1704289984.263491000  -2.48257  0.203544  0.920905  0  0  0.0500548  0.212639  0.768706  -0.0779017  0  0  0  0.970875  0.0019827  0  0  0  0  0  0  0  0  0  0 
1704289984.268502000  -2.48149  0.207388  0.920515  0  0  0.0502811  0.217506  0.768713  -0.0779017  0  0  0  0.975687  0.001112  0  0  0  0  0  0  0  0  0  0 
1704289984.273504000  -2.48039  0.211231  0.920126  0  0  0.0505072  0.222396  0.768717  -0.0779017  0  0  0  0.980248  0.0004914  0  0  0  0  0  0  0  0  0  0 
1704289984.278492000  -2.47927  0.215075  0.919736  0  0  0.0507333  0.227308  0.768719  -0.0779017  0  0  0  0.98456  0.0001207  0  0  0  0  0  0  0  0  0  0 
1704289984.283502000  -2.47812  0.218919  0.919347  0  0  0.0509591  0.232241  0.768719  -0.0779017  0  0  0  0.988621  -0  0  0  0  0  0  0  0  0  0  0 
1704289984.288500000  -2.47695  0.222762  0.918957  0  0  0.0511847  0.237194  0.768719  -0.0779017  0  0  0  0.992433  -0.0001294  0  0  0  0  0  0  0  0  0  0 
1704289984.293507000  -2.47575  0.226606  0.918568  0  0  0.0514099  0.242165  0.768717  -0.0779017  0  0  0  0.995994  -0.0005087  0  0  0  0  0  0  0  0  0  0 
1704289984.298492000  -2.47452  0.230449  0.918178  0  0  0.0516346  0.247153  0.768713  -0.0779017  0  0  0  0.999306  -0.0011381  0  0  0  0  0  0  0  0  0  0 
1704289984.303501000  -2.47328  0.234293  0.917789  0  0  0.0518588  0.252157  0.768705  -0.0779017  0  0  0  1.00237  -0.0020174  0  0  0  0  0  0  0  0  0  0 
1704289984.308500000  -2.472  0.238136  0.917399  0  0  0.0520823  0.257176  0.768693  -0.0779017  0  0  0  1.00518  -0.0031467  0  0  0  0  0  0  0  0  0  0 
1704289984.313501000  -2.4707  0.24198  0.91701  0  0  0.0523051  0.262209  0.768673  -0.0779017  0  0  0  1.00774  -0.0045261  0  0  0  0  0  0  0  0  0  0 
1704289984.318497000  -2.46938  0.245823  0.91662  0  0  0.052527  0.267253  0.768647  -0.0779017  0  0  0  1.01005  -0.0061554  0  0  0  0  0  0  0  0  0  0 
1704289984.323498000  -2.46803  0.249666  0.916231  0  0  0.0527478  0.272309  0.768612  -0.0779017  0  0  0  1.01211  -0.0080348  0  0  0  0  0  0  0  0  0  0 
1704289984.328495000  -2.46666  0.253509  0.915841  0  0  0.0529674  0.277374  0.768566  -0.0779017  0  0  0  1.01392  -0.0101641  0  0  0  0  0  0  0  0  0  0 
1704289984.333504000  -2.46526  0.257352  0.915452  0  0  0.0531856  0.282448  0.768509  -0.0779017  0  0  0  1.01549  -0.0125434  0  0  0  0  0  0  0  0  0  0 
1704289984.338497000  -2.46383  0.261194  0.915062  0  0  0.0534024  0.287529  0.76844  -0.0779017  0  0  0  1.0168  -0.0151728  0  0  0  0  0  0  0  0  0  0 
1704289984.343496000  -2.46238  0.265036  0.914673  0  0  0.0536174  0.292615  0.768357  -0.0779017  0  0  0  1.01786  -0.0180521  0  0  0  0  0  0  0  0  0  0 
1704289984.348498000  -2.46091  0.268878  0.914283  0  0  0.0538305  0.297707  0.768259  -0.0779017  0  0  0  1.01867  -0.0211815  0  0  0  0  0  0  0  0  0  0 
1704289984.353507000  -2.45941  0.272719  0.913894  0  0  0.0540415  0.302802  0.768145  -0.0779017  0  0  0  1.01923  -0.0245608  0  0  0  0  0  0  0  0  0  0 
1704289984.358491000  -2.45788  0.276559  0.913504  0  0  0.0542503  0.307899  0.768013  -0.0779017  0  0  0  1.01954  -0.0281901  0  0  0  0  0  0  0  0  0  0 
1704289984.363498000  -2.45633  0.280399  0.913115  0  0  0.0544565  0.312997  0.767863  -0.0779017  0  0  0  1.0196  -0.0320695  0  0  0  0  0  0  0  0  0  0 
1704289984.368482000  -2.45475  0.284238  0.912725  0  0  0.0546599  0.318094  0.767692  -0.0779017  0  0  0  1.01942  -0.0361988  0  0  0  0  0  0  0  0  0  0 
1704289984.373485000  -2.45315  0.288076  0.912336  0  0  0.0548604  0.32319  0.7675  -0.0779017  0  0  0  1.01898  -0.0405782  0  0  0  0  0  0  0  0  0  0 
1704289984.378488000  -2.45152  0.291913  0.911946  0  0  0.0550576  0.328284  0.767286  -0.0779017  0  0  0  1.01829  -0.0452075  0  0  0  0  0  0  0  0  0  0 
1704289984.383488000  -2.44986  0.295749  0.911557  0  0  0.0552513  0.333373  0.767048  -0.0779017  0  0  0  1.01735  -0.0500868  0  0  0  0  0  0  0  0  0  0 
1704289984.388489000  -2.44818  0.299583  0.911167  0  0  0.0554414  0.338457  0.766785  -0.0779017  0  0  0  1.01616  -0.0552162  3.35e-05  0  0  0  0  0  0  0  0  0 
1704289984.393501000  -2.44648  0.303416  0.910778  0  0  0.0556275  0.343534  0.766495  -0.077901  0  0  0  1.01472  -0.0605955  0.0002879  0  0  0  0  0  0  0  0  0 
1704289984.398481000  -2.44475  0.307248  0.910388  0  0  0.0558094  0.348604  0.766178  -0.0778984  0  0  0  1.01303  -0.0662249  0.0007924  0  0  0  0  0  0  0  0  0 
1704289984.403488000  -2.44299  0.311078  0.909999  0  0  0.055987  0.353664  0.765833  -0.0778926  0  0  0  1.0111  -0.0721042  0.0015468  0  0  0  0  0  0  0  0  0 
1704289984.408489000  -2.44121  0.314906  0.909609  0  0  0.0561601  0.358714  0.765457  -0.0778825  0  0  0  1.00891  -0.0782335  0.0025512  0  0  0  0  0  0  0  0  0 
1704289984.413501000  -2.43941  0.318733  0.90922  0  0  0.0563285  0.363753  0.76505  -0.0778667  0  0  0  1.00647  -0.0846129  0.0038057  0  0  0  0  0  0  0  0  0 
1704289984.418489000  -2.43757  0.322557  0.908831  0  0  0.056492  0.368778  0.76461  -0.077844  0  0  0  1.00378  -0.0912422  0.0053101  0  0  0  0  0  0  0  0  0 
1704289984.423489000  -2.43572  0.326379  0.908441  0  0  0.0566505  0.37379  0.764137  -0.0778132  0  0  0  1.00084  -0.0981216  0.0070646  0  0  0  0  0  0  0  0  0 
1704289984.428487000  -2.43384  0.330198  0.908052  0  0  0.0568037  0.378786  0.763629  -0.077773  0  0  0  0.997654  -0.105251  0.009069  0  0  0  0  0  0  0  0  0 
1704289984.433505000  -2.43193  0.334015  0.907664  0  0  0.0569516  0.383766  0.763084  -0.0777221  0  0  0  0.994215  -0.11263  0.0113234  0  0  0  0  0  0  0  0  0 
1704289984.438489000  -2.43  0.337829  0.907275  0  0  0.0570941  0.388728  0.762502  -0.0776593  0  0  0  0.990526  -0.12026  0.0138278  0  0  0  0  0  0  0  0  0 
1704289984.443488000  -2.42804  0.34164  0.906887  0  0  0.057231  0.393671  0.761881  -0.0775834  0  0  0  0.986588  -0.128139  0.0165823  0  0  0  0  0  0  0  0  0 
1704289984.448486000  -2.42606  0.345448  0.906499  0  0  0.0573622  0.398594  0.76122  -0.0774931  0  0  0  0.982399  -0.136268  0.0195867  0  0  0  0  0  0  0  0  0 
1704289984.453506000  -2.42406  0.349252  0.906112  0  0  0.0574876  0.403495  0.760518  -0.0773871  0  0  0  0.977961  -0.144648  0.0228412  0  0  0  0  0  0  0  0  0 
1704289984.458488000  -2.42203  0.353053  0.905726  0  0  0.0576071  0.408373  0.759773  -0.0772642  0  0  0  0.973272  -0.153277  0.0263456  0  0  0  0  0  0  0  0  0 
1704289984.463487000  -2.41997  0.35685  0.90534  0  0  0.0577206  0.413227  0.758985  -0.0771232  0  0  0  0.968334  -0.162156  0.0301  0  0  0  0  0  0  0  0  0 
1704289984.468489000  -2.41789  0.360643  0.904954  0  0  0.0578281  0.418056  0.758151  -0.0769628  0  0  0  0.963145  -0.171286  0.0341045  0  0  0  0  0  0  0  0  0 
1704289984.473508000  -2.41579  0.364431  0.90457  0  0  0.0579295  0.422858  0.757272  -0.0767818  0  0  0  0.957707  -0.180665  0.0383589  0  0  0  0  0  0  0  0  0 
1704289984.478489000  -2.41367  0.368215  0.904187  0  0  0.0580248  0.427632  0.756344  -0.0765788  0  0  0  0.952018  -0.190294  0.0428633  0  0  0  0  0  0  0  0  0 
1704289984.483489000  -2.41152  0.371995  0.903804  0  0  0.0581139  0.432378  0.755368  -0.0763527  0  0  0  0.94608  -0.200174  0.0476178  0  0  0  0  0  0  0  0  0 
1704289984.488487000  -2.40934  0.375769  0.903423  0  0  0.0581967  0.437093  0.754342  -0.0761022  0  0  0  0.939891  -0.210303  0.0526222  0  0  0  0  0  0  0  0  0 
1704289984.493504000  -2.40715  0.379538  0.903043  0  0  0.0582733  0.441776  0.753265  -0.0758261  0  0  0  0.933452  -0.220682  0.0578766  0  0  0  0  0  0  0  0  0 
1704289984.498488000  -2.40492  0.383301  0.902665  0  0  0.0583437  0.446427  0.752135  -0.075523  0  0  0  0.926764  -0.231312  0.0633811  0  0  0  0  0  0  0  0  0 
1704289984.503489000  -2.40268  0.387059  0.902288  0  0  0.0584078  0.451043  0.750951  -0.0751919  0  0  0  0.919825  -0.242191  0.0691355  0  0  0  0  0  0  0  0  0 
1704289984.508488000  -2.40041  0.390811  0.901913  0  0  0.0584657  0.455625  0.749713  -0.0748313  0  0  0  0.912637  -0.25332  0.0751399  0  0  0  0  0  0  0  0  0 
1704289984.513505000  -2.39812  0.394556  0.90154  0  0  0.0585173  0.460169  0.748418  -0.07444  0  0  0  0.905198  -0.2647  0.0813944  0  0  0  0  0  0  0  0  0 
1704289984.518488000  -2.39581  0.398295  0.901169  0  0  0.0585627  0.464676  0.747065  -0.0740169  0  0  0  0.89751  -0.276329  0.0878988  0  0  0  0  0  0  0  0  0 
1704289984.523489000  -2.39348  0.402027  0.9008  0  0  0.0586018  0.469144  0.745654  -0.0735606  0  0  0  0.889571  -0.288208  0.0946532  0  0  0  0  0  0  0  0  0 
1704289984.528476000  -2.39112  0.405751  0.900433  0  0  0.0586347  0.473571  0.744183  -0.07307  0  0  0  0.881383  -0.300338  0.101658  0  0  0  0  0  0  0  0  0 
1704289984.533495000  -2.38874  0.409468  0.900069  0  0  0.0586613  0.477957  0.74265  -0.0725436  0  0  0  0.872944  -0.312717  0.108912  0  0  0  0  0  0  0  0  0 
1704289984.538493000  -2.38634  0.413178  0.899708  0  0  0.0586817  0.482301  0.741055  -0.0719804  0  0  0  0.864256  -0.325346  0.116417  0  0  0  0  0  0  0  0  0 
1704289984.543495000  -2.38392  0.416879  0.899349  0  0  0.0586958  0.4866  0.739396  -0.0713791  0  0  0  0.855317  -0.338226  0.124171  0  0  0  0  0  0  0  0  0 
1704289984.548494000  -2.38148  0.420572  0.898994  0  0  0.0587037  0.490853  0.737672  -0.0707383  0  0  0  0.846129  -0.351355  0.132175  0  0  0  0  0  0  0  0  0 
1704289984.553501000  -2.37901  0.424256  0.898642  0  0  0.0587053  0.49506  0.735882  -0.0700569  0  0  0  0.83669  -0.364734  0.14043  0  0  0  0  0  0  0  0  0 
1704289984.558491000  -2.37653  0.42793  0.898294  0  0  0.0587007  0.49922  0.734025  -0.0693336  0  0  0  0.827001  -0.378364  0.148934  0  0  0  0  0  0  0  0  0 
1704289984.563491000  -2.37402  0.431596  0.897949  0  0  0.0586898  0.50333  0.732098  -0.0685671  0  0  0  0.817063  -0.392243  0.157689  0  0  0  0  0  0  0  0  0 
1704289984.568496000  -2.37149  0.435251  0.897608  0  0  0.0586727  0.50739  0.730102  -0.0677563  0  0  0  0.806874  -0.406372  0.166693  0  0  0  0  0  0  0  0  0 
1704289984.573502000  -2.36895  0.438897  0.897271  0  0  0.0586493  0.511398  0.728034  -0.0668998  0  0  0  0.796436  -0.420752  0.175948  0  0  0  0  0  0  0  0  0 
1704289984.578484000  -2.36638  0.442531  0.896939  0  0  0.0586197  0.515354  0.725894  -0.0659964  0  0  0  0.785747  -0.435381  0.185452  0  0  0  0  0  0  0  0  0 
1704289984.583483000  -2.36379  0.446155  0.896611  0  0  0.0585838  0.519255  0.72368  -0.0650449  0  0  0  0.774809  -0.45026  0.195206  0  0  0  0  0  0  0  0  0 
1704289984.588483000  -2.36119  0.449768  0.896289  0  0  0.0585417  0.523102  0.721391  -0.0640439  0  0  0  0.76362  -0.46539  0.205211  0  0  0  0  0  0  0  0  0 
1704289984.593497000  -2.35856  0.453369  0.895971  0  0  0.0584933  0.526891  0.719026  -0.0629923  0  0  0  0.752182  -0.480596  0.215465  0  0  0  0  0  0  0  0  0 
1704289984.598489000  -2.35592  0.456958  0.895659  0  0  0.0584387  0.530623  0.716585  -0.0618888  0  0  0  0.740493  -0.49556  0.22597  0  0  0  0  0  0  0  0  0 
1704289984.603487000  -2.35325  0.460535  0.895352  0  0  0.0583778  0.534296  0.714071  -0.0607325  0  0  0  0.728555  -0.510274  0.236531  0  0  0  0  0  0  0  0  0 
1704289984.608487000  -2.35057  0.464099  0.895052  0  0  0.0583107  0.537908  0.711483  -0.059524  0  0  0  0.716366  -0.524737  0.246845  0  0  0  0  0  0  0  0  0 
1704289984.613501000  -2.34788  0.46765  0.894757  0  0  0.0582373  0.541459  0.708824  -0.0582645  0  0  0  0.703928  -0.538951  0.25691  0  0  0  0  0  0  0  0  0 
1704289984.618484000  -2.34516  0.471187  0.894469  0  0  0.0581577  0.544947  0.706094  -0.0569553  0  0  0  0.691239  -0.552915  0.266724  0  0  0  0  0  0  0  0  0 
1704289984.623483000  -2.34243  0.47471  0.894188  0  0  0.0580718  0.548371  0.703295  -0.0555976  0  0  0  0.6783  -0.566628  0.276289  0  0  0  0  0  0  0  0  0 
1704289984.628483000  -2.33968  0.47822  0.893913  0  0  0.0579797  0.55173  0.700428  -0.0541928  0  0  0  0.665112  -0.580092  0.285604  0  0  0  0  0  0  0  0  0 
1704289984.633495000  -2.33691  0.481715  0.893646  0  0  0.0578813  0.555022  0.697494  -0.052742  0  0  0  0.651673  -0.593306  0.294668  0  0  0  0  0  0  0  0  0 
1704289984.638484000  -2.33413  0.485195  0.893386  0  0  0.0577767  0.558246  0.694495  -0.0512465  0  0  0  0.637985  -0.606269  0.303483  0  0  0  0  0  0  0  0  0 
1704289984.643486000  -2.33133  0.488659  0.893133  0  0  0.0576658  0.561401  0.691432  -0.0497076  0  0  0  0.624046  -0.618983  0.312047  0  0  0  0  0  0  0  0  0 
1704289984.648488000  -2.32851  0.492109  0.892889  0  0  0.0575487  0.564486  0.688306  -0.0481265  0  0  0  0.609858  -0.631447  0.320362  0  0  0  0  0  0  0  0  0 
1704289984.653504000  -2.32568  0.495542  0.892652  0  0  0.0574253  0.567499  0.685118  -0.0465044  0  0  0  0.595419  -0.64366  0.328427  0  0  0  0  0  0  0  0  0 
1704289984.658481000  -2.32284  0.49896  0.892424  0  0  0.0572957  0.57044  0.68187  -0.0448426  0  0  0  0.580731  -0.655624  0.336241  0  0  0  0  0  0  0  0  0 
1704289984.663492000  -2.31998  0.502361  0.892204  0  0  0.0571598  0.573306  0.678562  -0.0431424  0  0  0  0.565792  -0.667338  0.343806  0  0  0  0  0  0  0  0  0 
1704289984.668494000  -2.3171  0.505745  0.891992  0  0  0.0570177  0.576097  0.675197  -0.041405  0  0  0  0.550604  -0.678801  0.35112  0  0  0  0  0  0  0  0  0 
1704289984.673507000  -2.31422  0.509113  0.89179  0  0  0.0568693  0.578812  0.671775  -0.0396316  0  0  0  0.535165  -0.690015  0.358185  0  0  0  0  0  0  0  0  0 
1704289984.678493000  -2.31132  0.512463  0.891596  0  0  0.0567147  0.581448  0.668297  -0.0378235  0  0  0  0.519476  -0.700979  0.365  0  0  0  0  0  0  0  0  0 
1704289984.683491000  -2.3084  0.515796  0.891412  0  0  0.0565538  0.584006  0.664765  -0.035982  0  0  0  0.503538  -0.711692  0.371564  0  0  0  0  0  0  0  0  0 
1704289984.688493000  -2.30548  0.519111  0.891236  0  0  0.0563867  0.586483  0.661181  -0.0341083  0  0  0  0.487349  -0.722156  0.377879  0  0  0  0  0  0  0  0  0 
1704289984.693487000  -2.30254  0.522407  0.891071  0  0  0.0562133  0.588879  0.657544  -0.0322037  0  0  0  0.470911  -0.73237  0.383943  0  0  0  0  0  0  0  0  0 
1704289984.698492000  -2.29959  0.525686  0.890914  0  0  0.0560337  0.591192  0.653857  -0.0302693  0  0  0  0.454222  -0.742333  0.389758  0  0  0  0  0  0  0  0  0 
1704289984.703494000  -2.29663  0.528946  0.890768  0  0  0.0558478  0.593421  0.650121  -0.0283065  0  0  0  0.437284  -0.752047  0.395322  0  0  0  0  0  0  0  0  0 
1704289984.708494000  -2.29365  0.532187  0.890631  0  0  0.0556557  0.595564  0.646337  -0.0263165  0  0  0  0.420095  -0.761511  0.400637  0  0  0  0  0  0  0  0  0 
1704289984.713499000  -2.29067  0.535409  0.890505  0  0  0.0554573  0.597621  0.642506  -0.0243005  0  0  0  0.402657  -0.770724  0.405702  0  0  0  0  0  0  0  0  0 
1704289984.718491000  -2.28768  0.538612  0.890388  0  0  0.0552527  0.599591  0.63863  -0.0222599  0  0  0  0.384968  -0.779688  0.410516  0  0  0  0  0  0  0  0  0 
1704289984.723491000  -2.28467  0.541795  0.890282  0  0  0.0550418  0.601471  0.63471  -0.0201958  0  0  0  0.36703  -0.788402  0.415081  0  0  0  0  0  0  0  0  0 
1704289984.728490000  -2.28166  0.544959  0.890186  0  0  0.0548247  0.603261  0.630747  -0.0181095  0  0  0  0.348841  -0.796865  0.419395  0  0  0  0  0  0  0  0  0 
1704289984.733495000  -2.27864  0.548103  0.890101  0  0  0.0546013  0.604959  0.626742  -0.0160023  0  0  0  0.330403  -0.805079  0.42346  0  0  0  0  0  0  0  0  0 
1704289984.738491000  -2.27561  0.551226  0.890026  0  0  0.0543717  0.606564  0.622696  -0.0138753  0  0  0  0.311714  -0.813043  0.427275  0  0  0  0  0  0  0  0  0 
1704289984.743490000  -2.27258  0.55433  0.889962  0  0  0.0541358  0.608075  0.618612  -0.0117299  0  0  0  0.292775  -0.820756  0.430839  0  0  0  0  0  0  0  0  0 
1704289984.748492000  -2.26953  0.557413  0.889909  0  0  0.0538936  0.609491  0.614489  -0.0095674  0  0  0  0.273587  -0.82822  0.434154  0  0  0  0  0  0  0  0  0 
1704289984.753502000  -2.26648  0.560475  0.889867  0  0  0.0536453  0.610811  0.61033  -0.0073888  0  0  0  0.254148  -0.835434  0.437218  0  0  0  0  0  0  0  0  0 
1704289984.758494000  -2.26342  0.563516  0.889835  0  0  0.0533906  0.612033  0.606135  -0.0051956  0  0  0  0.23446  -0.842397  0.440033  0  0  0  0  0  0  0  0  0 
1704289984.763489000  -2.26036  0.566536  0.889815  0  0  0.0531298  0.613155  0.601906  -0.0029889  0  0  0  0.214521  -0.849111  0.442598  0  0  0  0  0  0  0  0  0 
