ts fx fy fz tx ty tz exfx exfy exfz extx exty extz xd yd zd rolld pitchd yawd vxd vyd vzd wxd wyd wzd axd ayd azd e_x e_y e_z e_vx e_vy e_vz e_rx e_ry e_rz e_wx e_wy e_wz
1704289982.862527000  0  0  11.4868  0.116683  -0.129713  0.0296961  nan  nan  nan  nan  nan  nan  -2.5  -0.3  1  0.0211046  -0.0306005  -0.000645808  0  0  0  0  0  0  0  0  0  0.0190184  0.00607734  -0.00658343  -0.0131991  0.0107938  -0.00707746  -0.0203293  0.0263679  -0.0313515  -0.0163235  -0.0252073  0.00426278 
1704289982.867524000  0  0  11.3205  0.130673  -0.125395  0.0273603  nan  nan  nan  nan  nan  nan  -2.5  -0.3  1  0.0215885  -0.0299159  -0.000645842  0  0  0  0  0  0  0  0  0  0.019061  0.00605817  -0.00650965  -0.0148037  0.0110763  0.00457658  -0.021137  0.0256288  -0.0310291  -0.0370277  -0.0259642  0.0297674 
1704289982.872518000  0  0  11.4027  0.0872283  -0.120656  0.0303943  nan  nan  nan  nan  nan  nan  -2.5  -0.3  1  0.0200995  -0.0317079  -0.000637292  0  0  0  0  0  0  0  0  0  0.0191416  0.00602056  -0.00655416  -0.0123868  0.00942413  -0.00115093  -0.0191226  0.0270401  -0.0312932  0.032953  -0.0523614  -0.00522306 
1704289982.877520000  0  0  11.5611  0.110064  -0.148214  0.0286956  nan  nan  nan  nan  nan  nan  -2.5  -0.3  1  0.021687  -0.0305234  -0.000661961  0  0  0  0  0  0  0  0  0  0.0190707  0.00609112  -0.0066548  -0.0131862  0.0117138  -0.0122095  -0.0207976  0.0262859  -0.031142  0.00325775  0.0154054  0.0143271 
1704289982.882506000  0  0  11.3707  0.108491  -0.133378  0.0273244  nan  nan  nan  nan  nan  nan  -2.5  -0.3  1  0.021006  -0.0300927  -0.000632124  0  0  0  0  0  0  0  0  0  0.0191219  0.00603983  -0.00657046  -0.014571  0.0104878  0.0011432  -0.0201686  0.025727  -0.0309055  -0.000605573  -0.00997633  0.0287301 
1704289982.887524000  0  0  11.4262  0.0653259  -0.12951  0.031859  nan  nan  nan  nan  nan  nan  -2.5  -0.3  1  0.0204801  -0.0307062  -0.000628857  0  0  0  0  0  0  0  0  0  0.019062  0.00608721  -0.00660988  -0.0133993  0.00979297  -0.00269533  -0.0187982  0.0260811  -0.0313719  0.0761857  -0.0223445  -0.022704 
1704289982.892527000  0  0  11.5812  0.0945407  -0.166994  0.0288424  nan  nan  nan  nan  nan  nan  -2.5  -0.3  1  0.0211577  -0.0307742  -0.000651107  0  0  0  0  0  0  0  0  0  0.0191443  0.00607224  -0.00672662  -0.0129888  0.0111091  -0.0134831  -0.0196216  0.0269362  -0.0311459  0.0230145  0.0481936  0.0125281 
1704289982.896525000  0  0  11.518  0.0872766  -0.153103  0.0278743  nan  nan  nan  nan  nan  nan  -2.5  -0.3  1  0.0207419  -0.0301161  -0.000624662  0  0  0  0  0  0  0  0  0  0.0190852  0.00610709  -0.0067228  -0.0139238  0.0103033  -0.0090025  -0.0190283  0.0262589  -0.0309835  0.0317649  0.0261996  0.022751 
1704289982.902533000  0  0  11.4297  0.0571944  -0.149325  0.031181  nan  nan  nan  nan  nan  nan  -2.5  -0.3  1  0.0202657  -0.0306807  -0.000621754  0  0  0  0  0  0  0  0  0  0.0191416  0.0060571  -0.00667875  -0.0136464  0.00960351  -0.00280413  -0.0177378  0.0267835  -0.031362  0.0814227  0.0120646  -0.0142939 
1704289982.907525000  0  0  11.482  0.0844025  -0.171258  0.0283923  nan  nan  nan  nan  nan  nan  -2.5  -0.3  1  0.0199837  -0.0318237  -0.000635933  0  0  0  0  0  0  0  0  0  0.0192313  0.00600666  -0.00670713  -0.0121964  0.00949408  -0.00647146  -0.0176908  0.0283725  -0.0311082  0.0225412  0.0408136  0.0177364 
1704289982.912507000  0  0  11.5505  0.0676821  -0.16574  0.0282414  nan  nan  nan  nan  nan  nan  -2.5  -0.3  1  0.019458  -0.0310783  -0.000604701  0  0  0  0  0  0  0  0  0  0.0191656  0.00604694  -0.00677625  -0.0127552  0.00883729  -0.0111941  -0.0167364  0.0278004  -0.0310076  0.0474141  0.0355626  0.0184224 
1704289982.917596000  0  0  11.3595  0.0701234  -0.149282  0.0297583  nan  nan  nan  nan  nan  nan  -2.5  -0.3  1  0.0199856  -0.0308338  -0.000616218  0  0  0  0  0  0  0  0  0  0.01922  0.00600216  -0.00666692  -0.0139159  0.00922739  0.00214811  -0.0170067  0.0274254  -0.0311312  0.0452887  0.00458665  0.000825914 
1704289982.922606000  0  0  11.4237  0.0806369  -0.167246  0.029616  nan  nan  nan  nan  nan  nan  -2.5  -0.3  1  0.0193875  -0.0326479  -0.000632928  0  0  0  0  0  0  0  0  0  0.01931  0.00594597  -0.00668422  -0.0115455  0.00874376  -0.00237447  -0.0165276  0.029423  -0.0311255  0.0172336  0.0201254  0.00254827 
1704289982.927601000  0  0  11.5594  0.0948744  -0.166025  0.0289681  nan  nan  nan  nan  nan  nan  -2.5  -0.3  1  0.0194898  -0.030889  -0.000602  0  0  0  0  0  0  0  0  0  0.0192348  0.00599136  -0.00677924  -0.0131718  0.00905753  -0.0118296  -0.0167842  0.0279302  -0.0310431  -0.0103438  0.03468  0.00970657 
1704289982.932601000  0  0  11.3412  0.0888385  -0.126555  0.0307896  nan  nan  nan  nan  nan  nan  -2.5  -0.3  1  0.0200227  -0.0306493  -0.000613666  0  0  0  0  0  0  0  0  0  0.0193005  0.00594997  -0.00665849  -0.0144512  0.00938153  0.00343148  -0.0171521  0.0270957  -0.0312059  0.00683107  -0.0403517  -0.0112487 
1704289982.937518000  0  0  11.3256  0.103088  -0.137234  0.0317609  nan  nan  nan  nan  nan  nan  -2.5  -0.3  1  0.0205347  -0.031679  -0.000650503  0  0  0  0  0  0  0  0  0  0.0192452  0.00599763  -0.00665523  -0.013  0.00987943  0.00453916  -0.0178989  0.0279787  -0.0313576  -0.0151314  -0.0276108  -0.0216417 
1704289982.942532000  0  0  11.5703  0.119787  -0.152534  0.0288599  nan  nan  nan  nan  nan  nan  -2.5  -0.3  1  0.0196767  -0.0309134  -0.000608255  -2e-07  2e-07  -2e-07  0  0  0  -0.000125  0.000125  -0.000125  0.0193123  0.00594965  -0.00676046  -0.0133356  0.00946657  -0.0126572  -0.0175173  0.0276382  -0.0311127  -0.0553287  0.00911291  0.011907 
1704289982.946532000  0  0  11.4939  0.108287  -0.109245  0.0299741  nan  nan  nan  nan  nan  nan  -2.5  -0.3  1  0.0203698  -0.0292597  -0.000596012  -1.7e-06  1.7e-06  -1.7e-06  0  0  0  -0.0005  0.0005  -0.0005  0.0192386  0.00599212  -0.0067426  -0.0156477  0.0101434  -0.00728361  -0.0180638  0.0252695  -0.0311982  -0.0243831  -0.0564593  -0.00108228 
1704289982.952509000  0  0  11.3355  0.126304  -0.119895  0.0313235  nan  nan  nan  nan  nan  nan  -2.5  -0.3  1  0.0209545  -0.030981  -0.000649184  -5.6e-06  5.6e-06  -5.6e-06  0  0  0  -0.001125  0.001125  -0.001125  0.019323  0.0059613  -0.00662458  -0.0142475  0.0107041  0.00368645  -0.0191051  0.0266285  -0.0314059  -0.0510358  -0.0492567  -0.0155558 
1704289982.956529000  0  0  11.4755  0.134702  -0.129072  0.0290856  nan  nan  nan  nan  nan  nan  -2.5  -0.3  1  0.0204848  -0.0303511  -0.000621627  -1.33e-05  1.33e-05  -1.33e-05  0  0  0  -0.002  0.002  -0.002  0.0192647  0.00599882  -0.00670765  -0.0145325  0.0104305  -0.00617344  -0.0190446  0.0261152  -0.0311838  -0.0697393  -0.0236748  0.00992413 
1704289982.962528000  0  0  11.5111  0.117075  -0.103378  0.0300776  nan  nan  nan  nan  nan  nan  -2.5  -0.3  1  0.02057  -0.0297475  -0.000611603  -2.6e-05  2.6e-05  -2.6e-05  0  0  0  -0.003125  0.003125  -0.003125  0.0193023  0.00596699  -0.00667124  -0.0154667  0.0108665  -0.00885413  -0.0190571  0.0248338  -0.0312674  -0.0317983  -0.0640273  -0.00155028 
1704289982.967522000  0  0  11.3183  0.14449  -0.124998  0.0282304  nan  nan  nan  nan  nan  nan  -2.5  -0.3  1  0.0212014  -0.0308091  -0.000652691  -4.5e-05  4.5e-05  -4.5e-05  0  0  0  -0.0045  0.0045  -0.0045  0.019419  0.00592352  -0.00648476  -0.0152498  0.0115379  0.00433189  -0.0203895  0.0259511  -0.0310425  -0.075255  -0.0305222  0.018981 
1704289982.972518000  0  0  11.4097  0.123799  -0.123869  0.0291874  nan  nan  nan  nan  nan  nan  -2.5  -0.299999  0.999999  0.0198772  -0.0320499  -0.000636038  -7.15e-05  7.15e-05  -7.15e-05  0  0  0  -0.006125  0.006125  -0.006125  0.0194941  0.00587881  -0.00644227  -0.0137159  0.0103557  -0.00236987  -0.0192153  0.0269099  -0.031083  -0.0443971  -0.0439738  0.00742803 
1704289982.977511000  0  0  11.5671  0.129712  -0.141166  0.0291955  nan  nan  nan  nan  nan  nan  -2.5  -0.299999  0.999999  0.020701  -0.0310787  -0.000641649  -0.0001067  0.0001067  -0.0001067  0  0  0  -0.008  0.008  -0.008  0.0194185  0.00594445  -0.00654814  -0.0144638  0.0118803  -0.0134922  -0.0202069  0.0261739  -0.0310697  -0.0456687  0.00158207  0.00716659 
1704289982.982521000  0  0  11.316  0.1414  -0.141444  0.0287009  nan  nan  nan  nan  nan  nan  -2.5  -0.299998  0.999998  0.0208736  -0.0311776  -0.000648077  -0.0001519  0.0001519  -0.0001519  0  0  0  -0.010125  0.010125  -0.010125  0.0194871  0.0059106  -0.00633651  -0.0157102  0.0118818  0.00372409  -0.0208731  0.0262604  -0.0309823  -0.0630656  0.00118245  0.0123354 
1704289982.987518000  0  0  11.4169  0.0998066  -0.140823  0.0310239  nan  nan  nan  nan  nan  nan  -2.5  -0.299997  0.999997  0.0199865  -0.032579  -0.000646909  -0.0002083  0.0002083  -0.0002083  0  0  0  -0.0125  0.0125  -0.0125  0.0194281  0.00596199  -0.00639859  -0.0136441  0.011121  -0.00349051  -0.0195374  0.0274396  -0.031245  0.0107547  -0.0137155  -0.0137255 
1704289982.992517000  0  0  11.6044  0.114612  -0.175596  0.0279516  nan  nan  nan  nan  nan  nan  -2.5  -0.299996  0.999996  0.020466  -0.0324633  -0.000658271  -0.0002773  0.0002773  -0.0002773  0  0  0  -0.015125  0.015125  -0.015125  0.0195165  0.0059517  -0.00642268  -0.0136876  0.0125725  -0.016989  -0.0202046  0.0280136  -0.0309681  -0.0133155  0.054244  0.0215931 
1704289982.996517000  0  0  11.4948  0.113427  -0.162559  0.0272874  nan  nan  nan  nan  nan  nan  -2.50001  -0.299995  0.999995  0.0203138  -0.0315827  -0.000632945  -0.00036  0.00036  -0.00036  0  0  0  -0.018  0.018  -0.018  0.019454  0.00599757  -0.00639861  -0.0154723  0.0123616  -0.00949209  -0.0200847  0.0271519  -0.030812  -0.0121543  0.0362022  0.0280682 
1704289983.002517000  0  0  11.4749  0.0581427  -0.15982  0.0319085  nan  nan  nan  nan  nan  nan  -2.50001  -0.299993  0.999993  0.0193672  -0.0337765  -0.000642212  -0.0004577  0.0004577  -0.0004577  0  0  0  -0.021125  0.021125  -0.021125  0.019429  0.00603069  -0.0063963  -0.0129767  0.0113759  -0.00831098  -0.0181366  0.0290987  -0.0313195  0.0839768  0.00793335  -0.0239581 
1704289983.007517000  0  0  11.6311  0.0855703  -0.191448  0.0276372  nan  nan  nan  nan  nan  nan  -2.50001  -0.29999  0.99999  0.0197008  -0.0329617  -0.000633341  -0.0005717  0.0005717  -0.0005717  0  0  0  -0.0245  0.0245  -0.0245  0.0194027  0.00606588  -0.00648668  -0.0138321  0.0125204  -0.0195154  -0.0186407  0.0291125  -0.0309173  0.030964  0.0755933  0.0249361 
1704289983.012522000  0  0  11.4974  0.0614952  -0.159699  0.029381  nan  nan  nan  nan  nan  nan  -2.50001  -0.299987  0.999987  0.0185667  -0.032488  -0.000582058  -0.0007031  0.0007031  -0.0007031  0  0  0  -0.028125  0.028125  -0.028125  0.0193169  0.00611311  -0.00647713  -0.0152092  0.0110545  -0.0103205  -0.0170157  0.0283644  -0.0310235  0.0638935  0.0161215  0.00427495 
1704289983.017512000  0  0  11.4637  0.0442953  -0.172519  0.0323052  nan  nan  nan  nan  nan  nan  -2.50002  -0.299983  0.999983  0.0184219  -0.0334146  -0.000588215  -0.0008533  0.0008533  -0.0008533  0  0  0  -0.032  0.032  -0.032  0.0193227  0.00613217  -0.00645975  -0.0146351  0.0112467  -0.0082671  -0.0162207  0.0294871  -0.0314223  0.0916283  0.0306946  -0.0277112 
1704289983.021518000  0  0  11.4757  0.0638377  -0.18599  0.0290768  nan  nan  nan  nan  nan  nan  -2.50002  -0.299978  0.999978  0.0182836  -0.0336041  -0.000579558  -0.0010235  0.0010235  -0.0010235  0  0  0  -0.036125  0.036125  -0.036125  0.0192607  0.00617889  -0.00650685  -0.0147051  0.0115012  -0.00937146  -0.0161856  0.0300548  -0.0311406  0.0493209  0.053049  0.00951403 
1704289983.027523000  0  0  11.4895  0.0449113  -0.175656  0.0298256  nan  nan  nan  nan  nan  nan  -2.50003  -0.299973  0.999973  0.0170209  -0.0340423  -0.000535676  -0.001215  0.001215  -0.001215  0  0  0  -0.0404783  0.0405  -0.0405  0.0192474  0.00619025  -0.00651606  -0.0146079  0.0103991  -0.0106772  -0.0144177  0.0305056  -0.0311952  0.0695644  0.0257042  0.000750612 
1704289983.032523000  0  0  11.3585  0.0509183  -0.177063  0.0304041  nan  nan  nan  nan  nan  nan  -2.50003  -0.299966  0.999966  0.0170764  -0.0340177  -0.000526542  -0.001428  0.001429  -0.001429  0  0  0  -0.0447059  0.045125  -0.045125  0.019237  0.00619814  -0.0064195  -0.0156837  0.0108023  -0.00194844  -0.0142622  0.030654  -0.0312867  0.0548958  0.0270128  -0.00542578 
1704289983.037523000  0  0  11.3028  0.0510033  -0.171609  0.0306503  nan  nan  nan  nan  nan  nan  -2.50004  -0.299958  0.999958  0.0164431  -0.0351943  -0.000511934  -0.0016616  0.0016667  -0.0016667  0  0  0  -0.0486836  0.05  -0.05  0.0191711  0.00624856  -0.00641338  -0.0147034  0.0103655  0.00160176  -0.0135178  0.0316796  -0.0313547  0.0461489  0.00351904  -0.00770345 
1704289983.042530000  0  0  11.4545  0.0604782  -0.18632  0.0295169  nan  nan  nan  nan  nan  nan  -2.50005  -0.299949  0.999949  0.0157277  -0.0352544  -0.0004734  -0.0019145  0.0019294  -0.0019294  0  0  0  -0.0524112  0.055125  -0.055125  0.019183  0.00624297  -0.00643378  -0.0145325  0.0103995  -0.00955527  -0.012883  0.0320653  -0.0312904  0.0185296  0.0306274  0.00578181 
1704289983.046528000  0  0  11.3183  0.0714167  -0.166059  0.0282799  nan  nan  nan  nan  nan  nan  -2.50006  -0.299939  0.999939  0.015896  -0.034078  -0.000444043  -0.0021853  0.0022183  -0.0022183  0  0  0  -0.0558888  0.0605  -0.0605  0.0191032  0.00628985  -0.00638189  -0.0168605  0.0109495  -0.000425734  -0.0131746  0.0307078  -0.0311287  -0.00156982  0.00279994  0.019397 
1704289983.052525000  0  0  11.1473  0.0620615  -0.141129  0.0304386  nan  nan  nan  nan  nan  nan  -2.50007  -0.299927  0.999927  0.0149033  -0.0362982  -0.000424286  -0.0024729  0.0025348  -0.0025348  0  0  0  -0.0591165  0.066125  -0.066125  0.0191101  0.00628702  -0.0062031  -0.0151191  0.0101062  0.0109249  -0.0121705  0.0320486  -0.0313491  0.00693759  -0.0660826  -0.00510715 
1704289983.057521000  0  0  11.3341  0.085795  -0.160686  0.0279989  nan  nan  nan  nan  nan  nan  -2.50009  -0.299914  0.999914  0.0144392  -0.0360301  -0.000381969  -0.0027761  0.00288  -0.00288  0  0  0  -0.0620941  0.072  -0.072  0.0191326  0.00628168  -0.00619577  -0.0151433  0.0106114  -0.00285044  -0.0122313  0.0319504  -0.0311034  -0.0432534  -0.0230181  0.0226279 
1704289983.062528000  0  0  11.1961  0.085448  -0.122968  0.0282737  nan  nan  nan  nan  nan  nan  -2.5001  -0.299898  0.999898  0.0141549  -0.034896  -0.000331184  -0.0030935  0.0032552  -0.0032552  0  0  0  -0.0648217  0.078125  -0.078125  0.0190304  0.00633478  -0.00611544  -0.0172589  0.0106722  0.00630587  -0.0121663  0.03005  -0.031048  -0.0432566  -0.0820298  0.0185028 
1704289983.067510000  0  0  11.084  0.0790769  -0.119841  0.0312971  nan  nan  nan  nan  nan  nan  -2.50012  -0.299881  0.999881  0.0132959  -0.036125  -0.000289939  -0.0034239  0.0036617  -0.0036617  0  0  0  -0.0672994  0.0845  -0.0845  0.0190692  0.00631191  -0.00592196  -0.0165739  0.0102951  0.013365  -0.0114685  0.0307016  -0.0314053  -0.0376229  -0.0962312  -0.0152323 
1704289983.071518000  0  0  11.1465  0.0892001  -0.123514  0.0292227  nan  nan  nan  nan  nan  nan  -2.50013  -0.299862  0.999862  0.0127626  -0.0360147  -0.000238466  -0.003766  0.0041006  -0.0041006  0  0  0  -0.069527  0.091125  -0.091125  0.0189998  0.00635146  -0.00592603  -0.0165535  0.0104676  0.00839933  -0.0113422  0.0303537  -0.0312405  -0.060783  -0.0843545  0.0088826 
1704289983.077512000  0  0  11.2032  0.0890536  -0.112734  0.02844  nan  nan  nan  nan  nan  nan  -2.50015  -0.29984  0.99984  0.0120975  -0.035614  -0.000175469  -0.0041187  0.0045733  -0.0045733  0  0  0  -0.0715046  0.098  -0.098  0.0189986  0.00634337  -0.0058111  -0.0170958  0.0106216  0.00358227  -0.0110506  0.0293326  -0.0311184  -0.0638229  -0.0957209  0.0172576 
1704289983.082519000  0  0  11.0304  0.0929588  -0.105701  0.0293326  nan  nan  nan  nan  nan  nan  -2.50018  -0.299816  0.999816  0.0111512  -0.0355654  -0.000103329  -0.0044807  0.005081  -0.005081  0  0  0  -0.0732323  0.105125  -0.105125  0.0190234  0.00631825  -0.00556828  -0.0181688  0.0101869  0.014785  -0.0105775  0.0287682  -0.0311999  -0.07764  -0.10431  0.00701035 
1704289983.087507000  0  0  11.0491  0.0809982  -0.0940824  0.0312691  nan  nan  nan  nan  nan  nan  -2.5002  -0.299789  0.999789  0.0103082  -0.036511  -4.14916e-05  -0.0048506  0.005625  -0.005625  0  0  0  -0.0747099  0.1125  -0.1125  0.0189439  0.00636729  -0.00552801  -0.0168553  0.00997061  0.0127931  -0.00996889  0.0288653  -0.0314637  -0.0589949  -0.13034  -0.0141763 
1704289983.092518000  0  0  11.2501  0.09648  -0.122442  0.0292856  nan  nan  nan  nan  nan  nan  -2.50022  -0.299759  0.999759  0.00975134  -0.0361797  2.76648e-05  -0.0052274  0.0062065  -0.0062065  0  0  0  -0.0759375  0.120125  -0.120125  0.0189633  0.00634587  -0.00547416  -0.0166551  0.010555  -0.00222275  -0.0100425  0.0286131  -0.0313524  -0.091345  -0.0666285  0.00943933 
1704289983.096518000  0  0  11.0658  0.0882189  -0.0987616  0.0283826  nan  nan  nan  nan  nan  nan  -2.50025  -0.299727  0.999727  0.00867723  -0.0345011  0.000130678  -0.0056096  0.0068267  -0.0068266  0  0  0  -0.0769152  0.128  -0.127929  0.0188747  0.00637792  -0.00534799  -0.0194533  0.00992456  0.00997178  -0.00922461  0.0264225  -0.0312651  -0.0830403  -0.0922037  0.0197498 
1704289983.102505000  0  0  11.0105  0.0559671  -0.0872272  0.032128  nan  nan  nan  nan  nan  nan  -2.50028  -0.299691  0.999691  0.00705382  -0.0370578  0.000222456  -0.0059961  0.0074869  -0.0074854  0  0  0  -0.0776428  0.136125  -0.135538  0.0189  0.00635219  -0.00514218  -0.0165886  0.00895197  0.0129015  -0.00756394  0.0278207  -0.0317584  -0.0329893  -0.133022  -0.02143 
1704289983.107512000  0  0  11.248  0.0915331  -0.14069  0.0272279  nan  nan  nan  nan  nan  nan  -2.50031  -0.299652  0.999652  0.00674388  -0.0363247  0.000297081  -0.0063856  0.0081883  -0.0081816  0  0  0  -0.0781204  0.1445  -0.142897  0.018916  0.00633048  -0.00510583  -0.0166327  0.00991182  -0.0046663  -0.00817388  0.0277444  -0.0313288  -0.102235  -0.0175063  0.0350455 
1704289983.112515000  0  0  11.0486  0.0674175  -0.0923818  0.0276528  nan  nan  nan  nan  nan  nan  -2.50034  -0.299609  0.999609  0.00485783  -0.0343455  0.000437787  -0.0067769  0.0089323  -0.0089139  0  0  0  -0.0783481  0.153125  -0.150006  0.0187921  0.0063662  -0.00497884  -0.0196785  0.00838825  0.00866348  -0.00645027  0.0249268  -0.0312792  -0.0703538  -0.0886765  0.0291023 
1704289983.117503000  0  0  10.9872  0.0347226  -0.113347  0.0312708  nan  nan  nan  nan  nan  nan  -2.50038  -0.299563  0.999563  0.0027743  -0.0386072  0.000564718  -0.0071687  0.00972  -0.0096812  0  0  0  -0.0783257  0.162  -0.156865  0.0190943  0.00619478  -0.00458547  -0.0153606  0.00737199  0.0116952  -0.00422448  0.0288342  -0.0317835  -0.0258541  -0.0886736  -0.0103426 
1704289983.121510000  0  0  11.1548  0.0714026  -0.155236  0.026795  nan  nan  nan  nan  nan  nan  -2.50042  -0.299512  0.999512  0.00261356  -0.0376713  0.000645167  -0.0075597  0.0105527  -0.0104822  0  0  0  -0.0780533  0.171125  -0.163474  0.0190348  0.00622462  -0.00463963  -0.0156148  0.00834064  -0.000660346  -0.00490358  0.0285458  -0.0313601  -0.0966926  0.00446477  0.0408706 
1704289983.127518000  0  0  11.0807  0.0295113  -0.109897  0.0290669  nan  nan  nan  nan  nan  nan  -2.50045  -0.299457  0.999458  -0.000645389  -0.0360931  0.000843389  -0.0079488  0.0114317  -0.0113155  0  0  0  -0.077531  0.1805  -0.169833  0.0189885  0.006184  -0.00447904  -0.0177577  0.00550272  0.00376373  -0.00164961  0.0262886  -0.0315063  -0.0443019  -0.0667869  0.014047 
1704289983.132517000  0  0  11.003  0.014991  -0.125301  0.0336696  nan  nan  nan  nan  nan  nan  -2.5005  -0.299398  0.999399  -0.00118751  -0.0373494  0.000945843  -0.0083346  0.0123581  -0.0121801  0  0  0  -0.0767586  0.190125  -0.175942  0.0190096  0.00616634  -0.00432293  -0.0164411  0.00614387  0.00847561  -0.00102113  0.027393  -0.0321739  -0.0203971  -0.04646  -0.0358186 
1704289983.137518000  0  0  11.0775  0.0555398  -0.147263  0.0291975  nan  nan  nan  nan  nan  nan  -2.50054  -0.299333  0.999336  -0.00183072  -0.036497  0.0010545  -0.008716  0.0133333  -0.0130745  0  0  0  -0.0757362  0.2  -0.181801  0.0189211  0.00620116  -0.00433875  -0.0168247  0.00651776  0.0027321  -0.00141372  0.0269645  -0.0318435  -0.102827  0.00556075  0.0164676 
1704289983.142468000  0  0  11.1309  0.023806  -0.130249  0.0307947  nan  nan  nan  nan  nan  nan  -2.50058  -0.299264  0.999268  -0.00510811  -0.0363107  0.00126424  -0.0090916  0.0143585  -0.0139977  0  0  0  -0.0744639  0.210125  -0.18741  0.0189406  0.00612612  -0.00423361  -0.0167214  0.003847  -0.0017241  0.00171669  0.0265456  -0.0321234  -0.0707953  -0.0261031  -0.000254536 
1704289983.146525000  0  0  11.0175  0.0248343  -0.136597  0.0327506  nan  nan  nan  nan  nan  nan  -2.50063  -0.29919  0.999196  -0.00537398  -0.0354836  0.00136555  -0.0094602  0.015435  -0.0149482  0  0  0  -0.0729415  0.2205  -0.192769  0.0188757  0.00614264  -0.00415525  -0.0178653  0.00489919  0.00572648  0.00173433  0.0258415  -0.0324645  -0.0732033  -0.00439099  -0.020753 
1704289983.152517000  0  0  10.9151  0.0478274  -0.141394  0.0303142  nan  nan  nan  nan  nan  nan  -2.50068  -0.29911  0.999119  -0.006913  -0.0362066  0.00152625  -0.0098206  0.016564  -0.015925  0  0  0  -0.0711692  0.231125  -0.197878  0.0188623  0.00612621  -0.00398013  -0.0170977  0.0044763  0.0122334  0.00210031  0.0266031  -0.0323545  -0.126716  -0.00286568  0.00857685 
1704289983.157515000  0  0  11.1221  0.0250832  -0.155455  0.0319005  nan  nan  nan  nan  nan  nan  -2.50073  -0.299024  0.999037  -0.010115  -0.0371968  0.00175827  -0.0101715  0.0177467  -0.0169266  0  0  0  -0.0691468  0.242  -0.202737  0.0190962  0.00592605  -0.00373273  -0.0153445  0.00220887  -0.00336323  0.00485179  0.0279402  -0.0327112  -0.109601  0.0119007  -0.00708265 
1704289983.162704000  0  0  10.8536  0.0569494  -0.137683  0.0307815  nan  nan  nan  nan  nan  nan  -2.50078  -0.298932  0.99895  -0.0101639  -0.0357158  0.00185615  -0.0105116  0.0189844  -0.0179519  0  0  0  -0.0668744  0.253125  -0.207346  0.018986  0.005964  -0.00356974  -0.0177453  0.00382035  0.0149889  0.00376691  0.0263198  -0.0326944  -0.165449  -0.00756506  0.00679526 
1704289983.167518000  0  0  10.8032  0.0497537  -0.144692  0.0312056  nan  nan  nan  nan  nan  nan  -2.50083  -0.298834  0.998857  -0.0135958  -0.0380953  0.00212724  -0.0108398  0.0202783  -0.0189996  0  0  0  -0.0643521  0.2645  -0.211705  0.0191845  0.00578838  -0.00324129  -0.0151993  0.0016079  0.0175713  0.00618805  0.0286951  -0.0329214  -0.177874  -0.0198625  0.00419505 
1704289983.171468000  0  0  11.0218  0.0512722  -0.153657  0.0311127  nan  nan  nan  nan  nan  nan  -2.50089  -0.298729  0.99876  -0.0150748  -0.0372758  0.00229254  -0.0111547  0.0216298  -0.0200685  0  0  0  -0.0615797  0.276125  -0.215814  0.0191401  0.00577386  -0.00330219  -0.0147826  0.000961878  0.00184214  0.00685138  0.028089  -0.033024  -0.188761  0.00633407  0.00659993 
1704289983.177514000  0  0  10.9038  0.0764273  -0.134167  0.0300766  nan  nan  nan  nan  nan  nan  -2.50094  -0.298618  0.998657  -0.0159133  -0.0358291  0.00242699  -0.0114552  0.02304  -0.0211574  0  0  0  -0.0585573  0.288  -0.219673  0.0192014  0.00570428  -0.00299773  -0.0168864  0.00187507  0.00928746  0.00604216  0.0265168  -0.0329872  -0.23339  -0.0173704  0.0191935 
1704289983.182520000  0  0  10.7962  0.0677905  -0.140714  0.0320289  nan  nan  nan  nan  nan  nan  -2.501  -0.298499  0.998548  -0.0186726  -0.0375658  0.00268947  -0.0117399  0.0245102  -0.0222649  0  0  0  -0.055285  0.300125  -0.223282  0.0193173  0.00559713  -0.00275048  -0.0150484  0.000547151  0.0161617  0.00757316  0.0282467  -0.0333361  -0.232484  -0.0232335  -0.00116609 
1704289983.187519000  0  0  11.0415  0.0842235  -0.149184  0.0308304  nan  nan  nan  nan  nan  nan  -2.50106  -0.298372  0.998434  -0.0191252  -0.0358155  0.00280922  -0.0120076  0.0260417  -0.0233898  0  0  0  -0.0517626  0.3125  -0.226641  0.0192377  0.00560633  -0.00283816  -0.015523  0.00104909  -0.00135239  0.00664758  0.0267951  -0.0333046  -0.257072  0.0116272  0.0135343 
1704289983.192518000  0  0  10.9862  0.0906884  -0.131418  0.0299087  nan  nan  nan  nan  nan  nan  -2.50112  -0.298238  0.998314  -0.0211612  -0.0351855  0.00300992  -0.0122571  0.0276356  -0.0245309  0  0  0  -0.0479902  0.325125  -0.22975  0.0192907  0.00552952  -0.00267534  -0.0161939  0.000474756  0.00200935  0.00718449  0.0260438  -0.0332917  -0.277111  -0.017823  0.0249759 
1704289983.196522000  0  0  10.8687  0.0865597  -0.127004  0.0312427  nan  nan  nan  nan  nan  nan  -2.50118  -0.298096  0.998188  -0.0232171  -0.03468  0.00321655  -0.0124871  0.0292933  -0.0256869  0  0  0  -0.0439679  0.338  -0.232609  0.019236  0.00550231  -0.00256647  -0.0166104  -3.97241e-05  0.00992251  0.00811632  0.0254903  -0.0335191  -0.278978  -0.0209208  0.0109319 
1704289983.202520000  0  0  11.0103  0.0968552  -0.124518  0.0310263  nan  nan  nan  nan  nan  nan  -2.50125  -0.297945  0.998057  -0.0242082  -0.0341631  0.00338913  -0.0126963  0.031016  -0.0268565  0  0  0  -0.0396955  0.351125  -0.235218  0.0192878  0.005465  -0.00254431  -0.0162748  0.000163074  -0.000371657  0.0073503  0.0250414  -0.0335978  -0.292242  -0.0210863  0.0146032 
1704289983.207518000  0  0  11.0664  0.0958504  -0.128042  0.0310883  nan  nan  nan  nan  nan  nan  -2.50131  -0.297786  0.99792  -0.02641  -0.0339936  0.00361541  -0.0128839  0.032805  -0.0280386  0  0  0  -0.0353686  0.3645  -0.237577  0.019333  0.00538762  -0.00246337  -0.0158122  -0.000817077  -0.00467772  0.0079905  0.0249653  -0.0337242  -0.297452  -0.0126541  0.0153466 
1704289983.212696000  0  0  10.9412  0.101098  -0.105536  0.0308112  nan  nan  nan  nan  nan  nan  -2.50138  -0.297617  0.997777  -0.027621  -0.0318515  0.00375754  -0.0130504  0.0346615  -0.0292319  0  0  0  -0.0312883  0.378125  -0.239686  0.0192355  0.00539665  -0.00239815  -0.0181911  -0.000198953  0.00392109  0.00762596  0.0225971  -0.0337605  -0.30451  -0.0336681  0.0192717 
1704289983.217513000  0  0  10.9759  0.0941745  -0.101824  0.0317892  nan  nan  nan  nan  nan  nan  -2.50144  -0.297439  0.997628  -0.029928  -0.0324919  0.00401484  -0.0131972  0.0365867  -0.0304351  0  0  0  -0.027458  0.392  -0.241545  0.0193183  0.00530828  -0.00228667  -0.0169622  -0.00114207  0.00113224  0.00845497  0.0230418  -0.0339928  -0.299202  -0.0467437  0.00976635 
1704289983.221463000  0  0  11.138  0.0957591  -0.120994  0.0315052  nan  nan  nan  nan  nan  nan  -2.50151  -0.297251  0.997472  -0.0317475  -0.0320283  0.00422829  -0.0133254  0.0385819  -0.0316469  0  0  0  -0.0238778  0.406125  -0.243154  0.0192754  0.00526162  -0.00234  -0.0163385  -0.00204057  -0.010362  0.00899496  0.0228956  -0.0340996  -0.308812  -0.00395732  0.0146267 
1704289983.227517000  0  0  11.0452  0.102283  -0.0931083  0.0308774  nan  nan  nan  nan  nan  nan  -2.50157  -0.297053  0.997311  -0.0334468  -0.0297311  0.00437933  -0.0134364  0.0406483  -0.0328662  0  0  0  -0.0205475  0.4205  -0.244513  0.0192645  0.0052204  -0.00223153  -0.0191318  -0.00186225  -0.00407879  0.00869666  0.0203417  -0.0340981  -0.319368  -0.0343703  0.0225073 
1704289983.232518000  0  0  11.0238  0.0788296  -0.0934284  0.0318993  nan  nan  nan  nan  nan  nan  -2.50164  -0.296844  0.997144  -0.0358875  -0.0311778  0.00468139  -0.0135313  0.0427873  -0.0340916  0  0  0  -0.0174672  0.435125  -0.245622  0.0193541  0.00512826  -0.0021205  -0.0171865  -0.00268007  -0.00280624  0.0098669  0.0215067  -0.0343598  -0.282542  -0.0470861  0.0128048 
1704289983.237532000  0  0  11.1824  0.0931506  -0.113815  0.0300801  nan  nan  nan  nan  nan  nan  -2.50171  -0.296625  0.99697  -0.0371365  -0.0298861  0.00485401  -0.0136115  0.045  -0.035322  0  0  0  -0.014637  0.45  -0.246481  0.0192671  0.00511664  -0.00223049  -0.0176473  -0.00295446  -0.0138851  0.00944651  0.0206118  -0.0342501  -0.308414  0.00692352  0.034372 
1704289983.242526000  0  0  11.0761  0.0811549  -0.0872278  0.0309482  nan  nan  nan  nan  nan  nan  -2.50178  -0.296394  0.99679  -0.0401457  -0.028734  0.00508331  -0.0136781  0.0472877  -0.036556  0  0  0  -0.0120567  0.465125  -0.24709  0.0192997  0.0050201  -0.00209661  -0.0192161  -0.00407958  -0.00658652  0.0109699  0.0191265  -0.0344042  -0.300217  -0.0329987  0.0253061 
1704289983.246526000  0  0  11.0126  0.0568049  -0.0938603  0.0329167  nan  nan  nan  nan  nan  nan  -2.50185  -0.296152  0.996605  -0.0425651  -0.0288481  0.00534699  -0.0137325  0.0496517  -0.0377925  0  0  0  -0.0097264  0.4805  -0.247449  0.0192458  0.00495712  -0.00205127  -0.0187961  -0.00464868  -0.00214531  0.0125684  0.0193057  -0.0347698  -0.266395  -0.020839  0.00494523 
1704289983.252527000  0  0  11.1455  0.0784078  -0.126781  0.0302243  nan  nan  nan  nan  nan  nan  -2.50192  -0.295898  0.996413  -0.0437766  -0.0279876  0.00553722  -0.0137758  0.0520931  -0.0390301  0  0  0  -0.0076462  0.496125  -0.247558  0.0192526  0.00492172  -0.00208921  -0.0191855  -0.00469693  -0.0114732  0.0116929  0.0192076  -0.0345915  -0.302644  0.0508789  0.0366729 
1704289983.257521000  0  0  11.1446  0.0467541  -0.109034  0.0325392  nan  nan  nan  nan  nan  nan  -2.50198  -0.295631  0.996214  -0.0471539  -0.0280124  0.0058293  -0.0138093  0.0546133  -0.0402676  0  0  0  -0.0058159  0.512  -0.247417  0.0192678  0.00482643  -0.00205895  -0.0189206  -0.00666635  -0.0113639  0.0139771  0.0191892  -0.0349294  -0.26105  0.0130382  0.0116184 
1704289983.262527000  0  0  11.1174  0.0575568  -0.129046  0.0328261  nan  nan  nan  nan  nan  nan  -2.50205  -0.295351  0.99601  -0.048104  -0.0270402  0.00600859  -0.0138344  0.0572135  -0.0415039  0  0  0  -0.0042356  0.528125  -0.247026  0.0191707  0.00480894  -0.00208908  -0.0197579  -0.00556244  -0.0093084  0.013498  0.0188379  -0.0351155  -0.278701  0.0599907  0.0102524 
1704289983.267525000  0  0  11.0724  0.0643422  -0.128222  0.0307393  nan  nan  nan  nan  nan  nan  -2.50212  -0.295059  0.995799  -0.0511893  -0.0263616  0.00625995  -0.0138521  0.059895  -0.0427375  0  0  0  -0.0029054  0.5445  -0.246385  0.0191459  0.00474551  -0.00209132  -0.0204857  -0.00691638  -0.00597065  0.0148234  0.0186752  -0.034977  -0.308499  0.0600936  0.0348396 
1704289983.271526000  0  0  11.1492  0.0276411  -0.127143  0.0333283  nan  nan  nan  nan  nan  nan  -2.50219  -0.294752  0.995583  -0.054568  -0.0268974  0.00658372  -0.0138638  0.062659  -0.0439673  0  0  0  -0.0018251  0.561125  -0.245494  0.0190929  0.00464474  -0.00212321  -0.0192218  -0.00922804  -0.0111741  0.0174544  0.0194373  -0.0354021  -0.26007  0.0490126  0.00738789 
1704289983.277520000  0  0  11.1616  0.0715747  -0.161102  0.0308718  nan  nan  nan  nan  nan  nan  -2.50226  -0.294432  0.99536  -0.054421  -0.0255702  0.00671538  -0.0138708  0.0655066  -0.045192  0  0  0  -0.0009948  0.577936  -0.244353  0.0190284  0.00466723  -0.00222153  -0.0205927  -0.00696783  -0.0117572  0.0150622  0.0193386  -0.0352539  -0.326754  0.122964  0.0365103 
1704289983.282529000  0  0  10.9803  0.0567577  -0.138676  0.0307711  nan  nan  nan  nan  nan  nan  -2.50233  -0.294097  0.995131  -0.0588332  -0.0255563  0.00703803  -0.0138742  0.068438  -0.0464104  0  0  0  -0.0004145  0.594559  -0.242962  0.0190178  0.00457133  -0.00212743  -0.0209915  -0.00895206  0.00117943  0.0177868  0.0196127  -0.035286  -0.326328  0.0717244  0.0381634 
1704289983.287528000  0  0  11.1813  0.0391585  -0.155643  0.0337792  nan  nan  nan  nan  nan  nan  -2.5024  -0.293747  0.994896  -0.0603586  -0.0264569  0.00734396  -0.0138754  0.0714518  -0.0476212  0  0  0  -8.43e-05  0.610932  -0.241321  0.0189339  0.00452489  -0.00226659  -0.0189111  -0.00997562  -0.0125907  0.0180813  0.0210785  -0.035729  -0.291978  0.0912424  0.00565525 
1704289983.292525000  0  0  11.1809  0.0913815  -0.178728  0.0292156  nan  nan  nan  nan  nan  nan  -2.50247  -0.293382  0.994654  -0.0608147  -0.025231  0.00749584  -0.0138755  0.0745469  -0.0488232  0  0  0  -0  0.627055  -0.23943  0.0189352  0.00444891  -0.00219847  -0.0204716  -0.00822419  -0.0125244  0.0160395  0.0209257  -0.0353136  -0.380468  0.142501  0.0580695 
1704289983.296527000  0  0  11.0005  0.0715483  -0.149633  0.0297917  nan  nan  nan  nan  nan  nan  -2.50254  -0.293002  0.994407  -0.0652692  -0.0247962  0.00779636  -0.0138755  0.0777219  -0.0500151  0  0  0  -0  0.642928  -0.237289  0.018862  0.00433174  -0.00208346  -0.0212908  -0.0101877  0.000376255  0.0190011  0.0205976  -0.0353959  -0.372012  0.0838891  0.0518113 
1704289983.302526000  0  0  11.1479  0.0700559  -0.164424  0.0335275  nan  nan  nan  nan  nan  nan  -2.50261  -0.292605  0.994154  -0.0659812  -0.0259944  0.00811094  -0.0138755  0.0809757  -0.0511957  0  0  0  -0  0.658551  -0.234898  0.0188905  0.00427589  -0.00212855  -0.0193685  -0.00997135  -0.00973321  0.0177437  0.0223533  -0.0358827  -0.354347  0.0954053  0.0106743 
1704289983.307524000  0  0  11.1502  0.113507  -0.176969  0.0292066  nan  nan  nan  nan  nan  nan  -2.50268  -0.292192  0.993895  -0.0675608  -0.0256774  0.00834993  -0.0138755  0.084307  -0.0523637  0  0  0  -0  0.673923  -0.232257  0.0189226  0.00414469  -0.00202701  -0.0198264  -0.00961695  -0.00981277  0.0165685  0.0228109  -0.0354712  -0.433997  0.117041  0.0600812 
1704289983.312702000  0  0  11.0705  0.0877443  -0.144414  0.0327588  nan  nan  nan  nan  nan  nan  -2.50275  -0.291762  0.993631  -0.070439  -0.0247178  0.00857691  -0.0138755  0.0877145  -0.0535178  0  0  0  -0  0.689046  -0.229366  0.0188114  0.00410176  -0.00202583  -0.0209327  -0.0105582  -0.00378722  0.017652  0.0218973  -0.0358132  -0.39122  0.0577464  0.0195086 
1704289983.317521000  0  0  11.0971  0.107596  -0.150194  0.032692  nan  nan  nan  nan  nan  nan  -2.50282  -0.291315  0.99336  -0.0718195  -0.0248928  0.00884528  -0.0138755  0.0911971  -0.0546569  0  0  0  -0  0.703919  -0.226225  0.0188518  0.00398134  -0.00197811  -0.0207089  -0.0102278  -0.00543663  0.0168368  0.0225576  -0.035933  -0.424408  0.0625435  0.0217945 
1704289983.321473000  0  0  11.0955  0.123099  -0.153157  0.0312471  nan  nan  nan  nan  nan  nan  -2.50289  -0.29085  0.993084  -0.0741289  -0.0249407  0.00912913  -0.0138755  0.0947533  -0.0557797  0  0  0  -0  0.718542  -0.222834  0.0187906  0.00384324  -0.00193971  -0.0204309  -0.0108417  -0.00500991  0.0170504  0.0229667  -0.0358762  -0.460108  0.0641913  0.0392898 
1704289983.327526000  0  0  11.1626  0.116684  -0.145011  0.0322395  nan  nan  nan  nan  nan  nan  -2.50295  -0.290367  0.992802  -0.0760342  -0.0239608  0.00932558  -0.0138755  0.0983821  -0.0568848  0  0  0  -0  0.732915  -0.219193  0.0187498  0.00378626  -0.00198348  -0.0213414  -0.0118124  -0.00926414  0.016448  0.0223481  -0.035965  -0.439422  0.0538406  0.0278729 
1704289983.332525000  0  0  10.9948  0.114854  -0.127987  0.032698  nan  nan  nan  nan  nan  nan  -2.50302  -0.289866  0.992515  -0.0780635  -0.0236137  0.00957124  -0.0138755  0.102082  -0.0579712  0  0  0  -0  0.747038  -0.215302  0.0187419  0.00368834  -0.00186959  -0.0221925  -0.0107713  0.00282583  0.0163421  0.022011  -0.0360937  -0.43428  0.0212148  0.0236547 
1704289983.337513000  0  0  11.0942  0.120761  -0.140323  0.0326672  nan  nan  nan  nan  nan  nan  -2.50309  -0.289346  0.992223  -0.0799145  -0.0245771  0.00991695  -0.0138755  0.105852  -0.0590374  0  0  0  -0  0.76091  -0.211161  0.0186516  0.00362255  -0.00193074  -0.0203728  -0.0119945  -0.00363296  0.0158874  0.0232373  -0.0361852  -0.441715  0.0335589  0.0251453 
1704289983.342527000  0  0  11.2325  0.124383  -0.141956  0.0312154  nan  nan  nan  nan  nan  nan  -2.50316  -0.288807  0.991925  -0.08102  -0.0227728  0.0100228  -0.0138755  0.109691  -0.0600824  0  0  0  -0  0.774533  -0.20677  0.0186185  0.00351289  -0.00199613  -0.022188  -0.0126063  -0.0128651  0.0148618  0.0219308  -0.036048  -0.437682  0.0520899  0.0417596 
1704289983.346528000  0  0  11.0387  0.107665  -0.106056  0.0321594  nan  nan  nan  nan  nan  nan  -2.50323  -0.288249  0.991622  -0.0839272  -0.0216697  0.0102222  -0.0138755  0.113597  -0.0611047  0  0  0  -0  0.787906  -0.202129  0.0185314  0.00336241  -0.00185204  -0.0238191  -0.0123131  0.00111605  0.0162578  0.0204766  -0.0362167  -0.417895  -0.00815898  0.0319148 
1704289983.352523000  0  0  11.0643  0.11654  -0.130122  0.0319891  nan  nan  nan  nan  nan  nan  -2.5033  -0.287671  0.991314  -0.0856675  -0.0234126  0.0106355  -0.0138755  0.117569  -0.0621032  0  0  0  -0  0.801029  -0.197238  0.0185018  0.00334604  -0.00193408  -0.0213843  -0.0129693  -5.91764e-06  0.0153511  0.02253  -0.0362505  -0.426495  0.0198212  0.0344642 
1704289983.357520000  0  0  11.2195  0.117128  -0.127554  0.0304542  nan  nan  nan  nan  nan  nan  -2.50337  -0.287073  0.991001  -0.0868352  -0.0222675  0.0107894  -0.0138755  0.121607  -0.0630767  0  0  0  -0  0.813902  -0.192097  0.0184903  0.00320741  -0.00195878  -0.0223666  -0.0139261  -0.0104387  0.0144705  0.0216031  -0.0360839  -0.417624  0.0249777  0.0517701 
1704289983.362703000  0  0  10.9954  0.102922  -0.105234  0.0322388  nan  nan  nan  nan  nan  nan  -2.50344  -0.286455  0.990683  -0.0891442  -0.0219137  0.0110357  -0.0138755  0.125708  -0.0640238  0  0  0  -0  0.826525  -0.186706  0.0183683  0.00317031  -0.00187406  -0.0230142  -0.0128375  0.00583741  0.0148998  0.020963  -0.0362661  -0.392103  -0.0155164  0.0315113 
1704289983.367526000  0  0  11.0105  0.109381  -0.11803  0.0313593  nan  nan  nan  nan  nan  nan  -2.50351  -0.285816  0.990361  -0.0911143  -0.0218976  0.0113041  -0.0138755  0.129872  -0.0649433  0  0  0  -0  0.838897  -0.181065  0.0183009  0.00305789  -0.00184529  -0.0227501  -0.0135327  0.00530307  0.0148091  0.021213  -0.0362233  -0.404908  0.00904522  0.0420621 
1704289983.372525000  0  0  11.2101  0.098888  -0.109128  0.0309086  nan  nan  nan  nan  nan  nan  -2.50358  -0.285156  0.990034  -0.0921233  -0.0209421  0.0114644  -0.0138755  0.134097  -0.065834  0  0  0  -0  0.85102  -0.175174  0.0182217  0.00294956  -0.00193123  -0.0232016  -0.0150282  -0.00807989  0.0141539  0.0202607  -0.0361486  -0.374871  0.000912315  0.046832 
1704289983.377521000  0  0  11.1673  0.0961841  -0.107663  0.0313368  nan  nan  nan  nan  nan  nan  -2.50365  -0.284475  0.989703  -0.0934851  -0.0202108  0.011651  -0.0138755  0.138381  -0.0666946  0  0  0  -0  0.862893  -0.169033  0.0181035  0.00288284  -0.00192108  -0.023876  -0.0145745  -0.00447731  0.013789  0.0196178  -0.0361998  -0.364876  0.005167  0.0420607 
1704289983.382527000  0  0  11.0321  0.0994958  -0.0989833  0.0310669  nan  nan  nan  nan  nan  nan  -2.50372  -0.283772  0.989367  -0.0956529  -0.0193668  0.0118406  -0.0138755  0.142725  -0.0675239  0  0  0  -0  0.874516  -0.162642  0.0180174  0.00278508  -0.00182806  -0.0249854  -0.0140675  0.00557318  0.0140221  0.0188174  -0.0361665  -0.374658  -0.00423723  0.0450556 
1704289983.387529000  0  0  11.2286  0.0833803  -0.10242  0.0320586  nan  nan  nan  nan  nan  nan  -2.50379  -0.283048  0.989027  -0.0968389  -0.0196318  0.012116  -0.0138755  0.147126  -0.0683206  0  0  0  -0  0.885889  -0.156001  0.0179077  0.00269885  -0.00193338  -0.0238193  -0.0160088  -0.00747626  0.0137569  0.0191403  -0.0362952  -0.337052  -0.000583486  0.0341292 
1704289983.392508000  0  0  11.326  0.0988659  -0.122249  0.0312915  nan  nan  nan  nan  nan  nan  -2.50386  -0.282301  0.988684  -0.0973375  -0.0183977  0.0122318  -0.0138755  0.151584  -0.0690835  0  0  0  -0  0.897011  -0.14911  0.017826  0.00258595  -0.00198416  -0.0249417  -0.0159708  -0.0136556  0.0124027  0.0184627  -0.0362419  -0.354678  0.0497322  0.0431383 
1704289983.396529000  0  0  11.1156  0.0923731  -0.103562  0.0317596  nan  nan  nan  nan  nan  nan  -2.50393  -0.281532  0.988337  -0.100711  -0.0172166  0.0124015  -0.0138755  0.156096  -0.0698113  0  0  0  -0  0.907884  -0.141969  0.017726  0.00238175  -0.00182065  -0.026575  -0.0159301  0.00170147  0.0142819  0.0173434  -0.036344  -0.362375  0.0225387  0.0384803 
1704289983.402525000  0  0  11.2358  0.0850518  -0.117162  0.0333801  nan  nan  nan  nan  nan  nan  -2.504  -0.28074  0.987986  -0.101265  -0.0184809  0.012766  -0.0138755  0.160662  -0.0705028  0  0  0  -0  0.918507  -0.134578  0.0176444  0.00237441  -0.00193062  -0.0244001  -0.0165895  -0.00591259  0.0130203  0.0188113  -0.0365679  -0.332161  0.0348131  0.0207889 
1704289983.407525000  0  0  11.3923  0.109983  -0.14289  0.0303032  nan  nan  nan  nan  nan  nan  -2.50406  -0.279925  0.987632  -0.101659  -0.017029  0.0128517  -0.0138755  0.165281  -0.0711567  0  0  0  -0  0.92888  -0.126937  0.0175656  0.00222546  -0.00201378  -0.0257063  -0.0171589  -0.0161472  0.0113828  0.0182429  -0.036251  -0.366782  0.0965189  0.055683 
1704289983.412526000  0  0  11.1666  0.0938778  -0.113471  0.0322151  nan  nan  nan  nan  nan  nan  -2.50413  -0.279087  0.987274  -0.104229  -0.0164022  0.0130567  -0.0138755  0.16995  -0.0717718  0  0  0  -0  0.939003  -0.119135  0.0174304  0.00215107  -0.00192103  -0.02654  -0.0162761  0.000453681  0.0123706  0.0175724  -0.0364369  -0.343613  0.0411515  0.0338675 
1704289983.417522000  0  0  11.2359  0.0988265  -0.14156  0.0321148  nan  nan  nan  nan  nan  nan  -2.5042  -0.278225  0.986914  -0.105116  -0.0174255  0.0134058  -0.0138755  0.17467  -0.0723484  0  0  0  -0  0.948876  -0.111542  0.0173906  0.00200238  -0.00194344  -0.0249034  -0.0165068  -0.00371138  0.0115538  0.0192664  -0.0364862  -0.344827  0.081893  0.0357248 
1704289983.421471000  0  0  11.3844  0.108947  -0.156728  0.0294267  nan  nan  nan  nan  nan  nan  -2.50427  -0.27734  0.986551  -0.106626  -0.0163116  0.0135396  -0.0138755  0.179439  -0.0728877  0  0  0  -0  0.958498  -0.104199  0.0172976  0.00174225  -0.00196669  -0.0257342  -0.0182894  -0.0134416  0.0114973  0.0189477  -0.0362171  -0.365877  0.118083  0.0663034 
1704289983.427524000  0  0  11.2875  0.0950635  -0.134657  0.0316314  nan  nan  nan  nan  nan  nan  -2.50434  -0.276431  0.986185  -0.107993  -0.0166497  0.0138252  -0.0138755  0.184255  -0.0733908  0  0  0  -0  0.967871  -0.0971058  0.0172109  0.00175132  -0.00200041  -0.025187  -0.0176517  -0.00583348  0.0110747  0.0194259  -0.0363206  -0.331247  0.0652563  0.0398107 
1704289983.432526000  0  0  11.2575  0.121061  -0.167996  0.0299568  nan  nan  nan  nan  nan  nan  -2.50441  -0.275498  0.985817  -0.108454  -0.0167041  0.0140653  -0.0138755  0.189117  -0.0738592  0  0  0  -0  0.976994  -0.0902628  0.0171861  0.00159106  -0.0019904  -0.0250681  -0.0162131  -0.00314853  0.00950736  0.0205396  -0.0361286  -0.368961  0.123932  0.0585658 
1704289983.437527000  0  0  11.3344  0.121073  -0.156141  0.0291164  nan  nan  nan  nan  nan  nan  -2.50448  -0.27454  0.985447  -0.110033  -0.0163135  0.0142752  -0.0138755  0.194024  -0.0742939  0  0  0  -0  0.985867  -0.0836698  0.0170631  0.00149284  -0.00205484  -0.0250119  -0.0177821  -0.00777256  0.00924622  0.0205864  -0.0359284  -0.365981  0.0979728  0.0667268 
1704289983.442528000  0  0  11.3936  0.1125  -0.167906  0.0321424  nan  nan  nan  nan  nan  nan  -2.50455  -0.273557  0.985074  -0.110932  -0.0173142  0.0146279  -0.0138755  0.198975  -0.0746963  0  0  0  -0  0.99449  -0.0773268  0.0170659  0.00130192  -0.00209255  -0.0235223  -0.0180081  -0.0112902  0.00862146  0.0221781  -0.0361999  -0.340411  0.104887  0.0319261 
1704289983.446526000  0  0  11.3201  0.13596  -0.181021  0.0298339  nan  nan  nan  nan  nan  nan  -2.50462  -0.27255  0.9847  -0.111841  -0.0157855  0.0146986  -0.0138755  0.203969  -0.0750676  0  0  0  -0  1.00286  -0.0712338  0.0169695  0.00105002  -0.00200819  -0.0253716  -0.0164607  -0.00570588  0.00777693  0.0215211  -0.0359944  -0.380999  0.140569  0.0584948 
1704289983.452525000  0  0  11.299  0.117812  -0.150374  0.031631  nan  nan  nan  nan  nan  nan  -2.50469  -0.271517  0.984323  -0.113682  -0.016325  0.015016  -0.0138755  0.209003  -0.075409  0  0  0  -0  1.01099  -0.0653908  0.0169272  0.00103977  -0.00207543  -0.0245161  -0.017461  -0.00343748  0.0076997  0.0221414  -0.0360656  -0.341199  0.0677178  0.0367419 
1704289983.457515000  0  0  11.4998  0.118166  -0.174433  0.033513  nan  nan  nan  nan  nan  nan  -2.50476  -0.27046  0.983946  -0.11305  -0.0170524  0.0153145  -0.0138755  0.214078  -0.0757219  0  0  0  -0  1.01886  -0.0597978  0.0169142  0.000868833  -0.00220509  -0.0230689  -0.0177123  -0.0169585  0.00565066  0.0235738  -0.0363691  -0.318384  0.102828  0.01672 
1704289983.462519000  0  0  11.3712  0.154796  -0.165458  0.0304988  nan  nan  nan  nan  nan  nan  -2.50483  -0.269377  0.983566  -0.11334  -0.0151035  0.0153241  -0.0138755  0.219192  -0.0760074  0  0  0  -0  1.02648  -0.0544548  0.0167733  0.000808305  -0.00218126  -0.0254863  -0.0152753  -0.00746143  0.00371265  0.0221575  -0.0360839  -0.374632  0.099876  0.0512089 
1704289983.467518000  0  0  11.334  0.113518  -0.135617  0.0335911  nan  nan  nan  nan  nan  nan  -2.5049  -0.268268  0.983186  -0.116428  -0.01586  0.0156862  -0.0138755  0.224343  -0.0762669  0  0  0  -0  1.03385  -0.0493618  0.0167522  0.00061996  -0.002183  -0.0244044  -0.0172832  -0.00414147  0.00561328  0.0227295  -0.0364318  -0.307987  0.0293099  0.0164943 
1704289983.471520000  0  0  11.5207  0.105996  -0.149543  0.0344622  nan  nan  nan  nan  nan  nan  -2.50497  -0.267133  0.982804  -0.116879  -0.0156717  0.0158977  -0.0138755  0.22953  -0.0765014  0  0  0  -0  1.04098  -0.0445189  0.0166721  0.000323923  -0.00223974  -0.0240065  -0.018602  -0.016766  0.00509115  0.0229725  -0.0366994  -0.285852  0.0563747  0.00875923 
1704289983.477515000  0  0  11.471  0.131553  -0.145291  0.0295265  nan  nan  nan  nan  nan  nan  -2.50504  -0.265972  0.982421  -0.116726  -0.0153123  0.0160795  -0.0138755  0.234752  -0.0767125  0  0  0  -0  1.04785  -0.0399259  0.0166349  0.000338441  -0.00234151  -0.0244493  -0.0168699  -0.0126893  0.00280979  0.0229453  -0.0361599  -0.314408  0.0475692  0.0643576 
1704289983.482468000  0  0  11.3845  0.100757  -0.125155  0.0313725  nan  nan  nan  nan  nan  nan  -2.50511  -0.264786  0.982037  -0.119346  -0.0153552  0.0163518  -0.0138755  0.240008  -0.0769011  0  0  0  -0  1.05447  -0.0355829  0.0166273  0.000132012  -0.0023337  -0.0244511  -0.0176677  -0.00600149  0.00442654  0.022857  -0.0362995  -0.266972  0.00540903  0.0428146 
1704289983.487522000  0  0  11.4927  0.118407  -0.133734  0.0308322  nan  nan  nan  nan  nan  nan  -2.50517  -0.263572  0.981652  -0.118677  -0.0156062  0.0165977  -0.0138755  0.245296  -0.0770687  0  0  0  -0  1.06085  -0.0314899  0.0165039  5.83254e-05  -0.00244275  -0.02353  -0.01721  -0.0131398  0.00229354  0.0233037  -0.0362372  -0.280281  0.0186652  0.0488613 
1704289983.492517000  0  0  11.5375  0.118857  -0.14479  0.0292875  nan  nan  nan  nan  nan  nan  -2.50524  -0.262333  0.981266  -0.119667  -0.0161226  0.0169018  -0.0138755  0.250616  -0.0772164  0  0  0  -0  1.06697  -0.0276469  0.016498  -0.00014624  -0.00251335  -0.0226711  -0.0177307  -0.0157566  0.00191078  0.0241403  -0.0359869  -0.27684  0.0327473  0.0652795 
1704289983.497512000  0  0  11.4671  0.110175  -0.129567  0.0301034  nan  nan  nan  nan  nan  nan  -2.50531  -0.261066  0.98088  -0.120564  -0.0141949  0.0169094  -0.0138755  0.255965  -0.0773456  0  0  0  -0  1.07284  -0.0240539  0.0163632  -0.000230844  -0.00253508  -0.0249542  -0.0169632  -0.0103504  0.00172558  0.0223013  -0.0359851  -0.256095  0.0212619  0.0549919 
1704289983.502520000  0  0  11.4183  0.0963836  -0.124645  0.0314938  nan  nan  nan  nan  nan  nan  -2.50538  -0.259773  0.980492  -0.12188  -0.0151024  0.0172659  -0.0138755  0.261344  -0.0774574  0  0  0  -0  1.07846  -0.0207109  0.0163589  -0.000431345  -0.00254931  -0.0237606  -0.016678  -0.00648539  0.00207118  0.0231496  -0.0361071  -0.230498  0.00094786  0.0389679 
1704289983.507518000  0  0  11.6257  0.110867  -0.166493  0.0302784  nan  nan  nan  nan  nan  nan  -2.50545  -0.258453  0.980105  -0.121846  -0.0157474  0.0175707  -0.0138755  0.26675  -0.0775531  0  0  0  -0  1.08384  -0.0176179  0.0163572  -0.000657508  -0.00269384  -0.0224365  -0.0181739  -0.0205877  0.000727634  0.0246297  -0.0359761  -0.246098  0.0736539  0.0526823 
1704289983.512577000  0  0  11.5555  0.107958  -0.136303  0.0302891  nan  nan  nan  nan  nan  nan  -2.50552  -0.257105  0.979717  -0.122458  -0.0135737  0.0175394  -0.0138755  0.272182  -0.077634  0  0  0  -0  1.08896  -0.0147749  0.0162142  -0.00072529  -0.0027331  -0.0250501  -0.0171763  -0.0152443  0.000261864  0.0224355  -0.0359148  -0.234502  0.0341624  0.0518083 
1704289983.517514000  0  0  11.4334  0.0867268  -0.128902  0.0329054  nan  nan  nan  nan  nan  nan  -2.50559  -0.255731  0.979329  -0.124202  -0.0151597  0.0179878  -0.0138755  0.277639  -0.0777013  0  0  0  -0  1.09383  -0.0121819  0.0162212  -0.000943913  -0.00271089  -0.0231008  -0.0164417  -0.00630529  0.00125193  0.023847  -0.0362097  -0.200366  0.00205315  0.0224437 
1704289983.522520000  0  0  11.5899  0.108307  -0.163354  0.0311989  nan  nan  nan  nan  nan  nan  -2.50566  -0.254329  0.97894  -0.124422  -0.015564  0.0182682  -0.0138755  0.28312  -0.0777562  0  0  0  -0  1.09846  -0.009839  0.0162285  -0.00119805  -0.00283293  -0.0222201  -0.0176288  -0.0168929  0.000116155  0.025009  -0.0360714  -0.233573  0.0625606  0.0422488 
1704289983.527518000  0  0  11.5528  0.0876639  -0.127168  0.0320436  nan  nan  nan  nan  nan  nan  -2.50573  -0.2529  0.978551  -0.125236  -0.0143764  0.0183579  -0.0138755  0.288623  -0.0778001  0  0  0  -0  1.10283  -0.007746  0.0161052  -0.00128645  -0.00288401  -0.0234884  -0.0173688  -0.013898  0.000242998  0.0235362  -0.0361585  -0.190769  0.00191199  0.0326702 
1704289983.532519000  0  0  11.3937  0.0861273  -0.140607  0.0332924  nan  nan  nan  nan  nan  nan  -2.5058  -0.251443  0.978162  -0.126479  -0.0154624  0.0187406  -0.0138755  0.294148  -0.0778341  0  0  0  -0  1.10695  -0.005903  0.0161264  -0.00149653  -0.00284469  -0.0223432  -0.0155343  -0.00250278  0.000570937  0.0248438  -0.0363755  -0.191247  0.0156854  0.0195735 
1704289983.537517000  0  0  11.4804  0.11212  -0.152297  0.0300869  nan  nan  nan  nan  nan  nan  -2.50587  -0.249958  0.977773  -0.126098  -0.0151248  0.0189182  -0.0138755  0.299692  -0.0778595  0  0  0  -0  1.11082  -0.00431  0.0160155  -0.00158267  -0.00293277  -0.022275  -0.0155435  -0.00834576  -0.00117518  0.024914  -0.0360587  -0.226894  0.0399424  0.0560874 
1704289983.542469000  0  0  11.5912  0.0938116  -0.142814  0.0306566  nan  nan  nan  nan  nan  nan  -2.50594  -0.248446  0.977383  -0.127165  -0.0157664  0.019243  -0.0138755  0.305255  -0.0778776  0  0  0  -0  1.11445  -0.002967  0.0160301  -0.00183881  -0.00301819  -0.0211621  -0.0173438  -0.0157647  -0.000814217  0.0255033  -0.0360642  -0.191788  0.0128299  0.048985 
1704289983.546524000  0  0  11.5131  0.103148  -0.155115  0.0301718  nan  nan  nan  nan  nan  nan  -2.50601  -0.246905  0.976994  -0.127955  -0.0148681  0.0193665  -0.0138755  0.310836  -0.0778896  0  0  0  -0  1.11782  -0.001874  0.0159477  -0.00218079  -0.00295099  -0.0222385  -0.0158492  -0.010228  -0.000938607  0.0250477  -0.0360455  -0.210376  0.0444484  0.0548596 
1704289983.552519000  0  0  11.391  0.116511  -0.137125  0.0290069  nan  nan  nan  nan  nan  nan  -2.50608  -0.245337  0.976605  -0.127687  -0.0151631  0.0196267  -0.0138755  0.316433  -0.0778968  0  0  0  -0  1.12094  -0.001031  0.0159104  -0.00208205  -0.0029944  -0.021953  -0.0135597  -0.0014986  -0.002636  0.0251897  -0.0357428  -0.219503  0.00423889  0.0658682 
1704289983.557514000  0  0  11.6292  0.109955  -0.159209  0.030434  nan  nan  nan  nan  nan  nan  -2.50615  -0.243741  0.976215  -0.127661  -0.0168661  0.0200713  -0.0138755  0.322045  -0.0779003  0  0  0  -0  1.12381  -0.000438  0.0159536  -0.00234153  -0.00314505  -0.0192463  -0.0158618  -0.017951  -0.0034683  0.0271839  -0.0358255  -0.195869  0.0286511  0.0489078 
1704289983.562521000  0  0  11.5478  0.138832  -0.155123  0.0282554  nan  nan  nan  nan  nan  nan  -2.50622  -0.242117  0.975826  -0.126964  -0.015014  0.0200494  -0.0138755  0.327671  -0.0779016  0  0  0  -0  1.12644  -9.5e-05  0.0158272  -0.00239311  -0.00316789  -0.0215423  -0.0132972  -0.0122078  -0.0055215  0.0256238  -0.0355215  -0.234168  0.0378374  0.0726553 
1704289983.567527000  0  0  11.3796  0.104155  -0.122645  0.0310345  nan  nan  nan  nan  nan  nan  -2.50628  -0.240464  0.975436  -0.130116  -0.0169965  0.0205833  -0.0138755  0.333309  -0.0779017  0  0  0  -0  1.12881  0  0.0159998  -0.00280875  -0.00315194  -0.0196192  -0.0134021  -4.62386e-05  -0.00298408  0.0269854  -0.0357088  -0.189005  -0.0474675  0.0399463 
1704289983.572530000  0  0  11.6588  0.124848  -0.160063  0.0311421  nan  nan  nan  nan  nan  nan  -2.50635  -0.238784  0.975047  -0.12867  -0.0181259  0.0209308  -0.0138755  0.338959  -0.0779017  0  0  0  -0  1.13093  0  0.0159973  -0.00300234  -0.00331716  -0.0174473  -0.0147865  -0.0195589  -0.00551086  0.0284959  -0.0357566  -0.204307  0.0153879  0.0391698 
1704289983.577518000  0  0  11.6235  0.143803  -0.14363  0.028771  nan  nan  nan  nan  nan  nan  -2.50642  -0.237075  0.974657  -0.128299  -0.0161217  0.0208918  -0.0138755  0.344618  -0.0779017  0  0  0  -0  1.13281  0  0.0158785  -0.00306898  -0.0033699  -0.0198821  -0.0133825  -0.0169898  -0.00712125  0.0265027  -0.0354476  -0.226424  0.00308415  0.0652787 
1704289983.582528000  0  0  11.4076  0.111904  -0.111021  0.0325366  nan  nan  nan  nan  nan  nan  -2.50649  -0.235338  0.974267  -0.129796  -0.0166736  0.0212148  -0.0138755  0.350286  -0.0779017  0  0  0  -0  1.13443  0  0.015867  -0.00321748  -0.00330635  -0.0195025  -0.0114952  -0.0017274  -0.00610594  0.0262804  -0.0358463  -0.169706  -0.0642816  0.0227036 
1704289983.587531000  0  0  11.6312  0.151159  -0.147863  0.0307474  nan  nan  nan  nan  nan  nan  -2.50656  -0.233572  0.973878  -0.127706  -0.0169462  0.0214408  -0.0138755  0.355962  -0.0779017  0  0  0  -0  1.1358  0  0.0157783  -0.003284  -0.00347768  -0.0184032  -0.0116704  -0.0173875  -0.00948298  0.0269668  -0.0357481  -0.215028  0.00681939  0.0440327 
1704289983.592526000  0  0  11.639  0.143603  -0.130512  0.0289847  nan  nan  nan  nan  nan  nan  -2.50663  -0.231778  0.973488  -0.128358  -0.0161803  0.0215796  -0.0138755  0.361644  -0.0779017  0  0  0  -0  1.13692  0  0.0157588  -0.00346625  -0.00352006  -0.0193121  -0.0120055  -0.0177667  -0.00965979  0.0260284  -0.0354758  -0.196791  -0.0195876  0.0629281 
1704289983.596531000  0  0  11.5239  0.116538  -0.1141  0.0315822  nan  nan  nan  nan  nan  nan  -2.5067  -0.229955  0.973099  -0.129833  -0.0156418  0.0217599  -0.0138755  0.367331  -0.0779017  0  0  0  -0  1.1378  0  0.0156906  -0.0038656  -0.00343421  -0.0200118  -0.0110145  -0.00966029  -0.00846359  0.0251683  -0.035782  -0.152519  -0.0448863  0.0339381 
1704289983.602527000  0  0  11.5152  0.143928  -0.125362  0.0302988  nan  nan  nan  nan  nan  nan  -2.50677  -0.228105  0.972709  -0.127722  -0.0161207  0.0220142  -0.0138755  0.373021  -0.0779017  0  0  0  -0  1.13842  0  0.0156521  -0.00364828  -0.00356807  -0.0193002  -0.00861932  -0.00901994  -0.0117038  0.0255842  -0.0356262  -0.173972  -0.0255211  0.0482075 
1704289983.606529000  0  0  11.6104  0.12261  -0.128691  0.0299035  nan  nan  nan  nan  nan  nan  -2.50684  -0.226225  0.97232  -0.129186  -0.0163566  0.0222953  -0.0138755  0.378714  -0.0779017  0  0  0  -0  1.13879  0  0.0155953  -0.00407419  -0.00358392  -0.0185316  -0.0106962  -0.0155365  -0.0106098  0.0258433  -0.0355993  -0.140847  -0.021365  0.0528572 
1704289983.612689000  0  0  11.5749  0.139993  -0.119907  0.029563  nan  nan  nan  nan  nan  nan  -2.50691  -0.224317  0.97193  -0.126344  -0.0144131  0.0222276  -0.0138755  0.384409  -0.0779017  0  0  0  -0  1.13892  0  0.0155082  -0.00378085  -0.00372725  -0.02103  -0.00726876  -0.0130501  -0.0141535  0.0237535  -0.0354778  -0.137354  -0.0161571  0.0556762 
1704289983.617519000  0  0  11.4645  0.129732  -0.104493  0.0298548  nan  nan  nan  nan  nan  nan  -2.50698  -0.222381  0.971541  -0.127224  -0.0154425  0.0225986  -0.0138755  0.390103  -0.0779017  0  0  0  -0  1.13879  0  0.0154983  -0.00397192  -0.00369806  -0.0197815  -0.00626052  -0.00523031  -0.0137765  0.0242975  -0.0354612  -0.119687  -0.0554675  0.0518051 
1704289983.621520000  0  0  11.6033  0.117316  -0.120314  0.0296053  nan  nan  nan  nan  nan  nan  -2.50705  -0.220416  0.971151  -0.128062  -0.0160916  0.0229216  -0.0138755  0.395796  -0.0779017  0  0  0  -0  1.13841  0  0.0154422  -0.00440492  -0.00373883  -0.0183893  -0.00820315  -0.014846  -0.0132016  0.0250309  -0.0354589  -0.0996795  -0.0299811  0.0549167 
1704289983.627528000  0  0  11.6796  0.14101  -0.118039  0.0272967  nan  nan  nan  nan  nan  nan  -2.50712  -0.218423  0.970762  -0.125341  -0.0139509  0.0228338  -0.0138755  0.401487  -0.0779017  0  0  0  -0  1.13778  0  0.0153779  -0.00418402  -0.00390799  -0.0209979  -0.0064587  -0.0201829  -0.016571  0.0228969  -0.0350382  -0.111722  -0.0103082  0.0788938 
1704289983.632530000  0  0  11.4937  0.108993  -0.0953972  0.0301861  nan  nan  nan  nan  nan  nan  -2.50719  -0.216402  0.970372  -0.126661  -0.0149088  0.0232009  -0.0138755  0.407174  -0.0779017  0  0  0  -0  1.13691  0  0.0153912  -0.00435764  -0.00382207  -0.0200343  -0.00510309  -0.00709757  -0.0152308  0.0232346  -0.0352183  -0.0584887  -0.062743  0.0447078 
1704289983.637528000  0  0  11.6395  0.12068  -0.120986  0.0296449  nan  nan  nan  nan  nan  nan  -2.50726  -0.214351  0.969983  -0.125049  -0.0150589  0.0234217  -0.0138755  0.412856  -0.0779017  0  0  0  -0  1.13578  0  0.0152962  -0.00439139  -0.00396553  -0.0192748  -0.00512353  -0.0172718  -0.0171485  0.02358  -0.0351846  -0.0614854  -0.0118486  0.051113 
1704289983.642480000  0  0  11.7279  0.12467  -0.117821  0.0275568  nan  nan  nan  nan  nan  nan  -2.50733  -0.212273  0.969593  -0.124695  -0.0143008  0.0235477  -0.0138755  0.418531  -0.0779017  0  0  0  -0  1.1344  0  0.0152744  -0.00459296  -0.00401897  -0.0200393  -0.00554845  -0.0234331  -0.0177704  0.0228282  -0.0348532  -0.0628866  -0.0099851  0.0733902 
1704289983.646478000  0  0  11.5838  0.0959915  -0.105184  0.0296481  nan  nan  nan  nan  nan  nan  -2.50739  -0.210166  0.969204  -0.126755  -0.0140432  0.0237712  -0.0138755  0.424199  -0.0779017  0  0  0  -0  1.13278  0  0.0151963  -0.0050313  -0.00393087  -0.020349  -0.00518698  -0.0132084  -0.0155681  0.0223705  -0.0350386  -0.0267291  -0.0318172  0.0493125 
1704289983.652528000  0  0  11.553  0.101613  -0.114779  0.0299747  nan  nan  nan  nan  nan  nan  -2.50746  -0.208031  0.968814  -0.124699  -0.0148254  0.0240663  -0.0138755  0.429858  -0.0779017  0  0  0  -0  1.1309  0  0.0151829  -0.00477648  -0.00401087  -0.0193453  -0.00296129  -0.0111132  -0.0175994  0.0230718  -0.0350128  -0.0154144  -0.0193114  0.0448908 
1704289983.657522000  0  0  11.6703  0.101511  -0.12704  0.0288847  nan  nan  nan  nan  nan  nan  -2.50753  -0.205868  0.968425  -0.124531  -0.0152809  0.0243472  -0.0138755  0.435508  -0.0779017  0  0  0  -0  1.12877  0  0.015191  -0.00498527  -0.00407124  -0.0184763  -0.00408825  -0.019285  -0.0177941  0.0236657  -0.0348407  -0.0129561  0.000147043  0.0565316 
1704289983.662697000  0  0  11.5716  0.09573  -0.116253  0.0291252  nan  nan  nan  nan  nan  nan  -2.5076  -0.203676  0.968035  -0.123629  -0.0139535  0.0243946  -0.0138755  0.441146  -0.0779017  0  0  0  -0  1.12639  0  0.0150753  -0.00491906  -0.00411814  -0.0201368  -0.00202027  -0.0123238  -0.01851  0.0222917  -0.0348073  0.00767667  -0.00717589  0.0531027 
1704289983.667526000  0  0  11.4507  0.0806152  -0.104702  0.0303505  nan  nan  nan  nan  nan  nan  -2.50767  -0.201456  0.967646  -0.124296  -0.0152529  0.0247928  -0.0138755  0.446771  -0.0779017  0  0  0  -0  1.12377  0  0.0150928  -0.00515413  -0.00403906  -0.018631  -0.000807403  -0.00388163  -0.0175742  0.0232071  -0.0349056  0.0293204  -0.0424747  0.0388716 
