    ts      x      y      z   roll  pitch    yaw     vx     vy     vz     wx     wy     wz     ax     ay     az    dwx    dwy    dwz
 0.0050000  -2.5000000  -0.3000000   1.0000000   0.0000000   0.0000000   0.0000000  -0.0000002   0.0000002  -0.0000002   0.0000000   0.0000000   0.0000000  -0.0001250   0.0001250  -0.0001250   0.0000000   0.0000000   0.0000000
 0.0100000  -2.5000000  -0.3000000   1.0000000   0.0000000   0.0000000   0.0000000  -0.0000017   0.0000017  -0.0000017   0.0000000   0.0000000   0.0000000  -0.0005000   0.0005000  -0.0005000   0.0000000   0.0000000   0.0000000
 0.0150000  -2.5000000  -0.3000000   1.0000000   0.0000000   0.0000000   0.0000000  -0.0000056   0.0000056  -0.0000056   0.0000000   0.0000000   0.0000000  -0.0011250   0.0011250  -0.0011250   0.0000000   0.0000000   0.0000000
 0.0200000  -2.5000000  -0.3000000   1.0000000   0.0000000   0.0000000   0.0000001  -0.0000133   0.0000133  -0.0000133   0.0000000   0.0000000   0.0000000  -0.0020000   0.0020000  -0.0020000   0.0000000   0.0000000   0.0000000
 0.0250000  -2.5000000  -0.3000000   1.0000000   0.0000000   0.0000000   0.0000003  -0.0000260   0.0000260  -0.0000260   0.0000000   0.0000000   0.0000000  -0.0031250   0.0031250  -0.0031250   0.0000000   0.0000000   0.0000000
 0.0300000  -2.5000000  -0.3000000   1.0000000   0.0000000   0.0000000   0.0000005  -0.0000450   0.0000450  -0.0000450   0.0000000   0.0000000   0.0000000  -0.0045000   0.0045000  -0.0045000   0.0000000   0.0000000   0.0000000
 0.0350000  -2.5000000  -0.2999990   0.9999990   0.0000000   0.0000000   0.0000010  -0.0000715   0.0000715  -0.0000715   0.0000000   0.0000000   0.0000000  -0.0061250   0.0061250  -0.0061250   0.0000000   0.0000000   0.0000000
 0.0400000  -2.5000000  -0.2999990   0.9999990   0.0000000   0.0000000   0.0000017  -0.0001067   0.0001067  -0.0001067   0.0000000   0.0000000   0.0000000  -0.0080000   0.0080000  -0.0080000   0.0000000   0.0000000   0.0000000
 0.0450000  -2.5000000  -0.2999980   0.9999980   0.0000000   0.0000000   0.0000027  -0.0001519   0.0001519  -0.0001519   0.0000000   0.0000000   0.0000000  -0.0101250   0.0101250  -0.0101250   0.0000000   0.0000000   0.0000000
 0.0500000  -2.5000000  -0.2999970   0.9999970   0.0000000   0.0000000   0.0000042  -0.0002083   0.0002083  -0.0002083   0.0000000   0.0000000   0.0000000  -0.0125000   0.0125000  -0.0125000   0.0000000   0.0000000   0.0000000
 0.0550000  -2.5000000  -0.2999960   0.9999960   0.0000000   0.0000000   0.0000061  -0.0002773   0.0002773  -0.0002773   0.0000000   0.0000000   0.0000000  -0.0151250   0.0151250  -0.0151250   0.0000000   0.0000000   0.0000000
 0.0600000  -2.5000100  -0.2999950   0.9999950   0.0000000   0.0000000   0.0000086  -0.0003600   0.0003600  -0.0003600   0.0000000   0.0000000   0.0000000  -0.0180000   0.0180000  -0.0180000   0.0000000   0.0000000   0.0000000
 0.0650000  -2.5000100  -0.2999930   0.9999930   0.0000000   0.0000000   0.0000119  -0.0004577   0.0004577  -0.0004577   0.0000000   0.0000000   0.0000000  -0.0211250   0.0211250  -0.0211250   0.0000000   0.0000000   0.0000000
 0.0700000  -2.5000100  -0.2999900   0.9999900   0.0000000   0.0000000   0.0000160  -0.0005717   0.0005717  -0.0005717   0.0000000   0.0000000   0.0000000  -0.0245000   0.0245000  -0.0245000   0.0000000   0.0000000   0.0000000
 0.0750000  -2.5000100  -0.2999870   0.9999870   0.0000000   0.0000000   0.0000211  -0.0007031   0.0007031  -0.0007031   0.0000000   0.0000000   0.0000000  -0.0281250   0.0281250  -0.0281250   0.0000000   0.0000000   0.0000000
 0.0800000  -2.5000200  -0.2999830   0.9999830   0.0000000   0.0000000   0.0000273  -0.0008533   0.0008533  -0.0008533   0.0000000   0.0000000   0.0000000  -0.0320000   0.0320000  -0.0320000   0.0000000   0.0000000   0.0000000
 0.0850000  -2.5000200  -0.2999780   0.9999780   0.0000000   0.0000000   0.0000348  -0.0010235   0.0010235  -0.0010235   0.0000000   0.0000000   0.0000000  -0.0361250   0.0361250  -0.0361250   0.0000000   0.0000000   0.0000000
 0.0900000  -2.5000300  -0.2999730   0.9999730   0.0000000   0.0000000   0.0000437  -0.0012150   0.0012150  -0.0012150   0.0000000   0.0000000   0.0000000  -0.0404783   0.0405000  -0.0405000   0.0000000   0.0000000   0.0000000
 0.0950000  -2.5000300  -0.2999660   0.9999660   0.0000000   0.0000000   0.0000543  -0.0014280   0.0014290  -0.0014290   0.0000000   0.0000000   0.0000000  -0.0447059   0.0451250  -0.0451250   0.0000000   0.0000000   0.0000000
 0.1000000  -2.5000400  -0.2999580   0.9999580   0.0000000   0.0000000   0.0000667  -0.0016616   0.0016667  -0.0016667   0.0000000   0.0000000   0.0000000  -0.0486836   0.0500000  -0.0500000   0.0000000   0.0000000   0.0000000
 0.1050000  -2.5000500  -0.2999490   0.9999490   0.0000000   0.0000000   0.0000810  -0.0019145   0.0019294  -0.0019294   0.0000000   0.0000000   0.0000000  -0.0524112   0.0551250  -0.0551250   0.0000000   0.0000000   0.0000000
 0.1100000  -2.5000600  -0.2999390   0.9999390   0.0000000   0.0000000   0.0000976  -0.0021853   0.0022183  -0.0022183   0.0000000   0.0000000   0.0000000  -0.0558888   0.0605000  -0.0605000   0.0000000   0.0000000   0.0000000
 0.1150000  -2.5000700  -0.2999270   0.9999270   0.0000000   0.0000000   0.0001166  -0.0024729   0.0025348  -0.0025348   0.0000000   0.0000000   0.0000000  -0.0591165   0.0661250  -0.0661250   0.0000000   0.0000000   0.0000000
 0.1200000  -2.5000900  -0.2999140   0.9999140   0.0000000   0.0000000   0.0001382  -0.0027761   0.0028800  -0.0028800   0.0000000   0.0000000   0.0000000  -0.0620941   0.0720000  -0.0720000   0.0000000   0.0000000   0.0000000
 0.1250000  -2.5001000  -0.2998980   0.9998980   0.0000000   0.0000000   0.0001627  -0.0030935   0.0032552  -0.0032552   0.0000000   0.0000000   0.0000000  -0.0648217   0.0781250  -0.0781250   0.0000000   0.0000000   0.0000000
 0.1300000  -2.5001200  -0.2998810   0.9998810   0.0000000   0.0000000   0.0001903  -0.0034239   0.0036617  -0.0036617   0.0000000   0.0000000   0.0000000  -0.0672994   0.0845000  -0.0845000   0.0000000   0.0000000   0.0000000
 0.1350000  -2.5001300  -0.2998620   0.9998620   0.0000000   0.0000000   0.0002211  -0.0037660   0.0041006  -0.0041006   0.0000000   0.0000000   0.0000000  -0.0695270   0.0911250  -0.0911250   0.0000000   0.0000000   0.0000000
 0.1400000  -2.5001500  -0.2998400   0.9998400   0.0000000   0.0000000   0.0002553  -0.0041187   0.0045733  -0.0045733   0.0000000   0.0000000   0.0000000  -0.0715046   0.0980000  -0.0980000   0.0000000   0.0000000   0.0000000
 0.1450000  -2.5001800  -0.2998160   0.9998160   0.0000000   0.0000000   0.0002932  -0.0044807   0.0050810  -0.0050810   0.0000000   0.0000000   0.0000000  -0.0732323   0.1051250  -0.1051250   0.0000000   0.0000000   0.0000000
 0.1500000  -2.5002000  -0.2997890   0.9997890   0.0000000   0.0000000   0.0003348  -0.0048506   0.0056250  -0.0056250   0.0000000   0.0000000   0.0000000  -0.0747099   0.1125000  -0.1125000   0.0000000   0.0000000   0.0000000
 0.1550000  -2.5002200  -0.2997590   0.9997590   0.0000000   0.0000000   0.0003804  -0.0052274   0.0062065  -0.0062065   0.0000000   0.0000000   0.0000000  -0.0759375   0.1201250  -0.1201250   0.0000000   0.0000000   0.0000000
 0.1600000  -2.5002500  -0.2997270   0.9997270   0.0000000   0.0000000   0.0004300  -0.0056096   0.0068267  -0.0068266   0.0000000   0.0000000   0.0000000  -0.0769152   0.1280000  -0.1279290   0.0000000   0.0000000   0.0000000
 0.1650000  -2.5002800  -0.2996910   0.9996910   0.0000000   0.0000000   0.0004838  -0.0059961   0.0074869  -0.0074854   0.0000000   0.0000000   0.0000000  -0.0776428   0.1361250  -0.1355380   0.0000000   0.0000000   0.0000000
 0.1700000  -2.5003100  -0.2996520   0.9996520   0.0000000   0.0000000   0.0005420  -0.0063856   0.0081883  -0.0081816   0.0000000   0.0000000   0.0000000  -0.0781204   0.1445000  -0.1428970   0.0000000   0.0000000   0.0000000
 0.1750000  -2.5003400  -0.2996090   0.9996090   0.0000000   0.0000000   0.0006046  -0.0067769   0.0089323  -0.0089139   0.0000000   0.0000000   0.0000000  -0.0783481   0.1531250  -0.1500060   0.0000000   0.0000000   0.0000000
 0.1800000  -2.5003800  -0.2995630   0.9995630   0.0000000   0.0000000   0.0006718  -0.0071687   0.0097200  -0.0096812   0.0000000   0.0000000   0.0000000  -0.0783257   0.1620000  -0.1568650   0.0000000   0.0000000   0.0000000
 0.1850000  -2.5004200  -0.2995120   0.9995120   0.0000000   0.0000000   0.0007436  -0.0075597   0.0105527  -0.0104822   0.0000000   0.0000000   0.0000000  -0.0780533   0.1711250  -0.1634740   0.0000000   0.0000000   0.0000000
 0.1900000  -2.5004500  -0.2994570   0.9994580   0.0000000   0.0000000   0.0008201  -0.0079488   0.0114317  -0.0113155   0.0000000   0.0000000   0.0000000  -0.0775310   0.1805000  -0.1698330   0.0000000   0.0000000   0.0000000
 0.1950000  -2.5005000  -0.2993980   0.9993990   0.0000000   0.0000000   0.0009015  -0.0083346   0.0123581  -0.0121801   0.0000000   0.0000000   0.0000000  -0.0767586   0.1901250  -0.1759420   0.0000000   0.0000000   0.0000000
 0.2000000  -2.5005400  -0.2993330   0.9993360   0.0000000   0.0000000   0.0009877  -0.0087160   0.0133333  -0.0130745   0.0000000   0.0000000   0.0000000  -0.0757362   0.2000000  -0.1818010   0.0000000   0.0000000   0.0000000
 0.2050000  -2.5005800  -0.2992640   0.9992680   0.0000000   0.0000000   0.0010788  -0.0090916   0.0143585  -0.0139977   0.0000000   0.0000000   0.0000000  -0.0744639   0.2101250  -0.1874100   0.0000000   0.0000000   0.0000000
 0.2100000  -2.5006300  -0.2991900   0.9991960   0.0000000   0.0000000   0.0011749  -0.0094602   0.0154350  -0.0149482   0.0000000   0.0000000   0.0000000  -0.0729415   0.2205000  -0.1927690   0.0000000   0.0000000   0.0000000
 0.2150000  -2.5006800  -0.2991100   0.9991190   0.0000000   0.0000000   0.0012760  -0.0098206   0.0165640  -0.0159250   0.0000000   0.0000000   0.0000000  -0.0711692   0.2311250  -0.1978780   0.0000000   0.0000000   0.0000000
 0.2200000  -2.5007300  -0.2990240   0.9990370   0.0000000   0.0000000   0.0013821  -0.0101715   0.0177467  -0.0169266   0.0000000   0.0000000   0.0000000  -0.0691468   0.2420000  -0.2027370   0.0000000   0.0000000   0.0000000
 0.2250000  -2.5007800  -0.2989320   0.9989500   0.0000000   0.0000000   0.0014932  -0.0105116   0.0189844  -0.0179519   0.0000000   0.0000000   0.0000000  -0.0668744   0.2531250  -0.2073460   0.0000000   0.0000000   0.0000000
 0.2300000  -2.5008300  -0.2988340   0.9988570   0.0000000   0.0000000   0.0016094  -0.0108398   0.0202783  -0.0189996   0.0000000   0.0000000   0.0000000  -0.0643521   0.2645000  -0.2117050   0.0000000   0.0000000   0.0000000
 0.2350000  -2.5008900  -0.2987290   0.9987600   0.0000000   0.0000000   0.0017307  -0.0111547   0.0216298  -0.0200685   0.0000000   0.0000000   0.0000000  -0.0615797   0.2761250  -0.2158140   0.0000000   0.0000000   0.0000000
 0.2400000  -2.5009400  -0.2986180   0.9986570   0.0000000   0.0000000   0.0018569  -0.0114552   0.0230400  -0.0211574   0.0000000   0.0000000   0.0000000  -0.0585573   0.2880000  -0.2196730   0.0000000   0.0000000   0.0000000
 0.2450000  -2.5010000  -0.2984990   0.9985480   0.0000000   0.0000000   0.0019881  -0.0117399   0.0245102  -0.0222649   0.0000000   0.0000000   0.0000000  -0.0552850   0.3001250  -0.2232820   0.0000000   0.0000000   0.0000000
 0.2500000  -2.5010600  -0.2983720   0.9984340   0.0000000   0.0000000   0.0021243  -0.0120076   0.0260417  -0.0233898   0.0000000   0.0000000   0.0000000  -0.0517626   0.3125000  -0.2266410   0.0000000   0.0000000   0.0000000
 0.2550000  -2.5011200  -0.2982380   0.9983140   0.0000000   0.0000000   0.0022654  -0.0122571   0.0276356  -0.0245309   0.0000000   0.0000000   0.0000000  -0.0479902   0.3251250  -0.2297500   0.0000000   0.0000000   0.0000000
 0.2600000  -2.5011800  -0.2980960   0.9981880   0.0000000   0.0000000   0.0024114  -0.0124871   0.0292933  -0.0256869   0.0000000   0.0000000   0.0000000  -0.0439679   0.3380000  -0.2326090   0.0000000   0.0000000   0.0000000
 0.2650000  -2.5012500  -0.2979450   0.9980570   0.0000000   0.0000000   0.0025621  -0.0126963   0.0310160  -0.0268565   0.0000000   0.0000000   0.0000000  -0.0396955   0.3511250  -0.2352180   0.0000000   0.0000000   0.0000000
 0.2700000  -2.5013100  -0.2977860   0.9979200   0.0000000   0.0000000   0.0027176  -0.0128839   0.0328050  -0.0280386   0.0000000   0.0000000   0.0000000  -0.0353686   0.3645000  -0.2375770   0.0000000   0.0000000   0.0000000
 0.2750000  -2.5013800  -0.2976170   0.9977770   0.0000000   0.0000000   0.0028777  -0.0130504   0.0346615  -0.0292319   0.0000000   0.0000000   0.0000000  -0.0312883   0.3781250  -0.2396860   0.0000000   0.0000000   0.0000000
 0.2800000  -2.5014400  -0.2974390   0.9976280   0.0000000   0.0000000   0.0030423  -0.0131972   0.0365867  -0.0304351   0.0000000   0.0000000   0.0000000  -0.0274580   0.3920000  -0.2415450   0.0000000   0.0000000   0.0000000
 0.2850000  -2.5015100  -0.2972510   0.9974720   0.0000000   0.0000000   0.0032113  -0.0133254   0.0385819  -0.0316469   0.0000000   0.0000000   0.0000000  -0.0238778   0.4061250  -0.2431540   0.0000000   0.0000000   0.0000000
 0.2900000  -2.5015700  -0.2970530   0.9973110   0.0000000   0.0000000   0.0033847  -0.0134364   0.0406483  -0.0328662   0.0000000   0.0000000   0.0000000  -0.0205475   0.4205000  -0.2445130   0.0000000   0.0000000   0.0000000
 0.2950000  -2.5016400  -0.2968440   0.9971440   0.0000000   0.0000000   0.0035622  -0.0135313   0.0427873  -0.0340916   0.0000000   0.0000000   0.0000000  -0.0174672   0.4351250  -0.2456220   0.0000000   0.0000000   0.0000000
 0.3000000  -2.5017100  -0.2966250   0.9969700   0.0000000   0.0000000   0.0037438  -0.0136115   0.0450000  -0.0353220   0.0000000   0.0000000   0.0000000  -0.0146370   0.4500000  -0.2464810   0.0000000   0.0000000   0.0000000
 0.3050000  -2.5017800  -0.2963940   0.9967900   0.0000000   0.0000000   0.0039293  -0.0136781   0.0472877  -0.0365560   0.0000000   0.0000000   0.0000000  -0.0120567   0.4651250  -0.2470900   0.0000000   0.0000000   0.0000000
 0.3100000  -2.5018500  -0.2961520   0.9966050   0.0000000   0.0000000   0.0041185  -0.0137325   0.0496517  -0.0377925   0.0000000   0.0000000   0.0000000  -0.0097264   0.4805000  -0.2474490   0.0000000   0.0000000   0.0000000
 0.3150000  -2.5019200  -0.2958980   0.9964130   0.0000000   0.0000000   0.0043114  -0.0137758   0.0520931  -0.0390301   0.0000000   0.0000000   0.0000000  -0.0076462   0.4961250  -0.2475580   0.0000000   0.0000000   0.0000000
 0.3200000  -2.5019800  -0.2956310   0.9962140   0.0000000   0.0000000   0.0045076  -0.0138093   0.0546133  -0.0402676   0.0000000   0.0000000   0.0000000  -0.0058159   0.5120000  -0.2474170   0.0000000   0.0000000   0.0000000
 0.3250000  -2.5020500  -0.2953510   0.9960100   0.0000000   0.0000000   0.0047070  -0.0138344   0.0572135  -0.0415039   0.0000000   0.0000000   0.0000000  -0.0042356   0.5281250  -0.2470260   0.0000000   0.0000000   0.0000000
 0.3300000  -2.5021200  -0.2950590   0.9957990   0.0000000   0.0000000   0.0049095  -0.0138521   0.0598950  -0.0427375   0.0000000   0.0000000   0.0000000  -0.0029054   0.5445000  -0.2463850   0.0000000   0.0000000   0.0000000
 0.3350000  -2.5021900  -0.2947520   0.9955830   0.0000000   0.0000000   0.0051147  -0.0138638   0.0626590  -0.0439673   0.0000000   0.0000000   0.0000000  -0.0018251   0.5611250  -0.2454940   0.0000000   0.0000000   0.0000000
 0.3400000  -2.5022600  -0.2944320   0.9953600   0.0000000   0.0000000   0.0053226  -0.0138708   0.0655066  -0.0451920   0.0000000   0.0000000   0.0000000  -0.0009948   0.5779360  -0.2443530   0.0000000   0.0000000   0.0000000
 0.3450000  -2.5023300  -0.2940970   0.9951310   0.0000000   0.0000000   0.0055329  -0.0138742   0.0684380  -0.0464104   0.0000000   0.0000000   0.0000000  -0.0004145   0.5945590  -0.2429620   0.0000000   0.0000000   0.0000000
 0.3500000  -2.5024000  -0.2937470   0.9948960   0.0000000   0.0000000   0.0057453  -0.0138754   0.0714518  -0.0476212   0.0000000   0.0000000   0.0000000  -0.0000843   0.6109320  -0.2413210   0.0000000   0.0000000   0.0000000
 0.3550000  -2.5024700  -0.2933820   0.9946540   0.0000000   0.0000000   0.0059597  -0.0138755   0.0745469  -0.0488232   0.0000000   0.0000000   0.0000000  -0.0000000   0.6270550  -0.2394300   0.0000000   0.0000000   0.0000000
 0.3600000  -2.5025400  -0.2930020   0.9944070   0.0000000   0.0000000   0.0061758  -0.0138755   0.0777219  -0.0500151   0.0000000   0.0000000   0.0000000  -0.0000000   0.6429280  -0.2372890   0.0000000   0.0000000   0.0000000
 0.3650000  -2.5026100  -0.2926050   0.9941540   0.0000000   0.0000000   0.0063935  -0.0138755   0.0809757  -0.0511957   0.0000000   0.0000000   0.0000000  -0.0000000   0.6585510  -0.2348980   0.0000000   0.0000000   0.0000000
 0.3700000  -2.5026800  -0.2921920   0.9938950   0.0000000   0.0000000   0.0066127  -0.0138755   0.0843070  -0.0523637   0.0000000   0.0000000   0.0000000  -0.0000000   0.6739230  -0.2322570   0.0000000   0.0000000   0.0000000
 0.3750000  -2.5027500  -0.2917620   0.9936310   0.0000000   0.0000000   0.0068331  -0.0138755   0.0877145  -0.0535178   0.0000000   0.0000000   0.0000000  -0.0000000   0.6890460  -0.2293660   0.0000000   0.0000000   0.0000000
 0.3800000  -2.5028200  -0.2913150   0.9933600   0.0000000   0.0000000   0.0070546  -0.0138755   0.0911971  -0.0546569   0.0000000   0.0000000   0.0000000  -0.0000000   0.7039190  -0.2262250   0.0000000   0.0000000   0.0000000
 0.3850000  -2.5028900  -0.2908500   0.9930840   0.0000000   0.0000000   0.0072771  -0.0138755   0.0947533  -0.0557797   0.0000000   0.0000000   0.0000000  -0.0000000   0.7185420  -0.2228340   0.0000000   0.0000000   0.0000000
 0.3900000  -2.5029500  -0.2903670   0.9928020   0.0000000   0.0000000   0.0075004  -0.0138755   0.0983821  -0.0568848   0.0000000   0.0000000   0.0000000  -0.0000000   0.7329150  -0.2191930   0.0000000   0.0000000   0.0000000
 0.3950000  -2.5030200  -0.2898660   0.9925150   0.0000000   0.0000000   0.0077243  -0.0138755   0.1020820  -0.0579712   0.0000000   0.0000000   0.0000000  -0.0000000   0.7470380  -0.2153020   0.0000000   0.0000000   0.0000000
 0.4000000  -2.5030900  -0.2893460   0.9922230   0.0000000   0.0000000   0.0079489  -0.0138755   0.1058520  -0.0590374   0.0000000   0.0000000   0.0000000  -0.0000000   0.7609100  -0.2111610   0.0000000   0.0000000   0.0000000
 0.4050000  -2.5031600  -0.2888070   0.9919250   0.0000000   0.0000000   0.0081739  -0.0138755   0.1096910  -0.0600824   0.0000000   0.0000000   0.0000000  -0.0000000   0.7745330  -0.2067700   0.0000000   0.0000000   0.0000000
 0.4100000  -2.5032300  -0.2882490   0.9916220   0.0000000   0.0000000   0.0083994  -0.0138755   0.1135970  -0.0611047   0.0000000   0.0000000   0.0000000  -0.0000000   0.7879060  -0.2021290   0.0000000   0.0000000   0.0000000
 0.4150000  -2.5033000  -0.2876710   0.9913140   0.0000000   0.0000000   0.0086251  -0.0138755   0.1175690  -0.0621032   0.0000000   0.0000000   0.0000000  -0.0000000   0.8010290  -0.1972380   0.0000000   0.0000000   0.0000000
 0.4200000  -2.5033700  -0.2870730   0.9910010   0.0000000   0.0000000   0.0088511  -0.0138755   0.1216070  -0.0630767   0.0000000   0.0000000   0.0000000  -0.0000000   0.8139020  -0.1920970   0.0000000   0.0000000   0.0000000
 0.4250000  -2.5034400  -0.2864550   0.9906830   0.0000000   0.0000000   0.0090772  -0.0138755   0.1257080  -0.0640238   0.0000000   0.0000000   0.0000000  -0.0000000   0.8265250  -0.1867060   0.0000000   0.0000000   0.0000000
 0.4300000  -2.5035100  -0.2858160   0.9903610   0.0000000   0.0000000   0.0093035  -0.0138755   0.1298720  -0.0649433   0.0000000   0.0000000   0.0000000  -0.0000000   0.8388970  -0.1810650   0.0000000   0.0000000   0.0000000
 0.4350000  -2.5035800  -0.2851560   0.9900340   0.0000000   0.0000000   0.0095298  -0.0138755   0.1340970  -0.0658340   0.0000000   0.0000000   0.0000000  -0.0000000   0.8510200  -0.1751740   0.0000000   0.0000000   0.0000000
 0.4400000  -2.5036500  -0.2844750   0.9897030   0.0000000   0.0000000   0.0097562  -0.0138755   0.1383810  -0.0666946   0.0000000   0.0000000   0.0000000  -0.0000000   0.8628930  -0.1690330   0.0000000   0.0000000   0.0000000
 0.4450000  -2.5037200  -0.2837720   0.9893670   0.0000000   0.0000000   0.0099826  -0.0138755   0.1427250  -0.0675239   0.0000000   0.0000000   0.0000000  -0.0000000   0.8745160  -0.1626420   0.0000000   0.0000000   0.0000000
 0.4500000  -2.5037900  -0.2830480   0.9890270   0.0000000   0.0000000   0.0102090  -0.0138755   0.1471260  -0.0683206   0.0000000   0.0000000   0.0000000  -0.0000000   0.8858890  -0.1560010   0.0000000   0.0000000   0.0000000
 0.4550000  -2.5038600  -0.2823010   0.9886840   0.0000000   0.0000000   0.0104354  -0.0138755   0.1515840  -0.0690835   0.0000000   0.0000000   0.0000000  -0.0000000   0.8970110  -0.1491100   0.0000000   0.0000000   0.0000000
 0.4600000  -2.5039300  -0.2815320   0.9883370   0.0000000   0.0000000   0.0106618  -0.0138755   0.1560960  -0.0698113   0.0000000   0.0000000   0.0000000  -0.0000000   0.9078840  -0.1419690   0.0000000   0.0000000   0.0000000
 0.4650000  -2.5040000  -0.2807400   0.9879860   0.0000000   0.0000000   0.0108882  -0.0138755   0.1606620  -0.0705028   0.0000000   0.0000000   0.0000000  -0.0000000   0.9185070  -0.1345780   0.0000000   0.0000000   0.0000000
 0.4700000  -2.5040600  -0.2799250   0.9876320   0.0000000   0.0000000   0.0111146  -0.0138755   0.1652810  -0.0711567   0.0000000   0.0000000   0.0000000  -0.0000000   0.9288800  -0.1269370   0.0000000   0.0000000   0.0000000
 0.4750000  -2.5041300  -0.2790870   0.9872740   0.0000000   0.0000000   0.0113410  -0.0138755   0.1699500  -0.0717718   0.0000000   0.0000000   0.0000000  -0.0000000   0.9390030  -0.1191350   0.0000000   0.0000000   0.0000000
 0.4800000  -2.5042000  -0.2782250   0.9869140   0.0000000   0.0000000   0.0115674  -0.0138755   0.1746700  -0.0723484   0.0000000   0.0000000   0.0000000  -0.0000000   0.9488760  -0.1115420   0.0000000   0.0000000   0.0000000
 0.4850000  -2.5042700  -0.2773400   0.9865510   0.0000000   0.0000000   0.0117938  -0.0138755   0.1794390  -0.0728877   0.0000000   0.0000000   0.0000000  -0.0000000   0.9584980  -0.1041990   0.0000000   0.0000000   0.0000000
 0.4900000  -2.5043400  -0.2764310   0.9861850   0.0000000   0.0000000   0.0120202  -0.0138755   0.1842550  -0.0733908   0.0000000   0.0000000   0.0000000  -0.0000000   0.9678710  -0.0971058   0.0000000   0.0000000   0.0000000
 0.4950000  -2.5044100  -0.2754980   0.9858170   0.0000000   0.0000000   0.0122466  -0.0138755   0.1891170  -0.0738592   0.0000000   0.0000000   0.0000000  -0.0000000   0.9769940  -0.0902628   0.0000000   0.0000000   0.0000000
 0.5000000  -2.5044800  -0.2745400   0.9854470   0.0000000   0.0000000   0.0124730  -0.0138755   0.1940240  -0.0742939   0.0000000   0.0000000   0.0000000  -0.0000000   0.9858670  -0.0836698   0.0000000   0.0000000   0.0000000
 0.5050000  -2.5045500  -0.2735570   0.9850740   0.0000000   0.0000000   0.0126994  -0.0138755   0.1989750  -0.0746963   0.0000000   0.0000000   0.0000000  -0.0000000   0.9944900  -0.0773268   0.0000000   0.0000000   0.0000000
 0.5100000  -2.5046200  -0.2725500   0.9847000   0.0000000   0.0000000   0.0129258  -0.0138755   0.2039690  -0.0750676   0.0000000   0.0000000   0.0000000  -0.0000000   1.0028600  -0.0712338   0.0000000   0.0000000   0.0000000
 0.5150000  -2.5046900  -0.2715170   0.9843230   0.0000000   0.0000000   0.0131522  -0.0138755   0.2090030  -0.0754090   0.0000000   0.0000000   0.0000000  -0.0000000   1.0109900  -0.0653908   0.0000000   0.0000000   0.0000000
 0.5200000  -2.5047600  -0.2704600   0.9839460   0.0000000   0.0000000   0.0133786  -0.0138755   0.2140780  -0.0757219   0.0000000   0.0000000   0.0000000  -0.0000000   1.0188600  -0.0597978   0.0000000   0.0000000   0.0000000
 0.5250000  -2.5048300  -0.2693770   0.9835660   0.0000000   0.0000000   0.0136050  -0.0138755   0.2191920  -0.0760074   0.0000000   0.0000000   0.0000000  -0.0000000   1.0264800  -0.0544548   0.0000000   0.0000000   0.0000000
 0.5300000  -2.5049000  -0.2682680   0.9831860   0.0000000   0.0000000   0.0138313  -0.0138755   0.2243430  -0.0762669   0.0000000   0.0000000   0.0000000  -0.0000000   1.0338500  -0.0493618   0.0000000   0.0000000   0.0000000
 0.5350000  -2.5049700  -0.2671330   0.9828040   0.0000000   0.0000000   0.0140577  -0.0138755   0.2295300  -0.0765014   0.0000000   0.0000000   0.0000000  -0.0000000   1.0409800  -0.0445189   0.0000000   0.0000000   0.0000000
 0.5400000  -2.5050400  -0.2659720   0.9824210   0.0000000   0.0000000   0.0142841  -0.0138755   0.2347520  -0.0767125   0.0000000   0.0000000   0.0000000  -0.0000000   1.0478500  -0.0399259   0.0000000   0.0000000   0.0000000
 0.5450000  -2.5051100  -0.2647860   0.9820370   0.0000000   0.0000000   0.0145105  -0.0138755   0.2400080  -0.0769011   0.0000000   0.0000000   0.0000000  -0.0000000   1.0544700  -0.0355829   0.0000000   0.0000000   0.0000000
 0.5500000  -2.5051700  -0.2635720   0.9816520   0.0000000   0.0000000   0.0147369  -0.0138755   0.2452960  -0.0770687   0.0000000   0.0000000   0.0000000  -0.0000000   1.0608500  -0.0314899   0.0000000   0.0000000   0.0000000
 0.5550000  -2.5052400  -0.2623330   0.9812660   0.0000000   0.0000000   0.0149633  -0.0138755   0.2506160  -0.0772164   0.0000000   0.0000000   0.0000000  -0.0000000   1.0669700  -0.0276469   0.0000000   0.0000000   0.0000000
 0.5600000  -2.5053100  -0.2610660   0.9808800   0.0000000   0.0000000   0.0151897  -0.0138755   0.2559650  -0.0773456   0.0000000   0.0000000   0.0000000  -0.0000000   1.0728400  -0.0240539   0.0000000   0.0000000   0.0000000
 0.5650000  -2.5053800  -0.2597730   0.9804920   0.0000000   0.0000000   0.0154161  -0.0138755   0.2613440  -0.0774574   0.0000000   0.0000000   0.0000000  -0.0000000   1.0784600  -0.0207109   0.0000000   0.0000000   0.0000000
 0.5700000  -2.5054500  -0.2584530   0.9801050   0.0000000   0.0000000   0.0156425  -0.0138755   0.2667500  -0.0775531   0.0000000   0.0000000   0.0000000  -0.0000000   1.0838400  -0.0176179   0.0000000   0.0000000   0.0000000
 0.5750000  -2.5055200  -0.2571050   0.9797170   0.0000000   0.0000000   0.0158689  -0.0138755   0.2721820  -0.0776340   0.0000000   0.0000000   0.0000000  -0.0000000   1.0889600  -0.0147749   0.0000000   0.0000000   0.0000000
 0.5800000  -2.5055900  -0.2557310   0.9793290   0.0000000   0.0000000   0.0160953  -0.0138755   0.2776390  -0.0777013   0.0000000   0.0000000   0.0000000  -0.0000000   1.0938300  -0.0121819   0.0000000   0.0000000   0.0000000
 0.5850000  -2.5056600  -0.2543290   0.9789400   0.0000000   0.0000000   0.0163217  -0.0138755   0.2831200  -0.0777562   0.0000000   0.0000000   0.0000000  -0.0000000   1.0984600  -0.0098390   0.0000000   0.0000000   0.0000000
 0.5900000  -2.5057300  -0.2529000   0.9785510   0.0000000   0.0000000   0.0165481  -0.0138755   0.2886230  -0.0778001   0.0000000   0.0000000   0.0000000  -0.0000000   1.1028300  -0.0077460   0.0000000   0.0000000   0.0000000
 0.5950000  -2.5058000  -0.2514430   0.9781620   0.0000000   0.0000000   0.0167745  -0.0138755   0.2941480  -0.0778341   0.0000000   0.0000000   0.0000000  -0.0000000   1.1069500  -0.0059030   0.0000000   0.0000000   0.0000000
 0.6000000  -2.5058700  -0.2499580   0.9777730   0.0000000   0.0000000   0.0170009  -0.0138755   0.2996920  -0.0778595   0.0000000   0.0000000   0.0000000  -0.0000000   1.1108200  -0.0043100   0.0000000   0.0000000   0.0000000
 0.6050000  -2.5059400  -0.2484460   0.9773830   0.0000000   0.0000000   0.0172273  -0.0138755   0.3052550  -0.0778776   0.0000000   0.0000000   0.0000000  -0.0000000   1.1144500  -0.0029670   0.0000000   0.0000000   0.0000000
 0.6100000  -2.5060100  -0.2469050   0.9769940   0.0000000   0.0000000   0.0174537  -0.0138755   0.3108360  -0.0778896   0.0000000   0.0000000   0.0000000  -0.0000000   1.1178200  -0.0018740   0.0000000   0.0000000   0.0000000
 0.6150000  -2.5060800  -0.2453370   0.9766050   0.0000000   0.0000000   0.0176801  -0.0138755   0.3164330  -0.0778968   0.0000000   0.0000000   0.0000000  -0.0000000   1.1209400  -0.0010310   0.0000000   0.0000000   0.0000000
 0.6200000  -2.5061500  -0.2437410   0.9762150   0.0000000   0.0000000   0.0179065  -0.0138755   0.3220450  -0.0779003   0.0000000   0.0000000   0.0000000  -0.0000000   1.1238100  -0.0004380   0.0000000   0.0000000   0.0000000
 0.6250000  -2.5062200  -0.2421170   0.9758260   0.0000000   0.0000000   0.0181329  -0.0138755   0.3276710  -0.0779016   0.0000000   0.0000000   0.0000000  -0.0000000   1.1264400  -0.0000950   0.0000000   0.0000000   0.0000000
 0.6300000  -2.5062800  -0.2404640   0.9754360   0.0000000   0.0000000   0.0183593  -0.0138755   0.3333090  -0.0779017   0.0000000   0.0000000   0.0000000  -0.0000000   1.1288100   0.0000000   0.0000000   0.0000000   0.0000000
 0.6350000  -2.5063500  -0.2387840   0.9750470   0.0000000   0.0000000   0.0185857  -0.0138755   0.3389590  -0.0779017   0.0000000   0.0000000   0.0000000  -0.0000000   1.1309300   0.0000000   0.0000000   0.0000000   0.0000000
 0.6400000  -2.5064200  -0.2370750   0.9746570   0.0000000   0.0000000   0.0188121  -0.0138755   0.3446180  -0.0779017   0.0000000   0.0000000   0.0000000  -0.0000000   1.1328100   0.0000000   0.0000000   0.0000000   0.0000000
 0.6450000  -2.5064900  -0.2353380   0.9742670   0.0000000   0.0000000   0.0190385  -0.0138755   0.3502860  -0.0779017   0.0000000   0.0000000   0.0000000  -0.0000000   1.1344300   0.0000000   0.0000000   0.0000000   0.0000000
 0.6500000  -2.5065600  -0.2335720   0.9738780   0.0000000   0.0000000   0.0192649  -0.0138755   0.3559620  -0.0779017   0.0000000   0.0000000   0.0000000  -0.0000000   1.1358000   0.0000000   0.0000000   0.0000000   0.0000000
 0.6550000  -2.5066300  -0.2317780   0.9734880   0.0000000   0.0000000   0.0194913  -0.0138755   0.3616440  -0.0779017   0.0000000   0.0000000   0.0000000  -0.0000000   1.1369200   0.0000000   0.0000000   0.0000000   0.0000000
 0.6600000  -2.5067000  -0.2299550   0.9730990   0.0000000   0.0000000   0.0197177  -0.0138755   0.3673310  -0.0779017   0.0000000   0.0000000   0.0000000  -0.0000000   1.1378000   0.0000000   0.0000000   0.0000000   0.0000000
 0.6650000  -2.5067700  -0.2281050   0.9727090   0.0000000   0.0000000   0.0199441  -0.0138755   0.3730210  -0.0779017   0.0000000   0.0000000   0.0000000  -0.0000000   1.1384200   0.0000000   0.0000000   0.0000000   0.0000000
 0.6700000  -2.5068400  -0.2262250   0.9723200   0.0000000   0.0000000   0.0201705  -0.0138755   0.3787140  -0.0779017   0.0000000   0.0000000   0.0000000  -0.0000000   1.1387900   0.0000000   0.0000000   0.0000000   0.0000000
 0.6750000  -2.5069100  -0.2243170   0.9719300   0.0000000   0.0000000   0.0203969  -0.0138755   0.3844090  -0.0779017   0.0000000   0.0000000   0.0000000  -0.0000000   1.1389200   0.0000000   0.0000000   0.0000000   0.0000000
 0.6800000  -2.5069800  -0.2223810   0.9715410   0.0000000   0.0000000   0.0206233  -0.0138755   0.3901030  -0.0779017   0.0000000   0.0000000   0.0000000  -0.0000000   1.1387900   0.0000000   0.0000000   0.0000000   0.0000000
 0.6850000  -2.5070500  -0.2204160   0.9711510   0.0000000   0.0000000   0.0208496  -0.0138755   0.3957960  -0.0779017   0.0000000   0.0000000   0.0000000  -0.0000000   1.1384100   0.0000000   0.0000000   0.0000000   0.0000000
 0.6900000  -2.5071200  -0.2184230   0.9707620   0.0000000   0.0000000   0.0210760  -0.0138755   0.4014870  -0.0779017   0.0000000   0.0000000   0.0000000  -0.0000000   1.1377800   0.0000000   0.0000000   0.0000000   0.0000000
 0.6950000  -2.5071900  -0.2164020   0.9703720   0.0000000   0.0000000   0.0213024  -0.0138755   0.4071740  -0.0779017   0.0000000   0.0000000   0.0000000  -0.0000000   1.1369100   0.0000000   0.0000000   0.0000000   0.0000000
 0.7000000  -2.5072600  -0.2143510   0.9699830   0.0000000   0.0000000   0.0215288  -0.0138755   0.4128560  -0.0779017   0.0000000   0.0000000   0.0000000  -0.0000000   1.1357800   0.0000000   0.0000000   0.0000000   0.0000000
 0.7050000  -2.5073300  -0.2122730   0.9695930   0.0000000   0.0000000   0.0217552  -0.0138755   0.4185310  -0.0779017   0.0000000   0.0000000   0.0000000  -0.0000000   1.1344000   0.0000000   0.0000000   0.0000000   0.0000000
 0.7100000  -2.5073900  -0.2101660   0.9692040   0.0000000   0.0000000   0.0219816  -0.0138755   0.4241990  -0.0779017   0.0000000   0.0000000   0.0000000  -0.0000000   1.1327800   0.0000000   0.0000000   0.0000000   0.0000000
 0.7150000  -2.5074600  -0.2080310   0.9688140   0.0000000   0.0000000   0.0222080  -0.0138755   0.4298580  -0.0779017   0.0000000   0.0000000   0.0000000  -0.0000000   1.1309000   0.0000000   0.0000000   0.0000000   0.0000000
 0.7200000  -2.5075300  -0.2058680   0.9684250   0.0000000   0.0000000   0.0224344  -0.0138755   0.4355080  -0.0779017   0.0000000   0.0000000   0.0000000  -0.0000000   1.1287700   0.0000000   0.0000000   0.0000000   0.0000000
 0.7250000  -2.5076000  -0.2036760   0.9680350   0.0000000   0.0000000   0.0226608  -0.0138755   0.4411460  -0.0779017   0.0000000   0.0000000   0.0000000  -0.0000000   1.1263900   0.0000000   0.0000000   0.0000000   0.0000000
 0.7300000  -2.5076700  -0.2014560   0.9676460   0.0000000   0.0000000   0.0228872  -0.0138755   0.4467710  -0.0779017   0.0000000   0.0000000   0.0000000  -0.0000000   1.1237700   0.0000000   0.0000000   0.0000000   0.0000000
 0.7350000  -2.5077400  -0.1992080   0.9672560   0.0000000   0.0000000   0.0231136  -0.0138755   0.4523830  -0.0779017   0.0000000   0.0000000   0.0000000  -0.0000000   1.1208900   0.0000000   0.0000000   0.0000000   0.0000000
 0.7400000  -2.5078100  -0.1969320   0.9668670   0.0000000   0.0000000   0.0233400  -0.0138755   0.4579800  -0.0779017   0.0000000   0.0000000   0.0000000  -0.0000000   1.1177600   0.0000000   0.0000000   0.0000000   0.0000000
 0.7450000  -2.5078800  -0.1946280   0.9664770   0.0000000   0.0000000   0.0235664  -0.0138755   0.4635600  -0.0779017   0.0000000   0.0000000   0.0000000  -0.0000000   1.1143900   0.0000000   0.0000000   0.0000000   0.0000000
 0.7500000  -2.5079500  -0.1922970   0.9660880   0.0000000   0.0000000   0.0237928  -0.0138755   0.4691230  -0.0779017   0.0000000   0.0000000   0.0000000  -0.0000000   1.1107600   0.0000000   0.0000000   0.0000000   0.0000000
 0.7550000  -2.5080200  -0.1899370   0.9656980   0.0000000   0.0000000   0.0240192  -0.0138755   0.4746670  -0.0779017   0.0000000   0.0000000   0.0000000  -0.0000000   1.1068800   0.0000000   0.0000000   0.0000000   0.0000000
 0.7600000  -2.5080900  -0.1875500   0.9653090   0.0000000   0.0000000   0.0242456  -0.0138755   0.4801920  -0.0779017   0.0000000   0.0000000   0.0000000  -0.0000000   1.1027500   0.0000000   0.0000000   0.0000000   0.0000000
 0.7650000  -2.5081600  -0.1851350   0.9649190   0.0000000   0.0000000   0.0244720  -0.0138755   0.4856950  -0.0779017   0.0000000   0.0000000   0.0000000  -0.0000000   1.0983800   0.0000000   0.0000000   0.0000000   0.0000000
 0.7700000  -2.5082300  -0.1826930   0.9645300   0.0000000   0.0000000   0.0246984  -0.0138755   0.4911750  -0.0779017   0.0000000   0.0000000   0.0000000  -0.0000000   1.0937500   0.0000000   0.0000000   0.0000000   0.0000000
 0.7750000  -2.5083000  -0.1802240   0.9641400   0.0000000   0.0000000   0.0249248  -0.0138755   0.4966320  -0.0779017   0.0000000   0.0000000   0.0000000  -0.0000000   1.0888700   0.0000000   0.0000000   0.0000000   0.0000000
 0.7800000  -2.5083700  -0.1777270   0.9637510   0.0000000   0.0000000   0.0251512  -0.0138755   0.5020630  -0.0779017   0.0000000   0.0000000   0.0000000  -0.0000000   1.0837500   0.0000000   0.0000000   0.0000000   0.0000000
 0.7850000  -2.5084400  -0.1752030   0.9633610   0.0000000   0.0000000   0.0253776  -0.0138755   0.5074690  -0.0779017   0.0000000   0.0000000   0.0000000  -0.0000000   1.0783700   0.0000000   0.0000000   0.0000000   0.0000000
 0.7900000  -2.5085000  -0.1726520   0.9629720   0.0000000   0.0000000   0.0256040  -0.0138755   0.5128470  -0.0779017   0.0000000   0.0000000   0.0000000  -0.0000000   1.0727400   0.0000000   0.0000000   0.0000000   0.0000000
 0.7950000  -2.5085700  -0.1700750   0.9625820   0.0000000   0.0000000   0.0258304  -0.0138753   0.5181960  -0.0779017   0.0000000   0.0000000   0.0000000   0.0001200   1.0668600   0.0000000   0.0000000   0.0000000   0.0000000
 0.8000000  -2.5086400  -0.1674700   0.9621930   0.0000000   0.0000000   0.0260568  -0.0138739   0.5235150  -0.0779017   0.0000000   0.0000000   0.0000000   0.0004899   1.0607400   0.0000000   0.0000000   0.0000000   0.0000000
 0.8050000  -2.5087100  -0.1648400   0.9618030   0.0000000   0.0000000   0.0262832  -0.0138700   0.5288030  -0.0779017   0.0000000   0.0000000   0.0000000   0.0011098   1.0543600   0.0000000   0.0000000   0.0000000   0.0000000
 0.8100000  -2.5087800  -0.1621820   0.9614140   0.0000000   0.0000000   0.0265096  -0.0138623   0.5340580  -0.0779017   0.0000000   0.0000000   0.0000000   0.0019797   1.0477300   0.0000000   0.0000000   0.0000000   0.0000000
 0.8150000  -2.5088500  -0.1594990   0.9610240   0.0000000   0.0000000   0.0267360  -0.0138497   0.5392800  -0.0779017   0.0000000   0.0000000   0.0000000   0.0030996   1.0408600   0.0000000   0.0000000   0.0000000   0.0000000
 0.8200000  -2.5089200  -0.1567900   0.9606350   0.0000000   0.0000000   0.0269624  -0.0138309   0.5444660  -0.0779017   0.0000000   0.0000000   0.0000000   0.0044695   1.0337300   0.0000000   0.0000000   0.0000000   0.0000000
 0.8250000  -2.5089900  -0.1540540   0.9602450   0.0000000   0.0000000   0.0271888  -0.0138046   0.5496160  -0.0779017   0.0000000   0.0000000   0.0000000   0.0060895   1.0263500   0.0000000   0.0000000   0.0000000   0.0000000
 0.8300000  -2.5090600  -0.1512940   0.9598560   0.0000000   0.0000000   0.0274152  -0.0137696   0.5547290  -0.0779017   0.0000000   0.0000000   0.0000000   0.0079594   1.0187200   0.0000000   0.0000000   0.0000000   0.0000000
 0.8350000  -2.5091300  -0.1485070   0.9594660   0.0000000   0.0000000   0.0276415  -0.0137246   0.5598030  -0.0779017   0.0000000   0.0000000   0.0000000   0.0100793   1.0108500   0.0000000   0.0000000   0.0000000   0.0000000
 0.8400000  -2.5092000  -0.1456960   0.9590770   0.0000000   0.0000000   0.0278679  -0.0136684   0.5648370  -0.0779017   0.0000000   0.0000000   0.0000000   0.0124492   1.0027200   0.0000000   0.0000000   0.0000000   0.0000000
 0.8450000  -2.5092600  -0.1428590   0.9586870   0.0000000   0.0000000   0.0280943  -0.0135997   0.5698300  -0.0779017   0.0000000   0.0000000   0.0000000   0.0150691   0.9943420   0.0000000   0.0000000   0.0000000   0.0000000
 0.8500000  -2.5093300  -0.1399970   0.9582980   0.0000000   0.0000000   0.0283207  -0.0135173   0.5747800  -0.0779017   0.0000000   0.0000000   0.0000000   0.0179390   0.9857150   0.0000000   0.0000000   0.0000000   0.0000000
 0.8550000  -2.5094000  -0.1371110   0.9579080   0.0000000   0.0000000   0.0285471  -0.0134199   0.5796870  -0.0779017   0.0000000   0.0000000   0.0000000   0.0210589   0.9768380   0.0000000   0.0000000   0.0000000   0.0000000
 0.8600000  -2.5094700  -0.1342010   0.9575190   0.0000000   0.0000000   0.0287735  -0.0133063   0.5845480  -0.0779017   0.0000000   0.0000000   0.0000000   0.0244289   0.9677110   0.0000000   0.0000000   0.0000000   0.0000000
 0.8650000  -2.5095300  -0.1312660   0.9571290   0.0000000   0.0000000   0.0289999  -0.0131752   0.5893630  -0.0779017   0.0000000   0.0000000   0.0000000   0.0280488   0.9583340   0.0000000   0.0000000   0.0000000   0.0000000
 0.8700000  -2.5096000  -0.1283070   0.9567400   0.0000000   0.0000000   0.0292263  -0.0130254   0.5941310  -0.0779017   0.0000000   0.0000000   0.0000000   0.0319187   0.9487060   0.0000000   0.0000000   0.0000000   0.0000000
 0.8750000  -2.5096600  -0.1253250   0.9563500   0.0000000   0.0000000   0.0294527  -0.0128556   0.5988500  -0.0779017   0.0000000   0.0000000   0.0000000   0.0360386   0.9388290   0.0000000   0.0000000   0.0000000   0.0000000
 0.8800000  -2.5097300  -0.1223190   0.9559610   0.0000000   0.0000000   0.0296791  -0.0126646   0.6035190  -0.0779017   0.0000000   0.0000000   0.0000000   0.0404085   0.9287020   0.0000000   0.0000000   0.0000000   0.0000000
 0.8850000  -2.5097900  -0.1192890   0.9555710   0.0000000   0.0000000   0.0299055  -0.0124511   0.6081370  -0.0779017   0.0000000   0.0000000   0.0000000   0.0450284   0.9183250   0.0000000   0.0000000   0.0000000   0.0000000
 0.8900000  -2.5098500  -0.1162370   0.9551820   0.0000000   0.0000000   0.0301319  -0.0122139   0.6127020  -0.0779017   0.0000000   0.0000000   0.0000000   0.0498984   0.9076980   0.0000000   0.0000000   0.0000000   0.0000000
 0.8950000  -2.5099100  -0.1131630   0.9547920   0.0000000   0.0000000   0.0303583  -0.0119517   0.6172130  -0.0779017   0.0000000   0.0000000   0.0000000   0.0550183   0.8968210   0.0000000   0.0000000   0.0000000   0.0000000
 0.9000000  -2.5099700  -0.1100650   0.9544030   0.0000000   0.0000000   0.0305847  -0.0116633   0.6216700  -0.0779017   0.0000000   0.0000000   0.0000000   0.0603882   0.8856930   0.0000000   0.0000000   0.0000000   0.0000000
 0.9050000  -2.5100300  -0.1069460   0.9540130   0.0000000   0.0000000   0.0308111  -0.0113474   0.6260700  -0.0779017   0.0000000   0.0000000   0.0000000   0.0660081   0.8743160   0.0000000   0.0000000   0.0000000   0.0000000
 0.9100000  -2.5100800  -0.1038050   0.9536240   0.0000000   0.0000000   0.0310375  -0.0110028   0.6304120  -0.0779017   0.0000000   0.0000000   0.0000000   0.0718780   0.8626890   0.0000000   0.0000000   0.0000000   0.0000000
 0.9150000  -2.5101400  -0.1006420   0.9532340   0.0000000   0.0000000   0.0312639  -0.0106282   0.6346960  -0.0779017   0.0000000   0.0000000   0.0000000   0.0779979   0.8508120   0.0000000   0.0000000   0.0000000   0.0000000
 0.9200000  -2.5101900  -0.0974578   0.9528450   0.0000000   0.0000000   0.0314903  -0.0102224   0.6389200  -0.0779017   0.0000000   0.0000000   0.0000000   0.0843678   0.8386850   0.0000000   0.0000000   0.0000000   0.0000000
 0.9250000  -2.5102400  -0.0942528   0.9524550   0.0000000   0.0000000   0.0317167  -0.0097841   0.6430830  -0.0779017   0.0000000   0.0000000   0.0000000   0.0909878   0.8263070   0.0000000   0.0000000   0.0000000   0.0000000
 0.9300000  -2.5102900  -0.0910271   0.9520660   0.0000000   0.0000000   0.0319431  -0.0093121   0.6471830  -0.0779017   0.0000000   0.0000000   0.0000000   0.0978577   0.8136800   0.0000000   0.0000000   0.0000000   0.0000000
 0.9350000  -2.5103300  -0.0877811   0.9516760   0.0000000   0.0000000   0.0321695  -0.0088051   0.6512190  -0.0779017   0.0000000   0.0000000   0.0000000   0.1049780   0.8008030   0.0000000   0.0000000   0.0000000   0.0000000
 0.9400000  -2.5103800  -0.0845150   0.9512860   0.0000000   0.0000000   0.0323959  -0.0082619   0.6551900  -0.0779017   0.0000000   0.0000000   0.0000000   0.1123480   0.7876760   0.0000000   0.0000000   0.0000000   0.0000000
 0.9450000  -2.5104200  -0.0812293   0.9508970   0.0000000   0.0000000   0.0326223  -0.0076812   0.6590950  -0.0779017   0.0000000   0.0000000   0.0000000   0.1199670   0.7742990   0.0000000   0.0000000   0.0000000   0.0000000
 0.9500000  -2.5104500  -0.0779242   0.9505070   0.0000000   0.0000000   0.0328487  -0.0070618   0.6629330  -0.0779017   0.0000000   0.0000000   0.0000000   0.1278370   0.7606720   0.0000000   0.0000000   0.0000000   0.0000000
 0.9550000  -2.5104900  -0.0746001   0.9501180   0.0000000   0.0000000   0.0330751  -0.0064024   0.6667020  -0.0779017   0.0000000   0.0000000   0.0000000   0.1359570   0.7467940   0.0000000   0.0000000   0.0000000   0.0000000
 0.9600000  -2.5105200  -0.0712573   0.9497280   0.0000000   0.0000000   0.0333015  -0.0057018   0.6704000  -0.0779017   0.0000000   0.0000000   0.0000000   0.1443270   0.7326670   0.0000000   0.0000000   0.0000000   0.0000000
 0.9650000  -2.5105400  -0.0678962   0.9493390   0.0000000   0.0000000   0.0335279  -0.0049587   0.6740280  -0.0779017   0.0000000   0.0000000   0.0000000   0.1529470   0.7182900   0.0000000   0.0000000   0.0000000   0.0000000
 0.9700000  -2.5105700  -0.0645171   0.9489490   0.0000000   0.0000000   0.0337543  -0.0041719   0.6775830  -0.0779017   0.0000000   0.0000000   0.0000000   0.1618170   0.7036630   0.0000000   0.0000000   0.0000000   0.0000000
 0.9750000  -2.5105800  -0.0611205   0.9485600   0.0000000   0.0000000   0.0339807  -0.0033402   0.6810640  -0.0779017   0.0000000   0.0000000   0.0000000   0.1709370   0.6887860   0.0000000   0.0000000   0.0000000   0.0000000
 0.9800000  -2.5106000  -0.0577066   0.9481700   0.0000000   0.0000000   0.0342071  -0.0024622   0.6844700  -0.0779017   0.0000000   0.0000000   0.0000000   0.1803070   0.6736590   0.0000000   0.0000000   0.0000000   0.0000000
 0.9850000  -2.5106100  -0.0542759   0.9477810   0.0000000   0.0000000   0.0344335  -0.0015367   0.6878000  -0.0779017   0.0000000   0.0000000   0.0000000   0.1899270   0.6582810   0.0000000   0.0000000   0.0000000   0.0000000
 0.9900000  -2.5106100  -0.0508287   0.9473910   0.0000000   0.0000000   0.0346598  -0.0005625   0.6910530  -0.0779017   0.0000000   0.0000000   0.0000000   0.1997970   0.6426540   0.0000000   0.0000000   0.0000000   0.0000000
 0.9950000  -2.5106100  -0.0473655   0.9470020   0.0000000   0.0000000   0.0348862   0.0004617   0.6942260  -0.0779017   0.0000000   0.0000000   0.0000000   0.2099170   0.6267770   0.0000000   0.0000000   0.0000000   0.0000000
 1.0000000  -2.5106100  -0.0438866   0.9466120   0.0000000   0.0000000   0.0351126   0.0015371   0.6973200  -0.0779017   0.0000000   0.0000000   0.0000000   0.2202860   0.6106500   0.0000000   0.0000000   0.0000000   0.0000000
 1.0050000  -2.5106000  -0.0403925   0.9462230   0.0000000   0.0000000   0.0353390   0.0026650   0.7003330  -0.0779017   0.0000000   0.0000000   0.0000000   0.2309060   0.5942730   0.0000000   0.0000000   0.0000000   0.0000000
 1.0100000  -2.5105800  -0.0368834   0.9458330   0.0000000   0.0000000   0.0355654   0.0038466   0.7032620  -0.0779017   0.0000000   0.0000000   0.0000000   0.2417760   0.5776460   0.0000000   0.0000000   0.0000000   0.0000000
 1.0150000  -2.5105600  -0.0333600   0.9454440   0.0000000   0.0000000   0.0357918   0.0050832   0.7061090  -0.0779017   0.0000000   0.0000000   0.0000000   0.2528960   0.5608340   0.0000000   0.0000000   0.0000000   0.0000000
 1.0200000  -2.5105300  -0.0298225   0.9450540   0.0000000   0.0000000   0.0360182   0.0063760   0.7088710  -0.0779017   0.0000000   0.0000000   0.0000000   0.2642660   0.5442140   0.0000000   0.0000000   0.0000000   0.0000000
 1.0250000  -2.5105000  -0.0262714   0.9446650   0.0000000   0.0000000   0.0362446   0.0077262   0.7115510  -0.0779017   0.0000000   0.0000000   0.0000000   0.2758860   0.5278430   0.0000000   0.0000000   0.0000000   0.0000000
 1.0300000  -2.5104500  -0.0227071   0.9442750   0.0000000   0.0000000   0.0364710   0.0091353   0.7141500  -0.0779017   0.0000000   0.0000000   0.0000000   0.2877560   0.5117220   0.0000000   0.0000000   0.0000000   0.0000000
 1.0350000  -2.5104100  -0.0191300   0.9438860   0.0000000   0.0000000   0.0366974   0.0106042   0.7166690  -0.0779017   0.0000000   0.0000000   0.0000000   0.2998760   0.4958520   0.0000000   0.0000000   0.0000000   0.0000000
 1.0400000  -2.5103500  -0.0155405   0.9434960   0.0000000   0.0000000   0.0369238   0.0121344   0.7191090  -0.0779017   0.0000000   0.0000000   0.0000000   0.3122460   0.4802310   0.0000000   0.0000000   0.0000000   0.0000000
 1.0450000  -2.5102800  -0.0119391   0.9431070   0.0000000   0.0000000   0.0371502   0.0137271   0.7214720  -0.0779017   0.0000000   0.0000000   0.0000000   0.3248660   0.4648600   0.0000000   0.0000000   0.0000000   0.0000000
 1.0500000  -2.5102100  -0.0083260   0.9427170   0.0000000   0.0000000   0.0373766   0.0153835   0.7237580  -0.0779017   0.0000000   0.0000000   0.0000000   0.3377360   0.4497400   0.0000000   0.0000000   0.0000000   0.0000000
 1.0550000  -2.5101300  -0.0047016   0.9423280   0.0000000   0.0000000   0.0376030   0.0171049   0.7259690  -0.0779017   0.0000000   0.0000000   0.0000000   0.3508560   0.4348690   0.0000000   0.0000000   0.0000000   0.0000000
 1.0600000  -2.5100400  -0.0010664   0.9419380   0.0000000   0.0000000   0.0378294   0.0188925   0.7281070  -0.0779017   0.0000000   0.0000000   0.0000000   0.3642250   0.4202480   0.0000000   0.0000000   0.0000000   0.0000000
 1.0650000  -2.5099400   0.0025793   0.9415490   0.0000000   0.0000000   0.0380558   0.0207475   0.7301720  -0.0779017   0.0000000   0.0000000   0.0000000   0.3778450   0.4058780   0.0000000   0.0000000   0.0000000   0.0000000
 1.0700000  -2.5098300   0.0062352   0.9411590   0.0000000   0.0000000   0.0382822   0.0226713   0.7321660  -0.0779017   0.0000000   0.0000000   0.0000000   0.3917150   0.3917570   0.0000000   0.0000000   0.0000000   0.0000000
 1.0750000  -2.5097100   0.0099009   0.9407700   0.0000000   0.0000000   0.0385086   0.0246651   0.7340900  -0.0779017   0.0000000   0.0000000   0.0000000   0.4058350   0.3778860   0.0000000   0.0000000   0.0000000   0.0000000
 1.0800000  -2.5095900   0.0135760   0.9403800   0.0000000   0.0000000   0.0387350   0.0267301   0.7359460  -0.0779017   0.0000000   0.0000000   0.0000000   0.4202050   0.3642660   0.0000000   0.0000000   0.0000000   0.0000000
 1.0850000  -2.5094500   0.0172602   0.9399910   0.0000000   0.0000000   0.0389614   0.0288676   0.7377330  -0.0779017   0.0000000   0.0000000   0.0000000   0.4348250   0.3508950   0.0000000   0.0000000   0.0000000   0.0000000
 1.0900000  -2.5093000   0.0209532   0.9396010   0.0000000   0.0000000   0.0391878   0.0310788   0.7394550  -0.0779017   0.0000000   0.0000000   0.0000000   0.4496950   0.3377740   0.0000000   0.0000000   0.0000000   0.0000000
 1.0950000  -2.5091400   0.0246547   0.9392120   0.0000000   0.0000000   0.0394142   0.0333650   0.7411110  -0.0779017   0.0000000   0.0000000   0.0000000   0.4648150   0.3249040   0.0000000   0.0000000   0.0000000   0.0000000
 1.1000000  -2.5089600   0.0283642   0.9388220   0.0000000   0.0000000   0.0396406   0.0357273   0.7427040  -0.0779017   0.0000000   0.0000000   0.0000000   0.4801850   0.3122830   0.0000000   0.0000000   0.0000000   0.0000000
 1.1050000  -2.5087800   0.0320816   0.9384330   0.0000000   0.0000000   0.0398670   0.0381672   0.7442350  -0.0779017   0.0000000   0.0000000   0.0000000   0.4958050   0.2999120   0.0000000   0.0000000   0.0000000   0.0000000
 1.1100000  -2.5085800   0.0358065   0.9380430   0.0000000   0.0000000   0.0400934   0.0406858   0.7457040  -0.0779017   0.0000000   0.0000000   0.0000000   0.5116710   0.2877920   0.0000000   0.0000000   0.0000000   0.0000000
 1.1150000  -2.5083700   0.0395385   0.9376540   0.0000000   0.0000000   0.0403198   0.0432838   0.7471130  -0.0779017   0.0000000   0.0000000   0.0000000   0.5274830   0.2759210   0.0000000   0.0000000   0.0000000   0.0000000
 1.1200000  -2.5081500   0.0432775   0.9372640   0.0000000   0.0000000   0.0405462   0.0459602   0.7484630  -0.0779017   0.0000000   0.0000000   0.0000000   0.5430440   0.2643000   0.0000000   0.0000000   0.0000000   0.0000000
 1.1250000  -2.5079100   0.0470231   0.9368750   0.0000000   0.0000000   0.0407726   0.0487138   0.7497560  -0.0779017   0.0000000   0.0000000   0.0000000   0.5583560   0.2529300   0.0000000   0.0000000   0.0000000   0.0000000
 1.1300000  -2.5076600   0.0507750   0.9364850   0.0000000   0.0000000   0.0409990   0.0515434   0.7509930  -0.0779017   0.0000000   0.0000000   0.0000000   0.5734170   0.2418090   0.0000000   0.0000000   0.0000000   0.0000000
 1.1350000  -2.5074000   0.0545329   0.9360960   0.0000000   0.0000000   0.0412254   0.0544476   0.7521750  -0.0779017   0.0000000   0.0000000   0.0000000   0.5882280   0.2309380   0.0000000   0.0000000   0.0000000   0.0000000
 1.1400000  -2.5071200   0.0582966   0.9357060   0.0000000   0.0000000   0.0414518   0.0574252   0.7533030  -0.0779017   0.0000000   0.0000000   0.0000000   0.6027900   0.2203180   0.0000000   0.0000000   0.0000000   0.0000000
 1.1450000  -2.5068200   0.0620659   0.9353170   0.0000000   0.0000000   0.0416781   0.0604751   0.7543790  -0.0779017   0.0000000   0.0000000   0.0000000   0.6171010   0.2099470   0.0000000   0.0000000   0.0000000   0.0000000
 1.1500000  -2.5065100   0.0658403   0.9349270   0.0000000   0.0000000   0.0419045   0.0635958   0.7554030  -0.0779017   0.0000000   0.0000000   0.0000000   0.6311630   0.1998260   0.0000000   0.0000000   0.0000000   0.0000000
 1.1550000  -2.5061900   0.0696198   0.9345380   0.0000000   0.0000000   0.0421309   0.0667863   0.7563770  -0.0779017   0.0000000   0.0000000   0.0000000   0.6449740   0.1899560   0.0000000   0.0000000   0.0000000   0.0000000
 1.1600000  -2.5058400   0.0734040   0.9341480   0.0000000   0.0000000   0.0423573   0.0700452   0.7573030  -0.0779017   0.0000000   0.0000000   0.0000000   0.6585360   0.1803350   0.0000000   0.0000000   0.0000000   0.0000000
 1.1650000  -2.5054900   0.0771928   0.9337590   0.0000000   0.0000000   0.0425837   0.0733712   0.7581810  -0.0779017   0.0000000   0.0000000   0.0000000   0.6718470   0.1709640   0.0000000   0.0000000   0.0000000   0.0000000
 1.1700000  -2.5051100   0.0809858   0.9333690   0.0000000   0.0000000   0.0428101   0.0767632   0.7590130  -0.0779017   0.0000000   0.0000000   0.0000000   0.6849090   0.1618440   0.0000000   0.0000000   0.0000000   0.0000000
 1.1750000  -2.5047200   0.0847828   0.9329800   0.0000000   0.0000000   0.0430365   0.0802199   0.7598000  -0.0779017   0.0000000   0.0000000   0.0000000   0.6977200   0.1529730   0.0000000   0.0000000   0.0000000   0.0000000
 1.1800000  -2.5043100   0.0885837   0.9325900   0.0000000   0.0000000   0.0432629   0.0837400   0.7605430  -0.0779017   0.0000000   0.0000000   0.0000000   0.7102820   0.1443520   0.0000000   0.0000000   0.0000000   0.0000000
 1.1850000  -2.5038800   0.0923882   0.9322010   0.0000000   0.0000000   0.0434893   0.0873223   0.7612440  -0.0779017   0.0000000   0.0000000   0.0000000   0.7225930   0.1359820   0.0000000   0.0000000   0.0000000   0.0000000
 1.1900000  -2.5034300   0.0961961   0.9318110   0.0000000   0.0000000   0.0437157   0.0909655   0.7619030  -0.0779017   0.0000000   0.0000000   0.0000000   0.7346550   0.1278610   0.0000000   0.0000000   0.0000000   0.0000000
 1.1950000  -2.5029700   0.1000070   0.9314220   0.0000000   0.0000000   0.0439421   0.0946684   0.7625230  -0.0779017   0.0000000   0.0000000   0.0000000   0.7464660   0.1199900   0.0000000   0.0000000   0.0000000   0.0000000
 1.2000000  -2.5024900   0.1038210   0.9310320   0.0000000   0.0000000   0.0441685   0.0984297   0.7631040  -0.0779017   0.0000000   0.0000000   0.0000000   0.7580270   0.1123700   0.0000000   0.0000000   0.0000000   0.0000000
 1.2050000  -2.5019900   0.1076380   0.9306430   0.0000000   0.0000000   0.0443949   0.1022480   0.7636470  -0.0779017   0.0000000   0.0000000   0.0000000   0.7693390   0.1049990   0.0000000   0.0000000   0.0000000   0.0000000
 1.2100000  -2.5014700   0.1114580   0.9302530   0.0000000   0.0000000   0.0446213   0.1061230   0.7641540  -0.0779017   0.0000000   0.0000000   0.0000000   0.7804000   0.0978785   0.0000000   0.0000000   0.0000000   0.0000000
 1.2150000  -2.5009200   0.1152800   0.9298640   0.0000000   0.0000000   0.0448477   0.1100520   0.7646260  -0.0779017   0.0000000   0.0000000   0.0000000   0.7912120   0.0910078   0.0000000   0.0000000   0.0000000   0.0000000
 1.2200000  -2.5003600   0.1191040   0.9294740   0.0000000   0.0000000   0.0450741   0.1140340   0.7650650  -0.0779017   0.0000000   0.0000000   0.0000000   0.8017730   0.0843872   0.0000000   0.0000000   0.0000000   0.0000000
 1.2250000  -2.4997800   0.1229300   0.9290850   0.0000000   0.0000000   0.0453005   0.1180690   0.7654700  -0.0779017   0.0000000   0.0000000   0.0000000   0.8120850   0.0780165   0.0000000   0.0000000   0.0000000   0.0000000
 1.2300000  -2.4991800   0.1267580   0.9286950   0.0000000   0.0000000   0.0455269   0.1221550   0.7658450  -0.0779017   0.0000000   0.0000000   0.0000000   0.8221460   0.0718959   0.0000000   0.0000000   0.0000000   0.0000000
 1.2350000  -2.4985600   0.1305890   0.9283050   0.0000000   0.0000000   0.0457533   0.1262900   0.7661900  -0.0779017   0.0000000   0.0000000   0.0000000   0.8319580   0.0660252   0.0000000   0.0000000   0.0000000   0.0000000
 1.2400000  -2.4979200   0.1344200   0.9279160   0.0000000   0.0000000   0.0459797   0.1304740   0.7665060  -0.0779017   0.0000000   0.0000000   0.0000000   0.8415190   0.0604045   0.0000000   0.0000000   0.0000000   0.0000000
 1.2450000  -2.4972600   0.1382540   0.9275260   0.0000000   0.0000000   0.0462061   0.1347050   0.7667940  -0.0779017   0.0000000   0.0000000   0.0000000   0.8508310   0.0550339   0.0000000   0.0000000   0.0000000   0.0000000
 1.2500000  -2.4965700   0.1420880   0.9271370   0.0000000   0.0000000   0.0464325   0.1389820   0.7670570  -0.0779017   0.0000000   0.0000000   0.0000000   0.8598920   0.0499132   0.0000000   0.0000000   0.0000000   0.0000000
 1.2550000  -2.4958700   0.1459240   0.9267470   0.0000000   0.0000000   0.0466589   0.1433030   0.7672940  -0.0779017   0.0000000   0.0000000   0.0000000   0.8687030   0.0450426   0.0000000   0.0000000   0.0000000   0.0000000
 1.2600000  -2.4951400   0.1497610   0.9263580   0.0000000   0.0000000   0.0468853   0.1476690   0.7675070  -0.0779017   0.0000000   0.0000000   0.0000000   0.8772650   0.0404219   0.0000000   0.0000000   0.0000000   0.0000000
 1.2650000  -2.4943900   0.1535990   0.9259680   0.0000000   0.0000000   0.0471117   0.1520760   0.7676980  -0.0779017   0.0000000   0.0000000   0.0000000   0.8855760   0.0360513   0.0000000   0.0000000   0.0000000   0.0000000
 1.2700000  -2.4936200   0.1574380   0.9255790   0.0000000   0.0000000   0.0473381   0.1565240   0.7678680  -0.0779017   0.0000000   0.0000000   0.0000000   0.8936380   0.0319306   0.0000000   0.0000000   0.0000000   0.0000000
 1.2750000  -2.4928300   0.1612780   0.9251890   0.0000000   0.0000000   0.0475645   0.1610120   0.7680180  -0.0779017   0.0000000   0.0000000   0.0000000   0.9014490   0.0280599   0.0000000   0.0000000   0.0000000   0.0000000
 1.2800000  -2.4920100   0.1651180   0.9248000   0.0000000   0.0000000   0.0477909   0.1655380   0.7681490  -0.0779017   0.0000000   0.0000000   0.0000000   0.9090110   0.0244393   0.0000000   0.0000000   0.0000000   0.0000000
 1.2850000  -2.4911700   0.1689590   0.9244100   0.0000000   0.0000000   0.0480173   0.1701010   0.7682630  -0.0779017   0.0000000   0.0000000   0.0000000   0.9163220   0.0210686   0.0000000   0.0000000   0.0000000   0.0000000
 1.2900000  -2.4903100   0.1728010   0.9240210   0.0000000   0.0000000   0.0482437   0.1747010   0.7683600  -0.0779017   0.0000000   0.0000000   0.0000000   0.9233840   0.0179480   0.0000000   0.0000000   0.0000000   0.0000000
 1.2950000  -2.4894200   0.1766430   0.9236310   0.0000000   0.0000000   0.0484700   0.1793350   0.7684430  -0.0779017   0.0000000   0.0000000   0.0000000   0.9301950   0.0150773   0.0000000   0.0000000   0.0000000   0.0000000
 1.3000000  -2.4885100   0.1804850   0.9232420   0.0000000   0.0000000   0.0486964   0.1840020   0.7685120  -0.0779017   0.0000000   0.0000000   0.0000000   0.9367570   0.0124566   0.0000000   0.0000000   0.0000000   0.0000000
 1.3050000  -2.4875800   0.1843280   0.9228520   0.0000000   0.0000000   0.0489228   0.1887020   0.7685680  -0.0779017   0.0000000   0.0000000   0.0000000   0.9430680   0.0100860   0.0000000   0.0000000   0.0000000   0.0000000
 1.3100000  -2.4866300   0.1881710   0.9224630   0.0000000   0.0000000   0.0491492   0.1934330   0.7686130  -0.0779017   0.0000000   0.0000000   0.0000000   0.9491300   0.0079653   0.0000000   0.0000000   0.0000000   0.0000000
 1.3150000  -2.4856500   0.1920140   0.9220730   0.0000000   0.0000000   0.0493756   0.1981930   0.7686480  -0.0779017   0.0000000   0.0000000   0.0000000   0.9549410   0.0060947   0.0000000   0.0000000   0.0000000   0.0000000
