ts fx fy fz tx ty tz exfx exfy exfz extx exty extz xd yd zd rolld pitchd yawd vxd vyd vzd wxd wyd wzd axd ayd azd e_x e_y e_z e_vx e_vy e_vz e_rx e_ry e_rz e_wx e_wy e_wz
1701270143.682146000  0  0  14.9379  -0.0159228  0.0748636  0.00525836  nan  nan  nan  nan  nan  nan  -1.5  0  1  -0.0108069  0.0036171  -3.90909e-05  0  0  0  0  0  0  0  0  0  -0.00328881  -0.00442623  -0.0102829  0.00336151  -0.00293862  -0.00301247  -2.57314e-05  -0.00935657  -0.00490883  0.0286097  -0.0255345  0.00686564 
1701270143.686140000  0  0  14.9389  -0.0343382  0.0945992  0.00545475  nan  nan  nan  nan  nan  nan  -1.5  0  1  -0.0111433  0.0034251  -3.81686e-05  0  0  0  0  0  0  0  0  0  -0.00327279  -0.00444005  -0.0102936  0.00356401  -0.00332923  -0.00305049  0.000688053  -0.00960714  -0.00492128  0.0531482  -0.0577468  0.00382747 
1701270143.691092000  0  0  14.9357  -0.0408972  0.0892733  0.00538957  nan  nan  nan  nan  nan  nan  -1.5  0  1  -0.0111709  0.00356712  -3.98494e-05  0  0  0  0  0  0  0  0  0  -0.00327432  -0.00447891  -0.0103204  0.00339012  -0.00326735  -0.0027843  0.00111098  -0.00983816  -0.00489373  0.0599482  -0.04562  0.00438428 
1701270143.696130000  0  0  14.9432  -0.0261885  0.0558394  0.00568293  nan  nan  nan  nan  nan  nan  -1.5  0  1  -0.0116771  0.00350474  -4.09268e-05  0  0  0  0  0  0  0  0  0  -0.00325679  -0.00449971  -0.0103373  0.00342416  -0.00386069  -0.00321232  0.0015111  -0.00931556  -0.00491095  0.0291927  0.00782272  -0.000180682 
1701270143.701134000  0  0  14.9524  -0.0506554  0.0822679  0.00633964  nan  nan  nan  nan  nan  nan  -1.5  0  1  -0.0120365  0.00337166  -4.05848e-05  0  0  0  0  0  0  0  0  0  -0.00325258  -0.00455117  -0.0103635  0.00357871  -0.00419819  -0.00373609  0.00244299  -0.00962946  -0.00502637  0.0619839  -0.0355628  -0.0089181 
1701270143.705128000  0  0  14.9369  -0.0407323  0.060278  0.00607881  nan  nan  nan  nan  nan  nan  -1.5  0  1  -0.0120725  0.0034879  -4.21095e-05  0  0  0  0  0  0  0  0  0  -0.00324007  -0.00456663  -0.0103683  0.00340696  -0.00419049  -0.00274169  0.00254169  -0.00948764  -0.00501863  0.0432039  0.00190866  -0.00471316 
1701270143.711074000  0  0  14.9267  -0.0237851  0.0398751  0.00552658  nan  nan  nan  nan  nan  nan  -1.5  0  1  -0.0127424  0.00313385  -3.9935e-05  0  0  0  0  0  0  0  0  0  -0.00321454  -0.00462346  -0.0103756  0.00379318  -0.0048847  -0.00206507  0.00299651  -0.00870127  -0.00492155  0.00783876  0.0291467  0.00263356 
1701270143.716145000  0  0  14.9024  -0.0440663  0.054785  0.00571091  nan  nan  nan  nan  nan  nan  -1.5  0  1  -0.012473  0.0030238  -3.77179e-05  0  0  0  0  0  0  0  0  0  -0.00319463  -0.0046624  -0.0103726  0.00388971  -0.00442734  -0.000540141  0.00320601  -0.00875475  -0.00492451  0.0414936  0.00324912  -0.000386432 
1701270143.721087000  0  0  14.8987  -0.0181933  0.019038  0.00522874  nan  nan  nan  nan  nan  nan  -1.5  0  1  -0.0128389  0.00277566  -3.56384e-05  0  0  0  0  0  0  0  0  0  -0.00317374  -0.00468795  -0.0103773  0.00415148  -0.00482049  -0.000282437  0.00322161  -0.00783907  -0.0048402  -0.00469281  0.0562849  0.00603688 
1701270143.726151000  0  0  14.909  -0.0262761  0.0291471  0.00551613  nan  nan  nan  nan  nan  nan  -1.5  0  1  -0.0129643  0.00261736  -3.39341e-05  0  0  0  0  0  0  0  0  0  -0.00315678  -0.00474993  -0.0103938  0.00430686  -0.0048398  -0.000895814  0.00344393  -0.00759606  -0.00486326  0.00712354  0.0355148  0.00168407 
1701270143.730066000  0  0  14.9067  -0.0265127  0.0274364  0.00550701  nan  nan  nan  nan  nan  nan  -1.5  0  1  -0.0129743  0.00249195  -3.23331e-05  0  0  0  0  0  0  0  0  0  -0.00313969  -0.00476881  -0.010397  0.00442357  -0.00480447  -0.00074396  0.00348053  -0.00733151  -0.00485536  0.00712354  0.0355148  0.00168407 
1701270143.736102000  0  0  14.8858  -0.0367398  0.0320741  0.0054212  nan  nan  nan  nan  nan  nan  -1.5  0  1  -0.0126939  0.00243668  -3.09327e-05  0  0  0  0  0  0  0  0  0  -0.00310433  -0.0048093  -0.0104066  0.00441218  -0.00433321  0.000599452  0.0035758  -0.00718844  -0.00480577  0.0242138  0.025623  0.0021603 
1701270143.741086000  0  0  14.8773  -0.0368002  0.0306217  0.00540738  nan  nan  nan  nan  nan  nan  -1.5  0  1  -0.0125837  0.0023397  -2.94435e-05  0  0  0  0  0  0  0  0  0  -0.00308217  -0.0048304  -0.0104023  0.00448206  -0.00413534  0.00113299  0.00358514  -0.00696384  -0.0047938  0.0242138  0.025623  0.0021603 
1701270143.745137000  0  0  14.7906  0.00472442  0.0191535  0.00510964  nan  nan  nan  nan  nan  nan  -1.5  0  1  -0.0128803  0.00201964  -2.60151e-05  0  0  0  0  0  0  0  0  0  -0.00305188  -0.00487656  -0.0103341  0.00482456  -0.00430166  0.00647381  0.0028405  -0.00632244  -0.0047217  -0.0410626  0.0386406  0.00574045 
1701270143.751152000  0  0  14.8753  0.0422179  0.035703  0.00520027  nan  nan  nan  nan  nan  nan  -1.5  0  1  -0.0127477  0.00170818  -2.17764e-05  0  0  0  0  0  0  0  0  0  -0.00301195  -0.00491512  -0.0103924  0.00510401  -0.00413467  0.00124427  0.00177498  -0.00627743  -0.00473388  -0.095481  0.00869482  0.00446244 
1701270143.755154000  0  0  14.8589  0.0242642  0.0435312  0.00546468  nan  nan  nan  nan  nan  nan  -1.5  0  1  -0.0118462  0.00243346  -2.88287e-05  0  0  0  0  0  0  0  0  0  -0.00300261  -0.00492042  -0.0103756  0.0041772  -0.00297763  0.00222947  0.00104889  -0.00705736  -0.00476934  -0.055207  0.00374286  0.000732249 
1701270143.760219000  0  0  14.8358  0.044274  0.0432775  0.00589286  nan  nan  nan  nan  nan  nan  -1.5  0  1  -0.0120031  0.00207984  -2.49657e-05  0  0  0  0  0  0  0  0  0  -0.00296287  -0.00496701  -0.0103629  0.00452777  -0.00303831  0.00366794  0.000574683  -0.0066605  -0.00481724  -0.0853356  -0.000369342  -0.00549207 
1701270143.765231000  0  0  14.8408  0.0555179  0.0501811  0.00589139  nan  nan  nan  nan  nan  nan  -1.5  0  1  -0.0111698  0.00241497  -2.69759e-05  0  0  0  0  0  0  0  0  0  -0.00294146  -0.00497714  -0.0103801  0.00405699  -0.00197867  0.00338403  -0.000768319  -0.00703567  -0.00481115  -0.0898867  -0.00833136  -0.00558487 
1701270143.771140000  0  0  14.7995  0.0470641  0.0620907  0.00598774  nan  nan  nan  nan  nan  nan  -1.5  0  1  -0.010967  0.00255299  -2.79998e-05  -6e-07  6e-07  6e-07  0  0  0  -0.000375  0.000375  0.000375  -0.00291855  -0.00499002  -0.010339  0.00379174  -0.00160981  0.00593292  -0.00123845  -0.0074212  -0.0048561  -0.0694485  -0.0250758  -0.00632651 
1701270143.776139000  0  0  14.8503  0.0661231  0.0742819  0.00592267  nan  nan  nan  nan  nan  nan  -1.5  0  1  -0.011099  0.00231604  -2.57067e-05  -5e-06  5e-06  5e-06  0  0  0  -0.0015  0.0014996  0.0015  -0.00290528  -0.00500615  -0.0104156  0.00390492  -0.00164275  0.00299715  -0.00179395  -0.00751045  -0.00487961  -0.0969516  -0.0457278  -0.00478707 
1701270143.780089000  0  0  14.861  0.0681193  0.0695637  0.00588759  nan  nan  nan  nan  nan  nan  -1.5  1e-07  1  -0.0107303  0.00265441  -2.84837e-05  -1.69e-05  1.55e-05  1.69e-05  0  0  0  -0.003375  0.0025892  0.003375  -0.00289565  -0.00500899  -0.0104075  0.00322315  -0.0010494  0.00246844  -0.00249649  -0.00788487  -0.00488902  -0.0924228  -0.0330326  -0.00402001 
1701270143.786134000  0  0  14.8548  0.0510541  0.0848183  0.00506495  nan  nan  nan  nan  nan  nan  -1.5  2e-07  1  -0.0113932  0.00206435  -2.34206e-05  -4e-05  2.96e-05  4e-05  0  0  0  -0.006  0.0029289  0.006  -0.00283976  -0.00505041  -0.0104371  0.00350077  -0.0017303  0.00318409  -0.00214464  -0.0078601  -0.00477043  -0.0661236  -0.0604431  0.00742599 
1701270143.791137000  0  0  14.8854  0.0598938  0.0760931  0.00497668  nan  nan  nan  nan  nan  nan  -1.5  4e-07  1  -0.0108655  0.00190356  -2.04838e-05  -7.81e-05  4.36e-05  7.81e-05  0  0  0  -0.009375  0.0025185  0.009375  -0.00282916  -0.00504652  -0.010473  0.00325111  -0.00115929  0.0016338  -0.00306631  -0.00783922  -0.00470682  -0.0712443  -0.045168  0.00767293 
1701270143.795138000  0  0  14.8946  0.0556181  0.06127  0.00510475  nan  nan  nan  nan  nan  nan  -1.5  6e-07  1  -0.0107804  0.00150955  -1.58743e-05  -0.000135  5.36e-05  0.000135  0  0  0  -0.0135  0.0013619  0.0135  -0.00281641  -0.00505261  -0.0104661  0.00319916  -0.0011905  0.001423  -0.00332634  -0.00738602  -0.00469689  -0.0606513  -0.024021  0.00534371 
1701270143.801128000  0  0  14.9473  0.0350163  0.0792441  0.00552343  nan  nan  nan  nan  nan  nan  -1.5  9e-07  1  -0.0110342  0.00086481  -8.94287e-06  -0.0002144  5.74e-05  0.0002144  0  0  0  -0.018375  0.0003076  0.018375  -0.00279428  -0.00508928  -0.0105773  0.00334309  -0.00160054  -0.00120293  -0.00309939  -0.00735659  -0.00477091  -0.0266272  -0.0563207  -0.000218222 
1701270143.805140000  0  0  14.9655  0.0310523  0.0561703  0.00518534  nan  nan  nan  nan  nan  nan  -1.5  1.2e-06  1  -0.0108702  0.000646034  -6.2228e-06  -0.0003192  5.79e-05  0.00032  0  0  0  -0.0234272  -3.3e-06  0.024  -0.00278525  -0.00509443  -0.0105815  0.00296649  -0.00143721  -0.00181513  -0.00326927  -0.00696522  -0.00471934  -0.0176248  -0.0197913  0.00443118 
1701270143.811123000  0  0  14.9877  0.0170814  0.0532177  0.00531996  nan  nan  nan  nan  nan  nan  -1.50001  1.5e-06  1.00001  -0.0115058  0.000148255  -7.05862e-07  -0.0004474  5.71e-05  0.0004556  0  0  0  -0.0277414  -0.0004491  0.030375  -0.00274559  -0.00513765  -0.0106496  0.00296046  -0.00221037  -0.00245802  -0.00262029  -0.00659946  -0.0047208  -0.000244365  -0.0187468  0.00221216 
1701270143.816125000  0  0  15.0083  -0.00514003  0.0702184  0.00556414  nan  nan  nan  nan  nan  nan  -1.50001  1.7e-06  1.00001  -0.0115063  -0.000322955  4.9162e-06  -0.0005953  5.22e-05  0.000625  0  0  0  -0.0313055  -0.0016448  0.0375  -0.00273164  -0.00516617  -0.0107026  0.00307791  -0.00231137  -0.0029758  -0.00226891  -0.00661884  -0.00475084  0.0352291  -0.0487545  -0.00128476 
1701270143.821123000  0  0  15.0149  -0.000307418  0.044449  0.00506596  nan  nan  nan  nan  nan  nan  -1.50001  2e-06  1.00001  -0.011684  -0.000367481  5.69383e-06  -0.0007592  3.94e-05  0.0008313  0  0  0  -0.0341197  -0.0035905  0.0449212  -0.00272253  -0.00518095  -0.0107081  0.00276205  -0.00274877  -0.00267846  -0.00205666  -0.00628265  -0.00466833  0.0241953  -0.00679722  0.00544049 
1701270143.826132000  0  0  15.0571  -0.0312683  0.0656638  0.0053889  nan  nan  nan  nan  nan  nan  -1.50002  2.1e-06  1.00002  -0.0119401  -0.000878862  1.20942e-05  -0.0009353  1.5e-05  0.001073  0  0  0  -0.0361838  -0.0062863  0.0516294  -0.00269602  -0.00522797  -0.0107921  0.00309046  -0.00333724  -0.0045295  -0.00123261  -0.00626297  -0.00469722  0.0697743  -0.0447475  0.000606581 
1701270143.830081000  0  0  15.0785  -0.0456998  0.0709656  0.00552249  nan  nan  nan  nan  nan  nan  -1.50002  2.1e-06  1.00002  -0.0116034  -0.00112808  1.47902e-05  -0.0011198  -2.47e-05  0.0013463  0  0  0  -0.0374979  -0.009732  0.0575876  -0.00268741  -0.0052399  -0.0108075  0.00322387  -0.00333202  -0.00529427  -0.00101011  -0.00630464  -0.00472037  0.0928776  -0.0536959  -0.00117704 
1701270143.836126000  0  0  15.0828  -0.0278218  0.0283711  0.00588603  nan  nan  nan  nan  nan  nan  -1.50003  1.8e-06  1.00003  -0.0122805  -0.00110399  1.53583e-05  -0.001309  -8.36e-05  0.0016476  0  0  0  -0.0380621  -0.0139277  0.0627958  -0.00266582  -0.00530432  -0.0108805  0.00307159  -0.0045628  -0.00490146  -0.000357982  -0.00578399  -0.00477042  0.0535887  0.0160585  -0.00628076 
1701270143.841124000  0  0  15.0913  -0.0571711  0.0600104  0.00595151  nan  nan  nan  nan  nan  nan  -1.50003  1.2e-06  1.00004  -0.011914  -0.00116484  1.55786e-05  -0.0014992  -0.0001653  0.001973  0  0  0  -0.0378762  -0.0188734  0.0672541  -0.00265923  -0.00534698  -0.0109458  0.00315693  -0.00461958  -0.0048783  0.000100695  -0.00628263  -0.0048112  0.100503  -0.0344686  -0.00658753 
1701270143.846118000  0  0  15.0617  -0.0320301  0.0416537  0.00475104  nan  nan  nan  nan  nan  nan  -1.50004  1e-07  1.00005  -0.0116174  -0.000963645  1.25956e-05  -0.0016865  -0.0002735  0.0023189  0  0  0  -0.0369404  -0.0245692  0.0709623  -0.00264327  -0.00537061  -0.0109495  0.0029772  -0.0048664  -0.00264896  -0.000153966  -0.00629702  -0.00464522  0.058726  -0.00166149  0.0102521 
1701270143.851121000  0  0  15.0977  -0.0228165  0.0396999  0.00397026  nan  nan  nan  nan  nan  nan  -1.50005  -1.6e-06  1.00006  -0.0112199  -0.000961045  1.16833e-05  -0.0018673  -0.0004122  0.0026814  0  0  0  -0.0352545  -0.0310149  0.0739205  -0.00262896  -0.00542491  -0.0110247  0.00315231  -0.00506872  -0.00448185  -0.00049302  -0.00626225  -0.00445854  0.0462411  0.0014129  0.0196864 
1701270143.855070000  0  0  15.1064  -0.0477469  0.0687406  0.00432967  nan  nan  nan  nan  nan  nan  -1.50006  -4e-06  1.00008  -0.0100685  -0.00067071  6.75329e-06  -0.0020378  -0.0005849  0.0030568  0  0  0  -0.0328187  -0.0382106  0.0761287  -0.00261558  -0.00543918  -0.011053  0.00305509  -0.00447545  -0.00478198  -0.000888967  -0.00703819  -0.00445503  0.0951249  -0.0413047  0.013619 
1701270143.861123000  0  0  15.0582  -0.00551059  0.0482738  0.00475541  nan  nan  nan  nan  nan  nan  -1.50007  -7.5e-06  1.00009  -0.010168  -0.00054798  4.27205e-06  -0.0021943  -0.0007956  0.0034414  0  0  0  -0.0296328  -0.0461564  0.0775869  -0.00254463  -0.005545  -0.0110137  0.00312293  -0.00529554  -0.00168399  -0.00109218  -0.00717156  -0.00450743  0.0223574  -0.00337731  0.00752226 
1701270143.866129000  0  0  15.0542  -0.0147417  0.0675637  0.00494815  nan  nan  nan  nan  nan  nan  -1.50008  -1.21e-05  1.00011  -0.00927456  -0.00018761  -1.35995e-06  -0.0023329  -0.0010478  0.0038315  0  0  0  -0.025697  -0.0548521  0.0782951  -0.00249243  -0.00562697  -0.0109993  0.00303083  -0.00504634  -0.00141117  -0.00161103  -0.00806314  -0.00455014  0.044738  -0.0274263  0.00512848 
1701270143.871135000  0  0  15.0047  -0.0121889  0.0780505  0.00450017  nan  nan  nan  nan  nan  nan  -1.50009  -1.8e-05  1.00013  -0.0082188  0.000337085  -8.2705e-06  -0.00245  -0.0013453  0.0042232  0  0  0  -0.0210111  -0.0642978  0.0782533  -0.00247914  -0.00565205  -0.0109826  0.00291915  -0.00479084  0.00166735  -0.0023537  -0.0088652  -0.00445531  0.0487383  -0.0368514  0.0107784 
1701270143.876133000  0  0  15.0264  0.034383  0.0723046  0.0041845  nan  nan  nan  nan  nan  nan  -1.50011  -2.56e-05  1.00015  -0.00699738  0.00101061  -1.57717e-05  -0.0025421  -0.001692  0.0046127  0  0  0  -0.0158651  -0.0744935  0.0774615  -0.00247243  -0.0056937  -0.0110418  0.00269162  -0.00443116  0.000336847  -0.0041439  -0.00952518  -0.00434097  -0.0134905  -0.0190453  0.0138433 
1701270143.881126000  0  0  15.0587  0.0283554  0.0908924  0.0045102  nan  nan  nan  nan  nan  nan  -1.50012  -3.5e-05  1.00018  -0.00524617  0.00172613  -2.17557e-05  -0.0026098  -0.0020915  0.0049965  0  0  0  -0.0113618  -0.0854393  0.0759198  -0.00246406  -0.00571085  -0.0110691  0.00232288  -0.00355332  -0.00182091  -0.00561299  -0.0105972  -0.00433319  0.01412  -0.0397715  0.00825635 
1701270143.886134000  0  0  15.0065  0.047213  0.0942124  0.00527993  nan  nan  nan  nan  nan  nan  -1.50013  -4.66e-05  1.0002  -0.00430583  0.00213364  -2.69872e-05  -0.0026569  -0.0025476  0.0053707  0  0  0  -0.0076086  -0.097135  0.073628  -0.00242661  -0.0057782  -0.0110347  0.00219317  -0.00363741  0.00117732  -0.00668631  -0.011399  -0.00445264  -0.00707068  -0.0364557  -0.00228996 
1701270143.891142000  0  0  15.0097  0.0622572  0.0994969  0.00586566  nan  nan  nan  nan  nan  nan  -1.50015  -6.06e-05  1.00023  -0.0025519  0.00274985  -3.10174e-05  -0.0026871  -0.0030641  0.0057316  0  0  0  -0.0046053  -0.109581  0.0705862  -0.00239718  -0.00582507  -0.0110364  0.00171756  -0.00286065  0.000661666  -0.00854733  -0.0124037  -0.0045926  -0.012423  -0.0342997  -0.00936918 
1701270143.896128000  0  0  14.9839  0.0629862  0.108182  0.00613017  nan  nan  nan  nan  nan  nan  -1.50016  -7.74e-05  1.00026  -0.000735816  0.00311474  -3.37919e-05  -0.0027042  -0.0036447  0.0060753  0  0  0  -0.002352  -0.122776  0.0667944  -0.00239171  -0.00583795  -0.0110258  0.00153086  -0.0021775  0.00188998  -0.0101985  -0.0130449  -0.00467248  0.00526731  -0.0423704  -0.0122444 
1701270143.901138000  0  0  14.9782  0.0778018  0.110494  0.00596123  nan  nan  nan  nan  nan  nan  -1.50017  -9.72e-05  1.00029  0.000911102  0.00341653  -3.73872e-05  -0.0027119  -0.0042931  0.0063982  0  0  0  -0.0008487  -0.136722  0.0622526  -0.00237701  -0.00586667  -0.0110371  0.00130383  -0.00176891  0.00182933  -0.0118824  -0.013763  -0.00472993  -0.00171573  -0.038225  -0.0083167 
1701270143.905134000  0  0  15.031  0.0853975  0.097493  0.00565842  nan  nan  nan  nan  nan  nan  -1.50019  -0.0001204  1.00032  0.00306655  0.00352436  -4.02924e-05  -0.002714  -0.0050132  0.0066966  0  0  0  -9.54e-05  -0.151418  0.0569608  -0.00236217  -0.00586645  -0.0110677  0.00121038  -0.000868986  -0.00196772  -0.0139328  -0.0137675  -0.00469554  0.00835452  -0.0150544  -0.00392476 
1701270143.911130000  0  0  15.009  0.0899509  0.103044  0.00530181  nan  nan  nan  nan  nan  nan  -1.5002  -0.0001474  1.00036  0.00450181  0.00372998  -4.67083e-05  -0.002714  -0.0058085  0.0069666  0  0  0  -0  -0.166864  0.050919  -0.00235798  -0.00589748  -0.0110802  0.000959056  -0.000910439  -0.00112627  -0.015218  -0.0143181  -0.00468756  0.0150356  -0.018594  0.00187427 
1701270143.916144000  0  0  15.0207  0.0937768  0.0952629  0.00557366  nan  nan  nan  nan  nan  nan  -1.50021  -0.0001786  1.00039  0.00666399  0.00387048  -5.22068e-05  -0.002714  -0.0066831  0.0072045  0  0  0  -0  -0.183059  0.0441273  -0.00235222  -0.00591794  -0.0111032  0.000764009  -0.000140089  -0.00247557  -0.0171394  -0.0145742  -0.00474247  0.0303263  -0.00181266  -0.00160502 
1701270143.921136000  0  0  15.0162  0.100358  0.0789108  0.00533916  nan  nan  nan  nan  nan  nan  -1.50023  -0.0002144  1.00043  0.00875395  0.00382436  -6.1321e-05  -0.002714  -0.0076404  0.0074067  0  0  0  -0  -0.200005  0.0366689  -0.00234071  -0.00591925  -0.0111187  0.000796271  0.000391745  -0.00286584  -0.018962  -0.0142298  -0.00469286  0.0395804  0.0233041  0.00135298 
1701270143.926145000  0  0  14.998  0.0881309  0.0816365  0.00521227  nan  nan  nan  nan  nan  nan  -1.50024  -0.0002552  1.00047  0.0105977  0.00383997  -7.33036e-05  -0.002714  -0.0086844  0.0075721  0  0  0  -0  -0.217701  0.0296275  -0.00233158  -0.00593624  -0.0111513  0.000760746  0.000543184  -0.0023022  -0.0201879  -0.0143831  -0.00469797  0.0754182  0.0202201  0.00356967 
1701270143.930086000  0  0  15.0361  0.0872056  0.0773131  0.00493913  nan  nan  nan  nan  nan  nan  -1.50025  -0.0003014  1.00051  0.0129638  0.00373763  -8.73438e-05  -0.002714  -0.0098186  0.0077042  0  0  0  -0  -0.236147  0.0233361  -0.0023282  -0.00592366  -0.011195  0.000870201  0.00124448  -0.00521655  -0.021985  -0.0141524  -0.00461644  0.0977284  0.0252546  0.00655726 
1701270143.936149000  0  0  15.0227  0.0837046  0.0468631  0.00455916  nan  nan  nan  nan  nan  nan  -1.50027  -0.0003535  1.00054  0.0145262  0.00361311  -0.000108112  -0.002714  -0.0110471  0.0078067  0  0  0  -0  -0.255342  0.0177946  -0.00230668  -0.00595541  -0.0112198  0.000980706  0.000891637  -0.00481696  -0.0227971  -0.0134539  -0.00453781  0.113292  0.0713686  0.0113841 
1701270143.941139000  0  0  15.0207  0.0660167  0.0528942  0.00501394  nan  nan  nan  nan  nan  nan  -1.50028  -0.000412  1.00058  0.0168071  0.00357863  -0.000128448  -0.002714  -0.0123733  0.0078834  0  0  0  -0  -0.275288  0.0130032  -0.00228622  -0.00598387  -0.011262  0.000976475  0.00135785  -0.00503734  -0.0239609  -0.0133884  -0.00457695  0.158126  0.0598915  0.0045471 
1701270143.946152000  0  0  15.012  0.0626373  0.0366114  0.00463762  nan  nan  nan  nan  nan  nan  -1.5003  -0.0004774  1.00062  0.0188827  0.00311577  -0.000161059  -0.002714  -0.0138012  0.007938  0  0  0  -0  -0.295984  0.0089618  -0.00227043  -0.00598111  -0.0112836  0.00152701  0.00138423  -0.00479417  -0.025  -0.0124431  -0.00447467  0.176084  0.0779753  0.00885711 
1701270143.951148000  0  0  15.0201  0.0563772  0.0241267  0.00426588  nan  nan  nan  nan  nan  nan  -1.50031  -0.0005502  1.00066  0.0205164  0.00307569  -0.000191789  -0.002714  -0.0153344  0.0079743  0  0  0  -0  -0.317429  0.0056704  -0.0022571  -0.00602543  -0.0113591  0.00154471  0.00089871  -0.00542181  -0.0255917  -0.0119077  -0.00435414  0.194019  0.0940199  0.0127385 
1701270143.956153000  0  0  15.046  0.00441736  0.0394946  0.00456367  nan  nan  nan  nan  nan  nan  -1.50032  -0.000631  1.0007  0.0229282  0.00285051  -0.000228432  -0.002714  -0.0169767  0.0079959  0  0  0  -0  -0.339625  0.0031289  -0.00225168  -0.00602042  -0.0114009  0.00181193  0.00122119  -0.00715608  -0.0259083  -0.0115739  -0.00432263  0.290054  0.0628545  0.0071602 
1701270143.961079000  0  0  15.0193  0.0242666  0.0245935  0.00381611  nan  nan  nan  nan  nan  nan  -1.50034  -0.0007202  1.00074  0.0246126  0.00258268  -0.000273221  -0.002714  -0.0187319  0.0080068  0  0  0  -0  -0.362571  0.0013375  -0.00222887  -0.00606218  -0.0114318  0.00210391  0.000541963  -0.00553149  -0.0264894  -0.0108055  -0.00412772  0.261439  0.0805155  0.0158813 
1701270143.966149000  0  0  15.0204  0.00251844  0.02349  0.00386281  nan  nan  nan  nan  nan  nan  -1.50035  -0.0008185  1.00078  0.0271407  0.00286197  -0.000306305  -0.002714  -0.0206037  0.0080106  0  0  0  -0  -0.386267  0.0002961  -0.002205  -0.00612146  -0.0115076  0.00169549  0.000932096  -0.00548185  -0.0272313  -0.0107356  -0.00403919  0.308643  0.0816744  0.0133949 
1701270143.971147000  0  0  15.0026  -0.0183344  0.0365309  0.00392313  nan  nan  nan  nan  nan  nan  -1.50036  -0.0009264  1.00082  0.0297848  0.00260731  -0.000358019  -0.002714  -0.0225958  0.008011  0  0  0  -0  -0.410712  -0  -0.00219717  -0.00611841  -0.0115254  0.00200556  0.00117826  -0.00427825  -0.0277409  -0.0104222  -0.00395355  0.351582  0.0548819  0.0107367 
1701270143.976147000  0  0  14.9608  0.020894  0.0187036  0.00297849  nan  nan  nan  nan  nan  nan  -1.50038  -0.0010446  1.00086  0.0317365  0.00306585  -0.000394768  -0.002714  -0.0247121  0.008011  0  0  0  -0  -0.435908  -4.54e-05  -0.00216404  -0.00620021  -0.0115635  0.00136039  0.000590819  -0.00151657  -0.0287041  -0.0103563  -0.00373624  0.292902  0.0858244  0.0223159 
1701270143.981186000  0  0  14.9957  -0.00741034  0.03884  0.00323247  nan  nan  nan  nan  nan  nan  -1.50039  -0.0011738  1.0009  0.0350704  0.00326802  -0.000438542  -0.002714  -0.0269562  0.0080095  0  0  0  -0  -0.461854  -0.0006812  -0.0021619  -0.00619171  -0.0115995  0.00109516  0.00164051  -0.00363155  -0.029786  -0.0105217  -0.00363733  0.355673  0.0519199  0.0161692 
1701270143.985148000  0  0  14.9816  -6.93039e-05  0.056872  0.00346252  nan  nan  nan  nan  nan  nan  -1.5004  -0.0013144  1.00094  0.0378281  0.00305737  -0.00050369  -0.0027137  -0.0293319  0.0080029  0  0  0  0.0002681  -0.48855  -0.002067  -0.00218239  -0.00619525  -0.0116751  0.00145199  0.00176045  -0.00263487  -0.031053  -0.0103543  -0.0035255  0.357189  0.0179306  0.0101727 
1701270143.991140000  0  0  14.9734  0.0271485  0.0356101  0.00294766  nan  nan  nan  nan  nan  nan  -1.50042  -0.0014673  1.00098  0.0408857  0.00401217  -0.000526668  -0.0027101  -0.0318429  0.0079875  0  0  0  0.0012774  -0.515995  -0.0042029  -0.00221736  -0.00620594  -0.0117679  0.000464849  0.00219657  -0.00202694  -0.0323593  -0.0104967  -0.00330339  0.323811  0.0573757  0.014485 
1701270143.996137000  0  0  14.97  -0.00917771  0.0826731  0.0036316  nan  nan  nan  nan  nan  nan  -1.50043  -0.0016331  1.00102  0.0443456  0.00409243  -0.0005858  -0.0026996  -0.0344931  0.0079596  0  0  0  0.0030365  -0.544191  -0.0070887  -0.002216  -0.00619305  -0.0117831  0.000586862  0.00300151  -0.00194244  -0.03326  -0.0111882  -0.00327391  0.398762  -0.0183603  0.00249957 
1701270144.001120000  0  0  14.9381  0.035122  0.0688304  0.00341196  nan  nan  nan  nan  nan  nan  -1.50044  -0.0018125  1.00106  0.0468625  0.00484263  -0.000622297  -0.0026785  -0.0372861  0.0079154  0  0  0  0.0055458  -0.573137  -0.0107245  -0.00225226  -0.00628442  -0.0118126  5.94068e-05  0.00266302  -0.000122491  -0.0344689  -0.0115965  -0.00318248  0.333889  0.01095  0.00440323 
1701270144.005127000  0  0  14.965  0.0451343  0.0619868  0.00331298  nan  nan  nan  nan  nan  nan  -1.50046  -0.0020062  1.0011  0.0512849  0.00549769  -0.000654805  -0.0026429  -0.0402257  0.0078511  0  0  0  0.008805  -0.602833  -0.0151104  -0.00224517  -0.00622821  -0.0118439  -0.000380772  0.0045093  -0.00206593  -0.0374151  -0.0119981  -0.00309169  0.349963  0.0277367  0.00430505 
1701270144.010231000  0  0  14.9447  0.0270313  0.0989669  0.00333686  nan  nan  nan  nan  nan  nan  -1.50047  -0.002215  1.00114  0.0540306  0.00580429  -0.000716387  -0.0025892  -0.0433156  0.0077631  0  0  0  0.0128142  -0.633278  -0.0202462  -0.00222949  -0.0063606  -0.0118651  -0.000287934  0.00440188  -0.00110147  -0.0379854  -0.0129503  -0.00304  0.388711  -0.0270725  0.00290979 
1701270144.015288000  0  0  14.9145  0.0819555  0.079664  0.00286578  nan  nan  nan  nan  nan  nan  -1.50048  -0.0024396  1.00118  0.0583292  0.00714136  -0.000712281  -0.0025135  -0.0465597  0.0076474  0  0  0  0.0175734  -0.664474  -0.026132  -0.00224093  -0.0063374  -0.0118616  -0.00132522  0.00572509  0.000357376  -0.0410448  -0.013926  -0.0029038  0.326225  0.0184712  0.0081476 
1701270144.021093000  0  0  14.9315  0.058979  0.0969682  0.00307616  nan  nan  nan  nan  nan  nan  -1.5005  -0.0026808  1.00122  0.0619154  0.00826524  -0.000721805  -0.0024122  -0.0499616  0.0075005  0  0  0  0.0230826  -0.69642  -0.0327679  -0.00229731  -0.00640322  -0.0119642  -0.00191891  0.00649577  -0.000948274  -0.04197  -0.0150768  -0.00290347  0.377719  0.000933643  0.00462923 
1701270144.025231000  0  0  14.8866  0.0835217  0.121362  0.00287681  nan  nan  nan  nan  nan  nan  -1.50051  -0.0029395  1.00126  0.0657816  0.009061  -0.0007481  -0.0022815  -0.0535252  0.0073185  0  0  0  0.0293418  -0.729115  -0.0401537  -0.00231633  -0.0063974  -0.0120211  -0.00205136  0.00702477  0.00145773  -0.0443586  -0.0162151  -0.00281931  0.361543  -0.0293539  0.00633449 
1701270144.030095000  0  0  14.884  0.109554  0.10829  0.00240981  nan  nan  nan  nan  nan  nan  -1.50052  -0.0032164  1.00129  0.0709233  0.0104737  -0.000717834  -0.0021176  -0.057254  0.0070977  0  0  0  0.036351  -0.762457  -0.0482895  -0.00233208  -0.00634639  -0.012021  -0.0029014  0.00918334  0.00103689  -0.0478303  -0.0173372  -0.00266188  0.355171  0.00679365  0.0110948 
1701270144.036140000  0  0  14.8992  0.0811369  0.136362  0.00266043  nan  nan  nan  nan  nan  nan  -1.50053  -0.0035123  1.00133  0.0738889  0.0109299  -0.000775745  -0.0019167  -0.0611488  0.0068344  0  0  0  0.0441102  -0.795343  -0.0571754  -0.00236754  -0.00642961  -0.0120701  -0.00242373  0.00909493  -0.000457759  -0.0479267  -0.0181277  -0.00258055  0.406812  -0.0340353  0.00534323 
1701270144.041133000  0  0  14.8601  0.103487  0.131426  0.00218618  nan  nan  nan  nan  nan  nan  -1.50054  -0.0038281  1.00136  0.0783806  0.0125367  -0.000729275  -0.0016752  -0.0652062  0.0065247  0  0  0  0.0526194  -0.827479  -0.0668112  -0.00240026  -0.00638031  -0.0120664  -0.00325273  0.0103535  0.00130602  -0.0503648  -0.019476  -0.00238575  0.395103  -0.00975484  0.00950408 
1701270144.046138000  0  0  14.9025  0.0898816  0.111561  0.00230985  nan  nan  nan  nan  nan  nan  -1.50055  -0.0041646  1.00139  0.0826762  0.0134136  -0.000737611  -0.0013893  -0.0694223  0.006165  0  0  0  0.0618786  -0.858866  -0.077197  -0.00241131  -0.00632482  -0.0120931  -0.00320633  0.0119786  -0.00204167  -0.0521591  -0.019881  -0.00229668  0.439929  0.0302267  0.00572225 
1701270144.051136000  0  0  14.8785  0.0965166  0.126214  0.00254909  nan  nan  nan  nan  nan  nan  -1.50055  -0.0045226  1.00142  0.086156  0.014511  -0.000737233  -0.0010552  -0.0737936  0.0057515  0  0  0  0.0718878  -0.889502  -0.0883329  -0.00243869  -0.00628859  -0.0120953  -0.00323131  0.0122674  -0.00135506  -0.0533227  -0.0209328  -0.00220876  0.441511  0.0162649  3.34892e-05 
1701270144.055137000  0  0  14.8676  0.106119  0.108314  0.00240177  nan  nan  nan  nan  nan  nan  -1.50056  -0.0049028  1.00145  0.0913651  0.0160684  -0.000666072  -0.0006691  -0.0783161  0.0052804  0  0  0  0.082647  -0.919388  -0.100219  -0.00244803  -0.00615674  -0.0121089  -0.00379766  0.0146728  -0.00147301  -0.0565479  -0.0219348  -0.0021426  0.46152  0.0596155  0.00121722 
1701270144.061128000  0  0  14.9103  0.0738634  0.101147  0.00219675  nan  nan  nan  nan  nan  nan  -1.50056  -0.005306  1.00147  0.0941648  0.0166575  -0.000718972  -0.0002274  -0.0829862  0.0047481  0  0  0  0.0941562  -0.948525  -0.112855  -0.00248128  -0.00615951  -0.0121692  -0.0030642  0.0148795  -0.00492111  -0.055798  -0.0218144  -0.00200202  0.510254  0.0709749  0.00192913 
1701270144.066137000  0  0  14.8441  0.0743149  0.0949355  0.00184532  nan  nan  nan  nan  nan  nan  -1.50056  -0.0057329  1.0015  0.0976067  0.0181871  -0.000671555  0.0002737  -0.0878001  0.0041506  0  0  0  0.106415  -0.976911  -0.12624  -0.00247572  -0.00615419  -0.0121831  -0.00336073  0.0151025  -0.00169066  -0.0565931  -0.0227188  -0.00189926  0.518594  0.0924209  0.00581432 
1701270144.071133000  0  0  14.8651  0.0436919  0.0836073  0.00145145  nan  nan  nan  nan  nan  nan  -1.50056  -0.0061842  1.00151  0.101616  0.0194655  -0.000633975  0.000838  -0.0927541  0.0034844  0  0  0  0.119425  -1.00455  -0.140376  -0.00248774  -0.00607348  -0.0122076  -0.00333055  0.016645  -0.0039346  -0.0572497  -0.0231948  -0.00175149  0.580597  0.118038  0.00954021 
1701270144.076140000  0  0  14.8645  0.0369471  0.0748579  0.00134113  nan  nan  nan  nan  nan  nan  -1.50055  -0.0066607  1.00153  0.103707  0.0202076  -0.000688327  0.0014692  -0.0978443  0.0027456  0  0  0  0.133184  -1.03143  -0.155262  -0.00246502  -0.00608642  -0.012238  -0.00258057  0.0159255  -0.00496172  -0.0564143  -0.0231426  -0.0016362  0.582985  0.132996  0.00915885 
1701270144.080137000  0  0  14.8079  0.0343575  0.0728541  0.0012164  nan  nan  nan  nan  nan  nan  -1.50054  -0.0071629  1.00154  0.108652  0.0221516  -0.000554165  0.002171  -0.103067  0.0019305  0  0  0  0.147693  -1.05757  -0.170898  -0.00248088  -0.00591774  -0.0122355  -0.00305682  0.0179278  -0.00247724  -0.0587004  -0.0243478  -0.00154932  0.613877  0.150417  0.00956602 
1701270144.086138000  0  0  14.8211  -0.022359  0.0705727  0.00144755  nan  nan  nan  nan  nan  nan  -1.50053  -0.0076916  1.00155  0.110562  0.0228501  -0.000619028  0.0029474  -0.108419  0.0010354  0  0  0  0.162952  -1.08296  -0.187284  -0.00246583  -0.00598365  -0.012247  -0.00206384  0.0173957  -0.00444762  -0.0558331  -0.0239578  -0.00145335  0.681759  0.149988  0.00385698 
1701270144.091144000  0  0  14.7818  -0.00461097  0.0589776  0.00147607  nan  nan  nan  nan  nan  nan  -1.50051  -0.0082473  1.00155  0.113379  0.0245931  -0.000546839  0.0038018  -0.113895  5.64e-05  0  0  0  0.178961  -1.10759  -0.20442  -0.00246675  -0.0059181  -0.0122836  -0.00214906  0.0172909  -0.00314713  -0.055434  -0.0244072  -0.00140531  0.645611  0.175775  0.00245467 
1701270144.096141000  0  0  14.7813  -0.0560628  0.0698485  0.00205489  nan  nan  nan  nan  nan  nan  -1.50049  -0.0088307  1.00155  0.117359  0.0265609  -0.000413425  0.0047382  -0.119493  -0.0010101  0  0  0  0.195721  -1.13148  -0.222305  -0.00247787  -0.0058226  -0.0123134  -0.00247149  0.0190062  -0.00425925  -0.0551792  -0.0255549  -0.00142574  0.734173  0.169641  -0.0068138 
1701270144.101130000  0  0  14.7419  -0.0436834  0.0613577  0.00151779  nan  nan  nan  nan  nan  nan  -1.50046  -0.0094424  1.00154  0.119891  0.0281104  -0.000362531  0.0057603  -0.125209  -0.0021679  0  0  0  0.21323  -1.15462  -0.240941  -0.00247463  -0.00577879  -0.0123061  -0.00211771  0.0187486  -0.00318886  -0.0542861  -0.025932  -0.00132734  0.701889  0.189075  0.000254861 
1701270144.105135000  0  0  14.6746  -0.0116426  0.0569119  0.00099743  nan  nan  nan  nan  nan  nan  -1.50043  -0.010083  1.00153  0.124417  0.0306967  -0.000120202  0.0068718  -0.131038  -0.0034207  0  0  0  0.231489  -1.177  -0.260327  -0.00249132  -0.00557539  -0.0122993  -0.00284062  0.0203665  -0.000343863  -0.056401  -0.0274553  -0.00124103  0.669233  0.214496  0.00727726 
1701270144.111080000  0  0  14.67  -0.0662081  0.0759431  0.00131051  nan  nan  nan  nan  nan  nan  -1.50039  -0.010753  1.00151  0.126727  0.0321742  -7.64048e-05  0.0080757  -0.136978  -0.0047724  0  0  0  0.249973  -1.19864  -0.280463  -0.00246592  -0.0056421  -0.0122942  -0.00239016  0.0205965  -0.00151685  -0.0537839  -0.0279084  -0.00117402  0.736168  0.185866  0.000759083 
1701270144.116143000  0  0  14.6111  -0.0230906  0.0493335  0.000745956  nan  nan  nan  nan  nan  nan  -1.50035  -0.011453  1.00148  0.12863  0.0339412  -8.48612e-06  0.0093703  -0.143023  -0.0062266  0  0  0  0.267727  -1.21952  -0.301349  -0.00240052  -0.00568847  -0.0122238  -0.00233466  0.0197958  0.000382859  -0.0529261  -0.0280311  -0.00110273  0.649633  0.234593  0.00880872 
1701270144.121135000  0  0  14.5634  -0.0430325  0.0742116  0.0015371  nan  nan  nan  nan  nan  nan  -1.5003  -0.0121834  1.00145  0.132871  0.03626  0.000218768  0.0107517  -0.149172  -0.0077871  0  0  0  0.284731  -1.23966  -0.322985  -0.00241347  -0.00557888  -0.0122188  -0.00288725  0.0216712  0.00186757  -0.0534766  -0.0294841  -0.00114021  0.691424  0.207063  -0.00367528 
1701270144.126143000  0  0  14.5122  -0.0559122  0.084563  0.00180123  nan  nan  nan  nan  nan  nan  -1.50024  -0.0129448  1.0014  0.135214  0.037662  0.000260627  0.0122163  -0.155419  -0.0094577  0  0  0  0.300985  -1.25905  -0.34537  -0.00236234  -0.00559197  -0.0121398  -0.00252014  0.0215448  0.0031955  -0.0521472  -0.029882  -0.00116897  0.699041  0.193231  -0.00753013 
1701270144.130158000  0  0  14.455  -0.00756361  0.0714438  0.00110302  nan  nan  nan  nan  nan  nan  -1.50018  -0.0137377  1.00135  0.139749  0.0402603  0.000558475  0.0137603  -0.161761  -0.0112421  0  0  0  0.316489  -1.27768  -0.368506  -0.00238404  -0.00534752  -0.0121113  -0.00352147  0.0234744  0.00506332  -0.0545645  -0.0312458  -0.00109977  0.640863  0.232241  0.00279116 
1701270144.136141000  0  0  14.4207  -0.0516671  0.106415  0.00223559  nan  nan  nan  nan  nan  nan  -1.50011  -0.0145626  1.00129  0.142469  0.0411714  0.000553011  0.0153799  -0.168194  -0.013144  0  0  0  0.331242  -1.29557  -0.392392  -0.00228273  -0.00542886  -0.0120445  -0.00288528  0.0242948  0.00530013  -0.0525691  -0.0313317  -0.00117437  0.696343  0.171044  -0.0146767 
1701270144.141095000  0  0  14.3583  -0.0232293  0.0974439  0.00228219  nan  nan  nan  nan  nan  nan  -1.50002  -0.0154198  1.00122  0.144898  0.0423545  0.000573658  0.0170715  -0.174715  -0.0151673  0  0  0  0.345246  -1.31271  -0.417028  -0.00217707  -0.00541898  -0.0119653  -0.00258363  0.0242949  0.0071019  -0.0522561  -0.0314379  -0.00119415  0.642176  0.188217  -0.0150734 
1701270144.145142000  0  0  14.3106  0.011912  0.0806408  0.00215509  nan  nan  nan  nan  nan  nan  -1.49993  -0.0163099  1.00114  0.150028  0.0448951  0.000919118  0.0188312  -0.18132  -0.0173155  0  0  0  0.3585  -1.32909  -0.442414  -0.0022091  -0.00514293  -0.011921  -0.00375271  0.0271477  0.00821664  -0.0551887  -0.0326896  -0.00125242  0.61341  0.232489  -0.011828 
1701270144.151145000  0  0  14.288  -0.0242663  0.10335  0.00298872  nan  nan  nan  nan  nan  nan  -1.49984  -0.0172332  1.00105  0.152008  0.0455495  0.000843805  0.0206552  -0.188005  -0.0195926  0  0  0  0.371004  -1.34473  -0.46855  -0.00212285  -0.00522084  -0.0118539  -0.00306187  0.027441  0.00744453  -0.0528946  -0.0324025  -0.00131107  0.651362  0.188806  -0.0246133 
1701270144.156143000  0  0  14.2126  0.0413572  0.0612813  0.00224859  nan  nan  nan  nan  nan  nan  -1.49973  -0.0181901  1.00094  0.155447  0.0477124  0.00107007  0.02254  -0.194766  -0.0220023  0  0  0  0.382758  -1.35961  -0.495435  -0.00214304  -0.00508588  -0.0117944  -0.00384136  0.028372  0.0100054  -0.0542387  -0.0327456  -0.00134594  0.550126  0.267558  -0.0115858 
1701270144.161136000  0  0  14.2298  0.00189806  0.068899  0.00266291  nan  nan  nan  nan  nan  nan  -1.49961  -0.019181  1.00083  0.15907  0.0484919  0.00109314  0.0244816  -0.2016  -0.0245482  0  0  0  0.393762  -1.37375  -0.523059  -0.00209876  -0.00495768  -0.0117418  -0.00354426  0.0308157  0.00677499  -0.054238  -0.0322435  -0.00140158  0.620284  0.248239  -0.0174293 
1701270144.166143000  0  0  14.1524  0.0211745  0.0692098  0.00214172  nan  nan  nan  nan  nan  nan  -1.49948  -0.0202062  1.0007  0.161735  0.0496088  0.00112261  0.0264763  -0.208503  -0.0272325  0  0  0  0.404016  -1.38714  -0.550503  -0.00206218  -0.00483104  -0.0116415  -0.0033395  0.0309448  0.009257  -0.0541727  -0.0320427  -0.00139432  0.585256  0.245377  -0.00886895 
1701270144.171142000  0  0  14.0956  0.0439329  0.0472175  0.00137639  nan  nan  nan  nan  nan  nan  -1.49935  -0.0212661  1.00055  0.165044  0.0515901  0.00132929  0.0285205  -0.21547  -0.030052  0  0  0  0.41352  -1.39977  -0.577197  -0.00207593  -0.00467544  -0.0115795  -0.00422306  0.0321012  0.0106914  -0.0549815  -0.0322507  -0.00132101  0.554087  0.286875  0.00249324 
1701270144.176142000  0  0  14.1033  -0.00523374  0.0607904  0.00176283  nan  nan  nan  nan  nan  nan  -1.4992  -0.022361  1.0004  0.168  0.0518136  0.00122614  0.0306103  -0.222499  -0.0330032  0  0  0  0.422274  -1.41166  -0.603142  -0.00203081  -0.00451357  -0.0115402  -0.003486  0.0337947  0.00820023  -0.0542133  -0.031329  -0.00127816  0.632681  0.252142  -0.00478383 
1701270144.181136000  0  0  14.0739  0.0350479  0.0264965  0.000622873  nan  nan  nan  nan  nan  nan  -1.49904  -0.0234912  1.00022  0.17017  0.0534892  0.00132539  0.032742  -0.229585  -0.0360822  0  0  0  0.430278  -1.4228  -0.628336  -0.00205431  -0.00435041  -0.0114939  -0.00426211  0.0341275  0.00798454  -0.0541047  -0.0310488  -0.00112965  0.559804  0.309901  0.0113825 
1701270144.186141000  0  0  14.0738  0.000136756  0.026275  0.0013633  nan  nan  nan  nan  nan  nan  -1.49887  -0.0246569  1.00003  0.173349  0.0540094  0.00128122  0.0349118  -0.236726  -0.0392853  0  0  0  0.437531  -1.43318  -0.65278  -0.00200205  -0.00418444  -0.0114187  -0.00404979  0.0361438  0.00607532  -0.0539287  -0.0300134  -0.00116642  0.61986  0.29839  -0.000268635 
1701270144.190090000  0  0  14.0363  -0.0182669  0.0459479  0.00207649  nan  nan  nan  nan  nan  nan  -1.49869  -0.0258585  0.99983  0.177396  0.0551771  0.00139912  0.037116  -0.243916  -0.0426087  0  0  0  0.444035  -1.44282  -0.676474  -0.00205232  -0.00379005  -0.0113517  -0.00429794  0.0381689  0.00666752  -0.0549673  -0.0303876  -0.00118983  0.664528  0.267709  -0.0117228 
1701270144.196143000  0  0  13.9803  0.0148561  -0.00937785  0.0012389  nan  nan  nan  nan  nan  nan  -1.4985  -0.0270962  0.999608  0.178161  0.0561348  0.00129215  0.0393509  -0.251153  -0.0460488  0  0  0  0.449789  -1.45171  -0.699418  -0.00198757  -0.00381235  -0.0112877  -0.00454857  0.0371427  0.00816876  -0.0529183  -0.0285711  -0.00119072  0.582068  0.345202  0.00227638 
1701270144.201114000  0  0  13.9778  -0.04304  0.0157674  0.0026003  nan  nan  nan  nan  nan  nan  -1.4983  -0.0283701  0.999369  0.181598  0.0564802  0.00122574  0.0416127  -0.258432  -0.0496017  0  0  0  0.454793  -1.45984  -0.721613  -0.00196814  -0.00351457  -0.0112726  -0.00430598  0.0393495  0.00683112  -0.0522076  -0.0275892  -0.00131827  0.676846  0.289199  -0.0179903 
1701270144.205143000  0  0  13.954  -0.0141302  0.0173726  0.00260164  nan  nan  nan  nan  nan  nan  -1.49808  -0.0296806  0.999112  0.184773  0.0579234  0.00134517  0.0438976  -0.26575  -0.0532637  0  0  0  0.459047  -1.46723  -0.743057  -0.0020352  -0.00310496  -0.0112006  -0.0051642  0.0407549  0.00667689  -0.0530702  -0.0278909  -0.00132534  0.635358  0.289814  -0.0178765 
1701270144.211101000  0  0  13.8914  -0.020961  -0.0108416  0.00217329  nan  nan  nan  nan  nan  nan  -1.49786  -0.0310277  0.998836  0.18593  0.0581684  0.00111915  0.0462019  -0.273103  -0.057031  0  0  0  0.462551  -1.47386  -0.763751  -0.00192951  -0.00308341  -0.0111493  -0.00488871  0.0402183  0.008868  -0.0507554  -0.0258454  -0.00130047  0.620887  0.316464  -0.0112056 
1701270144.216144000  0  0  13.8668  -0.0624235  0.0216455  0.00322008  nan  nan  nan  nan  nan  nan  -1.49762  -0.0324116  0.998541  0.18779  0.057854  0.000823857  0.0485218  -0.280487  -0.0608999  0  0  0  0.465305  -1.47975  -0.783695  -0.00187257  -0.00286562  -0.0110684  -0.00411001  0.040707  0.00873657  -0.0489744  -0.0245961  -0.00137928  0.674137  0.24433  -0.0271601 
1701270144.221136000  0  0  13.8284  -0.0195353  -0.000271518  0.0014598  nan  nan  nan  nan  nan  nan  -1.49737  -0.0338326  0.998227  0.188998  0.059283  0.0008151  0.0508537  -0.287899  -0.0648667  0  0  0  0.467309  -1.48489  -0.802889  -0.00190275  -0.0026667  -0.0110224  -0.00521635  0.0403547  0.00953975  -0.0479226  -0.0243389  -0.00112238  0.585779  0.280346  -0.00272876 
1701270144.226141000  0  0  13.8366  -0.0696394  0.00556955  0.0021775  nan  nan  nan  nan  nan  nan  -1.49711  -0.0352907  0.997892  0.191639  0.0595325  0.000665593  0.0531937  -0.295335  -0.0689276  0  0  0  0.468563  -1.48927  -0.821334  -0.0018665  -0.00240612  -0.0109877  -0.00540248  0.0423297  0.00773423  -0.0469516  -0.0232624  -0.00123624  0.663708  0.257581  -0.012514 
1701270144.230096000  0  0  13.7757  -0.0751551  0.0255512  0.00255251  nan  nan  nan  nan  nan  nan  -1.49684  -0.036786  0.997538  0.194918  0.0603716  0.000667048  0.0555381  -0.302791  -0.0730788  0  0  0  0.469067  -1.49291  -0.839028  -0.00193944  -0.00193061  -0.0108677  -0.00577883  0.043496  0.0101555  -0.0474002  -0.0234782  -0.00116902  0.678674  0.224531  -0.0200703 
1701270144.236141000  0  0  13.7195  -0.0455863  -0.00653116  0.00073331  nan  nan  nan  nan  nan  nan  -1.49656  -0.0383186  0.997162  0.194474  0.060571  0.000305719  0.0578831  -0.310263  -0.0773166  0  0  0  0.46882  -1.4958  -0.855972  -0.00183752  -0.001974  -0.0108333  -0.00591141  0.0418023  0.0120774  -0.0441682  -0.0216617  -0.000842877  0.588932  0.260693  0.00400978 
1701270144.241135000  0  0  13.7319  -0.105255  0.0255244  0.00184966  nan  nan  nan  nan  nan  nan  -1.49626  -0.0398886  0.996764  0.196191  0.0606532  5.10709e-05  0.060225  -0.317747  -0.0816373  0  0  0  0.467824  -1.49793  -0.872166  -0.0018536  -0.00170344  -0.0108076  -0.00606448  0.0430295  0.0101141  -0.0420135  -0.0210336  -0.000779329  0.670258  0.196469  -0.0158508 
1701270144.246140000  0  0  13.7152  -0.0692557  0.0150361  0.000757631  nan  nan  nan  nan  nan  nan  -1.49595  -0.0414961  0.996345  0.196647  0.0615008  -0.000136865  0.0625601  -0.325241  -0.086037  0  0  0  0.466078  -1.49932  -0.887611  -0.00189153  -0.00149581  -0.0107622  -0.00701091  0.0425937  0.00979276  -0.0400997  -0.0206933  -0.000462213  0.584239  0.211206  -0.00373559 
1701270144.251142000  0  0  13.6813  -0.0680148  0.0131553  0.000863924  nan  nan  nan  nan  nan  nan  -1.49564  -0.043141  0.995904  0.198576  0.0616873  -0.000367512  0.0648846  -0.332739  -0.0905121  0  0  0  0.463582  -1.49995  -0.902305  -0.00185803  -0.00122507  -0.0106931  -0.00735812  0.0434928  0.0107334  -0.0394617  -0.0198479  -0.000396948  0.574697  0.20483  -0.0067683 
1701270144.256149000  0  0  13.6781  -0.109489  0.0447618  0.00196256  nan  nan  nan  nan  nan  nan  -1.49531  -0.0448235  0.99544  0.199008  0.0616503  -0.000744928  0.0671947  -0.340239  -0.0950588  0  0  0  0.460336  -1.5  -0.916249  -0.00189145  -0.00101113  -0.010652  -0.00752316  0.0434052  0.00970751  -0.036474  -0.0194791  -0.000208369  0.614091  0.144387  -0.0287438 
1701270144.261087000  0  0  13.6439  -0.0695626  0.0223214  0.00139137  nan  nan  nan  nan  nan  nan  -1.49496  -0.0465434  0.994953  0.200419  0.0619935  -0.000988767  0.0694867  -0.347739  -0.0996733  0  0  0  0.45634  -1.5  -0.929443  -0.00187723  -0.000710875  -0.0105009  -0.00818801  0.0437126  0.0105334  -0.0359015  -0.018727  -0.000155191  0.536512  0.175642  -0.0202342 
1701270144.265127000  0  0  13.6067  -0.0821528  0.0501046  0.00256347  nan  nan  nan  nan  nan  nan  -1.49461  -0.0483009  0.994443  0.204227  0.062547  -0.00103875  0.0717568  -0.355239  -0.104352  0  0  0  0.451594  -1.5  -0.941887  -0.00197502  -0.000185845  -0.0103531  -0.00890748  0.0461159  0.0119807  -0.0371576  -0.0190652  -0.000171875  0.573343  0.130127  -0.0394786 
1701270144.271142000  0  0  13.5864  -0.0923244  0.0533526  0.00235355  nan  nan  nan  nan  nan  nan  -1.49425  -0.0500958  0.993909  0.203302  0.061891  -0.0016504  0.0740013  -0.362739  -0.109091  0  0  0  0.446098  -1.5  -0.953582  -0.00193981  -0.000213569  -0.0103009  -0.00870006  0.0448019  0.0119689  -0.0331323  -0.0178484  1.63311e-05  0.545144  0.11036  -0.039603 
1701270144.276142000  0  0  13.5402  -0.0574835  0.0298355  0.00167454  nan  nan  nan  nan  nan  nan  -1.49387  -0.0519283  0.993352  0.20502  0.0623558  -0.00186578  0.0762165  -0.370239  -0.113887  0  0  0  0.439852  -1.5  -0.964526  -0.00196984  6.88624e-05  -0.010242  -0.009611  0.0452693  0.0139962  -0.0332349  -0.0172823  6.30888e-05  0.48437  0.145669  -0.0291697 
1701270144.281085000  0  0  13.558  -0.0945391  0.0635583  0.002817  nan  nan  nan  nan  nan  nan  -1.49348  -0.0537982  0.99277  0.206272  0.0618815  -0.00231239  0.0783986  -0.377739  -0.118735  0  0  0  0.432856  -1.5  -0.97472  -0.00202279  0.000322998  -0.0101902  -0.00978705  0.0463772  0.0120689  -0.0315091  -0.0168586  0.000185446  0.530418  0.0808305  -0.0506001 
1701270144.286145000  0  0  13.513  -0.02195  0.0291751  0.00145431  nan  nan  nan  nan  nan  nan  -1.49309  -0.0557057  0.992165  0.207842  0.0615439  -0.00271719  0.0805438  -0.385239  -0.123633  0  0  0  0.425109  -1.5  -0.984164  -0.00200838  0.00065414  -0.0101163  -0.0100626  0.0465812  0.0140505  -0.0322303  -0.015827  0.000194658  0.409634  0.130109  -0.0280302 
1701270144.291150000  0  0  13.4785  -0.0232972  0.0272601  0.00180918  nan  nan  nan  nan  nan  nan  -1.49268  -0.0576506  0.991534  0.210292  0.0615289  -0.00300434  0.0826485  -0.392739  -0.128575  0  0  0  0.416613  -1.5  -0.992858  -0.00205488  0.000963758  -0.0100031  -0.0107087  0.0479787  0.0155348  -0.0329353  -0.0152885  0.000126746  0.420135  0.127322  -0.0326448 
1701270144.296150000  0  0  13.4367  -0.0573685  0.0566156  0.00268278  nan  nan  nan  nan  nan  nan  -1.49226  -0.0590171  0.990879  0.207289  0.0603285  -0.00389689  0.0847087  -0.397871  -0.13356  0  0  0  0.407367  -1.5  -1.0008  -0.00210173  0.000580318  -0.00992159  -0.0100456  0.0448573  0.0167435  -0.027751  -0.0141731  0.000467682  0.421109  0.0622968  -0.0538013 
1701270144.301091000  0  0  13.4028  -0.0688989  0.0177493  0.000565395  nan  nan  nan  nan  nan  nan  -1.49183  -0.0590171  0.990198  0.198513  0.0605387  -0.00470414  0.0867209  -0.397871  -0.138582  0  0  0  0.397371  -1.5  -1.008  -0.00221053  -0.00102151  -0.00983171  -0.0110574  0.0384266  0.0166659  -0.01818  -0.0132163  0.00103028  0.331559  0.120407  -0.0293025 
1701270144.305142000  0  0  13.3936  -0.164125  0.0253514  0.00125081  nan  nan  nan  nan  nan  nan  -1.49139  -0.0590171  0.989493  0.191332  0.0599859  -0.00526233  0.0886812  -0.397871  -0.143639  0  0  0  0.386625  -1.5  -1.01444  -0.00234022  -0.00247621  -0.00965315  -0.0114312  0.0338357  0.0151335  -0.00901651  -0.0123303  0.00121327  0.395522  0.0967007  -0.0442725 
1701270144.311151000  0  0  13.3493  -0.231734  0.0242497  0.000482446  nan  nan  nan  nan  nan  nan  -1.49095  -0.0590171  0.988762  0.178241  0.057935  -0.00644325  0.0905859  -0.397871  -0.148725  0  0  0  0.375129  -1.5  -1.02014  -0.00232286  -0.00463425  -0.00972053  -0.0104247  0.0239145  0.0154168  0.00556618  -0.00999929  0.00164819  0.348064  0.0718569  -0.0398314 
1701270144.316152000  0  0  13.3329  -0.268138  -0.0136047  -0.000676938  nan  nan  nan  nan  nan  nan  -1.49049  -0.0590171  0.988006  0.170093  0.0580847  -0.00690392  0.0924312  -0.397871  -0.153839  0  0  0  0.362883  -1.5  -1.02508  -0.00247343  -0.00630763  -0.00962971  -0.011743  0.0187385  0.0145121  0.0146751  -0.00914845  0.0017249  0.308056  0.129386  -0.0219567 
1701270144.321138000  0  0  13.3163  -0.38194  0.013562  0.00133202  nan  nan  nan  nan  nan  nan  -1.49002  -0.0590171  0.987224  0.159774  0.0558484  -0.00787929  0.0942135  -0.397871  -0.158975  0  0  0  0.349887  -1.5  -1.02927  -0.00252811  -0.00821228  -0.00956583  -0.0107115  0.0117634  0.0132662  0.0272883  -0.00706672  0.00186727  0.365384  0.0571414  -0.0582376 
1701270144.326131000  0  0  13.2659  -0.361822  -0.0279998  0.000341777  nan  nan  nan  nan  nan  nan  -1.48955  -0.0590171  0.986416  0.149173  0.0547645  -0.00864798  0.0959288  -0.397871  -0.16413  0  0  0  0.336141  -1.5  -1.03272  -0.00261034  -0.010078  -0.00948279  -0.0108869  0.00396918  0.0142139  0.0377199  -0.00505166  0.00208056  0.209664  0.107876  -0.0458194 
1701270144.331147000  0  0  13.2503  -0.430694  -0.0483259  0.00186469  nan  nan  nan  nan  nan  nan  -1.48906  -0.0590171  0.985582  0.139383  0.0533793  -0.00938916  0.0975736  -0.397871  -0.169301  0  0  0  0.321645  -1.5  -1.03541  -0.00267332  -0.012059  -0.00942197  -0.0110334  -0.0021689  0.013177  0.0484596  -0.00292131  0.00199525  0.20864  0.119523  -0.069597 
1701270144.336141000  0  0  13.1669  -0.477  -0.0100294  0.0055372  nan  nan  nan  nan  nan  nan  -1.48857  -0.0590171  0.984723  0.130487  0.0514691  -0.0101229  0.099144  -0.397871  -0.174483  0  0  0  0.306398  -1.5  -1.03736  -0.00279843  -0.0138942  -0.00933087  -0.0102562  -0.00841573  0.0165108  0.0581244  -0.0014513  0.00140288  0.179848  0.0345221  -0.119482 
1701270144.341138000  0  0  13.0493  -0.419046  -0.05787  0.0041818  nan  nan  nan  nan  nan  nan  -1.48807  -0.0590171  0.983837  0.121246  0.0507374  -0.0106949  0.100636  -0.397871  -0.179673  0  0  0  0.290402  -1.5  -1.03855  -0.00290094  -0.0158497  -0.00923329  -0.0108275  -0.0150046  0.022197  0.0656186  0.000195813  0.00126729  -0.00937633  0.100652  -0.0942415 
1701270144.346145000  0  0  13.0437  -0.510748  -0.0300283  0.00673753  nan  nan  nan  nan  nan  nan  -1.48756  -0.0590171  0.982926  0.11261  0.0482496  -0.0114199  0.102047  -0.397871  -0.184867  0  0  0  0.273656  -1.5  -1.03899  -0.00295483  -0.0179108  -0.00915292  -0.0101453  -0.0194484  0.0208533  0.0748376  0.00235695  0.000832125  0.0476816  0.0262945  -0.128515 
1701270144.351149000  0  0  12.9886  -0.501404  -0.0238886  0.00740619  nan  nan  nan  nan  nan  nan  -1.48705  -0.0590171  0.981989  0.105399  0.0462971  -0.0119782  0.103372  -0.397871  -0.190062  0  0  0  0.25616  -1.5  -1.03869  -0.00307666  -0.0196748  -0.00914511  -0.00977937  -0.0235246  0.0232133  0.0810106  0.0039564  0.000254715  -0.0399154  -0.00301455  -0.128544 
1701270144.355149000  0  0  12.8882  -0.418664  -0.0641422  0.00441031  nan  nan  nan  nan  nan  nan  -1.48653  -0.0590171  0.981025  0.0980761  0.0452785  -0.0124207  0.104607  -0.397871  -0.195253  0  0  0  0.237914  -1.5  -1.03763  -0.00322702  -0.0213673  -0.0088361  -0.010313  -0.0282243  0.0279695  0.0858099  0.0055762  0.000405117  -0.242228  0.0499386  -0.081433 
1701270144.361087000  0  0  12.8566  -0.472062  -0.0202209  0.00614236  nan  nan  nan  nan  nan  nan  -1.486  -0.0590171  0.980036  0.0904597  0.0430468  -0.0129708  0.10575  -0.397871  -0.200437  0  0  0  0.21945  -1.5  -1.03583  -0.00323096  -0.0236642  -0.00888604  -0.0101837  -0.031145  0.0291305  0.0919217  0.00672021  -0.000120085  -0.217551  -0.0413163  -0.10022 
1701270144.366143000  0  0  12.8115  -0.373929  -0.0342758  0.00518779  nan  nan  nan  nan  nan  nan  -1.48547  -0.0590171  0.979021  0.0839786  0.0409408  -0.0134289  0.106803  -0.397871  -0.20561  0  0  0  0.201718  -1.5  -1.03327  -0.00330845  -0.0255295  -0.00879359  -0.0098632  -0.0339802  0.0312733  0.0945984  0.00821177  -0.000470106  -0.42283  -0.0334747  -0.0775369 
1701270144.370089000  0  0  12.7684  -0.333614  -0.0648779  0.00451909  nan  nan  nan  nan  nan  nan  -1.48494  -0.0590171  0.97798  0.0777663  0.0396088  -0.0137886  0.107769  -0.397871  -0.210768  0  0  0  0.184736  -1.5  -1.02997  -0.00345841  -0.0272307  -0.00845679  -0.0101361  -0.0368542  0.0328262  0.097806  0.00981343  -0.000562575  -0.5314  0.00252479  -0.0645912 
1701270144.376155000  0  0  12.7419  -0.343228  0.0123316  0.00783207  nan  nan  nan  nan  nan  nan  -1.4844  -0.0590171  0.976913  0.070649  0.0376656  -0.0142094  0.108652  -0.397871  -0.215908  0  0  0  0.168504  -1.5  -1.02591  -0.00345718  -0.0296874  -0.00852853  -0.0100972  -0.0387528  0.0342839  0.10124  0.00988116  -0.00128158  -0.553792  -0.135547  -0.106033 
1701270144.380133000  0  0  12.6926  -0.259302  -0.0035252  0.00709066  nan  nan  nan  nan  nan  nan  -1.48385  -0.0590171  0.975821  0.0641552  0.0356884  -0.0145819  0.109455  -0.397871  -0.221026  0  0  0  0.153022  -1.5  -1.0211  -0.00360983  -0.0314297  -0.00816801  -0.00948911  -0.0418122  0.0364279  0.103533  0.0113639  -0.00145513  -0.729398  -0.1244  -0.0903101 
1701270144.386144000  0  0  12.7568  -0.161749  -0.0153461  0.00701712  nan  nan  nan  nan  nan  nan  -1.4833  -0.0590171  0.974703  0.0605254  0.0349511  -0.0147566  0.110183  -0.397871  -0.226118  0  0  0  0.13829  -1.5  -1.01555  -0.00368413  -0.0336701  -0.0082623  -0.0105817  -0.0400097  0.0331446  0.100377  0.0113819  -0.00204182  -0.866575  -0.103587  -0.0777709 
1701270144.391101000  0  0  12.7272  -0.158475  0.0154334  0.00800129  nan  nan  nan  nan  nan  nan  -1.48275  -0.0590171  0.97356  0.0540318  0.0332821  -0.0150745  0.110839  -0.397871  -0.23118  0  0  0  0.124307  -1.5  -1.00924  -0.00373996  -0.0358403  -0.00807737  -0.0104163  -0.0419241  0.034684  0.102309  0.0117168  -0.00241856  -0.894614  -0.16217  -0.0869361 
1701270144.395152000  0  0  12.7423  -0.0209401  0.0204147  0.00704055  nan  nan  nan  nan  nan  nan  -1.48219  -0.0590171  0.972391  0.0523591  0.0323275  -0.0151803  0.111427  -0.397871  -0.236209  0  0  0  0.111075  -1.5  -1.00219  -0.00402798  -0.0371886  -0.00789087  -0.0103948  -0.0404503  0.0342322  0.0977495  0.0118008  -0.00274354  -1.08674  -0.171993  -0.0646325 
1701270144.401134000  0  0  12.9027  0.084172  0.0177751  0.00623496  nan  nan  nan  nan  nan  nan  -1.48163  -0.0590171  0.971198  0.0529929  0.0331817  -0.0151145  0.111951  -0.397871  -0.241201  0  0  0  0.098593  -1.5  -0.994381  -0.00419368  -0.0391494  -0.00812418  -0.0128694  -0.0343671  0.0260519  0.0888738  0.00990027  -0.00317435  -1.1716  -0.145446  -0.0428783 
1701270144.405136000  0  0  12.8434  0.104698  0.0478204  0.00655891  nan  nan  nan  nan  nan  nan  -1.48107  -0.0590171  0.969979  0.0480545  0.0315627  -0.0153566  0.112414  -0.397871  -0.246152  0  0  0  0.0868609  -1.5  -0.985825  -0.00435029  -0.0408864  -0.00774252  -0.0121155  -0.0358267  0.0295029  0.0887993  0.0102082  -0.00332242  -1.20724  -0.202413  -0.0454314 
1701270144.411142000  0  0  12.9197  0.244406  0.0538947  0.00698591  nan  nan  nan  nan  nan  nan  -1.48051  -0.0590171  0.968736  0.0437274  0.0288493  -0.0156121  0.112821  -0.397871  -0.251058  0  0  0  0.0758787  -1.5  -0.976519  -0.0043739  -0.0431969  -0.00791898  -0.0107199  -0.0347364  0.0261065  0.0830005  0.0111257  -0.00375168  -1.38899  -0.223765  -0.044283 
1701270144.416148000  0  0  13.1019  0.292599  0.0186466  0.00872274  nan  nan  nan  nan  nan  nan  -1.47995  -0.0590171  0.967469  0.045485  0.0297217  -0.0155216  0.113175  -0.397871  -0.255916  0  0  0  0.0656465  -1.5  -0.966568  -0.00454176  -0.0448232  -0.00795251  -0.0129348  -0.0282301  0.0162442  0.0739136  0.00963145  -0.00442816  -1.3702  -0.143905  -0.0602333 
1701270144.421141000  0  0  13.0808  0.315404  0.0720075  0.0116178  nan  nan  nan  nan  nan  nan  -1.47938  -0.0590171  0.966177  0.0391286  0.0271165  -0.0158128  0.113479  -0.397871  -0.260725  0  0  0  0.0561643  -1.5  -0.957073  -0.00459635  -0.046969  -0.00782914  -0.0111648  -0.0301978  0.0179466  0.0731555  0.0101608  -0.00511549  -1.40203  -0.244877  -0.0953083 
1701270144.426142000  0  0  13.1499  0.42461  0.0483436  0.0118917  nan  nan  nan  nan  nan  nan  -1.47881  -0.0590171  0.964862  0.0389413  0.0262359  -0.0158521  0.113737  -0.397871  -0.265488  0  0  0  0.0474321  -1.5  -0.948328  -0.00475084  -0.0486096  -0.00788502  -0.0110442  -0.0262703  0.0149788  0.0646534  0.00980781  -0.00576874  -1.49846  -0.19874  -0.0872869 
1701270144.430091000  0  0  13.2535  0.416909  0.00246931  0.0120204  nan  nan  nan  nan  nan  nan  -1.47824  -0.0590171  0.963523  0.0359683  0.0261541  -0.0159332  0.113954  -0.397871  -0.270209  0  0  0  0.03945  -1.5  -0.940333  -0.00492559  -0.0502742  -0.00759486  -0.0117985  -0.0252489  0.00852514  0.0621963  0.00994483  -0.00613356  -1.45651  -0.118742  -0.0824001 
1701270144.436141000  0  0  13.3093  0.402789  0.0782578  0.0151918  nan  nan  nan  nan  nan  nan  -1.47767  -0.0590171  0.96216  0.0324583  0.0242992  -0.0160853  0.114133  -0.397871  -0.274892  0  0  0  0.0322178  -1.5  -0.933088  -0.00501404  -0.0523455  -0.00802068  -0.0105801  -0.0240727  0.00674877  0.0574714  0.00926363  -0.00711951  -1.37707  -0.245676  -0.116332 
1701270144.441120000  0  0  13.3527  0.471993  0.0521811  0.0148681  nan  nan  nan  nan  nan  nan  -1.4771  -0.0590171  0.960774  0.0322038  0.0243695  -0.0160892  0.114278  -0.397871  -0.279541  0  0  0  0.0257356  -1.5  -0.926593  -0.00518766  -0.0539106  -0.00812957  -0.0111294  -0.0204893  0.00519803  0.0499603  0.00815981  -0.00768335  -1.41376  -0.186614  -0.100057 
1701270144.446141000  0  0  13.4075  0.397871  0.0366956  0.0153023  nan  nan  nan  nan  nan  nan  -1.47653  -0.0590171  0.959364  0.0265458  0.02316  -0.0162593  0.114392  -0.397871  -0.28416  0  0  0  0.0200034  -1.5  -0.920848  -0.00524045  -0.0560162  -0.00812469  -0.0105636  -0.02168  0.0020813  0.0500088  0.00870858  -0.00813018  -1.28252  -0.165388  -0.0986912 
1701270144.451140000  0  0  13.3953  0.386291  0.0958106  0.0160008  nan  nan  nan  nan  nan  nan  -1.47596  -0.0590171  0.957932  0.02244  0.0220848  -0.0163786  0.114479  -0.397871  -0.288751  0  0  0  0.0150212  -1.5  -0.915853  -0.00537313  -0.0577689  -0.0082458  -0.00970124  -0.0221439  0.00358919  0.0478798  0.00755956  -0.00862139  -1.23745  -0.257294  -0.100879 
1701270144.455140000  0  0  13.3737  0.399376  0.0657506  0.0139093  nan  nan  nan  nan  nan  nan  -1.47538  -0.0590171  0.956477  0.0171166  0.022743  -0.0164849  0.114543  -0.397871  -0.293319  0  0  0  0.010789  -1.5  -0.911608  -0.00554643  -0.0594563  -0.00793547  -0.0106117  -0.0241078  0.00457057  0.047975  0.00650128  -0.00860487  -1.26181  -0.191672  -0.0662848 
1701270144.461133000  0  0  13.519  0.28644  0.0785194  0.0142305  nan  nan  nan  nan  nan  nan  -1.47481  -0.0590171  0.954999  0.0135378  0.0218112  -0.0165789  0.114588  -0.397871  -0.297868  0  0  0  0.0073069  -1.5  -0.908113  -0.00557163  -0.0614996  -0.00844386  -0.0102641  -0.0230712  -0.00314846  0.0463577  0.00581076  -0.00895089  -1.04239  -0.206438  -0.0649752 
1701270144.466142000  0  0  13.5112  0.255729  0.103146  0.0132167  nan  nan  nan  nan  nan  nan  -1.47424  -0.0590171  0.953498  0.00703478  0.0208797  -0.0167273  0.114618  -0.397871  -0.302402  0  0  0  0.0045747  -1.5  -0.905368  -0.0056885  -0.0634707  -0.00851055  -0.00937453  -0.0257529  -0.00238778  0.0481706  0.00519012  -0.00898427  -1.00863  -0.243091  -0.047408 
1701270144.471139000  0  0  13.5256  0.223738  0.0546264  0.0110277  nan  nan  nan  nan  nan  nan  -1.47366  -0.0590171  0.951975  -0.000465445  0.0212088  -0.0168841  0.114635  -0.397871  -0.306923  0  0  0  0.0025925  -1.5  -0.903373  -0.00575377  -0.0656002  -0.00852306  -0.0100111  -0.0291567  -0.00321309  0.0508894  0.00473664  -0.00875324  -0.983004  -0.151601  -0.0153213 
