ts x y z roll pitch yaw vx vy vz wx wy wz ax ay az dwx dwy dwz jx jy jz ddwx ddwy ddwz
1704462188.872810000  -2.5  -0.3  1  0  0  0  -2e-07  2e-07  -2e-07  0  0  0  -0.000125  0.000125  -0.000125  0  0  0  0  0  0  0  0  0 
1704462188.877213000  -2.5  -0.3  1  0  0  0  -1.7e-06  1.7e-06  -1.7e-06  0  0  0  -0.0005  0.0005  -0.0005  0  0  0  0  0  0  0  0  0 
1704462188.882204000  -2.5  -0.3  1  0  0  0  -5.6e-06  5.6e-06  -5.6e-06  0  0  0  -0.001125  0.001125  -0.001125  0  0  0  0  0  0  0  0  0 
1704462188.887208000  -2.5  -0.3  1  0  0  1e-07  -1.33e-05  1.33e-05  -1.33e-05  0  0  0  -0.002  0.002  -0.002  0  0  0  0  0  0  0  0  0 
1704462188.892220000  -2.5  -0.3  1  0  0  2e-07  -2.6e-05  2.6e-05  -2.6e-05  0  0  0  -0.003125  0.003125  -0.003125  0  0  0  0  0  0  0  0  0 
1704462188.897228000  -2.5  -0.3  1  0  0  4e-07  -4.5e-05  4.5e-05  -4.5e-05  0  0  0  -0.0045  0.0045  -0.0045  0  0  0  0  0  0  0  0  0 
1704462188.902220000  -2.5  -0.299999  0.999999  0  0  6e-07  -7.15e-05  7.15e-05  -7.15e-05  0  0  0  -0.006125  0.006125  -0.006125  0  0  0  0  0  0  0  0  0 
1704462188.907235000  -2.5  -0.299999  0.999999  0  0  8e-07  -0.0001067  0.0001067  -0.0001067  0  0  0  -0.008  0.008  -0.008  0  0  0  0  0  0  0  0  0 
1704462188.912234000  -2.5  -0.299998  0.999998  0  0  1e-06  -0.0001519  0.0001519  -0.0001519  0  0  0  -0.010125  0.010125  -0.010125  0  0  0  0  0  0  0  0  0 
1704462188.917222000  -2.5  -0.299997  0.999997  0  0  1.2e-06  -0.0002083  0.0002083  -0.0002083  0  0  0  -0.0125  0.0125  -0.0125  0  0  0  0  0  0  0  0  0 
1704462188.922227000  -2.5  -0.299996  0.999996  0  0  1.4e-06  -0.0002773  0.0002773  -0.0002773  0  0  0  -0.015125  0.015125  -0.015125  0  0  0  0  0  0  0  0  0 
1704462188.927222000  -2.50001  -0.299995  0.999995  0  0  1.6e-06  -0.00036  0.00036  -0.00036  0  0  0  -0.018  0.018  -0.018  0  0  0  0  0  0  0  0  0 
1704462188.932226000  -2.50001  -0.299993  0.999993  0  0  1.7e-06  -0.0004577  0.0004577  -0.0004577  0  0  0  -0.021125  0.021125  -0.021125  0  0  0  0  0  0  0  0  0 
1704462188.937219000  -2.50001  -0.29999  0.99999  0  0  1.8e-06  -0.0005717  0.0005717  -0.0005717  0  0  0  -0.0245  0.0245  -0.0245  0  0  0  0  0  0  0  0  0 
1704462188.942226000  -2.50001  -0.299987  0.999987  0  0  1.7e-06  -0.0007031  0.0007031  -0.0007031  0  0  0  -0.028125  0.028125  -0.028125  0  0  0  0  0  0  0  0  0 
1704462188.947222000  -2.50002  -0.299983  0.999983  0  0  1.4e-06  -0.0008533  0.0008533  -0.0008533  0  0  0  -0.032  0.032  -0.032  0  0  0  0  0  0  0  0  0 
1704462188.952206000  -2.50002  -0.299978  0.999978  0  0  9e-07  -0.0010235  0.0010235  -0.0010235  0  0  0  -0.036125  0.036125  -0.036125  0  0  0  0  0  0  0  0  0 
1704462188.957209000  -2.50003  -0.299973  0.999973  0  0  0  -0.001215  0.001215  -0.001215  0  0  0  -0.0405  0.0405  -0.0405  0  0  0  0  0  0  0  0  0 
1704462188.962213000  -2.50003  -0.299966  0.999966  0  0  -1.3e-06  -0.001429  0.001429  -0.001429  0  0  0  -0.045125  0.045125  -0.045125  0  0  0  0  0  0  0  0  0 
1704462188.967213000  -2.50004  -0.299958  0.999958  0  0  -3.1e-06  -0.0016667  0.0016667  -0.0016667  0  0  0  -0.05  0.05  -0.05  0  0  0  0  0  0  0  0  0 
1704462188.972206000  -2.50005  -0.299949  0.999949  0  0  -5.5e-06  -0.0019294  0.0019294  -0.0019294  0  0  0  -0.055125  0.055125  -0.055125  0  0  0  0  0  0  0  0  0 
1704462188.977213000  -2.50006  -0.299939  0.999939  0  0  -8.7e-06  -0.0022183  0.0022183  -0.0022181  0  0  0  -0.0604885  0.0604885  -0.0603425  0  0  0  0  0  0  0  0  0 
1704462188.982213000  -2.50007  -0.299927  0.999927  0  0  -1.27e-05  -0.002534  0.002534  -0.0025324  0  0  0  -0.0657563  0.0657563  -0.0653207  0  0  0  0  0  0  0  0  0 
1704462188.987208000  -2.50009  -0.299914  0.999914  0  0  -1.78e-05  -0.0028755  0.0028755  -0.0028709  0  0  0  -0.070774  0.070774  -0.0700488  0  0  0  0  0  0  0  0  0 
1704462188.992222000  -2.5001  -0.299898  0.999898  0  0  -2.4e-05  -0.0032414  0.0032414  -0.0032325  0  0  0  -0.0755418  0.0755418  -0.074527  0  0  0  0  0  0  0  0  0 
1704462188.997229000  -2.50012  -0.299881  0.999881  0  0  -3.15e-05  -0.0036305  0.0036305  -0.0036158  0  0  0  -0.0800596  0.0800596  -0.0787551  0  0  0  0  0  0  0  0  0 
1704462189.002219000  -2.50014  -0.299862  0.999862  0  0  -4.05e-05  -0.0040415  0.0040415  -0.0040196  0  0  0  -0.0843273  0.0843273  -0.0827333  0  0  0  0  0  0  0  0  0 
1704462189.007212000  -2.50016  -0.299841  0.999841  0  0  -5.11e-05  -0.0044733  0.0044733  -0.0044427  0  0  0  -0.0883451  0.0883451  -0.0864614  0  0  0  0  0  0  0  0  0 
1704462189.012219000  -2.50018  -0.299817  0.999818  0  0  -6.35e-05  -0.0049246  0.0049246  -0.0048838  0  0  0  -0.0921129  0.0921129  -0.0899395  0  0  0  0  0  0  0  0  0 
1704462189.017222000  -2.50021  -0.299791  0.999792  0  0  -7.8e-05  -0.0053941  0.0053941  -0.0053417  0  0  0  -0.0956306  0.0956306  -0.0931677  0  0  0  0  0  0  0  0  0 
1704462189.022216000  -2.50024  -0.299763  0.999764  0  0  -9.48e-05  -0.0058805  0.0058805  -0.0058151  0  0  0  -0.0988984  0.0988984  -0.0961458  0  0  0  0  0  0  0  0  0 
1704462189.027204000  -2.50027  -0.299733  0.999734  0  0  -0.000114  -0.0063826  0.0063826  -0.0063027  0  0  0  -0.101916  0.101916  -0.098874  0  0  0  0  0  0  0  0  0 
1704462189.032203000  -2.5003  -0.299699  0.999701  0  0  -0.0001358  -0.0068992  0.0068992  -0.0068034  0  0  0  -0.104684  0.104684  -0.101352  0  0  0  0  0  0  0  0  0 
1704462189.037206000  -2.50034  -0.299664  0.999666  0  0  -0.0001606  -0.007429  0.007429  -0.0073158  0  0  0  -0.107202  0.107202  -0.10358  0  0  0  0  0  0  0  0  0 
1704462189.042207000  -2.50037  -0.299625  0.999628  0  0  -0.0001886  -0.0079708  0.0079708  -0.0078388  0  0  0  -0.109469  0.109469  -0.105558  0  0  0  0  0  0  0  0  0 
1704462189.047205000  -2.50042  -0.299584  0.999588  0  0  -0.0002199  -0.0085233  0.0085233  -0.008371  0  0  0  -0.111487  0.111487  -0.107287  0  0  0  0  0  0  0  0  0 
1704462189.052211000  -2.50046  -0.29954  0.999544  0  0  -0.0002549  -0.0090853  0.0090853  -0.0089112  0  0  0  -0.113255  0.113255  -0.108765  0  0  0  0  0  0  0  0  0 
1704462189.057208000  -2.50051  -0.299493  0.999498  0  0  -0.0002938  -0.0096554  0.0096554  -0.0094582  0  0  0  -0.114773  0.114773  -0.109993  0  0  0  0  0  0  0  0  0 
1704462189.062206000  -2.50056  -0.299443  0.99945  0  0  -0.0003368  -0.0102326  0.0102326  -0.0100107  0  0  0  -0.116041  0.116041  -0.110971  0  0  0  0  0  0  0  0  0 
1704462189.067208000  -2.50061  -0.299391  0.999398  0  0  -0.000384  -0.0108154  0.0108154  -0.0105675  0  0  0  -0.117058  0.117058  -0.111699  0  0  0  0  0  0  0  0  0 
1704462189.072212000  -2.50066  -0.299335  0.999344  0  0  -0.0004357  -0.0114027  0.0114027  -0.0111273  0  0  0  -0.117826  0.117826  -0.112177  0  0  0  0  0  0  0  0  0 
1704462189.077212000  -2.50072  -0.299277  0.999287  0  0  -0.0004921  -0.0119933  0.0119933  -0.0116889  0  0  0  -0.118344  0.118344  -0.112405  0  0  0  0  0  0  0  0  0 
1704462189.082214000  -2.50078  -0.299215  0.999227  0  0  -0.0005532  -0.0125858  0.0125858  -0.0122509  0  0  0  -0.118612  0.118612  -0.112384  0  0  0  0  0  0  0  0  0 
1704462189.087212000  -2.50085  -0.299151  0.999165  0  0  -0.0006194  -0.013179  0.013179  -0.0128123  0  0  0  -0.118629  0.118629  -0.112112  0  0  0  0  0  0  0  0  0 
1704462189.092216000  -2.50092  -0.299083  0.999099  0  0  -0.0006908  -0.0137716  0.0137716  -0.0133716  0  0  0  -0.118397  0.118397  -0.11159  0  0  0  0  0  0  0  0  0 
1704462189.097206000  -2.50099  -0.299013  0.999031  0  0  -0.0007674  -0.0143625  0.0143625  -0.0139278  0  0  0  -0.117915  0.117915  -0.110818  0  0  0  0  0  0  0  0  0 
1704462189.102214000  -2.50106  -0.29894  0.99896  0  0  -0.0008494  -0.0149504  0.0149504  -0.0144794  0  0  0  -0.117183  0.117183  -0.109796  0  0  0  0  0  0  0  0  0 
1704462189.107210000  -2.50114  -0.298864  0.998886  0  0  -0.000937  -0.0155339  0.0155339  -0.0150253  0  0  0  -0.1162  0.1162  -0.108524  0  0  0  0  0  0  0  0  0 
1704462189.112205000  -2.50122  -0.298784  0.99881  0  0  -0.0010303  -0.016112  0.016112  -0.0155642  0  0  0  -0.114968  0.114968  -0.107003  0  0  0  0  0  0  0  0  0 
1704462189.117210000  -2.5013  -0.298702  0.99873  0  0  -0.0011293  -0.0166832  0.0166832  -0.0160949  0  0  0  -0.113486  0.113486  -0.105231  0  0  0  0  0  0  0  0  0 
1704462189.122217000  -2.50138  -0.298618  0.998649  0  0  -0.0012342  -0.0172464  0.0172464  -0.0166161  0  0  0  -0.111754  0.111754  -0.103209  0  0  0  0  0  0  0  0  0 
1704462189.127210000  -2.50147  -0.29853  0.998564  0  0  -0.001345  -0.0178003  0.0178003  -0.0171266  0  0  0  -0.109771  0.109771  -0.100937  0  0  0  0  0  0  0  0  0 
1704462189.132206000  -2.50156  -0.29844  0.998477  0  0  -0.0014619  -0.0183437  0.0183437  -0.0176251  0  0  0  -0.107539  0.107539  -0.0984151  0  0  0  0  0  0  0  0  0 
1704462189.137208000  -2.50165  -0.298347  0.998388  0  0  -0.0015848  -0.0188753  0.0188753  -0.0181103  0  0  0  -0.105057  0.105057  -0.0956433  0  0  0  0  0  0  0  0  0 
1704462189.142205000  -2.50175  -0.298251  0.998296  0  0  -0.0017139  -0.0193939  0.0193939  -0.0185811  0  0  0  -0.102325  0.102325  -0.0926214  0  0  0  0  0  0  0  0  0 
1704462189.147240000  -2.50185  -0.298153  0.998202  0  0  -0.0018491  -0.0198981  0.0198981  -0.0190361  0  0  0  -0.0993425  0.0993425  -0.0893496  0  0  0  0  0  0  0  0  0 
1704462189.152223000  -2.50195  -0.298052  0.998106  0  0  -0.0019905  -0.0203869  0.0203869  -0.0194742  0  0  0  -0.0961103  0.0961103  -0.0858277  0  0  0  0  0  0  0  0  0 
1704462189.157209000  -2.50205  -0.297949  0.998008  0  0  -0.0021382  -0.0208588  0.0208588  -0.019894  0  0  0  -0.0926281  0.0926281  -0.0820559  0  0  0  0  0  0  0  0  0 
1704462189.162213000  -2.50216  -0.297843  0.997907  0  0  -0.0022921  -0.0213127  0.0213127  -0.0202943  0  0  0  -0.0888958  0.0888958  -0.078034  0  0  0  0  0  0  0  0  0 
1704462189.167209000  -2.50226  -0.297736  0.997805  0  0  -0.0024523  -0.0217474  0.0217474  -0.0206739  0  0  0  -0.0849136  0.0849136  -0.0737622  0  0  0  0  0  0  0  0  0 
1704462189.172207000  -2.50237  -0.297626  0.9977  0  0  -0.0026187  -0.0221615  0.0221615  -0.0210315  0  0  0  -0.0806814  0.0806814  -0.0692403  0  0  0  0  0  0  0  0  0 
1704462189.177206000  -2.50249  -0.297514  0.997594  0  0  -0.0027914  -0.0225538  0.0225538  -0.0213659  0  0  0  -0.0761991  0.0761991  -0.0644684  0  0  0  0  0  0  0  0  0 
1704462189.182215000  -2.5026  -0.2974  0.997487  0  0  -0.0029703  -0.022923  0.022923  -0.0216758  0  0  0  -0.0714669  0.0714669  -0.0594466  0  0  0  0  0  0  0  0  0 
1704462189.187207000  -2.50272  -0.297285  0.997378  0  0  -0.0031555  -0.023268  0.023268  -0.02196  0  0  0  -0.0664847  0.0664847  -0.0542111  0  0  0  0  0  0  0  0  0 
1704462189.192207000  -2.50283  -0.297168  0.997267  0  0  -0.0033469  -0.0235875  0.0235875  -0.0222182  0  0  0  -0.0612524  0.0612524  -0.0491298  0  0  0  0  0  0  0  0  0 
1704462189.197205000  -2.50295  -0.297049  0.997155  0  0  -0.0035446  -0.0238802  0.0238802  -0.0224517  0  0  0  -0.0558737  0.0558737  -0.0442985  0  0  0  0  0  0  0  0  0 
1704462189.202219000  -2.50307  -0.296929  0.997043  0  0  -0.0037485  -0.0241466  0.0241466  -0.0226616  0  0  0  -0.0507132  0.0507132  -0.0397172  0  0  0  0  0  0  0  0  0 
1704462189.207218000  -2.50319  -0.296808  0.996929  0  0  -0.0039586  -0.0243878  0.0243878  -0.0228493  0  0  0  -0.0458026  0.0458026  -0.0353859  0  0  0  0  0  0  0  0  0 
1704462189.212219000  -2.50331  -0.296685  0.996814  0  0  -0.004175  -0.024605  0.024605  -0.0230159  0  0  0  -0.0411421  0.0411421  -0.0313046  0  0  0  0  0  0  0  0  0 
1704462189.217215000  -2.50344  -0.296562  0.996699  0  0  -0.0043977  -0.0247996  0.0247996  -0.0231627  0  0  0  -0.0367316  0.0367316  -0.0274733  0  0  0  0  0  0  0  0  0 
1704462189.222221000  -2.50356  -0.296437  0.996583  0  0  -0.0046266  -0.0249728  0.0249728  -0.023291  0  0  0  -0.032571  0.032571  -0.023892  0  0  0  0  0  0  0  0  0 
1704462189.227209000  -2.50369  -0.296312  0.996466  0  0  -0.0048618  -0.0251257  0.0251257  -0.0234021  0  0  0  -0.0286605  0.0286605  -0.0205607  0  0  0  0  0  0  0  0  0 
1704462189.232209000  -2.50381  -0.296186  0.996349  0  0  -0.0051032  -0.0252598  0.0252598  -0.0234971  0  0  0  -0.025  0.025  -0.0174794  0  0  0  0  0  0  0  0  0 
1704462189.237221000  -2.50394  -0.296059  0.996231  0  0  -0.0053509  -0.0253762  0.0253762  -0.0235773  0  0  0  -0.0215894  0.0215894  -0.0146481  0  0  0  0  0  0  0  0  0 
1704462189.242219000  -2.50407  -0.295932  0.996113  0  0  -0.0056048  -0.0254761  0.0254761  -0.023644  0  0  0  -0.0184289  0.0184289  -0.0120668  0  0  0  0  0  0  0  0  0 
1704462189.247212000  -2.5042  -0.295805  0.995995  0  0  -0.005865  -0.0255609  0.0255609  -0.0236984  0  0  0  -0.0155184  0.0155184  -0.0097355  0  0  0  0  0  0  0  0  0 
1704462189.252211000  -2.50432  -0.295677  0.995876  0  0  -0.0061314  -0.0256317  0.0256317  -0.0237417  0  0  0  -0.0128578  0.0128578  -0.0076542  0  0  0  0  0  0  0  0  0 
1704462189.257211000  -2.50445  -0.295548  0.995757  0  0  -0.006404  -0.0256899  0.0256899  -0.0237753  0  0  0  -0.0104473  0.0104473  -0.0058229  0  0  0  0  0  0  0  0  0 
1704462189.262219000  -2.50458  -0.29542  0.995638  0  0  -0.006683  -0.0257366  0.0257366  -0.0238004  0  0  0  -0.0082868  0.0082868  -0.0042416  0  0  0  0  0  0  0  0  0 
1704462189.267209000  -2.50471  -0.295291  0.995519  0  0  -0.0069681  -0.0257731  0.0257731  -0.0238181  0  0  0  -0.0063762  0.0063762  -0.0029103  0  0  0  0  0  0  0  0  0 
1704462189.272208000  -2.50484  -0.295162  0.9954  0  0  -0.0072595  -0.0258008  0.0258008  -0.0238299  0  0  0  -0.0047157  0.0047157  -0.001829  0  0  0  0  0  0  0  0  0 
1704462189.277211000  -2.50497  -0.295033  0.995281  0  0  -0.0075572  -0.0258207  0.0258207  -0.0238369  0  0  0  -0.0033052  0.0033052  -0.0009977  0  0  0  0  0  0  0  0  0 
1704462189.282218000  -2.5051  -0.294904  0.995162  0  0  -0.0078611  -0.0258342  0.0258342  -0.0238403  0  0  0  -0.0021447  0.0021447  -0.0004164  0  0  0  0  0  0  0  0  0 
1704462189.287214000  -2.50523  -0.294775  0.995042  0  0  -0.0081713  -0.0258426  0.0258426  -0.0238414  0  0  0  -0.0012341  0.0012341  -8.51e-05  0  0  0  0  0  0  0  0  0 
1704462189.292211000  -2.50535  -0.294646  0.994923  0  0  -0.0084877  -0.025847  0.025847  -0.0238416  0  0  0  -0.0005736  0.0005736  -0  0  0  0  0  0  0  0  0  0 
1704462189.297212000  -2.50548  -0.294516  0.994804  0  0  -0.0088104  -0.0258487  0.0258487  -0.0238416  0  0  0  -0.0001631  0.0001631  -0  0  0  0  0  0  0  0  0  0 
1704462189.302210000  -2.50561  -0.294387  0.994685  0  0  -0.0091393  -0.025849  0.025849  -0.0238416  0  0  0  -2.5e-06  2.5e-06  -0  0  0  0  0  0  0  0  0  0 
1704462189.307212000  -2.50574  -0.294258  0.994566  0  0  -0.0094745  -0.025849  0.025849  -0.0238416  0  0  0  2.47e-05  -2.47e-05  -0  0  0  0  0  0  0  0  0  0 
1704462189.312212000  -2.50587  -0.294129  0.994446  0  0  -0.0098159  -0.0258484  0.0258484  -0.0238416  0  0  0  0.0002609  -0.000261  -0  0  0  0  0  0  0  0  0  0 
1704462189.317214000  -2.506  -0.293999  0.994327  0  0  -0.0101635  -0.025846  0.025846  -0.0238416  0  0  0  0.0007472  -0.0007472  -0  0  0  0  0  0  0  0  0  0 
1704462189.322216000  -2.50613  -0.29387  0.994208  0  0  -0.0105175  -0.0258405  0.0258405  -0.0238416  0  0  0  0.0014834  -0.0014834  2.1e-06  0  0  0  0  0  0  0  0  0 
1704462189.327214000  -2.50626  -0.293741  0.994089  0  0  -0.0108776  -0.0258307  0.0258307  -0.0238413  0  0  0  0.0024696  -0.0024696  0.0001593  0  0  0  0  0  0  0  0  0 
1704462189.332211000  -2.50639  -0.293612  0.99397  0  0  -0.011244  -0.0258154  0.0258154  -0.0238395  0  0  0  0.0037058  -0.0037059  0.0005665  0  0  0  0  0  0  0  0  0 
1704462189.337215000  -2.50652  -0.293483  0.99385  0  0  -0.0116167  -0.0257933  0.0257933  -0.0238352  0  0  0  0.005192  -0.0051921  0.0012237  0  0  0  0  0  0  0  0  0 
1704462189.342221000  -2.50665  -0.293354  0.993731  0  0  -0.0119956  -0.0257631  0.0257631  -0.0238269  0  0  0  0.0069282  -0.0069283  0.0021309  0  0  0  0  0  0  0  0  0 
1704462189.347211000  -2.50677  -0.293225  0.993612  0  0  -0.0123808  -0.0257236  0.0257236  -0.0238134  0  0  0  0.0089144  -0.0089145  0.003288  0  0  0  0  0  0  0  0  0 
1704462189.352212000  -2.5069  -0.293097  0.993493  0  0  -0.0127722  -0.0256735  0.0256735  -0.0237936  0  0  0  0.0111506  -0.0111507  0.0046952  0  0  0  0  0  0  0  0  0 
1704462189.357213000  -2.50703  -0.292968  0.993374  0  0  -0.0131699  -0.0256117  0.0256116  -0.0237661  0  0  0  0.0136369  -0.013637  0.0063524  0  0  0  0  0  0  0  0  0 
1704462189.362219000  -2.50716  -0.292841  0.993255  0  0  -0.0135738  -0.0255367  0.0255367  -0.0237297  0  0  0  0.0163731  -0.0163732  0.0082596  0  0  0  0  0  0  0  0  0 
1704462189.367218000  -2.50729  -0.292713  0.993137  0  0  -0.013984  -0.0254475  0.0254475  -0.0236831  0  0  0  0.0193593  -0.0193594  0.0104168  0  0  0  0  0  0  0  0  0 
1704462189.372216000  -2.50741  -0.292586  0.993019  0  0  -0.0144004  -0.0253427  0.0253427  -0.0236251  0  0  0  0.0225955  -0.0225956  0.012824  0  0  0  0  0  0  0  0  0 
1704462189.377216000  -2.50754  -0.29246  0.992901  0  0  -0.014823  -0.0252211  0.0252211  -0.0235544  0  0  0  0.0260817  -0.0260818  0.0154812  0  0  0  0  0  0  0  0  0 
1704462189.382216000  -2.50767  -0.292334  0.992783  0  0  -0.015252  -0.0250815  0.0250815  -0.0234698  0  0  0  0.0298179  -0.0298181  0.0183884  0  0  0  0  0  0  0  0  0 
1704462189.387214000  -2.50779  -0.292209  0.992666  0  0  -0.0156871  -0.0249225  0.0249225  -0.0233701  0  0  0  0.0338041  -0.0338043  0.0215456  0  0  0  0  0  0  0  0  0 
1704462189.392217000  -2.50792  -0.292085  0.992549  0  0  -0.0161285  -0.024743  0.024743  -0.023254  0  0  0  0.0380403  -0.0380405  0.0249528  0  0  0  0  0  0  0  0  0 
1704462189.397215000  -2.50804  -0.291962  0.992434  0  0  -0.0165762  -0.0245417  0.0245417  -0.0231202  0  0  0  0.0425265  -0.0425267  0.02861  0  0  0  0  0  0  0  0  0 
1704462189.402214000  -2.50816  -0.291839  0.992318  0  0  -0.0170301  -0.0243173  0.0243173  -0.0229674  0  0  0  0.0472628  -0.0472629  0.0325172  0  0  0  0  0  0  0  0  0 
1704462189.407203000  -2.50828  -0.291718  0.992204  0  0  -0.0174903  -0.0240687  0.0240687  -0.0227946  0  0  0  0.052249  -0.0522492  0.0366744  0  0  0  0  0  0  0  0  0 
1704462189.412209000  -2.5084  -0.291599  0.99209  0  0  -0.0179567  -0.0237944  0.0237944  -0.0226003  0  0  0  0.0574852  -0.0574854  0.0410816  0  0  0  0  0  0  0  0  0 
1704462189.417209000  -2.50852  -0.29148  0.991978  0  0  -0.0184294  -0.0234934  0.0234934  -0.0223833  0  0  0  0.0629714  -0.0629716  0.0457388  0  0  0  0  0  0  0  0  0 
1704462189.422234000  -2.50864  -0.291364  0.991867  0  0  -0.0189083  -0.0231643  0.0231643  -0.0221425  0  0  0  0.0687076  -0.0687078  0.050646  0  0  0  0  0  0  0  0  0 
1704462189.427222000  -2.50875  -0.291249  0.991757  0  0  -0.0193935  -0.0228059  0.0228059  -0.0218765  0  0  0  0.0746938  -0.0746941  0.0558032  0  0  0  0  0  0  0  0  0 
1704462189.432215000  -2.50886  -0.291136  0.991648  0  0  -0.0198849  -0.022417  0.0224169  -0.021584  0  0  0  0.08093  -0.0809303  0.0612104  0  0  0  0  0  0  0  0  0 
1704462189.437213000  -2.50898  -0.291025  0.991541  0  0  -0.0200414  -0.0219962  0.0219962  -0.0212639  0  0  0  0.0874162  -0.0874165  0.0668676  0  0  0  0  0  0  0  0  0 
1704462189.442211000  -2.50908  -0.290916  0.991435  0  0  -0.0200414  -0.0215424  0.0215424  -0.0209149  0  0  0  0.0941346  -0.0941349  0.0727747  0  0  0  0  0  0  0  0  0 
1704462189.447206000  -2.50919  -0.290809  0.991332  0  0  -0.0200414  -0.0210551  0.0210551  -0.0205358  0  0  0  0.100737  -0.100738  0.0789319  0  0  0  0  0  0  0  0  0 
1704462189.452211000  -2.50929  -0.290705  0.99123  0  0  -0.0200414  -0.0205354  0.0205354  -0.0201252  0  0  0  0.10709  -0.10709  0.0853391  0  0  0  0  0  0  0  0  0 
1704462189.457210000  -2.5094  -0.290604  0.99113  0  0  -0.0200414  -0.0199846  0.0199846  -0.0196821  0  0  0  0.113193  -0.113193  0.0918879  0  0  0  0  0  0  0  0  0 
1704462189.462215000  -2.50949  -0.290506  0.991033  0  0  -0.0200414  -0.0194039  0.0194039  -0.0192067  0  0  0  0.119046  -0.119046  0.0982158  0  0  0  0  0  0  0  0  0 
1704462189.467213000  -2.50959  -0.29041  0.990938  0  0  -0.0200414  -0.0187946  0.0187946  -0.0187003  0  0  0  0.124648  -0.124649  0.104294  0  0  0  0  0  0  0  0  0 
1704462189.472208000  -2.50968  -0.290318  0.990846  0  0  -0.0200414  -0.0181579  0.0181578  -0.0181642  0  0  0  0.130001  -0.130001  0.110122  0  0  0  0  0  0  0  0  0 
1704462189.477209000  -2.50977  -0.290229  0.990757  0  0  -0.0200414  -0.017495  0.017495  -0.0175996  0  0  0  0.135104  -0.135104  0.115699  0  0  0  0  0  0  0  0  0 
1704462189.482216000  -2.50986  -0.290143  0.99067  0  0  -0.0200414  -0.0168072  0.0168072  -0.0170076  0  0  0  0.139957  -0.139957  0.121027  0  0  0  0  0  0  0  0  0 
1704462189.487211000  -2.50994  -0.290061  0.990587  0  0  -0.0200414  -0.0160958  0.0160958  -0.0163897  0  0  0  0.144559  -0.14456  0.126105  0  0  0  0  0  0  0  0  0 
1704462189.492208000  -2.51002  -0.289982  0.990506  0  0  -0.0200414  -0.0153621  0.015362  -0.015747  0  0  0  0.148912  -0.148912  0.130933  0  0  0  0  0  0  0  0  0 
1704462189.497211000  -2.51009  -0.289907  0.990429  0  0  -0.0200414  -0.0146071  0.0146071  -0.0150808  0  0  0  0.153015  -0.153015  0.135511  0  0  0  0  0  0  0  0  0 
1704462189.502216000  -2.51016  -0.289836  0.990356  0  0  -0.0200414  -0.0138323  0.0138323  -0.0143923  0  0  0  0.156868  -0.156868  0.139839  0  0  0  0  0  0  0  0  0 
1704462189.507207000  -2.51023  -0.289769  0.990285  0  0  -0.0200414  -0.0130389  0.0130388  -0.0136828  0  0  0  0.16047  -0.16047  0.143917  0  0  0  0  0  0  0  0  0 
1704462189.512210000  -2.51029  -0.289705  0.990219  0  0  -0.0200414  -0.012228  0.012228  -0.0129536  0  0  0  0.163823  -0.163823  0.147745  0  0  0  0  0  0  0  0  0 
1704462189.517207000  -2.51035  -0.289646  0.990156  0  0  -0.0200414  -0.0114011  0.011401  -0.0122058  0  0  0  0.166926  -0.166926  0.151323  0  0  0  0  0  0  0  0  0 
1704462189.522215000  -2.51041  -0.289591  0.990097  0  0  -0.0200414  -0.0105592  0.0105592  -0.0114407  0  0  0  0.169779  -0.169779  0.15465  0  0  0  0  0  0  0  0  0 
1704462189.527215000  -2.51046  -0.289541  0.990042  0  0  -0.0200414  -0.0097037  0.0097036  -0.0106597  0  0  0  0.172381  -0.172381  0.157728  0  0  0  0  0  0  0  0  0 
1704462189.532225000  -2.51051  -0.289494  0.98999  0  0  -0.0200414  -0.0088358  0.0088358  -0.0098639  0  0  0  0.174734  -0.174734  0.160556  0  0  0  0  0  0  0  0  0 
1704462189.537205000  -2.51055  -0.289452  0.989943  0  0  -0.0200414  -0.0079568  0.0079567  -0.0090545  0  0  0  0.176837  -0.176837  0.163134  0  0  0  0  0  0  0  0  0 
1704462189.542223000  -2.51059  -0.289415  0.9899  0  0  -0.0200414  -0.0070678  0.0070678  -0.0082329  0  0  0  0.17869  -0.17869  0.165462  0  0  0  0  0  0  0  0  0 
1704462189.547216000  -2.51062  -0.289382  0.989861  0  0  -0.0200414  -0.0061703  0.0061703  -0.0074003  0  0  0  0.180292  -0.180292  0.16754  0  0  0  0  0  0  0  0  0 
1704462189.552212000  -2.51065  -0.289353  0.989826  0  0  -0.0200414  -0.0052653  0.0052653  -0.006558  0  0  0  0.181645  -0.181645  0.169368  0  0  0  0  0  0  0  0  0 
1704462189.557211000  -2.51067  -0.289329  0.989795  0  0  -0.0200414  -0.0043542  0.0043542  -0.0057071  0  0  0  0.182748  -0.182748  0.170946  0  0  0  0  0  0  0  0  0 
1704462189.562219000  -2.51069  -0.28931  0.989769  0  0  -0.0200414  -0.0034383  0.0034382  -0.0048489  0  0  0  0.1836  -0.183601  0.172273  0  0  0  0  0  0  0  0  0 
1704462189.567210000  -2.51071  -0.289295  0.989747  0  0  -0.0200414  -0.0025187  0.0025186  -0.0039848  0  0  0  0.184203  -0.184203  0.173351  0  0  0  0  0  0  0  0  0 
1704462189.572216000  -2.51072  -0.289285  0.989729  0  0  -0.0200414  -0.0015967  0.0015966  -0.0031158  0  0  0  0.184556  -0.184556  0.174179  0  0  0  0  0  0  0  0  0 
1704462189.577214000  -2.51072  -0.289279  0.989715  0  0  -0.0200414  -0.0006735  0.0006735  -0.0022434  0  0  0  0.184659  -0.184659  0.174757  0  0  0  0  0  0  0  0  0 
1704462189.582223000  -2.51072  -0.289278  0.989706  0  0  -0.0200414  0.0002495  -0.0002495  -0.0013687  0  0  0  0.184511  -0.184511  0.175085  0  0  0  0  0  0  0  0  0 
1704462189.587216000  -2.51072  -0.289281  0.989702  0  0  -0.0200414  0.0011712  -0.0011712  -0.000493  0  0  0  0.184114  -0.184114  0.175163  0  0  0  0  0  0  0  0  0 
1704462189.592211000  -2.51071  -0.289289  0.989702  0  0  -0.0200414  0.0020902  -0.0020903  0.0003825  0  0  0  0.183467  -0.183467  0.174991  0  0  0  0  0  0  0  0  0 
1704462189.597212000  -2.5107  -0.289302  0.989706  0  0  -0.0200414  0.0030054  -0.0030055  0.0012565  0  0  0  0.18257  -0.18257  0.174569  0  0  0  0  0  0  0  0  0 
1704462189.602215000  -2.51068  -0.28932  0.989714  0  0  -0.0200414  0.0039155  -0.0039156  0.0021278  0  0  0  0.181422  -0.181422  0.173897  0  0  0  0  0  0  0  0  0 
1704462189.607209000  -2.51066  -0.289341  0.989727  0  0  -0.0200414  0.0048192  -0.0048193  0.0029951  0  0  0  0.180025  -0.180025  0.172974  0  0  0  0  0  0  0  0  0 
1704462189.612210000  -2.51063  -0.289368  0.989744  0  0  -0.0200414  0.0057154  -0.0057154  0.0038571  0  0  0  0.178378  -0.178378  0.171802  0  0  0  0  0  0  0  0  0 
1704462189.617209000  -2.5106  -0.289399  0.989765  0  0  -0.0200414  0.0066026  -0.0066026  0.0047127  0  0  0  0.176481  -0.176481  0.17038  0  0  0  0  0  0  0  0  0 
1704462189.622216000  -2.51057  -0.289434  0.989791  0  0  -0.0200414  0.0074797  -0.0074798  0.0055605  0  0  0  0.174333  -0.174333  0.168708  0  0  0  0  0  0  0  0  0 
1704462189.627209000  -2.51053  -0.289473  0.989821  0  0  -0.0200414  0.0083455  -0.0083456  0.0063994  0  0  0  0.171936  -0.171936  0.166786  0  0  0  0  0  0  0  0  0 
1704462189.632213000  -2.51048  -0.289517  0.989855  0  0  -0.0200414  0.0091987  -0.0091987  0.007228  0  0  0  0.169289  -0.169289  0.164614  0  0  0  0  0  0  0  0  0 
1704462189.637211000  -2.51043  -0.289565  0.989893  0  0  -0.0200414  0.010038  -0.010038  0.0080451  0  0  0  0.166392  -0.166392  0.162192  0  0  0  0  0  0  0  0  0 
1704462189.642213000  -2.51038  -0.289618  0.989936  0  0  -0.0200414  0.0108622  -0.0108622  0.0088495  0  0  0  0.163244  -0.163244  0.15952  0  0  0  0  0  0  0  0  0 
1704462189.647208000  -2.51033  -0.289674  0.989982  0  0  -0.0200414  0.01167  -0.0116701  0.0096399  0  0  0  0.159847  -0.159847  0.156598  0  0  0  0  0  0  0  0  0 
1704462189.652212000  -2.51027  -0.289734  0.990032  0  0  -0.0200414  0.0124602  -0.0124603  0.010415  0  0  0  0.1562  -0.1562  0.153425  0  0  0  0  0  0  0  0  0 
1704462189.657211000  -2.5102  -0.289798  0.990086  0  0  -0.0200414  0.0132316  -0.0132316  0.0111737  0  0  0  0.152303  -0.152303  0.150003  0  0  0  0  0  0  0  0  0 
1704462189.662223000  -2.51013  -0.289866  0.990144  0  0  -0.0200414  0.0139828  -0.0139829  0.0119146  0  0  0  0.148155  -0.148155  0.146331  0  0  0  0  0  0  0  0  0 
1704462189.667210000  -2.51006  -0.289938  0.990205  0  0  -0.0200414  0.0147127  -0.0147128  0.0126366  0  0  0  0.143758  -0.143758  0.142409  0  0  0  0  0  0  0  0  0 
1704462189.672211000  -2.50999  -0.290014  0.99027  0  0  -0.0200414  0.01542  -0.01542  0.0133383  0  0  0  0.139111  -0.139111  0.138237  0  0  0  0  0  0  0  0  0 
1704462189.677211000  -2.50991  -0.290092  0.990338  0  0  -0.0200414  0.0161034  -0.0161035  0.0140185  0  0  0  0.134214  -0.134213  0.133815  0  0  0  0  0  0  0  0  0 
1704462189.682218000  -2.50983  -0.290175  0.99041  0  0  -0.0200414  0.0167617  -0.0167618  0.014676  0  0  0  0.129066  -0.129066  0.129143  0  0  0  0  0  0  0  0  0 
1704462189.687215000  -2.50974  -0.29026  0.990485  0  0  -0.0200414  0.0173937  -0.0173937  0.0153096  0  0  0  0.123669  -0.123669  0.124221  0  0  0  0  0  0  0  0  0 
1704462189.692217000  -2.50965  -0.290348  0.990563  0  0  -0.0200414  0.017998  -0.017998  0.0159178  0  0  0  0.118022  -0.118022  0.119049  0  0  0  0  0  0  0  0  0 
1704462189.697213000  -2.50956  -0.29044  0.990644  0  0  -0.0200414  0.0185735  -0.0185735  0.0164996  0  0  0  0.112125  -0.112124  0.113626  0  0  0  0  0  0  0  0  0 
1704462189.702214000  -2.50947  -0.290534  0.990728  0  0  -0.0200414  0.0191188  -0.0191189  0.0170537  0  0  0  0.105977  -0.105977  0.107954  0  0  0  0  0  0  0  0  0 
1704462189.707212000  -2.50937  -0.290631  0.990815  0  0  -0.0200414  0.0196328  -0.0196329  0.0175787  0  0  0  0.09958  -0.0995799  0.102032  0  0  0  0  0  0  0  0  0 
1704462189.712215000  -2.50927  -0.29073  0.990904  0  0  -0.0200414  0.0201142  -0.0201142  0.0180736  0  0  0  0.0929328  -0.0929326  0.09586  0  0  0  0  0  0  0  0  0 
1704462189.717221000  -2.50917  -0.290832  0.990995  0  0  -0.0200414  0.0205617  -0.0205618  0.0185369  0  0  0  0.0860355  -0.0860353  0.0894379  0  0  0  0  0  0  0  0  0 
1704462189.722224000  -2.50906  -0.290936  0.991089  0  0  -0.0200414  0.0209742  -0.0209742  0.0189675  0  0  0  0.0788883  -0.0788881  0.0827658  0  0  0  0  0  0  0  0  0 
1704462189.727221000  -2.50896  -0.291042  0.991185  0  0  -0.0200414  0.0213502  -0.0213502  0.0193642  0  0  0  0.071491  -0.0714908  0.0758437  0  0  0  0  0  0  0  0  0 
1704462189.732219000  -2.50885  -0.291149  0.991283  0  0  -0.0200414  0.0216886  -0.0216887  0.0197256  0  0  0  0.0638438  -0.0638435  0.0686716  0  0  0  0  0  0  0  0  0 
1704462189.737217000  -2.50874  -0.291259  0.991382  0  0  -0.0200414  0.0219882  -0.0219883  0.0200505  0  0  0  0.0559465  -0.0559463  0.0612495  0  0  0  0  0  0  0  0  0 
1704462189.742225000  -2.50863  -0.291369  0.991483  0  0  -0.0200414  0.0222477  -0.0222477  0.0203376  0  0  0  0.0477992  -0.047799  0.0535774  0  0  0  0  0  0  0  0  0 
1704462189.747217000  -2.50852  -0.291481  0.991586  0  0  -0.0200414  0.0224658  -0.0224658  0.0205858  0  0  0  0.039402  -0.0394017  0.0456552  0  0  0  0  0  0  0  0  0 
1704462189.752218000  -2.50841  -0.291594  0.991689  0  0  -0.0200414  0.0226413  -0.0226413  0.0207938  0  0  0  0.0307547  -0.0307545  0.0374831  0  0  0  0  0  0  0  0  0 
1704462189.757219000  -2.50829  -0.291707  0.991793  0  0  -0.0200414  0.0227729  -0.022773  0.0209602  0  0  0  0.0218575  -0.0218572  0.029061  0  0  0  0  0  0  0  0  0 
1704462189.762223000  -2.50818  -0.291821  0.991899  0  0  -0.0200414  0.0228595  -0.0228595  0.021084  0  0  0  0.0127102  -0.0127099  0.0203889  0  0  0  0  0  0  0  0  0 
1704462189.767218000  -2.50806  -0.291936  0.992004  0  0  -0.0200414  0.0228996  -0.0228996  0.0211637  0  0  0  0.003313  -0.0033127  0.0114668  0  0  0  0  0  0  0  0  0 
1704462189.772213000  -2.50795  -0.29205  0.99211  0  0  -0.0200414  0.0228922  -0.0228922  0.0211982  0  0  0  -0.0063343  0.0063346  0.0022947  0  0  0  0  0  0  0  0  0 
1704462189.777211000  -2.50784  -0.292165  0.992216  0  0  -0.0200414  0.0228359  -0.0228359  0.0211862  0  0  0  -0.0162315  0.0162318  -0.0071274  0  0  0  0  0  0  0  0  0 
1704462189.782217000  -2.50772  -0.292279  0.992322  0  0  -0.0200414  0.0227294  -0.0227294  0.0211265  0  0  0  -0.0263788  0.0263791  -0.0167996  0  0  0  0  0  0  0  0  0 
1704462189.787210000  -2.50761  -0.292392  0.992427  0  0  -0.0200414  0.0225717  -0.0225717  0.0210178  0  0  0  -0.0367761  0.0367764  -0.0267217  0  0  0  0  0  0  0  0  0 
1704462189.792207000  -2.5075  -0.292504  0.992532  0  0  -0.0200414  0.0223613  -0.0223613  0.0208589  0  0  0  -0.0474233  0.0474236  -0.0368938  0  0  0  0  0  0  0  0  0 
1704462189.797212000  -2.50738  -0.292615  0.992636  0  0  -0.0200414  0.022097  -0.022097  0.0206485  0  0  0  -0.0583206  0.0583209  -0.0473159  0  0  0  0  0  0  0  0  0 
1704462189.802207000  -2.50727  -0.292725  0.992738  0  0  -0.0200414  0.0217776  -0.0217776  0.0203853  0  0  0  -0.0694678  0.0694682  -0.057988  0  0  0  0  0  0  0  0  0 
1704462189.807206000  -2.50717  -0.292833  0.992839  0  0  -0.0200414  0.0214019  -0.0214019  0.0200682  0  0  0  -0.0808651  0.0808654  -0.0689101  0  0  0  0  0  0  0  0  0 
1704462189.812214000  -2.50706  -0.292939  0.992939  0  0  -0.0200414  0.0209686  -0.0209686  0.0196958  0  0  0  -0.0925123  0.0925127  -0.0800823  0  0  0  0  0  0  0  0  0 
1704462189.817223000  -2.50696  -0.293043  0.993036  0  0  -0.0200414  0.0204764  -0.0204764  0.0192669  0  0  0  -0.10441  0.10441  -0.0915044  0  0  0  0  0  0  0  0  0 
1704462189.822223000  -2.50686  -0.293144  0.993132  0  0  -0.0200414  0.0199241  -0.0199241  0.0187803  0  0  0  -0.116557  0.116557  -0.103176  0  0  0  0  0  0  0  0  0 
1704462189.827219000  -2.50676  -0.293242  0.993224  0  0  -0.0200414  0.0193104  -0.0193104  0.0182348  0  0  0  -0.128954  0.128954  -0.115099  0  0  0  0  0  0  0  0  0 
1704462189.832213000  -2.50666  -0.293337  0.993314  0  0  -0.0200414  0.0186341  -0.0186341  0.0176289  0  0  0  -0.141601  0.141602  -0.127271  0  0  0  0  0  0  0  0  0 
1704462189.837206000  -2.50657  -0.293428  0.9934  0  0  -0.0200414  0.017894  -0.0178939  0.0169616  0  0  0  -0.154499  0.154499  -0.139693  0  0  0  0  0  0  0  0  0 
1704462189.842230000  -2.50648  -0.293516  0.993483  0  0  -0.0200414  0.0170887  -0.0170887  0.0162316  0  0  0  -0.167646  0.167646  -0.152365  0  0  0  0  0  0  0  0  0 
1704462189.847216000  -2.5064  -0.293599  0.993562  0  0  -0.0200414  0.0162171  -0.0162171  0.0154376  0  0  0  -0.181043  0.181044  -0.165287  0  0  0  0  0  0  0  0  0 
1704462189.852212000  -2.50632  -0.293678  0.993638  0  0  -0.0200414  0.0152778  -0.0152778  0.0145783  0  0  0  -0.19469  0.194691  -0.178459  0  0  0  0  0  0  0  0  0 
1704462189.857211000  -2.50625  -0.293752  0.993708  0  0  -0.0200414  0.0142698  -0.0142697  0.0136526  0  0  0  -0.208588  0.208588  -0.191881  0  0  0  0  0  0  0  0  0 
1704462189.862217000  -2.50618  -0.29382  0.993774  0  0  -0.0200414  0.0131916  -0.0131915  0.0126591  0  0  0  -0.222735  0.222735  -0.205553  0  0  0  0  0  0  0  0  0 
1704462189.867208000  -2.50612  -0.293883  0.993835  0  0  -0.0200414  0.012042  -0.012042  0.0115966  0  0  0  -0.237132  0.237133  -0.219476  0  0  0  0  0  0  0  0  0 
1704462189.872211000  -2.50606  -0.293941  0.99389  0  0  -0.0200414  0.0108198  -0.0108198  0.0104639  0  0  0  -0.251767  0.251768  -0.233648  0  0  0  0  0  0  0  0  0 
1704462189.877209000  -2.50601  -0.293991  0.993939  0  0  -0.0200414  0.0095245  -0.0095245  0.0092597  0  0  0  -0.266304  0.266305  -0.248052  0  0  0  0  0  0  0  0  0 
1704462189.882213000  -2.50596  -0.294036  0.993982  0  0  -0.0200414  0.0081572  -0.0081572  0.0079837  0  0  0  -0.280591  0.280592  -0.262339  0  0  0  0  0  0  0  0  0 
1704462189.887210000  -2.50593  -0.294073  0.994019  0  0  -0.0200414  0.006719  -0.006719  0.0066368  0  0  0  -0.294628  0.294629  -0.276377  0  0  0  0  0  0  0  0  0 
1704462189.892208000  -2.5059  -0.294103  0.994049  0  0  -0.0200414  0.0052113  -0.0052113  0.0052203  0  0  0  -0.308415  0.308416  -0.290164  0  0  0  0  0  0  0  0  0 
1704462189.897206000  -2.50588  -0.294125  0.994071  0  0  -0.0200414  0.0036353  -0.0036353  0.0037355  0  0  0  -0.321952  0.321952  -0.303701  0  0  0  0  0  0  0  0  0 
1704462189.902218000  -2.50586  -0.294139  0.994086  0  0  -0.0200414  0.0019922  -0.0019922  0.0021837  0  0  0  -0.335239  0.335239  -0.316989  0  0  0  0  0  0  0  0  0 
1704462189.907206000  -2.50586  -0.294145  0.994093  0  0  -0.0200414  0.0002833  -0.0002833  0.0005661  0  0  0  -0.348276  0.348276  -0.330026  0  0  0  0  0  0  0  0  0 
1704462189.912208000  -2.50586  -0.294142  0.994091  0  0  -0.0200414  -0.0014901  0.0014901  -0.0011161  0  0  0  -0.361063  0.361063  -0.342814  0  0  0  0  0  0  0  0  0 
1704462189.917206000  -2.50587  -0.29413  0.994081  0  0  -0.0200414  -0.0033269  0.0033269  -0.0028617  0  0  0  -0.3736  0.3736  -0.355351  0  0  0  0  0  0  0  0  0 
1704462189.922221000  -2.50589  -0.294108  0.994063  0  0  -0.0200414  -0.0052257  0.0052257  -0.0046692  0  0  0  -0.385887  0.385887  -0.367639  0  0  0  0  0  0  0  0  0 
1704462189.927208000  -2.50592  -0.294077  0.994035  0  0  -0.0200414  -0.0071853  0.0071854  -0.0065376  0  0  0  -0.397924  0.397924  -0.379676  0  0  0  0  0  0  0  0  0 
1704462189.932209000  -2.50596  -0.294036  0.993997  0  0  -0.0200414  -0.0092045  0.0092046  -0.0084656  0  0  0  -0.409711  0.409711  -0.391464  0  0  0  0  0  0  0  0  0 
1704462189.937206000  -2.50601  -0.293985  0.99395  0  0  -0.0200414  -0.011282  0.0112821  -0.0104519  0  0  0  -0.421248  0.421248  -0.403001  0  0  0  0  0  0  0  0  0 
1704462189.942217000  -2.50608  -0.293923  0.993893  0  0  -0.0200414  -0.0134166  0.0134166  -0.0124952  0  0  0  -0.432535  0.432535  -0.414289  0  0  0  0  0  0  0  0  0 
1704462189.947209000  -2.50615  -0.293851  0.993825  0  0  -0.0200414  -0.015607  0.015607  -0.0145943  0  0  0  -0.443572  0.443572  -0.425326  0  0  0  0  0  0  0  0  0 
1704462189.952213000  -2.50623  -0.293767  0.993746  0  0  -0.0200414  -0.0178519  0.0178519  -0.016748  0  0  0  -0.454359  0.454359  -0.436114  0  0  0  0  0  0  0  0  0 
1704462189.957204000  -2.50633  -0.293672  0.993657  0  0  -0.0200414  -0.0201501  0.0201502  -0.018955  0  0  0  -0.464896  0.464896  -0.446651  0  0  0  0  0  0  0  0  0 
1704462189.962213000  -2.50643  -0.293566  0.993557  0  0  -0.0200414  -0.0225004  0.0225005  -0.0212141  0  0  0  -0.475183  0.475183  -0.456939  0  0  0  0  0  0  0  0  0 
1704462189.967206000  -2.50655  -0.293447  0.993445  0  0  -0.0200414  -0.0249015  0.0249016  -0.023524  0  0  0  -0.48522  0.48522  -0.466976  0  0  0  0  0  0  0  0  0 
1704462189.972205000  -2.50668  -0.293317  0.993322  0  0  -0.0200414  -0.0273522  0.0273523  -0.0258835  0  0  0  -0.495006  0.495007  -0.476764  0  0  0  0  0  0  0  0  0 
1704462189.977205000  -2.50683  -0.293174  0.993186  0  0  -0.0200414  -0.0298512  0.0298512  -0.0282912  0  0  0  -0.504543  0.504544  -0.486301  0  0  0  0  0  0  0  0  0 
1704462189.982210000  -2.50698  -0.293018  0.993039  0  0  -0.0200414  -0.0323972  0.0323973  -0.0307461  0  0  0  -0.51383  0.513831  -0.495588  0  0  0  0  0  0  0  0  0 
1704462189.987206000  -2.50715  -0.29285  0.992879  0  0  -0.0200414  -0.0349891  0.0349891  -0.0332467  0  0  0  -0.522867  0.522868  -0.504626  0  0  0  0  0  0  0  0  0 
1704462189.992213000  -2.50733  -0.292668  0.992706  0  0  -0.0200414  -0.0376255  0.0376255  -0.0357919  0  0  0  -0.531654  0.531655  -0.513413  0  0  0  0  0  0  0  0  0 
1704462189.997208000  -2.50753  -0.292473  0.992521  0  0  -0.0200414  -0.0403052  0.0403053  -0.0383804  0  0  0  -0.540191  0.540192  -0.521951  0  0  0  0  0  0  0  0  0 
1704462190.002217000  -2.50774  -0.292265  0.992322  0  0  -0.0200414  -0.043027  0.043027  -0.041011  0  0  0  -0.548478  0.548478  -0.530238  0  0  0  0  0  0  0  0  0 
1704462190.007211000  -2.50796  -0.292043  0.99211  0  0  -0.0200414  -0.0457896  0.0457896  -0.0436824  0  0  0  -0.556515  0.556515  -0.538276  0  0  0  0  0  0  0  0  0 
1704462190.012213000  -2.50819  -0.291807  0.991885  0  0  -0.0200414  -0.0485917  0.0485918  -0.0463933  0  0  0  -0.564302  0.564302  -0.546063  0  0  0  0  0  0  0  0  0 
1704462190.017208000  -2.50844  -0.291557  0.991646  0  0  -0.0200414  -0.0514322  0.0514322  -0.0491426  0  0  0  -0.571839  0.571839  -0.553601  0  0  0  0  0  0  0  0  0 
1704462190.022215000  -2.50871  -0.291293  0.991394  0  0  -0.0200414  -0.0543097  0.0543097  -0.0519289  0  0  0  -0.579126  0.579126  -0.560888  0  0  0  0  0  0  0  0  0 
1704462190.027212000  -2.50899  -0.291014  0.991127  0  0  -0.0200414  -0.057223  0.0572231  -0.0547511  0  0  0  -0.586163  0.586163  -0.567926  0  0  0  0  0  0  0  0  0 
1704462190.032210000  -2.50928  -0.29072  0.990846  0  0  -0.0200414  -0.0601709  0.060171  -0.0576078  0  0  0  -0.59295  0.59295  -0.574713  0  0  0  0  0  0  0  0  0 
1704462190.037210000  -2.50959  -0.290412  0.990551  0  0  -0.0200414  -0.0631521  0.0631522  -0.0604978  0  0  0  -0.599487  0.599487  -0.581251  0  0  0  0  0  0  0  0  0 
1704462190.042214000  -2.50991  -0.290089  0.990241  0  0  -0.0200414  -0.0661653  0.0661654  -0.0634199  0  0  0  -0.605774  0.605774  -0.587538  0  0  0  0  0  0  0  0  0 
1704462190.047213000  -2.51025  -0.28975  0.989917  0  0  -0.0200414  -0.0692094  0.0692095  -0.0663728  0  0  0  -0.611811  0.611811  -0.593576  0  0  0  0  0  0  0  0  0 
1704462190.052206000  -2.5106  -0.289397  0.989577  0  0  -0.0200414  -0.072283  0.0722831  -0.0693552  0  0  0  -0.617598  0.617598  -0.599363  0  0  0  0  0  0  0  0  0 
1704462190.057202000  -2.51097  -0.289027  0.989223  0  0  -0.0200414  -0.075385  0.0753851  -0.072366  0  0  0  -0.623135  0.623135  -0.604901  0  0  0  0  0  0  0  0  0 
1704462190.062211000  -2.51136  -0.288643  0.988854  0  0  -0.0200414  -0.078514  0.078514  -0.0754038  0  0  0  -0.628422  0.628422  -0.610188  0  0  0  0  0  0  0  0  0 
1704462190.067209000  -2.51176  -0.288242  0.988469  0  0  -0.0200414  -0.0816688  0.0816689  -0.0784674  0  0  0  -0.633459  0.633459  -0.615225  0  0  0  0  0  0  0  0  0 
1704462190.072208000  -2.51217  -0.287826  0.988069  0  0  -0.0200414  -0.0848481  0.0848482  -0.0815556  0  0  0  -0.638246  0.638246  -0.620013  0  0  0  0  0  0  0  0  0 
1704462190.077230000  -2.51261  -0.287394  0.987653  0  0  -0.0200414  -0.0880508  0.0880509  -0.0846671  0  0  0  -0.642783  0.642783  -0.62455  0  0  0  0  0  0  0  0  0 
1704462190.082202000  -2.51305  -0.286945  0.987222  0  0  -0.0200414  -0.0912755  0.0912756  -0.0878007  0  0  0  -0.64707  0.64707  -0.628838  0  0  0  0  0  0  0  0  0 
1704462190.087207000  -2.51352  -0.286481  0.986775  0  0  -0.0200414  -0.0945211  0.0945212  -0.0909551  0  0  0  -0.651107  0.651107  -0.632875  0  0  0  0  0  0  0  0  0 
1704462190.092224000  -2.514  -0.286  0.986313  0  0  -0.0200414  -0.0977862  0.0977863  -0.0941291  0  0  0  -0.654894  0.654894  -0.636663  0  0  0  0  0  0  0  0  0 
1704462190.097206000  -2.5145  -0.285503  0.985834  0  0  -0.0200414  -0.10107  0.10107  -0.0973213  0  0  0  -0.65843  0.658431  -0.6402  0  0  0  0  0  0  0  0  0 
1704462190.102223000  -2.51501  -0.284989  0.985339  0  0  -0.0200414  -0.10437  0.10437  -0.100531  0  0  0  -0.661717  0.661718  -0.643488  0  0  0  0  0  0  0  0  0 
1704462190.107211000  -2.51554  -0.284459  0.984829  0  0  -0.0200414  -0.107686  0.107686  -0.103756  0  0  0  -0.664754  0.664754  -0.646525  0  0  0  0  0  0  0  0  0 
1704462190.112206000  -2.51609  -0.283913  0.984302  0  0  -0.0200414  -0.111017  0.111017  -0.106995  0  0  0  -0.667541  0.667541  -0.649313  0  0  0  0  0  0  0  0  0 
1704462190.117204000  -2.51665  -0.283349  0.983759  0  0  -0.0200414  -0.114361  0.114361  -0.110248  0  0  0  -0.670078  0.670078  -0.65185  0  0  0  0  0  0  0  0  0 
1704462190.122219000  -2.51723  -0.282769  0.983199  0  0  -0.0200414  -0.117718  0.117718  -0.113514  0  0  0  -0.672365  0.672365  -0.654138  0  0  0  0  0  0  0  0  0 
1704462190.127227000  -2.51783  -0.282172  0.982624  0  0  -0.0200414  -0.121085  0.121085  -0.116789  0  0  0  -0.674402  0.674402  -0.656175  0  0  0  0  0  0  0  0  0 
1704462190.132209000  -2.51844  -0.281558  0.982031  0  0  -0.0200414  -0.124461  0.124461  -0.120075  0  0  0  -0.676189  0.676189  -0.657963  0  0  0  0  0  0  0  0  0 
1704462190.137218000  -2.51907  -0.280927  0.981423  0  0  -0.0200414  -0.127846  0.127846  -0.123369  0  0  0  -0.677726  0.677726  -0.6595  0  0  0  0  0  0  0  0  0 
1704462190.142216000  -2.51972  -0.28028  0.980798  0  0  -0.0200414  -0.131238  0.131238  -0.126669  0  0  0  -0.679013  0.679013  -0.660788  0  0  0  0  0  0  0  0  0 
1704462190.147208000  -2.52039  -0.279615  0.980156  0  0  -0.0200414  -0.134636  0.134636  -0.129976  0  0  0  -0.68005  0.68005  -0.661825  0  0  0  0  0  0  0  0  0 
1704462190.152206000  -2.52107  -0.278933  0.979498  0  0  -0.0200414  -0.138038  0.138038  -0.133287  0  0  0  -0.680837  0.680837  -0.662612  0  0  0  0  0  0  0  0  0 
1704462190.157219000  -2.52177  -0.278234  0.978823  0  0  -0.0200414  -0.141444  0.141444  -0.136602  0  0  0  -0.681374  0.681374  -0.66315  0  0  0  0  0  0  0  0  0 
1704462190.162212000  -2.52248  -0.277519  0.978132  0  0  -0.0200414  -0.144851  0.144852  -0.139918  0  0  0  -0.681661  0.681661  -0.663437  0  0  0  0  0  0  0  0  0 
1704462190.167214000  -2.52303  -0.276973  0.977682  0  0  -0.0200414  -0.147144  0.147144  -0.142065  0  0  0  -0.681713  0.681713  -0.66349  0  0  0  0  0  0  0  0  0 
1704462190.172215000  -2.52377  -0.276229  0.976963  0  0  -0.0205409  -0.150552  0.150553  -0.145382  0  0  0  -0.681588  0.681838  -0.663365  0  0  0  0  0  0  0  0  0 
1704462190.177214000  -2.52453  -0.275468  0.976228  0  0  -0.0210467  -0.153959  0.153963  -0.148698  0  0  0  -0.681213  0.682213  -0.66299  0  0  0  0  0  0  0  0  0 
1704462190.182212000  -2.52531  -0.274689  0.975476  0  0  -0.0215588  -0.157364  0.157375  -0.152012  0  0  0  -0.680588  0.682838  -0.662365  0  0  0  0  0  0  0  0  0 
1704462190.187215000  -2.52611  -0.273894  0.974708  0  0  -0.0220771  -0.160765  0.160791  -0.155321  0  0  0  -0.679713  0.683713  -0.66149  0  0  0  0  0  0  0  0  0 
1704462190.192205000  -2.52692  -0.273082  0.973923  0  0  -0.0226017  -0.164161  0.164213  -0.158626  0  0  0  -0.678588  0.684838  -0.660365  0  0  0  0  0  0  0  0  0 
1704462190.197212000  -2.52775  -0.272252  0.973122  0  0  -0.0231325  -0.16755  0.16764  -0.161925  0  0  0  -0.677213  0.686213  -0.65899  0  0  0  0  0  0  0  0  0 
1704462190.202227000  -2.52859  -0.271405  0.972304  0  0  -0.0236695  -0.170932  0.171075  -0.165216  0  0  0  -0.675588  0.687838  -0.657365  0  0  0  0  0  0  0  0  0 
1704462190.207208000  -2.52946  -0.270541  0.97147  0  0  -0.0242129  -0.174306  0.174519  -0.168498  0  0  0  -0.673713  0.689713  -0.65549  0  0  0  0  0  0  0  0  0 
1704462190.212212000  -2.53034  -0.26966  0.970619  0  0  -0.0247624  -0.177669  0.177973  -0.17177  0  0  0  -0.671588  0.691838  -0.653365  0  0  0  0  0  0  0  0  0 
1704462190.217204000  -2.53123  -0.268761  0.969752  0  0  -0.0253182  -0.181021  0.181438  -0.175031  0  0  0  -0.669213  0.694213  -0.65099  0  0  0  0  0  0  0  0  0 
1704462190.222218000  -2.53215  -0.267845  0.968869  0  0  -0.0258803  -0.184361  0.184915  -0.17828  0  0  0  -0.666588  0.696838  -0.648365  0  0  0  0  0  0  0  0  0 
1704462190.227208000  -2.53308  -0.266912  0.967969  0  0  -0.0264486  -0.187687  0.188407  -0.181514  0  0  0  -0.663713  0.699713  -0.64549  0  0  0  0  0  0  0  0  0 
1704462190.232208000  -2.53402  -0.265961  0.967054  0  0  -0.0270232  -0.190998  0.191913  -0.184734  0  0  0  -0.660588  0.702838  -0.642365  0  0  0  0  0  0  0  0  0 
1704462190.237206000  -2.53499  -0.264993  0.966122  0  0  -0.027604  -0.194292  0.195435  -0.187937  0  0  0  -0.657213  0.706213  -0.63899  0  0  0  0  0  0  0  0  0 
1704462190.242212000  -2.53597  -0.264007  0.965174  0  0  -0.028191  -0.197569  0.198975  -0.191123  0  0  0  -0.653588  0.709838  -0.635365  0  0  0  0  0  0  0  0  0 
1704462190.247219000  -2.53696  -0.263003  0.964211  0  0  -0.0287843  -0.200828  0.202534  -0.194291  0  0  0  -0.649713  0.713713  -0.63149  0  0  0  0  0  0  0  0  0 
1704462190.252203000  -2.53797  -0.261982  0.963231  0  0  -0.0293839  -0.204066  0.206113  -0.197438  0  0  0  -0.645588  0.717838  -0.627365  0  0  0  0  0  0  0  0  0 
1704462190.257206000  -2.539  -0.260942  0.962236  0  0  -0.0299897  -0.207283  0.209713  -0.200564  0  0  0  -0.641213  0.722213  -0.62299  0  0  0  0  0  0  0  0  0 
1704462190.262211000  -2.54005  -0.259884  0.961226  0  0  -0.0306018  -0.210478  0.213336  -0.203667  0  0  0  -0.636588  0.726838  -0.618365  0  0  0  0  0  0  0  0  0 
1704462190.267217000  -2.54111  -0.258809  0.9602  0  0  -0.0312201  -0.213649  0.216982  -0.206747  0  0  0  -0.631713  0.731713  -0.61349  0  0  0  0  0  0  0  0  0 
1704462190.272212000  -2.54218  -0.257715  0.959158  0  0  -0.0318446  -0.216794  0.220653  -0.209802  0  0  0  -0.626588  0.736838  -0.608365  0  0  0  0  0  0  0  0  0 
1704462190.277215000  -2.54328  -0.256602  0.958102  0  0  -0.0324755  -0.219914  0.224351  -0.21283  0  0  0  -0.621213  0.742213  -0.60299  0  0  0  0  0  0  0  0  0 
1704462190.282220000  -2.54438  -0.255471  0.95703  0  0  -0.0331125  -0.223006  0.228076  -0.215831  0  0  0  -0.615588  0.747831  -0.597365  0  0  0  0  0  0  0  0  0 
1704462190.287204000  -2.54551  -0.254321  0.955943  0  0  -0.0337558  -0.226069  0.231829  -0.218804  0  0  0  -0.609713  0.753368  -0.59149  0  0  0  0  0  0  0  0  0 
1704462190.292219000  -2.54664  -0.253153  0.954842  0  0  -0.0344054  -0.229103  0.235609  -0.221746  0  0  0  -0.603588  0.758655  -0.585365  0  0  0  0  0  0  0  0  0 
1704462190.297225000  -2.5478  -0.251965  0.953726  0  0  -0.0350612  -0.232105  0.239415  -0.224657  0  0  0  -0.597213  0.763692  -0.57899  0  0  0  0  0  0  0  0  0 
1704462190.302231000  -2.54896  -0.250759  0.952596  0  0  -0.0357233  -0.235075  0.243245  -0.227535  0  0  0  -0.590588  0.768479  -0.572365  0  0  0  0  0  0  0  0  0 
1704462190.307211000  -2.55015  -0.249533  0.951451  0  0  -0.0363916  -0.23801  0.247099  -0.23038  0  0  0  -0.583713  0.773016  -0.56549  0  0  0  0  0  0  0  0  0 
1704462190.312207000  -2.55134  -0.248288  0.950292  0  0  -0.0370661  -0.240911  0.250975  -0.23319  0  0  0  -0.576588  0.777303  -0.558365  0  0  0  0  0  0  0  0  0 
1704462190.317206000  -2.55256  -0.247023  0.949119  0  0  -0.0377469  -0.243776  0.254872  -0.235963  0  0  0  -0.569213  0.78134  -0.55099  0  0  0  0  0  0  0  0  0 
1704462190.322218000  -2.55378  -0.245739  0.947932  0  0  -0.038434  -0.246603  0.258788  -0.238699  0  0  0  -0.561588  0.785127  -0.543365  0  0  0  0  0  0  0  0  0 
1704462190.327219000  -2.55502  -0.244435  0.946732  0  0  -0.0391273  -0.249391  0.262723  -0.241397  0  0  0  -0.553713  0.788664  -0.53549  0  0  0  0  0  0  0  0  0 
1704462190.332210000  -2.55628  -0.243111  0.945518  0  0  -0.0398269  -0.25214  0.266674  -0.244054  0  0  0  -0.545588  0.791951  -0.527365  0  0  0  0  0  0  0  0  0 
1704462190.337207000  -2.55754  -0.241768  0.944292  0  0  -0.0405327  -0.254847  0.270642  -0.24667  0  0  0  -0.537213  0.794988  -0.51899  0  0  0  0  0  0  0  0  0 
1704462190.342217000  -2.55882  -0.240405  0.943052  0  0  -0.0412447  -0.257511  0.274624  -0.249243  0  0  0  -0.528588  0.797775  -0.510365  0  0  0  0  0  0  0  0  0 
1704462190.347205000  -2.56012  -0.239022  0.941799  0  0  -0.0419631  -0.260132  0.278619  -0.251773  0  0  0  -0.519713  0.800312  -0.50149  0  0  0  0  0  0  0  0  0 
1704462190.352212000  -2.56143  -0.237619  0.940534  0  0  -0.0426876  -0.262708  0.282627  -0.254258  0  0  0  -0.510588  0.802599  -0.492365  0  0  0  0  0  0  0  0  0 
1704462190.357208000  -2.56275  -0.236196  0.939257  0  0  -0.0434184  -0.265238  0.286645  -0.256696  0  0  0  -0.501213  0.804636  -0.48299  0  0  0  0  0  0  0  0  0 
1704462190.362238000  -2.56408  -0.234752  0.937967  0  0  -0.0441555  -0.26772  0.290672  -0.259087  0  0  0  -0.491588  0.806423  -0.473365  0  0  0  0  0  0  0  0  0 
1704462190.367207000  -2.56542  -0.233289  0.936666  0  0  -0.0448988  -0.270153  0.294709  -0.26143  0  0  0  -0.481713  0.80796  -0.46349  0  0  0  0  0  0  0  0  0 
1704462190.372208000  -2.56678  -0.231805  0.935353  0  0  -0.0456484  -0.272537  0.298752  -0.263722  0  0  0  -0.471588  0.809247  -0.453365  0  0  0  0  0  0  0  0  0 
1704462190.377212000  -2.56815  -0.230301  0.934029  0  0  -0.0464042  -0.274869  0.302801  -0.265963  0  0  0  -0.461213  0.810284  -0.44299  0  0  0  0  0  0  0  0  0 
1704462190.382212000  -2.56953  -0.228777  0.932693  0  0  -0.0471662  -0.277148  0.306854  -0.268151  0  0  0  -0.450588  0.811071  -0.432365  0  0  0  0  0  0  0  0  0 
1704462190.387208000  -2.57092  -0.227233  0.931347  0  0  -0.0479345  -0.279374  0.310911  -0.270286  0  0  0  -0.439713  0.811608  -0.42149  0  0  0  0  0  0  0  0  0 
1704462190.392232000  -2.57232  -0.225668  0.929991  0  0  -0.0487091  -0.281545  0.31497  -0.272366  0  0  0  -0.428588  0.811895  -0.410365  0  0  0  0  0  0  0  0  0 
1704462190.397229000  -2.57374  -0.224083  0.928624  0  0  -0.0494899  -0.28366  0.319029  -0.274389  0  0  0  -0.417213  0.811932  -0.39899  0  0  0  0  0  0  0  0  0 
1704462190.402238000  -2.57516  -0.222478  0.927247  0  0  -0.050277  -0.285717  0.323089  -0.276355  0  0  0  -0.405588  0.811719  -0.387365  0  0  0  0  0  0  0  0  0 
1704462190.407208000  -2.57659  -0.220852  0.92586  0  0  -0.0510703  -0.287715  0.327146  -0.278262  0  0  0  -0.393713  0.811256  -0.37549  0  0  0  0  0  0  0  0  0 
1704462190.412212000  -2.57804  -0.219206  0.924464  0  0  -0.0518698  -0.289653  0.331201  -0.28011  0  0  0  -0.381588  0.810543  -0.363365  0  0  0  0  0  0  0  0  0 
1704462190.417212000  -2.57949  -0.21754  0.923059  0  0  -0.0526757  -0.291531  0.335251  -0.281896  0  0  0  -0.369213  0.80958  -0.35099  0  0  0  0  0  0  0  0  0 
1704462190.422215000  -2.58095  -0.215854  0.921646  0  0  -0.0534877  -0.293345  0.339296  -0.283619  0  0  0  -0.356588  0.808367  -0.338365  0  0  0  0  0  0  0  0  0 
1704462190.427214000  -2.58242  -0.214147  0.920223  0  0  -0.054306  -0.295096  0.343334  -0.285279  0  0  0  -0.343713  0.806904  -0.32549  0  0  0  0  0  0  0  0  0 
1704462190.432211000  -2.5839  -0.212421  0.918793  0  0  -0.0551306  -0.296782  0.347365  -0.286874  0  0  0  -0.330588  0.805191  -0.312365  0  0  0  0  0  0  0  0  0 
1704462190.437213000  -2.58539  -0.210674  0.917355  0  0  -0.0559614  -0.298401  0.351386  -0.288402  0  0  0  -0.317213  0.803228  -0.29899  0  0  0  0  0  0  0  0  0 
1704462190.442211000  -2.58689  -0.208907  0.915909  0  0  -0.0567985  -0.299954  0.355397  -0.289863  0  0  0  -0.303588  0.801015  -0.285365  0  0  0  0  0  0  0  0  0 
1704462190.447204000  -2.58839  -0.20712  0.914456  0  0  -0.0576418  -0.301437  0.359396  -0.291255  0  0  0  -0.289713  0.798552  -0.27149  0  0  0  0  0  0  0  0  0 
1704462190.452211000  -2.5899  -0.205313  0.912996  0  0  -0.0584913  -0.30285  0.363382  -0.292578  0  0  0  -0.275588  0.795839  -0.257365  0  0  0  0  0  0  0  0  0 
1704462190.457206000  -2.59142  -0.203486  0.91153  0  0  -0.0593471  -0.304192  0.367354  -0.293829  0  0  0  -0.261213  0.792876  -0.24299  0  0  0  0  0  0  0  0  0 
1704462190.462221000  -2.59294  -0.201639  0.910058  0  0  -0.0602092  -0.305462  0.37131  -0.295007  0  0  0  -0.246588  0.789663  -0.228365  0  0  0  0  0  0  0  0  0 
1704462190.467204000  -2.59447  -0.199773  0.90858  0  0  -0.0610775  -0.306658  0.37525  -0.296112  0  0  0  -0.231713  0.7862  -0.21349  0  0  0  0  0  0  0  0  0 
1704462190.472230000  -2.59601  -0.197887  0.907097  0  0  -0.0619521  -0.307779  0.379172  -0.297142  0  0  0  -0.216588  0.782487  -0.198365  0  0  0  0  0  0  0  0  0 
1704462190.477208000  -2.59755  -0.195981  0.905609  0  0  -0.0628329  -0.308823  0.383074  -0.298095  0  0  0  -0.201213  0.778524  -0.18299  0  0  0  0  0  0  0  0  0 
1704462190.482219000  -2.5991  -0.194056  0.904117  0  0  -0.0637199  -0.30979  0.386956  -0.298971  0  0  0  -0.185588  0.774311  -0.167365  0  0  0  0  0  0  0  0  0 
1704462190.487232000  -2.60065  -0.192112  0.90262  0  0  -0.0646132  -0.310679  0.390817  -0.299768  0  0  0  -0.169713  0.769848  -0.15149  0  0  0  0  0  0  0  0  0 
1704462190.492209000  -2.6022  -0.190148  0.901119  0  0  -0.0655128  -0.311487  0.394655  -0.300486  0  0  0  -0.153588  0.765135  -0.135365  0  0  0  0  0  0  0  0  0 
1704462190.497211000  -2.60376  -0.188165  0.899615  0  0  -0.0664186  -0.312214  0.398468  -0.301122  0  0  0  -0.137213  0.760172  -0.11899  0  0  0  0  0  0  0  0  0 
1704462190.502222000  -2.60532  -0.186163  0.898108  0  0  -0.0673307  -0.312859  0.402256  -0.301675  0  0  0  -0.120588  0.754959  -0.102365  0  0  0  0  0  0  0  0  0 
1704462190.507208000  -2.60689  -0.184143  0.896598  0  0  -0.068249  -0.31342  0.406017  -0.302145  0  0  0  -0.103713  0.749496  -0.0854902  0  0  0  0  0  0  0  0  0 
1704462190.512232000  -2.60846  -0.182103  0.895087  0  0  -0.0691735  -0.313896  0.40975  -0.30253  0  0  0  -0.0865884  0.743783  -0.0683652  0  0  0  0  0  0  0  0  0 
1704462190.517209000  -2.61003  -0.180045  0.893573  0  0  -0.0701044  -0.314285  0.413454  -0.302828  0  0  0  -0.0692134  0.73782  -0.0509902  0  0  0  0  0  0  0  0  0 
1704462190.522217000  -2.6116  -0.177969  0.892058  0  0  -0.0710414  -0.314587  0.417128  -0.303039  0  0  0  -0.0515884  0.731607  -0.0333652  0  0  0  0  0  0  0  0  0 
1704462190.527205000  -2.61318  -0.175874  0.890543  0  0  -0.0719847  -0.314801  0.42077  -0.303161  0  0  0  -0.0337134  0.725144  -0.0154902  0  0  0  0  0  0  0  0  0 
1704462190.532208000  -2.61475  -0.173761  0.889027  0  0  -0.0729343  -0.314924  0.424379  -0.303194  0  0  0  -0.0155884  0.718431  0.0026348  0  0  0  0  0  0  0  0  0 
1704462190.537212000  -2.61632  -0.17163  0.887511  0  0  -0.0738901  -0.314956  0.427954  -0.303135  0  0  0  0.0027866  0.711468  0.0210098  0  0  0  0  0  0  0  0  0 
1704462190.542213000  -2.6179  -0.169482  0.885996  0  0  -0.0748522  -0.314896  0.431493  -0.302983  0  0  0  0.0214116  0.704255  0.0396348  0  0  0  0  0  0  0  0  0 
1704462190.547216000  -2.61947  -0.167315  0.884481  0  0  -0.0758205  -0.314742  0.434996  -0.302738  0  0  0  0.0402866  0.696792  0.0585098  0  0  0  0  0  0  0  0  0 
1704462190.552219000  -2.62105  -0.165132  0.882969  0  0  -0.076795  -0.314492  0.438461  -0.302398  0  0  0  0.0594116  0.689079  0.0776348  0  0  0  0  0  0  0  0  0 
1704462190.557216000  -2.62262  -0.162931  0.881458  0  0  -0.0777758  -0.314147  0.441887  -0.301961  0  0  0  0.0787866  0.681116  0.0970098  0  0  0  0  0  0  0  0  0 
1704462190.562228000  -2.62419  -0.160713  0.879949  0  0  -0.0787629  -0.313704  0.445272  -0.301427  0  0  0  0.0984116  0.672903  0.116635  0  0  0  0  0  0  0  0  0 
1704462190.567214000  -2.62575  -0.158478  0.878444  0  0  -0.0797562  -0.313163  0.448615  -0.300794  0  0  0  0.118287  0.66444  0.136507  0  0  0  0  0  0  0  0  0 
1704462190.572217000  -2.62732  -0.156227  0.876941  0  0  -0.0807558  -0.312521  0.451916  -0.300062  0  0  0  0.138412  0.655727  0.156328  0  0  0  0  0  0  0  0  0 
1704462190.577219000  -2.62888  -0.153959  0.875443  0  0  -0.0817616  -0.311778  0.455172  -0.299231  0  0  0  0.158787  0.646764  0.175899  0  0  0  0  0  0  0  0  0 
1704462190.582230000  -2.63044  -0.151675  0.873949  0  0  -0.0827736  -0.310933  0.458383  -0.298304  0  0  0  0.179412  0.637551  0.19522  0  0  0  0  0  0  0  0  0 
1704462190.587220000  -2.63199  -0.149375  0.87246  0  0  -0.083792  -0.309983  0.461547  -0.29728  0  0  0  0.200287  0.628088  0.214291  0  0  0  0  0  0  0  0  0 
1704462190.592217000  -2.63354  -0.14706  0.870977  0  0  -0.0848165  -0.308929  0.464663  -0.296161  0  0  0  0.221412  0.618375  0.233112  0  0  0  0  0  0  0  0  0 
1704462190.597218000  -2.63508  -0.144729  0.869499  0  0  -0.0858473  -0.307769  0.46773  -0.294949  0  0  0  0.242787  0.608412  0.251683  0  0  0  0  0  0  0  0  0 
1704462190.602230000  -2.63661  -0.142383  0.868027  0  0  -0.0868844  -0.306501  0.470747  -0.293645  0  0  0  0.264278  0.598199  0.270004  0  0  0  0  0  0  0  0  0 
1704462190.607208000  -2.63814  -0.140021  0.866562  0  0  -0.0879277  -0.305127  0.473712  -0.292249  0  0  0  0.285537  0.587736  0.288075  0  0  0  0  0  0  0  0  0 
1704462190.612218000  -2.63966  -0.137646  0.865105  0  0  -0.0889773  -0.303646  0.476624  -0.290764  0  0  0  0.306547  0.577023  0.305896  0  0  0  0  0  0  0  0  0 
