ts fx fy fz tx ty tz exfx exfy exfz extx exty extz xd yd zd rolld pitchd yawd vxd vyd vzd wxd wyd wzd axd ayd azd e_x e_y e_z e_vx e_vy e_vz e_rx e_ry e_rz e_wx e_wy e_wz
1704462188.801022000  0  0  11.5149  0.0806299  -0.155975  0.018528  nan  nan  nan  nan  nan  nan  -2.5  -0.3  1  0.0199082  -0.0349736  -0.000696213  0  0  0  0  0  0  0  0  0  0.0224759  0.0058161  -0.0145769  -0.00913163  0.0107724  0.00450521  -0.0208886  0.0369192  -0.0245242  0.0442371  -0.0466127  0.0139524 
1704462188.805044000  0  0  11.5296  0.0766455  -0.15152  0.0237438  nan  nan  nan  nan  nan  nan  -2.5  -0.3  1  0.0199529  -0.0347734  -0.000693784  0  0  0  0  0  0  0  0  0  0.0224419  0.00585812  -0.0145772  -0.0092434  0.0107608  0.00349547  -0.0206798  0.0364485  -0.0251072  0.051247  -0.051802  -0.0359454 
1704462188.809990000  0  0  11.5597  0.087649  -0.145457  0.0207319  nan  nan  nan  nan  nan  nan  -2.5  -0.3  1  0.0199917  -0.0358865  -0.000717372  0  0  0  0  0  0  0  0  0  0.0225888  0.00581731  -0.0145648  -0.00811451  0.0109633  0.00139242  -0.0208361  0.0369227  -0.0249739  0.0271946  -0.0713122  -0.00539927 
1704462188.815339000  0  0  11.5362  0.0985204  -0.142947  0.0184829  nan  nan  nan  nan  nan  nan  -2.5  -0.3  1  0.020666  -0.0354283  -0.000732113  0  0  0  0  0  0  0  0  0  0.0225907  0.00585238  -0.0145289  -0.00876421  0.0116519  0.00297168  -0.0216211  0.0360494  -0.0246776  0.0104745  -0.0674443  0.0157336 
1704462188.820051000  0  0  11.4659  0.094341  -0.114441  0.0225411  nan  nan  nan  nan  nan  nan  -2.5  -0.3  1  0.0202416  -0.0339063  -0.00068628  0  0  0  0  0  0  0  0  0  0.0225345  0.00589752  -0.0144745  -0.0107389  0.010884  0.00778986  -0.0210916  0.0337137  -0.0251114  0.0143594  -0.108192  -0.0232582 
1704462188.825460000  0  0  11.5923  0.0918163  -0.121749  0.0219756  nan  nan  nan  nan  nan  nan  -2.5  -0.3  1  0.0203697  -0.03648  -0.000743026  0  0  0  0  0  0  0  0  0  0.0226092  0.00590344  -0.0144962  -0.00731573  0.0112928  -0.00093821  -0.0210566  0.0355962  -0.0251887  0.0198872  -0.112079  -0.0166525 
1704462188.830041000  0  0  11.5615  0.110694  -0.136296  0.0185521  nan  nan  nan  nan  nan  nan  -2.5  -0.3  1  0.0214076  -0.0350149  -0.000749546  0  0  0  0  0  0  0  0  0  0.0225579  0.00596309  -0.0144722  -0.00909903  0.0123539  0.00114774  -0.0223134  0.0341952  -0.0248668  -0.0103342  -0.0623312  0.0166162 
1704462188.837045000  0  0  11.507  0.0865539  -0.105683  0.0213053  nan  nan  nan  nan  nan  nan  -2.5  -0.3  1  0.0199567  -0.0347045  -0.000692541  0  0  0  0  0  0  0  0  0  0.0225924  0.00596458  -0.0143969  -0.00976035  0.0104707  0.0048403  -0.0205028  0.0327141  -0.02511  0.0260409  -0.11756  -0.0102718 
1704462188.842045000  0  0  11.5978  0.103704  -0.145711  0.0198699  nan  nan  nan  nan  nan  nan  -2.5  -0.3  1  0.0210861  -0.0359665  -0.000758343  0  0  0  0  0  0  0  0  0  0.0226493  0.00598685  -0.0144282  -0.00801421  0.0119871  -0.00142374  -0.0217101  0.0341895  -0.0250541  -0.00068415  -0.0401936  0.00435033 
1704462188.847054000  0  0  11.5054  0.125789  -0.146032  0.0135585  nan  nan  nan  nan  nan  nan  -2.5  -0.3  1  0.0214683  -0.0335633  -0.000720524  0  0  0  0  0  0  0  0  0  0.0225812  0.00604561  -0.0143693  -0.01112  0.0121127  0.00487495  -0.0225659  0.0319437  -0.0242932  -0.042905  -0.0143629  0.064258 
1704462188.852031000  0  0  11.5206  0.0848028  -0.125493  0.019989  nan  nan  nan  nan  nan  nan  -2.5  -0.3  1  0.0201128  -0.034075  -0.000685303  0  0  0  0  0  0  0  0  0  0.0226472  0.00601943  -0.0143312  -0.0106007  0.0105627  0.00378469  -0.0205371  0.031766  -0.0247995  0.0305289  -0.0605293  0.000929446 
1704462188.857007000  0  0  11.5776  0.0876943  -0.152453  0.0230773  nan  nan  nan  nan  nan  nan  -2.5  -0.3  1  0.0212318  -0.035092  -0.000745024  0  0  0  0  0  0  0  0  0  0.0226111  0.00608437  -0.0143465  -0.00907063  0.0118963  -0.000155116  -0.0214691  0.0330171  -0.0251666  0.0341581  -0.0112946  -0.0284289 
1704462188.862992000  0  0  11.475  0.116324  -0.163855  0.0129784  nan  nan  nan  nan  nan  nan  -2.5  -0.3  1  0.0208432  -0.0333149  -0.000694362  0  0  0  0  0  0  0  0  0  0.0225782  0.00612105  -0.0143169  -0.0115224  0.0111166  0.0068981  -0.0216401  0.0318436  -0.024099  -0.0310538  0.0285407  0.0687058 
1704462188.866977000  0  0  11.4896  0.0800366  -0.154554  0.0179016  nan  nan  nan  nan  nan  nan  -2.5  -0.3  1  0.0193193  -0.0343873  -0.000664291  0  0  0  0  0  0  0  0  0  0.0228268  0.00600204  -0.0142148  -0.0107464  0.00957821  0.00571401  -0.0195411  0.0324771  -0.0245449  0.030581  -0.000339789  0.0207173 
1704462188.873049000  0  0  11.5296  0.07242  -0.17823  0.0251155  nan  nan  nan  nan  nan  nan  -2.5  -0.3  1  0.0202577  -0.0364093  -0.000737504  0  0  0  0  0  0  0  0  0  0.0227928  0.00607256  -0.0142112  -0.00806563  0.0106339  0.00292674  -0.0199932  0.0348189  -0.0254496  0.0534851  0.0290161  -0.0474578 
1704462188.877033000  0  0  11.5218  0.0911451  -0.191483  0.0159121  nan  nan  nan  nan  nan  nan  -2.5  -0.3  1  0.0199868  -0.0355555  -0.000710587  -2e-07  2e-07  -2e-07  0  0  0  -0.000125  0.000125  -0.000125  0.0227682  0.00610214  -0.0142146  -0.00909021  0.0102375  0.00344995  -0.0199719  0.0344784  -0.0246552  0.00934801  0.0638881  0.042584 
1704462188.882031000  0  0  11.4959  0.0656137  -0.174629  0.0214887  nan  nan  nan  nan  nan  nan  -2.5  -0.3  1  0.0200194  -0.034419  -0.000689005  -1.7e-06  1.7e-06  -1.7e-06  0  0  0  -0.0005  0.0005  -0.0005  0.0227112  0.00615238  -0.0141817  -0.0104786  0.010153  0.00516821  -0.0192997  0.0333316  -0.0251088  0.0616983  0.0371827  -0.0122116 
1704462188.886998000  0  0  11.4991  0.0466683  -0.184462  0.0258219  nan  nan  nan  nan  nan  nan  -2.5  -0.3  1  0.0196374  -0.0367287  -0.000721186  -5.6e-06  5.6e-06  -5.6e-06  0  0  0  -0.001125  0.001125  -0.001125  0.0227826  0.00614969  -0.0141424  -0.00790836  0.00977658  0.00483463  -0.018358  0.0356719  -0.025703  0.0955981  0.0340993  -0.0527304 
1704462188.892047000  0  0  11.5413  0.0685884  -0.207544  0.01949  nan  nan  nan  nan  nan  nan  -2.5  -0.3  1  0.019385  -0.0375332  -0.000727402  -1.33e-05  1.33e-05  -1.33e-05  0  0  0  -0.002  0.002  -0.002  0.0228636  0.0061423  -0.0141798  -0.00705667  0.00967924  0.00188101  -0.0183027  0.0369461  -0.025355  0.0435898  0.0739862  0.0109083 
1704462188.897047000  0  0  11.4582  0.0610676  -0.175153  0.0194486  nan  nan  nan  nan  nan  nan  -2.5  -0.3  1  0.0196612  -0.0346897  -0.000681793  -2.6e-05  2.6e-05  -2.6e-05  0  0  0  -0.003125  0.003125  -0.003125  0.0227937  0.0061926  -0.0141189  -0.0107935  0.00986457  0.00746691  -0.0181165  0.0339724  -0.0253001  0.0591432  0.0312556  0.010877 
1704462188.902047000  0  0  11.4344  0.0427278  -0.169694  0.0244321  nan  nan  nan  nan  nan  nan  -2.5  -0.3  1  0.01884  -0.0375464  -0.000706892  -4.5e-05  4.5e-05  -4.5e-05  0  0  0  -0.0045  0.0045  -0.0045  0.0228762  0.00618481  -0.0140578  -0.00779518  0.00900765  0.00892349  -0.016783  0.036288  -0.0259407  0.087247  -0.00740327  -0.0360865 
1704462188.907003000  0  0  11.5092  0.0701934  -0.196575  0.0195161  nan  nan  nan  nan  nan  nan  -2.5  -0.299999  0.999999  0.0192149  -0.0374486  -0.000718893  -7.15e-05  7.15e-05  -7.15e-05  0  0  0  -0.006125  0.006125  -0.006125  0.0228366  0.0062355  -0.0140663  -0.00772078  0.00968896  0.0035923  -0.0174006  0.0368339  -0.0255457  0.0297539  0.0495233  0.0122575 
1704462188.912051000  0  0  11.3865  0.0647072  -0.141969  0.0182045  nan  nan  nan  nan  nan  nan  -2.5  -0.299999  0.999999  0.0190223  -0.0348846  -0.00066273  -0.0001067  0.0001067  -0.0001067  0  0  0  -0.008  0.008  -0.008  0.0227842  0.00627331  -0.0140003  -0.0113872  0.00935032  0.0118734  -0.0169359  0.0334628  -0.0253187  0.0374257  -0.0408517  0.0241214 
1704462188.917005000  0  0  11.3707  0.031784  -0.132598  0.0258993  nan  nan  nan  nan  nan  nan  -2.5  -0.299998  0.999998  0.0179897  -0.0385364  -0.00069216  -0.0001519  0.0001519  -0.0001519  0  0  0  -0.010125  0.010125  -0.010125  0.0228855  0.00625534  -0.013933  -0.00756104  0.00837615  0.0127196  -0.0151614  0.0361135  -0.0262254  0.0947953  -0.092423  -0.0490964 
1704462188.923057000  0  0  11.496  0.0919787  -0.166524  0.015395  nan  nan  nan  nan  nan  nan  -2.5  -0.299997  0.999997  0.0191293  -0.0366867  -0.00070052  -0.0002083  0.0002083  -0.0002083  0  0  0  -0.0125  0.0125  -0.0125  0.0228194  0.00632628  -0.0139564  -0.00942339  0.0101158  0.00382853  -0.0172222  0.0350125  -0.0252894  -0.0233129  -0.000590546  0.0534231 
1704462188.927000000  0  0  11.4243  0.0840756  -0.129032  0.0147042  nan  nan  nan  nan  nan  nan  -2.5  -0.299996  0.999996  0.0184793  -0.0351028  -0.000647216  -0.0002773  0.0002773  -0.0002773  0  0  0  -0.015125  0.015125  -0.015125  0.0228096  0.00632751  -0.0138955  -0.0119019  0.0095036  0.00851572  -0.016498  0.0326509  -0.0250582  -0.0128721  -0.0621158  0.058721 
1704462188.932053000  0  0  11.4093  0.0499611  -0.120216  0.0257447  nan  nan  nan  nan  nan  nan  -2.50001  -0.299995  0.999995  0.0180905  -0.0376848  -0.000680049  -0.00036  0.00036  -0.00036  0  0  0  -0.018  0.018  -0.018  0.02279  0.00637469  -0.0138454  -0.00915626  0.00924173  0.0092772  -0.0153618  0.0342323  -0.0261961  0.0544194  -0.100443  -0.0477187 
1704462188.937004000  0  0  11.473  0.0835547  -0.158612  0.0189856  nan  nan  nan  nan  nan  nan  -2.50001  -0.299993  0.999993  0.0173123  -0.039011  -0.000673566  -0.0004577  0.0004577  -0.0004577  0  0  0  -0.021125  0.021125  -0.021125  0.0230343  0.00626747  -0.0137801  -0.00823569  0.00904449  0.00446144  -0.0153525  0.0358356  -0.0257232  -0.024443  -0.0283308  0.0193497 
1704462188.942046000  0  0  11.3647  0.0809046  -0.107052  0.0148318  nan  nan  nan  nan  nan  nan  -2.50001  -0.29999  0.99999  0.017006  -0.0369596  -0.000626652  -0.0005717  0.0005717  -0.0005717  0  0  0  -0.0245  0.0245  -0.0245  0.0230047  0.00628215  -0.0136935  -0.0114762  0.00885385  0.0115879  -0.0151331  0.0325646  -0.025086  -0.0206799  -0.112682  0.0576154 
1704462188.947003000  0  0  11.3244  0.0616589  -0.106539  0.026376  nan  nan  nan  nan  nan  nan  -2.50001  -0.299987  0.999987  0.0167392  -0.0383676  -0.000640446  -0.0007031  0.0007031  -0.0007031  0  0  0  -0.028125  0.028125  -0.028125  0.0229635  0.00632632  -0.0136232  -0.0102958  0.00879623  0.0140021  -0.0145085  0.0332259  -0.0263428  0.0174657  -0.121269  -0.05311 
1704462188.952049000  0  0  11.3924  0.0926358  -0.131538  0.0191401  nan  nan  nan  nan  nan  nan  -2.50002  -0.299983  0.999983  0.0163924  -0.0387005  -0.000632891  -0.0008533  0.0008533  -0.0008533  0  0  0  -0.032  0.032  -0.032  0.0229629  0.00635851  -0.0136633  -0.0100853  0.00889172  0.00903206  -0.0147935  0.0336892  -0.0258488  -0.0519752  -0.0678337  0.0187947 
1704462188.956996000  0  0  11.3739  0.0912074  -0.120582  0.0198291  nan  nan  nan  nan  nan  nan  -2.50002  -0.299978  0.999978  0.0166483  -0.0378647  -0.00062939  -0.0010235  0.0010235  -0.0010235  0  0  0  -0.036125  0.036125  -0.036125  0.0228979  0.00640741  -0.0136081  -0.0115088  0.00954929  0.00989978  -0.015203  0.0323778  -0.0258138  -0.0440531  -0.0788766  0.0112489 
1704462188.962034000  0  0  11.2624  0.0731017  -0.126058  0.0301992  nan  nan  nan  nan  nan  nan  -2.50003  -0.299973  0.999973  0.0153246  -0.0400917  -0.000614273  -0.001215  0.001215  -0.001215  0  0  0  -0.0405  0.0405  -0.0405  0.023113  0.00629981  -0.0134775  -0.0103318  0.00855663  0.0170834  -0.0138742  0.0339772  -0.0272214  -0.0164449  -0.0838978  -0.0858433 
1704462188.967004000  0  0  11.3326  0.0851955  -0.140894  0.0244225  nan  nan  nan  nan  nan  nan  -2.50003  -0.299966  0.999966  0.0147603  -0.0410169  -0.000606594  -0.001429  0.001429  -0.001429  0  0  0  -0.045125  0.045125  -0.045125  0.0230661  0.00634078  -0.0134528  -0.00937949  0.00845776  0.0117966  -0.0137719  0.0348144  -0.0269318  -0.0459397  -0.0584645  -0.0275463 
1704462188.972048000  0  0  11.3575  0.093995  -0.151028  0.0218912  nan  nan  nan  nan  nan  nan  -2.50004  -0.299958  0.999958  0.0153192  -0.040109  -0.000617422  -0.0016667  0.0016667  -0.0016667  0  0  0  -0.05  0.05  -0.05  0.0230348  0.00638383  -0.0134671  -0.0108705  0.00965109  0.00969237  -0.0146262  0.0340385  -0.0267355  -0.0570292  -0.026042  -0.00259291 
1704462188.977046000  0  0  11.1814  0.0819538  -0.142208  0.0251487  nan  nan  nan  nan  nan  nan  -2.50005  -0.299949  0.999949  0.0138664  -0.0408156  -0.000571345  -0.0019294  0.0019294  -0.0019294  0  0  0  -0.055125  0.055125  -0.055125  0.0231232  0.006354  -0.0133408  -0.0116021  0.00834272  0.0213081  -0.0133494  0.0342417  -0.0272616  -0.0430585  -0.0489901  -0.0323765 
1704462188.982040000  0  0  11.3716  0.0802823  -0.167254  0.0230642  nan  nan  nan  nan  nan  nan  -2.50006  -0.299939  0.999939  0.0129393  -0.0434755  -0.000571098  -0.0022183  0.0022183  -0.0022181  0  0  0  -0.0604885  0.0604885  -0.0603425  0.0231007  0.00639453  -0.0133814  -0.00819129  0.00806052  0.00775477  -0.0127306  0.0369924  -0.027195  -0.04605  -0.0209888  -0.0110175 
1704462188.987019000  0  0  11.3856  0.0929942  -0.184139  0.0191465  nan  nan  nan  nan  nan  nan  -2.50007  -0.299927  0.999927  0.0132492  -0.0428757  -0.000580629  -0.002534  0.002534  -0.0025324  0  0  0  -0.0657563  0.0657563  -0.0653207  0.0230714  0.00643701  -0.0133997  -0.00941016  0.00898606  0.0063966  -0.0134404  0.0368269  -0.026827  -0.0679259  0.020446  0.0270574 
1704462188.992378000  0  0  11.1835  0.0734709  -0.153649  0.0213778  nan  nan  nan  nan  nan  nan  -2.50009  -0.299914  0.999914  0.0108429  -0.0437443  -0.000491982  -0.0028755  0.0028755  -0.0028709  0  0  0  -0.070774  0.070774  -0.0700488  0.023246  0.00634415  -0.0132552  -0.0103063  0.00669013  0.0198395  -0.0112757  0.0368299  -0.0270405  -0.0463279  -0.0510704  0.00540468 
1704462188.997047000  0  0  11.3766  0.0705421  -0.182444  0.0247938  nan  nan  nan  nan  nan  nan  -2.5001  -0.299898  0.999898  0.0102948  -0.046506  -0.000502616  -0.0032414  0.0032414  -0.0032325  0  0  0  -0.0755418  0.0755418  -0.074527  0.0232303  0.00637791  -0.0133054  -0.00664288  0.00674779  0.0061579  -0.010927  0.0396803  -0.0275101  -0.0433558  -0.0153929  -0.0265276 
1704462189.002047000  0  0  11.3986  0.0922282  -0.189235  0.0191743  nan  nan  nan  nan  nan  nan  -2.50012  -0.299881  0.999881  0.010479  -0.0455212  -0.00050837  -0.0036305  0.0036305  -0.0036158  0  0  0  -0.0800596  0.0800596  -0.0787551  0.0232047  0.00641682  -0.0133416  -0.00820072  0.00744571  0.00434459  -0.0117282  0.0389754  -0.0270233  -0.08525  0.00839881  0.0284359 
1704462189.007017000  0  0  11.2291  0.0789653  -0.162237  0.0190386  nan  nan  nan  nan  nan  nan  -2.50014  -0.299862  0.999862  0.00941984  -0.0447199  -0.000461626  -0.0040415  0.0040415  -0.0040196  0  0  0  -0.0843273  0.0843273  -0.0827333  0.0231458  0.0064456  -0.0132097  -0.0103403  0.00645546  0.0155772  -0.0108297  0.0376268  -0.0268791  -0.0641898  -0.0398357  0.0286357 
1704462189.012030000  0  0  11.3822  0.0666199  -0.186775  0.0264554  nan  nan  nan  nan  nan  nan  -2.50016  -0.299841  0.999841  0.0084943  -0.04753  -0.000454692  -0.0044733  0.0044733  -0.0044427  0  0  0  -0.0883451  0.0883451  -0.0864614  0.023266  0.0064334  -0.0133003  -0.00700785  0.00600792  0.00482427  -0.010069  0.0404339  -0.0277818  -0.0437422  -0.0136553  -0.0416907 
1704462189.016999000  0  0  11.4541  0.0891159  -0.198935  0.01963  nan  nan  nan  nan  nan  nan  -2.50018  -0.299817  0.999818  0.00890835  -0.047027  -0.00048229  -0.0049246  0.0049246  -0.0048838  0  0  0  -0.0921129  0.0921129  -0.0899395  0.02322  0.0064732  -0.0133115  -0.00760033  0.00693128  -0.000452016  -0.0111759  0.0402506  -0.0271249  -0.0841207  0.0169001  0.0245082 
1704462189.022043000  0  0  11.2705  0.0772926  -0.168303  0.0207613  nan  nan  nan  nan  nan  nan  -2.50021  -0.299791  0.999792  0.00795518  -0.0465477  -0.000448169  -0.0053941  0.0053941  -0.0053417  0  0  0  -0.0956306  0.0956306  -0.0931677  0.0232006  0.0064878  -0.0132595  -0.00945847  0.00601878  0.0119756  -0.0103673  0.0391445  -0.0271592  -0.0654321  -0.0425627  0.012901 
1704462189.027570000  0  0  11.3452  0.0664286  -0.168628  0.0270353  nan  nan  nan  nan  nan  nan  -2.50024  -0.299763  0.999764  0.00671192  -0.0481528  -0.000417878  -0.0058805  0.0058805  -0.0058151  0  0  0  -0.0988984  0.0988984  -0.0961458  0.0233231  0.00646854  -0.0133287  -0.00784889  0.00503358  0.00670354  -0.00938922  0.0402537  -0.0280203  -0.0508851  -0.0541864  -0.0457593 
1704462189.032047000  0  0  11.4589  0.0837012  -0.170923  0.0206329  nan  nan  nan  nan  nan  nan  -2.50027  -0.299733  0.999734  0.0070337  -0.0486647  -0.000456163  -0.0063826  0.0063826  -0.0063027  0  0  0  -0.101916  0.101916  -0.098874  0.0232995  0.00649885  -0.013373  -0.00696216  0.00579241  -0.00133455  -0.0103035  0.0405552  -0.0273915  -0.0811696  -0.052173  0.0162292 
1704462189.037048000  0  0  11.3757  0.0791522  -0.160036  0.0202439  nan  nan  nan  nan  nan  nan  -2.5003  -0.299699  0.999701  0.00648091  -0.0479312  -0.000446323  -0.0068992  0.0068992  -0.0068034  0  0  0  -0.104684  0.104684  -0.101352  0.0232778  0.00650951  -0.013384  -0.00855117  0.00537725  0.00427897  -0.0100221  0.0394522  -0.0272841  -0.0736465  -0.065379  0.0194063 
1704462189.042462000  0  0  11.3528  0.0662376  -0.125659  0.0249962  nan  nan  nan  nan  nan  nan  -2.50034  -0.299664  0.999666  0.00515835  -0.0475172  -0.00040562  -0.007429  0.007429  -0.0073158  0  0  0  -0.107202  0.107202  -0.10358  0.0232787  0.00651982  -0.0134333  -0.00946996  0.0040614  0.00582002  -0.00881832  0.037919  -0.0278382  -0.0568124  -0.128852  -0.0258622 
1704462189.047008000  0  0  11.4613  0.068196  -0.133182  0.023402  nan  nan  nan  nan  nan  nan  -2.50037  -0.299625  0.999628  0.00511384  -0.048632  -0.0004372  -0.0079708  0.0079708  -0.0078388  0  0  0  -0.109469  0.109469  -0.105558  0.0232504  0.00654002  -0.0134795  -0.00778906  0.00428999  -0.00177377  -0.00906533  0.038548  -0.0277457  -0.0586454  -0.118238  -0.00988117 
1704462189.052054000  0  0  11.3706  0.0904154  -0.13108  0.0179531  nan  nan  nan  nan  nan  nan  -2.50042  -0.299584  0.999588  0.00525462  -0.0468462  -0.000465971  -0.0085233  0.0085233  -0.008371  0  0  0  -0.111487  0.111487  -0.107287  0.0232349  0.00654627  -0.0135069  -0.0105996  0.00463668  0.0044357  -0.00994377  0.0364616  -0.0271225  -0.100927  -0.0998674  0.0421265 
1704462189.057056000  0  0  11.307  0.0633968  -0.0770661  0.0235892  nan  nan  nan  nan  nan  nan  -2.50046  -0.29954  0.999544  0.00349478  -0.0461619  -0.000416169  -0.0090853  0.0090853  -0.0089112  0  0  0  -0.113255  0.113255  -0.108765  0.0231725  0.00655442  -0.0134525  -0.0118022  0.00270288  0.00868681  -0.00817393  0.0340719  -0.0275925  -0.0573485  -0.199813  -0.0131545 
1704462189.062045000  0  0  11.4804  0.0673571  -0.106958  0.0238868  nan  nan  nan  nan  nan  nan  -2.50051  -0.299493  0.999498  0.00411732  -0.0481372  -0.000491921  -0.0096554  0.0096554  -0.0094582  0  0  0  -0.114773  0.114773  -0.109993  0.0231837  0.00658844  -0.0136484  -0.00877898  0.00361786  -0.003075  -0.00902205  0.0356839  -0.0277395  -0.0571621  -0.147736  -0.0150339 
1704462189.067483000  0  0  11.3522  0.104312  -0.108832  0.0134741  nan  nan  nan  nan  nan  nan  -2.50056  -0.299443  0.99945  0.0042664  -0.0449784  -0.000528632  -0.0102326  0.0102326  -0.0100107  0  0  0  -0.116041  0.116041  -0.110971  0.023117  0.00660941  -0.0136938  -0.0132041  0.00384428  0.00580794  -0.0102727  0.0323735  -0.0265124  -0.129834  -0.106374  0.0840437 
1704462189.072052000  0  0  11.3018  0.0665467  -0.0573569  0.019933  nan  nan  nan  nan  nan  nan  -2.50061  -0.299391  0.999398  0.00250177  -0.0446544  -0.000495678  -0.0108154  0.0108154  -0.0105675  0  0  0  -0.117058  0.117058  -0.111699  0.0230596  0.00660761  -0.0136422  -0.0138236  0.00185023  0.00920693  -0.00829728  0.0303193  -0.0269297  -0.0633557  -0.204114  0.0196583 
1704462189.077053000  0  0  11.4541  0.0640584  -0.105335  0.027073  nan  nan  nan  nan  nan  nan  -2.50066  -0.299335  0.999344  0.00325886  -0.0474916  -0.000590411  -0.0114027  0.0114027  -0.0111273  0  0  0  -0.117826  0.117826  -0.112177  0.0231017  0.00661021  -0.0138256  -0.00987337  0.00288228  -0.00104799  -0.00916151  0.0331095  -0.0277593  -0.0478712  -0.122792  -0.0483795 
1704462189.082045000  0  0  11.3888  0.101472  -0.114081  0.0146474  nan  nan  nan  nan  nan  nan  -2.50072  -0.299277  0.999287  0.00322331  -0.0451526  -0.000637592  -0.0119933  0.0119933  -0.0116889  0  0  0  -0.118344  0.118344  -0.112405  0.0230221  0.00662861  -0.0137823  -0.0128838  0.0028363  0.00335556  -0.0103005  0.0308307  -0.0264094  -0.122865  -0.0768401  0.0708252 
1704462189.087060000  0  0  11.3911  0.0645755  -0.0871792  0.0236022  nan  nan  nan  nan  nan  nan  -2.50078  -0.299215  0.999227  0.00237525  -0.0458018  -0.000661953  -0.0125858  0.0125858  -0.0122509  0  0  0  -0.118612  0.118612  -0.112384  0.0230354  0.00660287  -0.013898  -0.0121589  0.0019095  0.0034423  -0.00922841  0.0305317  -0.0269709  -0.0483363  -0.136569  -0.0185845 
1704462189.092053000  0  0  11.5058  0.074117  -0.139774  0.0276678  nan  nan  nan  nan  nan  nan  -2.50085  -0.299151  0.999165  0.00250102  -0.0487032  -0.00074116  -0.013179  0.013179  -0.0128123  0  0  0  -0.118629  0.118629  -0.112112  0.023249  0.00649653  -0.0140307  -0.00858119  0.00232935  -0.00424006  -0.00987567  0.0337281  -0.027627  -0.0634776  -0.0489611  -0.0557628 
1704462189.097003000  0  0  11.487  0.103214  -0.145253  0.0192906  nan  nan  nan  nan  nan  nan  -2.50092  -0.299083  0.999099  0.00249547  -0.0478543  -0.000810174  -0.0137716  0.0137716  -0.0133716  0  0  0  -0.118397  0.118397  -0.11159  0.0231973  0.00650648  -0.0140271  -0.00955743  0.00226381  -0.00291535  -0.0109068  0.0329525  -0.0267847  -0.120179  -0.0274534  0.0251812 
1704462189.102042000  0  0  11.4392  0.0794319  -0.136403  0.0259433  nan  nan  nan  nan  nan  nan  -2.50099  -0.299013  0.999031  0.00186907  -0.0482293  -0.000857509  -0.0143625  0.0143625  -0.0139278  0  0  0  -0.117915  0.117915  -0.110818  0.0233017  0.0064195  -0.014085  -0.0095291  0.00163559  0.00058887  -0.010424  0.0329161  -0.0272796  -0.0698145  -0.0477962  -0.0405808 
1704462189.107554000  0  0  11.4775  0.0960613  -0.162874  0.0220023  nan  nan  nan  nan  nan  nan  -2.50106  -0.29894  0.99896  0.00160387  -0.049409  -0.000928613  -0.0149504  0.0149504  -0.0144794  0  0  0  -0.117183  0.117183  -0.109796  0.0233322  0.00638711  -0.0141407  -0.00789008  0.00130356  -0.00188594  -0.0110174  0.0343518  -0.0270339  -0.102174  -0.00176837  -0.00121984 
1704462189.111994000  0  0  11.4807  0.113165  -0.163485  0.0155862  nan  nan  nan  nan  nan  nan  -2.50114  -0.298864  0.998886  0.00198302  -0.0491734  -0.00103447  -0.0155339  0.0155339  -0.0150253  0  0  0  -0.1162  0.1162  -0.108524  0.0233066  0.00638865  -0.0141407  -0.00798031  0.00163481  -0.00201934  -0.0121703  0.0341519  -0.0261486  -0.129396  0.00189563  0.0587299 
1704462189.117128000  0  0  11.4508  0.102643  -0.158966  0.0210327  nan  nan  nan  nan  nan  nan  -2.50122  -0.298784  0.99881  0.00236018  -0.0482318  -0.00114409  -0.016112  0.016112  -0.0155642  0  0  0  -0.114968  0.114968  -0.107003  0.0233225  0.0063778  -0.014188  -0.00915786  0.00195514  0.000247376  -0.0129514  0.0331996  -0.0263148  -0.0960075  0.00193559  0.00285539 
1704462189.122151000  0  0  11.4346  0.0961792  -0.156865  0.0221176  nan  nan  nan  nan  nan  nan  -2.5013  -0.298702  0.99873  0.00195071  -0.049013  -0.00122487  -0.0166832  0.0166832  -0.0160949  0  0  0  -0.113486  0.113486  -0.105231  0.0232864  0.00638086  -0.0141801  -0.00803921  0.00126754  0.001515  -0.0128505  0.0338378  -0.0263641  -0.0819799  -0.0101161  -0.00813659 
1704462189.127130000  0  0  11.4909  0.113356  -0.173564  0.0198878  nan  nan  nan  nan  nan  nan  -2.50138  -0.298618  0.998649  0.00255247  -0.0494507  -0.00136037  -0.0172464  0.0172464  -0.0166161  0  0  0  -0.111754  0.111754  -0.103209  0.0233161  0.00636337  -0.0142665  -0.00707652  0.00183031  -0.00209442  -0.0142224  0.0345776  -0.0259677  -0.10693  0.0207718  0.0119417 
1704462189.132476000  0  0  11.438  0.113201  -0.15699  0.0208399  nan  nan  nan  nan  nan  nan  -2.50147  -0.29853  0.998564  0.00299427  -0.047666  -0.00148767  -0.0178003  0.0178003  -0.0171266  0  0  0  -0.109771  0.109771  -0.100937  0.0232874  0.00636532  -0.0142624  -0.00919616  0.00210143  0.00172335  -0.0151396  0.0326974  -0.0258847  -0.0963237  0.00290998  0.00122061 
1704462189.137131000  0  0  11.432  0.0969749  -0.143623  0.0258232  nan  nan  nan  nan  nan  nan  -2.50156  -0.29844  0.998477  0.0028515  -0.048621  -0.00160049  -0.0183437  0.0183437  -0.0176251  0  0  0  -0.107539  0.107539  -0.0984151  0.0232652  0.00636456  -0.0142484  -0.00775857  0.00165329  0.002342  -0.0150357  0.033181  -0.0263444  -0.0594423  -0.0338269  -0.0472817 
1704462189.142029000  0  0  11.518  0.107218  -0.168457  0.0231238  nan  nan  nan  nan  nan  nan  -2.50165  -0.298347  0.998388  0.00323928  -0.0488398  -0.00174294  -0.0188753  0.0188753  -0.0181103  0  0  0  -0.105057  0.105057  -0.0956433  0.0232714  0.00635198  -0.0142949  -0.00676614  0.00187082  -0.00335169  -0.0159031  0.0338428  -0.0261338  -0.073771  0.0170029  -0.0206823 
1704462189.147140000  0  0  11.4882  0.110914  -0.145007  0.0188445  nan  nan  nan  nan  nan  nan  -2.50175  -0.298251  0.998296  0.0037522  -0.0460218  -0.00188652  -0.0193939  0.0193939  -0.0185811  0  0  0  -0.102325  0.102325  -0.0926214  0.0232061  0.0063657  -0.0142858  -0.00984945  0.00211942  -0.00109265  -0.016769  0.0308964  -0.0255495  -0.0727664  -0.0050689  0.0193548 
1704462189.152067000  0  0  11.4631  0.0998683  -0.138937  0.0230614  nan  nan  nan  nan  nan  nan  -2.50185  -0.298153  0.998202  0.00370645  -0.0470591  -0.00202346  -0.0198981  0.0198981  -0.0190361  0  0  0  -0.0993425  0.0993425  -0.0893496  0.0233219  0.00630527  -0.0142928  -0.00862608  0.00182505  0.000940995  -0.0168819  0.0315733  -0.0258002  -0.0456088  -0.0268589  -0.022866 
1704462189.157551000  0  0  11.5613  0.107801  -0.152288  0.0196034  nan  nan  nan  nan  nan  nan  -2.50195  -0.298052  0.998106  0.00413643  -0.0467984  -0.00218401  -0.0203869  0.0203869  -0.0194742  0  0  0  -0.0961103  0.0961103  -0.0858277  0.0233144  0.00629931  -0.0143546  -0.00804865  0.00200296  -0.00551117  -0.0176514  0.0315397  -0.025431  -0.0556136  0.00481655  0.0103641 
1704462189.162039000  0  0  11.5427  0.108611  -0.129687  0.0164152  nan  nan  nan  nan  nan  nan  -2.50205  -0.297949  0.998008  0.00453823  -0.0448321  -0.00234159  -0.0208588  0.0208588  -0.019894  0  0  0  -0.0926281  0.0926281  -0.0820559  0.0232688  0.00629779  -0.014346  -0.0100065  0.00206507  -0.00395285  -0.0181999  0.0292718  -0.0248684  -0.0513886  -0.0228434  0.0391081 
1704462189.167134000  0  0  11.4909  0.089403  -0.115966  0.0216174  nan  nan  nan  nan  nan  nan  -2.50216  -0.297843  0.997907  0.00488296  -0.0452132  -0.0025128  -0.0213127  0.0213127  -0.0202943  0  0  0  -0.0888958  0.0888958  -0.078034  0.0233312  0.00626086  -0.0143368  -0.00948338  0.00208413  -3.75473e-05  -0.0182938  0.0291125  -0.0251235  -0.0053069  -0.0532333  -0.0134397 
1704462189.172131000  0  0  11.55  0.10402  -0.122047  0.0182893  nan  nan  nan  nan  nan  nan  -2.50226  -0.297736  0.997805  0.00528142  -0.0450773  -0.00269029  -0.0217474  0.0217474  -0.0206739  0  0  0  -0.0849136  0.0849136  -0.0737622  0.0232847  0.00627059  -0.014373  -0.00878032  0.0020886  -0.00374307  -0.0189858  0.0288965  -0.0246758  -0.031849  -0.0365635  0.0177547 
1704462189.177041000  0  0  11.6025  0.108033  -0.117178  0.0171319  nan  nan  nan  nan  nan  nan  -2.50237  -0.297626  0.9977  0.00590805  -0.0436772  -0.00287667  -0.0221615  0.0221615  -0.0210315  0  0  0  -0.0806814  0.0806814  -0.0692403  0.0232882  0.00624812  -0.0144113  -0.00973776  0.00242042  -0.00698892  -0.0197834  0.0273746  -0.0242716  -0.0323489  -0.0309832  0.0264864 
1704462189.182038000  0  0  11.52  0.101519  -0.0946049  0.0206907  nan  nan  nan  nan  nan  nan  -2.50249  -0.297514  0.997594  0.0068962  -0.0417487  -0.00307923  -0.0225538  0.0225538  -0.0213659  0  0  0  -0.0761991  0.0761991  -0.0644684  0.0232332  0.00626303  -0.0143855  -0.011787  0.00299234  -0.000946224  -0.0206043  0.0249591  -0.0243807  -0.00790977  -0.0569299  -0.0100179 
1704462189.187030000  0  0  11.5025  0.0957804  -0.0936721  0.0213289  nan  nan  nan  nan  nan  nan  -2.5026  -0.2974  0.997487  0.0065622  -0.0431706  -0.00325351  -0.022923  0.022923  -0.0216758  0  0  0  -0.0714669  0.0714669  -0.0594466  0.0233147  0.00620529  -0.014385  -0.00976133  0.00212555  0.000696373  -0.0202355  0.0259182  -0.0243411  0.00142445  -0.0698278  -0.0170683 
1704462189.192050000  0  0  11.657  0.104721  -0.11208  0.01789  nan  nan  nan  nan  nan  nan  -2.50272  -0.297285  0.997378  0.00748983  -0.0422337  -0.00347173  -0.023268  0.023268  -0.02196  0  0  0  -0.0664847  0.0664847  -0.0542111  0.0233319  0.00618612  -0.0144777  -0.00964388  0.00280655  -0.00948332  -0.0212672  0.0252084  -0.0238384  -0.00801534  -0.0187469  0.0148231 
1704462189.197044000  0  0  11.4914  0.108203  -0.0815132  0.0171917  nan  nan  nan  nan  nan  nan  -2.50283  -0.297168  0.997267  0.00884299  -0.0386917  -0.00368897  -0.0235875  0.0235875  -0.0222182  0  0  0  -0.0612524  0.0612524  -0.0491298  0.0232404  0.00620608  -0.0144081  -0.013819  0.00364547  0.00225111  -0.022514  0.021223  -0.0235056  -0.00225318  -0.0459012  0.0193348 
1704462189.202599000  0  0  11.4972  0.0869351  -0.0730682  0.0219927  nan  nan  nan  nan  nan  nan  -2.50295  -0.297049  0.997155  0.00821524  -0.0402933  -0.00387554  -0.0238802  0.0238802  -0.0224517  0  0  0  -0.0558737  0.0558737  -0.0442985  0.023327  0.0061491  -0.0144213  -0.0114123  0.00235986  0.00230117  -0.021445  0.0221296  -0.0238367  0.035669  -0.0758234  -0.0283456 
1704462189.207014000  0  0  11.6968  0.0990508  -0.110214  0.0198687  nan  nan  nan  nan  nan  nan  -2.50307  -0.296929  0.997043  0.00946453  -0.0406327  -0.00413297  -0.0241466  0.0241466  -0.0226616  0  0  0  -0.0507132  0.0507132  -0.0397172  0.0233091  0.00615746  -0.0145344  -0.00947636  0.00341465  -0.0110238  -0.022717  0.0230725  -0.0235083  0.0214695  0.000731415  -0.00880018 
1704462189.212057000  0  0  11.4764  0.111603  -0.0943507  0.0128403  nan  nan  nan  nan  nan  nan  -2.50319  -0.296808  0.996929  0.0102069  -0.0365441  -0.00433153  -0.0243878  0.0243878  -0.0228493  0  0  0  -0.0458026  0.0458026  -0.0353859  0.0233171  0.00611618  -0.0144508  -0.0147813  0.00361171  0.00442398  -0.0235417  0.0191735  -0.022516  0.00125046  0.00708302  0.0566788 
1704462189.217574000  0  0  11.5217  0.0743153  -0.0806934  0.0214825  nan  nan  nan  nan  nan  nan  -2.50331  -0.296685  0.996814  0.00947088  -0.0387799  -0.0045422  -0.024605  0.024605  -0.0230159  0  0  0  -0.0411421  0.0411421  -0.0313046  0.0234105  0.00606206  -0.0144822  -0.0115534  0.00230999  0.00172014  -0.0219582  0.020745  -0.0230938  0.0709859  -0.0424847  -0.0293047 
1704462189.222044000  0  0  11.6804  0.104747  -0.139161  0.0184654  nan  nan  nan  nan  nan  nan  -2.50344  -0.296562  0.996699  0.0110102  -0.0392317  -0.00482956  -0.0247996  0.0247996  -0.0231627  0  0  0  -0.0367316  0.0367316  -0.0274733  0.0233939  0.00607822  -0.0145691  -0.00976707  0.00377585  -0.00888464  -0.0237886  0.02241  -0.0227291  0.0200811  0.0759937  -0.000674414 
1704462189.227059000  0  0  11.5255  0.110673  -0.113824  0.0113262  nan  nan  nan  nan  nan  nan  -2.50356  -0.296437  0.996583  0.0112474  -0.0360398  -0.00503188  -0.0249728  0.0249728  -0.023291  0  0  0  -0.032571  0.032571  -0.023892  0.0234382  0.0060091  -0.0145015  -0.0138777  0.00355524  0.00199581  -0.0240052  0.019378  -0.0217229  0.00860757  0.0504526  0.0658505 
1704462189.232046000  0  0  11.5502  0.069381  -0.101043  0.0235043  nan  nan  nan  nan  nan  nan  -2.50369  -0.296312  0.996466  0.0111517  -0.0372667  -0.00527731  -0.0251257  0.0251257  -0.0234021  0  0  0  -0.0286605  0.0286605  -0.0205607  0.0233981  0.00602188  -0.0145148  -0.0117296  0.00295008  0.000612303  -0.0228468  0.0202159  -0.0226513  0.0924772  0.011132  -0.0543397 
1704462189.237050000  0  0  11.7148  0.0940428  -0.16701  0.0199735  nan  nan  nan  nan  nan  nan  -2.50381  -0.296186  0.996349  0.0121369  -0.0382567  -0.00556743  -0.0252598  0.0252598  -0.0234971  0  0  0  -0.025  0.025  -0.0174794  0.0234995  0.00598342  -0.0146212  -0.00964259  0.00398442  -0.0104162  -0.0239239  0.0228674  -0.0223706  0.0466871  0.136176  -0.0195913 
1704462189.242043000  0  0  11.5542  0.102309  -0.136251  0.0131503  nan  nan  nan  nan  nan  nan  -2.50394  -0.296059  0.996231  0.012355  -0.0358506  -0.00579376  -0.0253762  0.0253762  -0.0235773  0  0  0  -0.0215894  0.0215894  -0.0146481  0.023573  0.00591049  -0.0145437  -0.0129707  0.0038118  0.000794389  -0.0240838  0.0206616  -0.0214561  0.0290939  0.088697  0.0443917 
1704462189.247068000  0  0  11.5629  0.0676654  -0.131859  0.0250981  nan  nan  nan  nan  nan  nan  -2.50407  -0.295932  0.996113  0.0123185  -0.03675  -0.00605743  -0.0254761  0.0254761  -0.023644  0  0  0  -0.0184289  0.0184289  -0.0120668  0.0235293  0.00592604  -0.0145547  -0.0113607  0.00334525  0.000442451  -0.0230448  0.0216167  -0.0224562  0.0987106  0.0677355  -0.0727662 
1704462189.252050000  0  0  11.662  0.088341  -0.175889  0.0189748  nan  nan  nan  nan  nan  nan  -2.5042  -0.295805  0.995995  0.0127967  -0.0372976  -0.0063422  -0.0255609  0.0255609  -0.0236984  0  0  0  -0.0155184  0.0155184  -0.0097355  0.0236715  0.00584806  -0.0145765  -0.0102716  0.00387143  -0.00624419  -0.0235059  0.0235473  -0.0219602  0.0553878  0.149399  -0.0125809 
1704462189.257067000  0  0  11.5385  0.0967392  -0.15295  0.0117397  nan  nan  nan  nan  nan  nan  -2.50432  -0.295677  0.995876  0.0137996  -0.034847  -0.00661221  -0.0256317  0.0256317  -0.0237417  0  0  0  -0.0128578  0.0128578  -0.0076542  0.0235861  0.00587325  -0.014526  -0.013206  0.00455598  0.00237634  -0.0243654  0.0215087  -0.020874  0.0452968  0.118388  0.0542719 
1704462189.262051000  0  0  11.5238  0.0688398  -0.156218  0.0224235  nan  nan  nan  nan  nan  nan  -2.50445  -0.295548  0.995757  0.0130966  -0.0359702  -0.00687501  -0.0256899  0.0256899  -0.0237753  0  0  0  -0.0104473  0.0104473  -0.0058229  0.0237203  0.00578091  -0.0144751  -0.0119183  0.00358418  0.00347471  -0.0228319  0.0230865  -0.0217125  0.0935798  0.108429  -0.0509665 
1704462189.267015000  0  0  11.5924  0.0789422  -0.171927  0.02005  nan  nan  nan  nan  nan  nan  -2.50458  -0.29542  0.995638  0.0138767  -0.0361395  -0.00718442  -0.0257366  0.0257366  -0.0238004  0  0  0  -0.0082868  0.0082868  -0.0042416  0.0236754  0.00580465  -0.0145107  -0.011076  0.00430063  -0.00112369  -0.0233611  0.0241193  -0.0214293  0.0758053  0.133722  -0.0284112 
1704462189.272060000  0  0  11.5157  0.0959357  -0.167557  0.013157  nan  nan  nan  nan  nan  nan  -2.50471  -0.295291  0.995519  0.0142986  -0.0357448  -0.00747913  -0.0257731  0.0257731  -0.0238181  0  0  0  -0.0063762  0.0063762  -0.0029103  0.0237848  0.00573112  -0.0144282  -0.0118593  0.00463221  0.00414525  -0.0237912  0.0243155  -0.0204675  0.0407683  0.121289  0.0359024 
1704462189.277068000  0  0  11.4441  0.0806696  -0.156619  0.0206622  nan  nan  nan  nan  nan  nan  -2.50484  -0.295162  0.9954  0.0139507  -0.0356096  -0.00775621  -0.0258008  0.0258008  -0.0238299  0  0  0  -0.0047157  0.0047157  -0.001829  0.0239136  0.00564628  -0.0143219  -0.012387  0.00409157  0.00901728  -0.0229182  0.0244981  -0.0209543  0.0668087  0.0936053  -0.0388961 
1704462189.282053000  0  0  11.512  0.0826424  -0.16378  0.0206898  nan  nan  nan  nan  nan  nan  -2.50497  -0.295033  0.995281  0.0145297  -0.0365293  -0.00808788  -0.0258207  0.0258207  -0.0238369  0  0  0  -0.0033052  0.0033052  -0.0009977  0.0238742  0.00566945  -0.0143355  -0.0107463  0.00464569  0.00439322  -0.0231707  0.0258611  -0.0208995  0.0650039  0.095171  -0.0396524 
1704462189.287063000  0  0  11.4974  0.10462  -0.17466  0.0158957  nan  nan  nan  nan  nan  nan  -2.5051  -0.294904  0.995162  0.0150597  -0.0360185  -0.00840345  -0.0258342  0.0258342  -0.0238403  0  0  0  -0.0021447  0.0021447  -0.0004164  0.023988  0.00559132  -0.0142464  -0.0115303  0.00529676  0.00525809  -0.0238885  0.0261465  -0.0202462  0.0214961  0.117494  0.00521066 
1704462189.292054000  0  0  11.4147  0.0954325  -0.150721  0.019064  nan  nan  nan  nan  nan  nan  -2.50523  -0.294775  0.995042  0.0150107  -0.0356459  -0.0087063  -0.0258426  0.0258426  -0.0238414  0  0  0  -0.0012341  0.0012341  -8.51e-05  0.0241204  0.00550778  -0.0141036  -0.0124823  0.00518208  0.0107749  -0.0235511  0.0257879  -0.0202752  0.039267  0.0653732  -0.0278682 
1704462189.297066000  0  0  11.4663  0.09284  -0.154587  0.0217851  nan  nan  nan  nan  nan  nan  -2.50535  -0.294646  0.994923  0.0154629  -0.0369003  -0.0090582  -0.025847  0.025847  -0.0238416  0  0  0  -0.0005736  0.0005736  -0  0.0240711  0.00553515  -0.0140927  -0.0105698  0.00563763  0.00717938  -0.023702  0.0271861  -0.020465  0.0470291  0.058824  -0.0548739 
1704462189.302601000  0  0  11.4865  0.121238  -0.172294  0.015151  nan  nan  nan  nan  nan  nan  -2.50548  -0.294516  0.994804  0.0158786  -0.0369196  -0.00939655  -0.0258487  0.0258487  -0.0238416  0  0  0  -0.0001631  0.0001631  -0  0.0242648  0.00541651  -0.0139583  -0.0108504  0.00638052  0.00549997  -0.0246393  0.0279974  -0.019625  -0.00908128  0.0912753  0.00775336 
1704462189.307056000  0  0  11.4111  0.107099  -0.134868  0.0170005  nan  nan  nan  nan  nan  nan  -2.50561  -0.294387  0.994685  0.0161434  -0.0352811  -0.00970879  -0.025849  0.025849  -0.0238416  0  0  0  -2.5e-06  2.5e-06  -0  0.0242136  0.00542895  -0.0138692  -0.0129684  0.00653168  0.0105797  -0.0245374  0.0259366  -0.0194725  0.0229305  0.0265468  -0.0129989 
1704462189.312044000  0  0  11.4374  0.103097  -0.156885  0.0209502  nan  nan  nan  nan  nan  nan  -2.50574  -0.294258  0.994566  0.0158903  -0.0381712  -0.010081  -0.025849  0.025849  -0.0238416  0  0  0  2.47e-05  -2.47e-05  -0  0.0244893  0.00529302  -0.0137196  -0.0100142  0.00652978  0.00849102  -0.0242212  0.0291123  -0.0196891  0.0287809  0.0427014  -0.0526991 
1704462189.317048000  0  0  11.4763  0.124826  -0.1577  0.0140899  nan  nan  nan  nan  nan  nan  -2.50587  -0.294129  0.994446  0.0158899  -0.0377664  -0.0104159  -0.0258484  0.0258484  -0.0238416  0  0  0  0.0002609  -0.000261  -0  0.0246231  0.00520179  -0.0136146  -0.0106181  0.00676324  0.00557532  -0.0246966  0.028971  -0.018823  -0.0168516  0.0461885  0.0120863 
1704462189.322036000  0  0  11.4341  0.111138  -0.131051  0.016211  nan  nan  nan  nan  nan  nan  -2.506  -0.293999  0.994327  0.0164401  -0.0364404  -0.0107625  -0.025846  0.025846  -0.0238416  0  0  0  0.0007472  -0.0007472  -0  0.0245602  0.00523479  -0.0135522  -0.0121675  0.00722317  0.00839762  -0.0248965  0.0272985  -0.0186578  0.0174698  0.00239087  -0.0116319 
1704462189.327049000  0  0  11.4133  0.0990194  -0.153022  0.0192221  nan  nan  nan  nan  nan  nan  -2.50613  -0.29387  0.994208  0.0155232  -0.0394993  -0.0111305  -0.0258405  0.0258405  -0.0238416  0  0  0  0.0014834  -0.0014834  2.1e-06  0.0250273  0.00498077  -0.0132453  -0.00955926  0.00652471  0.00930231  -0.0238077  0.0305194  -0.0188079  0.0337223  0.0179296  -0.0420268 
1704462189.332049000  0  0  11.4438  0.10528  -0.148893  0.0150526  nan  nan  nan  nan  nan  nan  -2.50626  -0.293741  0.994089  0.015642  -0.0389622  -0.0114869  -0.0258307  0.0258307  -0.0238413  0  0  0  0.0024696  -0.0024696  0.0001593  0.0249814  0.00500962  -0.0132182  -0.00984728  0.00652196  0.00713654  -0.0239025  0.0300383  -0.0181701  0.0201048  0.0136224  -0.00360083 
1704462189.337050000  0  0  11.4561  0.0934962  -0.147584  0.0179018  nan  nan  nan  nan  nan  nan  -2.50639  -0.293612  0.99397  0.0160878  -0.038444  -0.0118624  -0.0258154  0.0258154  -0.0238395  0  0  0  0.0037058  -0.0037059  0.0005665  0.0251163  0.00492853  -0.0130868  -0.01057  0.00710603  0.00607717  -0.0239213  0.0295212  -0.0182459  0.0479397  0.0163295  -0.0329248 
1704462189.342040000  0  0  11.3871  0.0920352  -0.135576  0.0187108  nan  nan  nan  nan  nan  nan  -2.50652  -0.293483  0.99385  0.0166733  -0.0372763  -0.0122381  -0.0257933  0.0257933  -0.0238352  0  0  0  0.005192  -0.0051921  0.0012237  0.0250574  0.00496284  -0.0130068  -0.0119217  0.00743658  0.0107704  -0.0241587  0.0282558  -0.0181762  0.0540166  0.00230835  -0.0420276 
1704462189.347055000  0  0  11.4431  0.0873238  -0.138517  0.0175876  nan  nan  nan  nan  nan  nan  -2.50665  -0.293354  0.993731  0.0162152  -0.0385024  -0.0126198  -0.0257631  0.0257631  -0.0238269  0  0  0  0.0069282  -0.0069283  0.0021309  0.0251094  0.0049412  -0.0130156  -0.0101343  0.00678602  0.00698318  -0.0233244  0.0295179  -0.0178988  0.0557454  -0.0048897  -0.0325751 
1704462189.352046000  0  0  11.4969  0.0895696  -0.144922  0.0170217  nan  nan  nan  nan  nan  nan  -2.50677  -0.293225  0.993612  0.0173602  -0.0367003  -0.0130178  -0.0257236  0.0257236  -0.0238134  0  0  0  0.0089144  -0.0089145  0.003288  0.0251103  0.00493923  -0.0129993  -0.0118343  0.00803614  0.00328256  -0.0240737  0.0281148  -0.0176663  0.0588479  0.0257936  -0.028603 
1704462189.357051000  0  0  11.3472  0.0892055  -0.110972  0.0176618  nan  nan  nan  nan  nan  nan  -2.5069  -0.293097  0.993493  0.0177609  -0.0348695  -0.0133915  -0.0256735  0.0256735  -0.0237936  0  0  0  0.0111506  -0.0111507  0.0046952  0.0250354  0.00497567  -0.0128786  -0.0141502  0.0079081  0.013586  -0.0241428  0.0257554  -0.0175049  0.0604728  -0.0274528  -0.0367104 
1704462189.362041000  0  0  11.46  0.0742227  -0.123628  0.0204972  nan  nan  nan  nan  nan  nan  -2.50703  -0.292968  0.993374  0.0170635  -0.0376383  -0.013812  -0.0256117  0.0256116  -0.0237661  0  0  0  0.0136369  -0.013637  0.0063524  0.0251618  0.00489366  -0.0128304  -0.0103878  0.00709874  0.0058197  -0.0229642  0.028353  -0.0176335  0.0824374  -0.0267879  -0.0654398 
1704462189.367579000  0  0  11.4924  0.102316  -0.135605  0.0152637  nan  nan  nan  nan  nan  nan  -2.50716  -0.292841  0.993255  0.0184059  -0.0353273  -0.014224  -0.0255367  0.0255367  -0.0237297  0  0  0  0.0163731  -0.0163732  0.0082596  0.0251696  0.00486572  -0.0127674  -0.0127121  0.00853506  0.00356805  -0.0244514  0.0265045  -0.0169914  0.0331837  0.0219331  -0.0158588 
1704462189.372050000  0  0  11.3275  0.0960362  -0.0837683  0.0147139  nan  nan  nan  nan  nan  nan  -2.50729  -0.292713  0.993137  0.0184899  -0.0330935  -0.0145959  -0.0254475  0.0254475  -0.0236831  0  0  0  0.0193593  -0.0193594  0.0104168  0.0251068  0.00488196  -0.012627  -0.0154828  0.00795007  0.0149519  -0.0242572  0.0233166  -0.0165843  0.0457364  -0.0639931  -0.0135425 
1704462189.377000000  0  0  11.4226  0.0820957  -0.0963617  0.0198573  nan  nan  nan  nan  nan  nan  -2.50741  -0.292586  0.993019  0.0186931  -0.0351196  -0.0150568  -0.0253427  0.0253427  -0.0236251  0  0  0  0.0225955  -0.0225956  0.012824  0.0250902  0.00490185  -0.0126256  -0.0122731  0.00788617  0.00855763  -0.0239156  0.0250502  -0.0168989  0.0746038  -0.0538284  -0.064965 
1704462189.382042000  0  0  11.4825  0.128362  -0.121285  0.0123569  nan  nan  nan  nan  nan  nan  -2.50754  -0.29246  0.992901  0.0209665  -0.0318051  -0.0154898  -0.0252211  0.0252211  -0.0235544  0  0  0  0.0260817  -0.0260818  0.0154812  0.0250026  0.00496443  -0.0126208  -0.015383  0.0102296  0.00453525  -0.0267013  0.0225446  -0.0159812  -0.00275661  0.0325819  0.00611476 
1704462189.387056000  0  0  11.3197  0.110195  -0.0611362  0.0129378  nan  nan  nan  nan  nan  nan  -2.50767  -0.292334  0.992783  0.0212341  -0.0294523  -0.0158774  -0.0250815  0.0250815  -0.0234698  0  0  0  0.0298179  -0.0298181  0.0183884  0.0249243  0.00499663  -0.0125177  -0.0180952  0.00970301  0.0159035  -0.026531  0.0191101  -0.0155608  0.0379349  -0.0700775  -0.003576 
1704462189.392049000  0  0  11.4632  0.094122  -0.0890205  0.0220443  nan  nan  nan  nan  nan  nan  -2.50779  -0.292209  0.992666  0.0217809  -0.032033  -0.0163848  -0.0249225  0.0249225  -0.0233701  0  0  0  0.0338041  -0.0338043  0.0215456  0.024904  0.00502987  -0.012547  -0.0139839  0.0100534  0.00626234  -0.0264314  0.0216331  -0.0163071  0.0745036  -0.0328801  -0.0930072 
1704462189.397052000  0  0  11.5226  0.138849  -0.109034  0.0125297  nan  nan  nan  nan  nan  nan  -2.50792  -0.292085  0.992549  0.0235358  -0.0290078  -0.0168113  -0.024743  0.024743  -0.023254  0  0  0  0.0380403  -0.0380405  0.0249528  0.0248112  0.00509527  -0.0125452  -0.0166807  0.0117011  0.00234531  -0.0287704  0.0193794  -0.0152611  -0.00423476  0.0392073  -0.00183551 
1704462189.402042000  0  0  11.3869  0.119959  -0.0558776  0.0129596  nan  nan  nan  nan  nan  nan  -2.50804  -0.291962  0.992434  0.0239496  -0.0266935  -0.0172155  -0.0245417  0.0245417  -0.0231202  0  0  0  0.0425265  -0.0425267  0.02861  0.0247439  0.00511545  -0.012445  -0.0191624  0.0113146  0.0118918  -0.0286946  0.0161711  -0.0148457  0.0392043  -0.049586  -0.00989479 
1704462189.407061000  0  0  11.4628  0.108004  -0.082658  0.0218671  nan  nan  nan  nan  nan  nan  -2.50816  -0.291839  0.992318  0.0246819  -0.028167  -0.0177254  -0.0243173  0.0243173  -0.0229674  0  0  0  0.0472628  -0.0472629  0.0325172  0.0246768  0.00517383  -0.0124397  -0.0164163  0.0116359  0.00693312  -0.0288478  0.0177834  -0.0155983  0.068942  -0.00480563  -0.0971797 
1704462189.412035000  0  0  11.5408  0.141025  -0.109101  0.01252  nan  nan  nan  nan  nan  nan  -2.50828  -0.291718  0.992204  0.0256767  -0.026498  -0.0181707  -0.0240687  0.0240687  -0.0227946  0  0  0  0.052249  -0.0522492  0.0366744  0.0246597  0.0051857  -0.0124852  -0.0175345  0.012439  0.00188077  -0.0301591  0.017113  -0.0145804  0.0061718  0.0646751  -0.00752917 
1704462189.417057000  0  0  11.4007  0.124382  -0.0752377  0.0150573  nan  nan  nan  nan  nan  nan  -2.5084  -0.291599  0.99209  0.0267383  -0.0243333  -0.0186074  -0.0237944  0.0237944  -0.0226003  0  0  0  0.0574852  -0.0574854  0.0410816  0.0246046  0.00521482  -0.0123816  -0.0197376  0.0126789  0.0117837  -0.0306559  0.0146415  -0.0144158  0.0507381  0.0128836  -0.0356198 
1704462189.422047000  0  0  11.4361  0.105731  -0.0942864  0.0231976  nan  nan  nan  nan  nan  nan  -2.50852  -0.29148  0.991978  0.0271212  -0.0248455  -0.0191033  -0.0234934  0.0234934  -0.0223833  0  0  0  0.0629714  -0.0629716  0.0457388  0.0245283  0.00527249  -0.012354  -0.0181711  0.0124203  0.00965313  -0.0302835  0.015526  -0.0151749  0.0903053  0.0476646  -0.11478 
1704462189.427069000  0  0  11.5655  0.12144  -0.122506  0.0144078  nan  nan  nan  nan  nan  nan  -2.50864  -0.291364  0.991867  0.027623  -0.0241674  -0.019576  -0.0231643  0.0231643  -0.0221425  0  0  0  0.0687076  -0.0687078  0.050646  0.0245368  0.00526884  -0.0124277  -0.0179543  0.0127157  0.00116647  -0.030605  0.0159978  -0.0142991  0.0570653  0.108555  -0.0297821 
1704462189.432038000  0  0  11.42  0.110817  -0.102218  0.0147435  nan  nan  nan  nan  nan  nan  -2.50875  -0.291249  0.991757  0.0294688  -0.0212488  -0.0200198  -0.0228059  0.0228059  -0.0218765  0  0  0  0.0746938  -0.0746941  0.0558032  0.0244182  0.00533785  -0.0123136  -0.0207904  0.0136977  0.0114761  -0.0317011  0.0133814  -0.0139856  0.094211  0.0902092  -0.0359831 
1704462189.437072000  0  0  11.4285  0.0878773  -0.112269  0.0204562  nan  nan  nan  nan  nan  nan  -2.50886  -0.291136  0.991648  0.0292549  -0.0218471  -0.0205242  -0.022417  0.0224169  -0.021584  0  0  0  0.08093  -0.0809303  0.0612104  0.0243951  0.00535943  -0.0122904  -0.0192381  0.0126395  0.0112938  -0.0305031  0.0145252  -0.0144417  0.134614  0.101  -0.0921887 
1704462189.442044000  0  0  11.5922  0.0950205  -0.145537  0.0141562  nan  nan  nan  nan  nan  nan  -2.50898  -0.291025  0.991541  0.0297685  -0.0219279  -0.0206943  -0.0219962  0.0219962  -0.0212639  0  0  0  0.0874162  -0.0874165  0.0668676  0.0243801  0.00538747  -0.0123694  -0.0179209  0.0129132  0.000502645  -0.0305269  0.0159311  -0.0140255  0.118132  0.163294  -0.029466 
1704462189.447062000  0  0  11.4252  0.0981739  -0.124578  0.0132664  nan  nan  nan  nan  nan  nan  -2.50908  -0.290916  0.991435  0.0319847  -0.0179763  -0.0206165  -0.0215424  0.0215424  -0.0209149  0  0  0  0.0941346  -0.0941349  0.0727747  0.0242432  0.00546352  -0.0122421  -0.0218945  0.0141811  0.0123354  -0.0320203  0.0126361  -0.0140455  0.127417  0.150953  -0.0199366 
1704462189.452157000  0  0  11.4703  0.0742349  -0.130277  0.0209218  nan  nan  nan  nan  nan  nan  -2.50919  -0.290809  0.991332  0.0312284  -0.0193896  -0.0206471  -0.0210551  0.0210551  -0.0205358  0  0  0  0.100737  -0.100738  0.0789319  0.0242481  0.00547253  -0.0122267  -0.0193375  0.0125681  0.00968819  -0.0302066  0.0146128  -0.0150514  0.163286  0.142239  -0.0918934 
1704462189.457166000  0  0  11.6049  0.087116  -0.160405  0.0180163  nan  nan  nan  nan  nan  nan  -2.50929  -0.290705  0.99123  0.0327556  -0.0186034  -0.0206509  -0.0205354  0.0205354  -0.0201252  0  0  0  0.10709  -0.10709  0.0853391  0.0241497  0.00555098  -0.0122591  -0.0189868  0.0139479  0.000893658  -0.031131  0.0152525  -0.0152058  0.14341  0.205729  -0.0600169 
1704462189.462152000  0  0  11.4076  0.0952779  -0.123753  0.0168512  nan  nan  nan  nan  nan  nan  -2.5094  -0.290604  0.99113  0.0339742  -0.0154043  -0.0205649  -0.0199846  0.0199846  -0.0196821  0  0  0  0.113193  -0.113193  0.0918879  0.02411  0.00556918  -0.0121477  -0.0223762  0.0140439  0.0149309  -0.0317406  0.0125157  -0.015363  0.131082  0.150362  -0.0464236 
1704462189.467150000  0  0  11.5053  0.0645964  -0.131891  0.0233234  nan  nan  nan  nan  nan  nan  -2.50949  -0.290506  0.991033  0.0330317  -0.0174241  -0.0206171  -0.0194039  0.0194039  -0.0192067  0  0  0  0.119046  -0.119046  0.0982158  0.0241242  0.00557218  -0.012165  -0.0191177  0.0124874  0.00869292  -0.0296279  0.0151113  -0.0163138  0.17942  0.140457  -0.106405 
1704462189.472148000  0  0  11.6149  0.086746  -0.156527  0.0193618  nan  nan  nan  nan  nan  nan  -2.50959  -0.29041  0.990938  0.035128  -0.0162003  -0.0206107  -0.0187946  0.0187946  -0.0187003  0  0  0  0.124648  -0.124649  0.104294  0.0240276  0.00565741  -0.0121847  -0.0194581  0.0145901  0.00159696  -0.0311906  0.015216  -0.0164421  0.144943  0.197045  -0.0636424 
1704462189.477155000  0  0  11.4196  0.0981643  -0.112981  0.0150162  nan  nan  nan  nan  nan  nan  -2.50968  -0.290318  0.990846  0.0359141  -0.0133169  -0.0205199  -0.0181579  0.0181578  -0.0181642  0  0  0  0.130001  -0.130001  0.110122  0.0239833  0.00567174  -0.0120891  -0.0225099  0.0142158  0.0154711  -0.0314886  0.0125547  -0.0162727  0.121502  0.124675  -0.0193754 
1704462189.482150000  0  0  11.5358  0.066641  -0.116298  0.0230677  nan  nan  nan  nan  nan  nan  -2.50977  -0.290229  0.990757  0.0355497  -0.0142558  -0.0205484  -0.017495  0.017495  -0.0175996  0  0  0  0.135104  -0.135104  0.115699  0.0238968  0.00573755  -0.0120987  -0.0203961  0.0134207  0.00787657  -0.0299185  0.0139055  -0.0172715  0.177872  0.117365  -0.0955599 
1704462189.487158000  0  0  11.5861  0.0947465  -0.138754  0.018353  nan  nan  nan  nan  nan  nan  -2.50986  -0.290143  0.99067  0.037472  -0.0129677  -0.0205275  -0.0168072  0.0168072  -0.0170076  0  0  0  0.139957  -0.139957  0.121027  0.0238813  0.00577916  -0.0121209  -0.0212215  0.0153066  0.00484549  -0.0314213  0.0138747  -0.0172997  0.128763  0.170357  -0.045729 
1704462189.492150000  0  0  11.4719  0.0971192  -0.101922  0.0141311  nan  nan  nan  nan  nan  nan  -2.50994  -0.290061  0.990587  0.0376181  -0.0111392  -0.0204606  -0.0160958  0.0160958  -0.0163897  0  0  0  0.144559  -0.14456  0.126105  0.023858  0.00578222  -0.0120556  -0.0229867  0.0145209  0.0130816  -0.0310208  0.01219  -0.017047  0.118727  0.10282  -0.0034714 
1704462189.497162000  0  0  11.5712  0.0747536  -0.109269  0.0219016  nan  nan  nan  nan  nan  nan  -2.51002  -0.289982  0.990506  0.0379362  -0.0112861  -0.0204697  -0.0153621  0.015362  -0.015747  0  0  0  0.148912  -0.148912  0.130933  0.0237601  0.00585562  -0.0120593  -0.0219286  0.0146033  0.00659412  -0.0302413  0.0128634  -0.0179394  0.162458  0.112524  -0.0776065 
1704462189.502161000  0  0  11.5975  0.0945779  -0.117938  0.0180914  nan  nan  nan  nan  nan  nan  -2.51009  -0.289907  0.990429  0.0389769  -0.0104001  -0.020447  -0.0146071  0.0146071  -0.0150808  0  0  0  0.153015  -0.153015  0.135511  0.0237422  0.00588022  -0.0120727  -0.0224177  0.0154511  0.00516603  -0.0308373  0.0128557  -0.0179721  0.122637  0.132933  -0.0372508 
1704462189.507682000  0  0  11.558  0.0940577  -0.107348  0.0175709  nan  nan  nan  nan  nan  nan  -2.51016  -0.289836  0.990356  0.0393315  -0.00984698  -0.0204289  -0.0138323  0.0138323  -0.0143923  0  0  0  0.156868  -0.156868  0.139839  0.0237194  0.0058996  -0.0120552  -0.0226139  0.0152279  0.00823284  -0.0305228  0.0127778  -0.018077  0.120344  0.108976  -0.0308823 
1704462189.512161000  0  0  11.6169  0.085999  -0.112403  0.0229391  nan  nan  nan  nan  nan  nan  -2.51023  -0.289769  0.990285  0.0399005  -0.00834392  -0.0203745  -0.0130389  0.0130388  -0.0136828  0  0  0  0.16047  -0.16047  0.143917  0.0236233  0.00596139  -0.0120453  -0.0237201  0.0156286  0.00446712  -0.0303254  0.0119626  -0.0188493  0.137032  0.12993  -0.0807718 
1704462189.517169000  0  0  11.5939  0.0857072  -0.105462  0.0197173  nan  nan  nan  nan  nan  nan  -2.51029  -0.289705  0.990219  0.0399637  -0.00848494  -0.0203807  -0.012228  0.012228  -0.0129536  0  0  0  0.163823  -0.163823  0.147745  0.023637  0.00595157  -0.0120348  -0.0231976  0.0152253  0.0063648  -0.0297023  0.0125682  -0.0189165  0.130759  0.106896  -0.0463107 
1704462189.522044000  0  0  11.6377  0.0877946  -0.115098  0.018835  nan  nan  nan  nan  nan  nan  -2.51035  -0.289646  0.990156  0.0407988  -0.00819349  -0.0203759  -0.0114011  0.011401  -0.0122058  0  0  0  0.166926  -0.166926  0.151323  0.0235329  0.0060279  -0.012027  -0.0228798  0.0158912  0.00360094  -0.0299228  0.0129665  -0.0190257  0.128327  0.125038  -0.0361005 
1704462189.527076000  0  0  11.6334  0.0885547  -0.120934  0.0203223  nan  nan  nan  nan  nan  nan  -2.51041  -0.289591  0.990097  0.040977  -0.00628014  -0.0202989  -0.0105592  0.0105592  -0.0114407  0  0  0  0.169779  -0.169779  0.15465  0.0235376  0.0060232  -0.0120305  -0.0248924  0.0158062  0.00418601  -0.0294536  0.0120684  -0.0194425  0.121306  0.148749  -0.0481955 
1704462189.532052000  0  0  11.5956  0.0759065  -0.100668  0.0215116  nan  nan  nan  nan  nan  nan  -2.51046  -0.289541  0.990042  0.0411449  -0.00589787  -0.0202842  -0.0097037  0.0097036  -0.0106597  0  0  0  0.172381  -0.172381  0.157728  0.0234197  0.00609544  -0.0119809  -0.024801  0.0153787  0.00699269  -0.0287514  0.0118278  -0.0198041  0.143116  0.103925  -0.0576254 
1704462189.537036000  0  0  11.6764  0.0878636  -0.143453  0.0217326  nan  nan  nan  nan  nan  nan  -2.51051  -0.289494  0.98999  0.041761  -0.00775066  -0.0203653  -0.0088358  0.0088358  -0.0098639  0  0  0  0.174734  -0.174734  0.160556  0.0234618  0.00609357  -0.0120249  -0.0222634  0.0161615  0.00166725  -0.0289274  0.0149841  -0.0201423  0.11705  0.168985  -0.0570697 
1704462189.542597000  0  0  11.6361  0.0979783  -0.150463  0.0170523  nan  nan  nan  nan  nan  nan  -2.51055  -0.289452  0.989943  0.0415965  -0.00490229  -0.0202454  -0.0079568  0.0079567  -0.0090545  0  0  0  0.176837  -0.176837  0.163134  0.0234599  0.00606986  -0.0119703  -0.0255385  0.0156558  0.00458003  -0.0284464  0.0136167  -0.019919  0.087965  0.200688  -0.0097414 
1704462189.547072000  0  0  11.5968  0.0670484  -0.124861  0.0224869  nan  nan  nan  nan  nan  nan  -2.51059  -0.289415  0.9899  0.0415981  -0.0054285  -0.0202673  -0.0070678  0.0070678  -0.0082329  0  0  0  0.17869  -0.17869  0.165462  0.0233664  0.00612946  -0.0119175  -0.0244827  0.0151127  0.00742087  -0.0273547  0.0141488  -0.0205752  0.148286  0.134725  -0.0613174 
1704462189.552056000  0  0  11.6935  0.0852986  -0.177021  0.0228278  nan  nan  nan  nan  nan  nan  -2.51062  -0.289382  0.989861  0.0423571  -0.00769359  -0.0203675  -0.0061703  0.0061703  -0.0074003  0  0  0  0.180292  -0.180292  0.16754  0.0234291  0.00611623  -0.0119331  -0.0215608  0.0162522  0.000872825  -0.0278069  0.0180248  -0.0209892  0.11055  0.213723  -0.0613774 
1704462189.557060000  0  0  11.6143  0.110925  -0.166533  0.0149652  nan  nan  nan  nan  nan  nan  -2.51065  -0.289353  0.989826  0.0428742  -0.00379061  -0.020204  -0.0052653  0.0052653  -0.006558  0  0  0  0.181645  -0.181645  0.169368  0.0232784  0.00619672  -0.0118693  -0.0258865  0.0162819  0.00642373  -0.0284193  0.015331  -0.020393  0.0573096  0.219219  0.0162474 
1704462189.562051000  0  0  11.5585  0.0683257  -0.136195  0.0234722  nan  nan  nan  nan  nan  nan  -2.51067  -0.289329  0.989795  0.0422474  -0.00518408  -0.0202605  -0.0043542  0.0043542  -0.0057071  0  0  0  0.182748  -0.182748  0.170946  0.0233426  0.00615103  -0.0117898  -0.0242478  0.0152052  0.010287  -0.026575  0.0167099  -0.0212853  0.136585  0.132695  -0.0656347 
1704462189.567068000  0  0  11.6834  0.0996483  -0.183199  0.0235843  nan  nan  nan  nan  nan  nan  -2.51069  -0.28931  0.989769  0.0432871  -0.00636246  -0.020317  -0.0034383  0.0034382  -0.0048489  0  0  0  0.1836  -0.183601  0.172273  0.0232376  0.00624391  -0.0118281  -0.0223485  0.0166947  0.00176373  -0.0276549  0.0194412  -0.0217255  0.0752112  0.212391  -0.0630653 
1704462189.572061000  0  0  11.5977  0.11764  -0.168601  0.0143498  nan  nan  nan  nan  nan  nan  -2.51071  -0.289295  0.989747  0.043331  -0.00400347  -0.020215  -0.0025187  0.0025186  -0.0039848  0  0  0  0.184203  -0.184203  0.173351  0.0232654  0.00621653  -0.0117379  -0.0252863  0.016408  0.00764326  -0.0278323  0.0180435  -0.0209457  0.0350104  0.193776  0.0274285 
1704462189.577058000  0  0  11.5433  0.0812525  -0.141332  0.0246717  nan  nan  nan  nan  nan  nan  -2.51072  -0.289285  0.989729  0.0429901  -0.0051001  -0.0202608  -0.0015967  0.0015966  -0.0031158  0  0  0  0.184556  -0.184556  0.174179  0.0233382  0.00618695  -0.0116576  -0.0241136  0.0157439  0.0113482  -0.0264987  0.0191186  -0.0220033  0.105427  0.117839  -0.0721375 
1704462189.582051000  0  0  11.639  0.104507  -0.178545  0.0251457  nan  nan  nan  nan  nan  nan  -2.51072  -0.289279  0.989715  0.0433812  -0.00613435  -0.0203077  -0.0006735  0.0006735  -0.0022434  0  0  0  0.184659  -0.184659  0.174757  0.023228  0.00627234  -0.0116718  -0.0225102  0.0164232  0.00473865  -0.026959  0.0214408  -0.0224814  0.0560482  0.179151  -0.0730521 
1704462189.587060000  0  0  11.5997  0.124431  -0.165503  0.0151702  nan  nan  nan  nan  nan  nan  -2.51072  -0.289278  0.989706  0.0440223  -0.00450599  -0.0202399  0.0002495  -0.0002495  -0.0013687  0  0  0  0.184511  -0.184511  0.175085  0.0232464  0.00625958  -0.0116058  -0.0245733  0.0171142  0.00739054  -0.027794  0.0205399  -0.0216519  0.0186633  0.158636  0.0248125 
1704462189.592065000  0  0  11.4998  0.098498  -0.143754  0.0243607  nan  nan  nan  nan  nan  nan  -2.51072  -0.289281  0.989702  0.0432606  -0.00592696  -0.020298  0.0011712  -0.0011712  -0.000493  0  0  0  0.184114  -0.184114  0.175163  0.0234613  0.00616134  -0.011487  -0.0234676  0.0159688  0.0141046  -0.0264101  0.0220024  -0.0225869  0.0640062  0.0913133  -0.0638959 
1704462189.597067000  0  0  11.6352  0.0984452  -0.167408  0.0255376  nan  nan  nan  nan  nan  nan  -2.51071  -0.289289  0.989702  0.0427571  -0.00728356  -0.020353  0.0020902  -0.0020903  0.0003825  0  0  0  0.183467  -0.183467  0.174991  0.0233621  0.0062399  -0.0115153  -0.0215704  0.0158322  0.00469638  -0.025686  0.0241695  -0.0230858  0.0560438  0.122568  -0.0720274 
