    ts      x      y      z   roll  pitch    yaw     vx     vy     vz     wx     wy     wz     ax     ay     az    dwx    dwy    dwz
 0.0050000  -2.5000000  -0.3000000   1.0000000   0.0000000   0.0000000   0.0000000  -0.0000002   0.0000002  -0.0000002   0.0000000   0.0000000   0.0000000  -0.0001250   0.0001250  -0.0001250   0.0000000   0.0000000   0.0000000
 0.0100000  -2.5000000  -0.3000000   1.0000000   0.0000000   0.0000000   0.0000000  -0.0000017   0.0000017  -0.0000017   0.0000000   0.0000000   0.0000000  -0.0005000   0.0005000  -0.0005000   0.0000000   0.0000000   0.0000000
 0.0150000  -2.5000000  -0.3000000   1.0000000   0.0000000   0.0000000   0.0000000  -0.0000056   0.0000056  -0.0000056   0.0000000   0.0000000   0.0000000  -0.0011250   0.0011250  -0.0011250   0.0000000   0.0000000   0.0000000
 0.0200000  -2.5000000  -0.3000000   1.0000000   0.0000000   0.0000000   0.0000001  -0.0000133   0.0000133  -0.0000133   0.0000000   0.0000000   0.0000000  -0.0020000   0.0020000  -0.0020000   0.0000000   0.0000000   0.0000000
 0.0250000  -2.5000000  -0.3000000   1.0000000   0.0000000   0.0000000   0.0000002  -0.0000260   0.0000260  -0.0000260   0.0000000   0.0000000   0.0000000  -0.0031250   0.0031250  -0.0031250   0.0000000   0.0000000   0.0000000
 0.0300000  -2.5000000  -0.3000000   1.0000000   0.0000000   0.0000000   0.0000004  -0.0000450   0.0000450  -0.0000450   0.0000000   0.0000000   0.0000000  -0.0045000   0.0045000  -0.0045000   0.0000000   0.0000000   0.0000000
 0.0350000  -2.5000000  -0.2999990   0.9999990   0.0000000   0.0000000   0.0000006  -0.0000715   0.0000715  -0.0000715   0.0000000   0.0000000   0.0000000  -0.0061250   0.0061250  -0.0061250   0.0000000   0.0000000   0.0000000
 0.0400000  -2.5000000  -0.2999990   0.9999990   0.0000000   0.0000000   0.0000008  -0.0001067   0.0001067  -0.0001067   0.0000000   0.0000000   0.0000000  -0.0080000   0.0080000  -0.0080000   0.0000000   0.0000000   0.0000000
 0.0450000  -2.5000000  -0.2999980   0.9999980   0.0000000   0.0000000   0.0000010  -0.0001519   0.0001519  -0.0001519   0.0000000   0.0000000   0.0000000  -0.0101250   0.0101250  -0.0101250   0.0000000   0.0000000   0.0000000
 0.0500000  -2.5000000  -0.2999970   0.9999970   0.0000000   0.0000000   0.0000012  -0.0002083   0.0002083  -0.0002083   0.0000000   0.0000000   0.0000000  -0.0125000   0.0125000  -0.0125000   0.0000000   0.0000000   0.0000000
 0.0550000  -2.5000000  -0.2999960   0.9999960   0.0000000   0.0000000   0.0000014  -0.0002773   0.0002773  -0.0002773   0.0000000   0.0000000   0.0000000  -0.0151250   0.0151250  -0.0151250   0.0000000   0.0000000   0.0000000
 0.0600000  -2.5000100  -0.2999950   0.9999950   0.0000000   0.0000000   0.0000016  -0.0003600   0.0003600  -0.0003600   0.0000000   0.0000000   0.0000000  -0.0180000   0.0180000  -0.0180000   0.0000000   0.0000000   0.0000000
 0.0650000  -2.5000100  -0.2999930   0.9999930   0.0000000   0.0000000   0.0000017  -0.0004577   0.0004577  -0.0004577   0.0000000   0.0000000   0.0000000  -0.0211250   0.0211250  -0.0211250   0.0000000   0.0000000   0.0000000
 0.0700000  -2.5000100  -0.2999900   0.9999900   0.0000000   0.0000000   0.0000018  -0.0005717   0.0005717  -0.0005717   0.0000000   0.0000000   0.0000000  -0.0245000   0.0245000  -0.0245000   0.0000000   0.0000000   0.0000000
 0.0750000  -2.5000100  -0.2999870   0.9999870   0.0000000   0.0000000   0.0000017  -0.0007031   0.0007031  -0.0007031   0.0000000   0.0000000   0.0000000  -0.0281250   0.0281250  -0.0281250   0.0000000   0.0000000   0.0000000
 0.0800000  -2.5000200  -0.2999830   0.9999830   0.0000000   0.0000000   0.0000014  -0.0008533   0.0008533  -0.0008533   0.0000000   0.0000000   0.0000000  -0.0320000   0.0320000  -0.0320000   0.0000000   0.0000000   0.0000000
 0.0850000  -2.5000200  -0.2999780   0.9999780   0.0000000   0.0000000   0.0000009  -0.0010235   0.0010235  -0.0010235   0.0000000   0.0000000   0.0000000  -0.0361250   0.0361250  -0.0361250   0.0000000   0.0000000   0.0000000
 0.0900000  -2.5000300  -0.2999730   0.9999730   0.0000000   0.0000000  -0.0000000  -0.0012150   0.0012150  -0.0012150   0.0000000   0.0000000   0.0000000  -0.0405000   0.0405000  -0.0405000   0.0000000   0.0000000   0.0000000
 0.0950000  -2.5000300  -0.2999660   0.9999660   0.0000000   0.0000000  -0.0000013  -0.0014290   0.0014290  -0.0014290   0.0000000   0.0000000   0.0000000  -0.0451250   0.0451250  -0.0451250   0.0000000   0.0000000   0.0000000
 0.1000000  -2.5000400  -0.2999580   0.9999580   0.0000000   0.0000000  -0.0000031  -0.0016667   0.0016667  -0.0016667   0.0000000   0.0000000   0.0000000  -0.0500000   0.0500000  -0.0500000   0.0000000   0.0000000   0.0000000
 0.1050000  -2.5000500  -0.2999490   0.9999490   0.0000000   0.0000000  -0.0000055  -0.0019294   0.0019294  -0.0019294   0.0000000   0.0000000   0.0000000  -0.0551250   0.0551250  -0.0551250   0.0000000   0.0000000   0.0000000
 0.1100000  -2.5000600  -0.2999390   0.9999390   0.0000000   0.0000000  -0.0000087  -0.0022183   0.0022183  -0.0022181   0.0000000   0.0000000   0.0000000  -0.0604885   0.0604885  -0.0603425   0.0000000   0.0000000   0.0000000
 0.1150000  -2.5000700  -0.2999270   0.9999270   0.0000000   0.0000000  -0.0000127  -0.0025340   0.0025340  -0.0025324   0.0000000   0.0000000   0.0000000  -0.0657563   0.0657563  -0.0653207   0.0000000   0.0000000   0.0000000
 0.1200000  -2.5000900  -0.2999140   0.9999140   0.0000000   0.0000000  -0.0000178  -0.0028755   0.0028755  -0.0028709   0.0000000   0.0000000   0.0000000  -0.0707740   0.0707740  -0.0700488   0.0000000   0.0000000   0.0000000
 0.1250000  -2.5001000  -0.2998980   0.9998980   0.0000000   0.0000000  -0.0000240  -0.0032414   0.0032414  -0.0032325   0.0000000   0.0000000   0.0000000  -0.0755418   0.0755418  -0.0745270   0.0000000   0.0000000   0.0000000
 0.1300000  -2.5001200  -0.2998810   0.9998810   0.0000000   0.0000000  -0.0000315  -0.0036305   0.0036305  -0.0036158   0.0000000   0.0000000   0.0000000  -0.0800596   0.0800596  -0.0787551   0.0000000   0.0000000   0.0000000
 0.1350000  -2.5001400  -0.2998620   0.9998620   0.0000000   0.0000000  -0.0000405  -0.0040415   0.0040415  -0.0040196   0.0000000   0.0000000   0.0000000  -0.0843273   0.0843273  -0.0827333   0.0000000   0.0000000   0.0000000
 0.1400000  -2.5001600  -0.2998410   0.9998410   0.0000000   0.0000000  -0.0000511  -0.0044733   0.0044733  -0.0044427   0.0000000   0.0000000   0.0000000  -0.0883451   0.0883451  -0.0864614   0.0000000   0.0000000   0.0000000
 0.1450000  -2.5001800  -0.2998170   0.9998180   0.0000000   0.0000000  -0.0000635  -0.0049246   0.0049246  -0.0048838   0.0000000   0.0000000   0.0000000  -0.0921129   0.0921129  -0.0899395   0.0000000   0.0000000   0.0000000
 0.1500000  -2.5002100  -0.2997910   0.9997920   0.0000000   0.0000000  -0.0000780  -0.0053941   0.0053941  -0.0053417   0.0000000   0.0000000   0.0000000  -0.0956306   0.0956306  -0.0931677   0.0000000   0.0000000   0.0000000
 0.1550000  -2.5002400  -0.2997630   0.9997640   0.0000000   0.0000000  -0.0000948  -0.0058805   0.0058805  -0.0058151   0.0000000   0.0000000   0.0000000  -0.0988984   0.0988984  -0.0961458   0.0000000   0.0000000   0.0000000
 0.1600000  -2.5002700  -0.2997330   0.9997340   0.0000000   0.0000000  -0.0001140  -0.0063826   0.0063826  -0.0063027   0.0000000   0.0000000   0.0000000  -0.1019160   0.1019160  -0.0988740   0.0000000   0.0000000   0.0000000
 0.1650000  -2.5003000  -0.2996990   0.9997010   0.0000000   0.0000000  -0.0001358  -0.0068992   0.0068992  -0.0068034   0.0000000   0.0000000   0.0000000  -0.1046840   0.1046840  -0.1013520   0.0000000   0.0000000   0.0000000
 0.1700000  -2.5003400  -0.2996640   0.9996660   0.0000000   0.0000000  -0.0001606  -0.0074290   0.0074290  -0.0073158   0.0000000   0.0000000   0.0000000  -0.1072020   0.1072020  -0.1035800   0.0000000   0.0000000   0.0000000
 0.1750000  -2.5003700  -0.2996250   0.9996280   0.0000000   0.0000000  -0.0001886  -0.0079708   0.0079708  -0.0078388   0.0000000   0.0000000   0.0000000  -0.1094690   0.1094690  -0.1055580   0.0000000   0.0000000   0.0000000
 0.1800000  -2.5004200  -0.2995840   0.9995880   0.0000000   0.0000000  -0.0002199  -0.0085233   0.0085233  -0.0083710   0.0000000   0.0000000   0.0000000  -0.1114870   0.1114870  -0.1072870   0.0000000   0.0000000   0.0000000
 0.1850000  -2.5004600  -0.2995400   0.9995440   0.0000000   0.0000000  -0.0002549  -0.0090853   0.0090853  -0.0089112   0.0000000   0.0000000   0.0000000  -0.1132550   0.1132550  -0.1087650   0.0000000   0.0000000   0.0000000
 0.1900000  -2.5005100  -0.2994930   0.9994980   0.0000000   0.0000000  -0.0002938  -0.0096554   0.0096554  -0.0094582   0.0000000   0.0000000   0.0000000  -0.1147730   0.1147730  -0.1099930   0.0000000   0.0000000   0.0000000
 0.1950000  -2.5005600  -0.2994430   0.9994500   0.0000000   0.0000000  -0.0003368  -0.0102326   0.0102326  -0.0100107   0.0000000   0.0000000   0.0000000  -0.1160410   0.1160410  -0.1109710   0.0000000   0.0000000   0.0000000
 0.2000000  -2.5006100  -0.2993910   0.9993980   0.0000000   0.0000000  -0.0003840  -0.0108154   0.0108154  -0.0105675   0.0000000   0.0000000   0.0000000  -0.1170580   0.1170580  -0.1116990   0.0000000   0.0000000   0.0000000
 0.2050000  -2.5006600  -0.2993350   0.9993440   0.0000000   0.0000000  -0.0004357  -0.0114027   0.0114027  -0.0111273   0.0000000   0.0000000   0.0000000  -0.1178260   0.1178260  -0.1121770   0.0000000   0.0000000   0.0000000
 0.2100000  -2.5007200  -0.2992770   0.9992870   0.0000000   0.0000000  -0.0004921  -0.0119933   0.0119933  -0.0116889   0.0000000   0.0000000   0.0000000  -0.1183440   0.1183440  -0.1124050   0.0000000   0.0000000   0.0000000
 0.2150000  -2.5007800  -0.2992150   0.9992270   0.0000000   0.0000000  -0.0005532  -0.0125858   0.0125858  -0.0122509   0.0000000   0.0000000   0.0000000  -0.1186120   0.1186120  -0.1123840   0.0000000   0.0000000   0.0000000
 0.2200000  -2.5008500  -0.2991510   0.9991650   0.0000000   0.0000000  -0.0006194  -0.0131790   0.0131790  -0.0128123   0.0000000   0.0000000   0.0000000  -0.1186290   0.1186290  -0.1121120   0.0000000   0.0000000   0.0000000
 0.2250000  -2.5009200  -0.2990830   0.9990990   0.0000000   0.0000000  -0.0006908  -0.0137716   0.0137716  -0.0133716   0.0000000   0.0000000   0.0000000  -0.1183970   0.1183970  -0.1115900   0.0000000   0.0000000   0.0000000
 0.2300000  -2.5009900  -0.2990130   0.9990310   0.0000000   0.0000000  -0.0007674  -0.0143625   0.0143625  -0.0139278   0.0000000   0.0000000   0.0000000  -0.1179150   0.1179150  -0.1108180   0.0000000   0.0000000   0.0000000
 0.2350000  -2.5010600  -0.2989400   0.9989600   0.0000000   0.0000000  -0.0008494  -0.0149504   0.0149504  -0.0144794   0.0000000   0.0000000   0.0000000  -0.1171830   0.1171830  -0.1097960   0.0000000   0.0000000   0.0000000
 0.2400000  -2.5011400  -0.2988640   0.9988860   0.0000000   0.0000000  -0.0009370  -0.0155339   0.0155339  -0.0150253   0.0000000   0.0000000   0.0000000  -0.1162000   0.1162000  -0.1085240   0.0000000   0.0000000   0.0000000
 0.2450000  -2.5012200  -0.2987840   0.9988100   0.0000000   0.0000000  -0.0010303  -0.0161120   0.0161120  -0.0155642   0.0000000   0.0000000   0.0000000  -0.1149680   0.1149680  -0.1070030   0.0000000   0.0000000   0.0000000
 0.2500000  -2.5013000  -0.2987020   0.9987300   0.0000000   0.0000000  -0.0011293  -0.0166832   0.0166832  -0.0160949   0.0000000   0.0000000   0.0000000  -0.1134860   0.1134860  -0.1052310   0.0000000   0.0000000   0.0000000
 0.2550000  -2.5013800  -0.2986180   0.9986490   0.0000000   0.0000000  -0.0012342  -0.0172464   0.0172464  -0.0166161   0.0000000   0.0000000   0.0000000  -0.1117540   0.1117540  -0.1032090   0.0000000   0.0000000   0.0000000
 0.2600000  -2.5014700  -0.2985300   0.9985640   0.0000000   0.0000000  -0.0013450  -0.0178003   0.0178003  -0.0171266   0.0000000   0.0000000   0.0000000  -0.1097710   0.1097710  -0.1009370   0.0000000   0.0000000   0.0000000
 0.2650000  -2.5015600  -0.2984400   0.9984770   0.0000000   0.0000000  -0.0014619  -0.0183437   0.0183437  -0.0176251   0.0000000   0.0000000   0.0000000  -0.1075390   0.1075390  -0.0984151   0.0000000   0.0000000   0.0000000
 0.2700000  -2.5016500  -0.2983470   0.9983880   0.0000000   0.0000000  -0.0015848  -0.0188753   0.0188753  -0.0181103   0.0000000   0.0000000   0.0000000  -0.1050570   0.1050570  -0.0956433   0.0000000   0.0000000   0.0000000
 0.2750000  -2.5017500  -0.2982510   0.9982960   0.0000000   0.0000000  -0.0017139  -0.0193939   0.0193939  -0.0185811   0.0000000   0.0000000   0.0000000  -0.1023250   0.1023250  -0.0926214   0.0000000   0.0000000   0.0000000
 0.2800000  -2.5018500  -0.2981530   0.9982020   0.0000000   0.0000000  -0.0018491  -0.0198981   0.0198981  -0.0190361   0.0000000   0.0000000   0.0000000  -0.0993425   0.0993425  -0.0893496   0.0000000   0.0000000   0.0000000
 0.2850000  -2.5019500  -0.2980520   0.9981060   0.0000000   0.0000000  -0.0019905  -0.0203869   0.0203869  -0.0194742   0.0000000   0.0000000   0.0000000  -0.0961103   0.0961103  -0.0858277   0.0000000   0.0000000   0.0000000
 0.2900000  -2.5020500  -0.2979490   0.9980080   0.0000000   0.0000000  -0.0021382  -0.0208588   0.0208588  -0.0198940   0.0000000   0.0000000   0.0000000  -0.0926281   0.0926281  -0.0820559   0.0000000   0.0000000   0.0000000
 0.2950000  -2.5021600  -0.2978430   0.9979070   0.0000000   0.0000000  -0.0022921  -0.0213127   0.0213127  -0.0202943   0.0000000   0.0000000   0.0000000  -0.0888958   0.0888958  -0.0780340   0.0000000   0.0000000   0.0000000
 0.3000000  -2.5022600  -0.2977360   0.9978050   0.0000000   0.0000000  -0.0024523  -0.0217474   0.0217474  -0.0206739   0.0000000   0.0000000   0.0000000  -0.0849136   0.0849136  -0.0737622   0.0000000   0.0000000   0.0000000
 0.3050000  -2.5023700  -0.2976260   0.9977000   0.0000000   0.0000000  -0.0026187  -0.0221615   0.0221615  -0.0210315   0.0000000   0.0000000   0.0000000  -0.0806814   0.0806814  -0.0692403   0.0000000   0.0000000   0.0000000
 0.3100000  -2.5024900  -0.2975140   0.9975940   0.0000000   0.0000000  -0.0027914  -0.0225538   0.0225538  -0.0213659   0.0000000   0.0000000   0.0000000  -0.0761991   0.0761991  -0.0644684   0.0000000   0.0000000   0.0000000
 0.3150000  -2.5026000  -0.2974000   0.9974870   0.0000000   0.0000000  -0.0029703  -0.0229230   0.0229230  -0.0216758   0.0000000   0.0000000   0.0000000  -0.0714669   0.0714669  -0.0594466   0.0000000   0.0000000   0.0000000
 0.3200000  -2.5027200  -0.2972850   0.9973780   0.0000000   0.0000000  -0.0031555  -0.0232680   0.0232680  -0.0219600   0.0000000   0.0000000   0.0000000  -0.0664847   0.0664847  -0.0542111   0.0000000   0.0000000   0.0000000
 0.3250000  -2.5028300  -0.2971680   0.9972670   0.0000000   0.0000000  -0.0033469  -0.0235875   0.0235875  -0.0222182   0.0000000   0.0000000   0.0000000  -0.0612524   0.0612524  -0.0491298   0.0000000   0.0000000   0.0000000
 0.3300000  -2.5029500  -0.2970490   0.9971550   0.0000000   0.0000000  -0.0035446  -0.0238802   0.0238802  -0.0224517   0.0000000   0.0000000   0.0000000  -0.0558737   0.0558737  -0.0442985   0.0000000   0.0000000   0.0000000
 0.3350000  -2.5030700  -0.2969290   0.9970430   0.0000000   0.0000000  -0.0037485  -0.0241466   0.0241466  -0.0226616   0.0000000   0.0000000   0.0000000  -0.0507132   0.0507132  -0.0397172   0.0000000   0.0000000   0.0000000
 0.3400000  -2.5031900  -0.2968080   0.9969290   0.0000000   0.0000000  -0.0039586  -0.0243878   0.0243878  -0.0228493   0.0000000   0.0000000   0.0000000  -0.0458026   0.0458026  -0.0353859   0.0000000   0.0000000   0.0000000
 0.3450000  -2.5033100  -0.2966850   0.9968140   0.0000000   0.0000000  -0.0041750  -0.0246050   0.0246050  -0.0230159   0.0000000   0.0000000   0.0000000  -0.0411421   0.0411421  -0.0313046   0.0000000   0.0000000   0.0000000
 0.3500000  -2.5034400  -0.2965620   0.9966990   0.0000000   0.0000000  -0.0043977  -0.0247996   0.0247996  -0.0231627   0.0000000   0.0000000   0.0000000  -0.0367316   0.0367316  -0.0274733   0.0000000   0.0000000   0.0000000
 0.3550000  -2.5035600  -0.2964370   0.9965830   0.0000000   0.0000000  -0.0046266  -0.0249728   0.0249728  -0.0232910   0.0000000   0.0000000   0.0000000  -0.0325710   0.0325710  -0.0238920   0.0000000   0.0000000   0.0000000
 0.3600000  -2.5036900  -0.2963120   0.9964660   0.0000000   0.0000000  -0.0048618  -0.0251257   0.0251257  -0.0234021   0.0000000   0.0000000   0.0000000  -0.0286605   0.0286605  -0.0205607   0.0000000   0.0000000   0.0000000
 0.3650000  -2.5038100  -0.2961860   0.9963490   0.0000000   0.0000000  -0.0051032  -0.0252598   0.0252598  -0.0234971   0.0000000   0.0000000   0.0000000  -0.0250000   0.0250000  -0.0174794   0.0000000   0.0000000   0.0000000
 0.3700000  -2.5039400  -0.2960590   0.9962310   0.0000000   0.0000000  -0.0053509  -0.0253762   0.0253762  -0.0235773   0.0000000   0.0000000   0.0000000  -0.0215894   0.0215894  -0.0146481   0.0000000   0.0000000   0.0000000
 0.3750000  -2.5040700  -0.2959320   0.9961130   0.0000000   0.0000000  -0.0056048  -0.0254761   0.0254761  -0.0236440   0.0000000   0.0000000   0.0000000  -0.0184289   0.0184289  -0.0120668   0.0000000   0.0000000   0.0000000
 0.3800000  -2.5042000  -0.2958050   0.9959950   0.0000000   0.0000000  -0.0058650  -0.0255609   0.0255609  -0.0236984   0.0000000   0.0000000   0.0000000  -0.0155184   0.0155184  -0.0097355   0.0000000   0.0000000   0.0000000
 0.3850000  -2.5043200  -0.2956770   0.9958760   0.0000000   0.0000000  -0.0061314  -0.0256317   0.0256317  -0.0237417   0.0000000   0.0000000   0.0000000  -0.0128578   0.0128578  -0.0076542   0.0000000   0.0000000   0.0000000
 0.3900000  -2.5044500  -0.2955480   0.9957570   0.0000000   0.0000000  -0.0064040  -0.0256899   0.0256899  -0.0237753   0.0000000   0.0000000   0.0000000  -0.0104473   0.0104473  -0.0058229   0.0000000   0.0000000   0.0000000
 0.3950000  -2.5045800  -0.2954200   0.9956380   0.0000000   0.0000000  -0.0066830  -0.0257366   0.0257366  -0.0238004   0.0000000   0.0000000   0.0000000  -0.0082868   0.0082868  -0.0042416   0.0000000   0.0000000   0.0000000
 0.4000000  -2.5047100  -0.2952910   0.9955190   0.0000000   0.0000000  -0.0069681  -0.0257731   0.0257731  -0.0238181   0.0000000   0.0000000   0.0000000  -0.0063762   0.0063762  -0.0029103   0.0000000   0.0000000   0.0000000
 0.4050000  -2.5048400  -0.2951620   0.9954000   0.0000000   0.0000000  -0.0072595  -0.0258008   0.0258008  -0.0238299   0.0000000   0.0000000   0.0000000  -0.0047157   0.0047157  -0.0018290   0.0000000   0.0000000   0.0000000
 0.4100000  -2.5049700  -0.2950330   0.9952810   0.0000000   0.0000000  -0.0075572  -0.0258207   0.0258207  -0.0238369   0.0000000   0.0000000   0.0000000  -0.0033052   0.0033052  -0.0009977   0.0000000   0.0000000   0.0000000
 0.4150000  -2.5051000  -0.2949040   0.9951620   0.0000000   0.0000000  -0.0078611  -0.0258342   0.0258342  -0.0238403   0.0000000   0.0000000   0.0000000  -0.0021447   0.0021447  -0.0004164   0.0000000   0.0000000   0.0000000
 0.4200000  -2.5052300  -0.2947750   0.9950420   0.0000000   0.0000000  -0.0081713  -0.0258426   0.0258426  -0.0238414   0.0000000   0.0000000   0.0000000  -0.0012341   0.0012341  -0.0000851   0.0000000   0.0000000   0.0000000
 0.4250000  -2.5053500  -0.2946460   0.9949230   0.0000000   0.0000000  -0.0084877  -0.0258470   0.0258470  -0.0238416   0.0000000   0.0000000   0.0000000  -0.0005736   0.0005736  -0.0000000   0.0000000   0.0000000   0.0000000
 0.4300000  -2.5054800  -0.2945160   0.9948040   0.0000000   0.0000000  -0.0088104  -0.0258487   0.0258487  -0.0238416   0.0000000   0.0000000   0.0000000  -0.0001631   0.0001631  -0.0000000   0.0000000   0.0000000   0.0000000
 0.4350000  -2.5056100  -0.2943870   0.9946850   0.0000000   0.0000000  -0.0091393  -0.0258490   0.0258490  -0.0238416   0.0000000   0.0000000   0.0000000  -0.0000025   0.0000025  -0.0000000   0.0000000   0.0000000   0.0000000
 0.4400000  -2.5057400  -0.2942580   0.9945660   0.0000000   0.0000000  -0.0094745  -0.0258490   0.0258490  -0.0238416   0.0000000   0.0000000   0.0000000   0.0000247  -0.0000247  -0.0000000   0.0000000   0.0000000   0.0000000
 0.4450000  -2.5058700  -0.2941290   0.9944460   0.0000000   0.0000000  -0.0098159  -0.0258484   0.0258484  -0.0238416   0.0000000   0.0000000   0.0000000   0.0002609  -0.0002610  -0.0000000   0.0000000   0.0000000   0.0000000
 0.4500000  -2.5060000  -0.2939990   0.9943270   0.0000000   0.0000000  -0.0101635  -0.0258460   0.0258460  -0.0238416   0.0000000   0.0000000   0.0000000   0.0007472  -0.0007472  -0.0000000   0.0000000   0.0000000   0.0000000
 0.4550000  -2.5061300  -0.2938700   0.9942080   0.0000000   0.0000000  -0.0105175  -0.0258405   0.0258405  -0.0238416   0.0000000   0.0000000   0.0000000   0.0014834  -0.0014834   0.0000021   0.0000000   0.0000000   0.0000000
 0.4600000  -2.5062600  -0.2937410   0.9940890   0.0000000   0.0000000  -0.0108776  -0.0258307   0.0258307  -0.0238413   0.0000000   0.0000000   0.0000000   0.0024696  -0.0024696   0.0001593   0.0000000   0.0000000   0.0000000
 0.4650000  -2.5063900  -0.2936120   0.9939700   0.0000000   0.0000000  -0.0112440  -0.0258154   0.0258154  -0.0238395   0.0000000   0.0000000   0.0000000   0.0037058  -0.0037059   0.0005665   0.0000000   0.0000000   0.0000000
 0.4700000  -2.5065200  -0.2934830   0.9938500   0.0000000   0.0000000  -0.0116167  -0.0257933   0.0257933  -0.0238352   0.0000000   0.0000000   0.0000000   0.0051920  -0.0051921   0.0012237   0.0000000   0.0000000   0.0000000
 0.4750000  -2.5066500  -0.2933540   0.9937310   0.0000000   0.0000000  -0.0119956  -0.0257631   0.0257631  -0.0238269   0.0000000   0.0000000   0.0000000   0.0069282  -0.0069283   0.0021309   0.0000000   0.0000000   0.0000000
 0.4800000  -2.5067700  -0.2932250   0.9936120   0.0000000   0.0000000  -0.0123808  -0.0257236   0.0257236  -0.0238134   0.0000000   0.0000000   0.0000000   0.0089144  -0.0089145   0.0032880   0.0000000   0.0000000   0.0000000
 0.4850000  -2.5069000  -0.2930970   0.9934930   0.0000000   0.0000000  -0.0127722  -0.0256735   0.0256735  -0.0237936   0.0000000   0.0000000   0.0000000   0.0111506  -0.0111507   0.0046952   0.0000000   0.0000000   0.0000000
 0.4900000  -2.5070300  -0.2929680   0.9933740   0.0000000   0.0000000  -0.0131699  -0.0256117   0.0256116  -0.0237661   0.0000000   0.0000000   0.0000000   0.0136369  -0.0136370   0.0063524   0.0000000   0.0000000   0.0000000
 0.4950000  -2.5071600  -0.2928410   0.9932550   0.0000000   0.0000000  -0.0135738  -0.0255367   0.0255367  -0.0237297   0.0000000   0.0000000   0.0000000   0.0163731  -0.0163732   0.0082596   0.0000000   0.0000000   0.0000000
 0.5000000  -2.5072900  -0.2927130   0.9931370   0.0000000   0.0000000  -0.0139840  -0.0254475   0.0254475  -0.0236831   0.0000000   0.0000000   0.0000000   0.0193593  -0.0193594   0.0104168   0.0000000   0.0000000   0.0000000
 0.5050000  -2.5074100  -0.2925860   0.9930190   0.0000000   0.0000000  -0.0144004  -0.0253427   0.0253427  -0.0236251   0.0000000   0.0000000   0.0000000   0.0225955  -0.0225956   0.0128240   0.0000000   0.0000000   0.0000000
 0.5100000  -2.5075400  -0.2924600   0.9929010   0.0000000   0.0000000  -0.0148230  -0.0252211   0.0252211  -0.0235544   0.0000000   0.0000000   0.0000000   0.0260817  -0.0260818   0.0154812   0.0000000   0.0000000   0.0000000
 0.5150000  -2.5076700  -0.2923340   0.9927830   0.0000000   0.0000000  -0.0152520  -0.0250815   0.0250815  -0.0234698   0.0000000   0.0000000   0.0000000   0.0298179  -0.0298181   0.0183884   0.0000000   0.0000000   0.0000000
 0.5200000  -2.5077900  -0.2922090   0.9926660   0.0000000   0.0000000  -0.0156871  -0.0249225   0.0249225  -0.0233701   0.0000000   0.0000000   0.0000000   0.0338041  -0.0338043   0.0215456   0.0000000   0.0000000   0.0000000
 0.5250000  -2.5079200  -0.2920850   0.9925490   0.0000000   0.0000000  -0.0161285  -0.0247430   0.0247430  -0.0232540   0.0000000   0.0000000   0.0000000   0.0380403  -0.0380405   0.0249528   0.0000000   0.0000000   0.0000000
 0.5300000  -2.5080400  -0.2919620   0.9924340   0.0000000   0.0000000  -0.0165762  -0.0245417   0.0245417  -0.0231202   0.0000000   0.0000000   0.0000000   0.0425265  -0.0425267   0.0286100   0.0000000   0.0000000   0.0000000
 0.5350000  -2.5081600  -0.2918390   0.9923180   0.0000000   0.0000000  -0.0170301  -0.0243173   0.0243173  -0.0229674   0.0000000   0.0000000   0.0000000   0.0472628  -0.0472629   0.0325172   0.0000000   0.0000000   0.0000000
 0.5400000  -2.5082800  -0.2917180   0.9922040   0.0000000   0.0000000  -0.0174903  -0.0240687   0.0240687  -0.0227946   0.0000000   0.0000000   0.0000000   0.0522490  -0.0522492   0.0366744   0.0000000   0.0000000   0.0000000
 0.5450000  -2.5084000  -0.2915990   0.9920900   0.0000000   0.0000000  -0.0179567  -0.0237944   0.0237944  -0.0226003   0.0000000   0.0000000   0.0000000   0.0574852  -0.0574854   0.0410816   0.0000000   0.0000000   0.0000000
 0.5500000  -2.5085200  -0.2914800   0.9919780   0.0000000   0.0000000  -0.0184294  -0.0234934   0.0234934  -0.0223833   0.0000000   0.0000000   0.0000000   0.0629714  -0.0629716   0.0457388   0.0000000   0.0000000   0.0000000
 0.5550000  -2.5086400  -0.2913640   0.9918670   0.0000000   0.0000000  -0.0189083  -0.0231643   0.0231643  -0.0221425   0.0000000   0.0000000   0.0000000   0.0687076  -0.0687078   0.0506460   0.0000000   0.0000000   0.0000000
 0.5600000  -2.5087500  -0.2912490   0.9917570   0.0000000   0.0000000  -0.0193935  -0.0228059   0.0228059  -0.0218765   0.0000000   0.0000000   0.0000000   0.0746938  -0.0746941   0.0558032   0.0000000   0.0000000   0.0000000
 0.5650000  -2.5088600  -0.2911360   0.9916480   0.0000000   0.0000000  -0.0198849  -0.0224170   0.0224169  -0.0215840   0.0000000   0.0000000   0.0000000   0.0809300  -0.0809303   0.0612104   0.0000000   0.0000000   0.0000000
 0.5700000  -2.5089800  -0.2910250   0.9915410   0.0000000   0.0000000  -0.0200414  -0.0219962   0.0219962  -0.0212639   0.0000000   0.0000000   0.0000000   0.0874162  -0.0874165   0.0668676   0.0000000   0.0000000   0.0000000
 0.5750000  -2.5090800  -0.2909160   0.9914350   0.0000000   0.0000000  -0.0200414  -0.0215424   0.0215424  -0.0209149   0.0000000   0.0000000   0.0000000   0.0941346  -0.0941349   0.0727747   0.0000000   0.0000000   0.0000000
 0.5800000  -2.5091900  -0.2908090   0.9913320   0.0000000   0.0000000  -0.0200414  -0.0210551   0.0210551  -0.0205358   0.0000000   0.0000000   0.0000000   0.1007370  -0.1007380   0.0789319   0.0000000   0.0000000   0.0000000
 0.5850000  -2.5092900  -0.2907050   0.9912300   0.0000000   0.0000000  -0.0200414  -0.0205354   0.0205354  -0.0201252   0.0000000   0.0000000   0.0000000   0.1070900  -0.1070900   0.0853391   0.0000000   0.0000000   0.0000000
 0.5900000  -2.5094000  -0.2906040   0.9911300   0.0000000   0.0000000  -0.0200414  -0.0199846   0.0199846  -0.0196821   0.0000000   0.0000000   0.0000000   0.1131930  -0.1131930   0.0918879   0.0000000   0.0000000   0.0000000
 0.5950000  -2.5094900  -0.2905060   0.9910330   0.0000000   0.0000000  -0.0200414  -0.0194039   0.0194039  -0.0192067   0.0000000   0.0000000   0.0000000   0.1190460  -0.1190460   0.0982158   0.0000000   0.0000000   0.0000000
 0.6000000  -2.5095900  -0.2904100   0.9909380   0.0000000   0.0000000  -0.0200414  -0.0187946   0.0187946  -0.0187003   0.0000000   0.0000000   0.0000000   0.1246480  -0.1246490   0.1042940   0.0000000   0.0000000   0.0000000
 0.6050000  -2.5096800  -0.2903180   0.9908460   0.0000000   0.0000000  -0.0200414  -0.0181579   0.0181578  -0.0181642   0.0000000   0.0000000   0.0000000   0.1300010  -0.1300010   0.1101220   0.0000000   0.0000000   0.0000000
 0.6100000  -2.5097700  -0.2902290   0.9907570   0.0000000   0.0000000  -0.0200414  -0.0174950   0.0174950  -0.0175996   0.0000000   0.0000000   0.0000000   0.1351040  -0.1351040   0.1156990   0.0000000   0.0000000   0.0000000
 0.6150000  -2.5098600  -0.2901430   0.9906700   0.0000000   0.0000000  -0.0200414  -0.0168072   0.0168072  -0.0170076   0.0000000   0.0000000   0.0000000   0.1399570  -0.1399570   0.1210270   0.0000000   0.0000000   0.0000000
 0.6200000  -2.5099400  -0.2900610   0.9905870   0.0000000   0.0000000  -0.0200414  -0.0160958   0.0160958  -0.0163897   0.0000000   0.0000000   0.0000000   0.1445590  -0.1445600   0.1261050   0.0000000   0.0000000   0.0000000
 0.6250000  -2.5100200  -0.2899820   0.9905060   0.0000000   0.0000000  -0.0200414  -0.0153621   0.0153620  -0.0157470   0.0000000   0.0000000   0.0000000   0.1489120  -0.1489120   0.1309330   0.0000000   0.0000000   0.0000000
 0.6300000  -2.5100900  -0.2899070   0.9904290   0.0000000   0.0000000  -0.0200414  -0.0146071   0.0146071  -0.0150808   0.0000000   0.0000000   0.0000000   0.1530150  -0.1530150   0.1355110   0.0000000   0.0000000   0.0000000
 0.6350000  -2.5101600  -0.2898360   0.9903560   0.0000000   0.0000000  -0.0200414  -0.0138323   0.0138323  -0.0143923   0.0000000   0.0000000   0.0000000   0.1568680  -0.1568680   0.1398390   0.0000000   0.0000000   0.0000000
 0.6400000  -2.5102300  -0.2897690   0.9902850   0.0000000   0.0000000  -0.0200414  -0.0130389   0.0130388  -0.0136828   0.0000000   0.0000000   0.0000000   0.1604700  -0.1604700   0.1439170   0.0000000   0.0000000   0.0000000
 0.6450000  -2.5102900  -0.2897050   0.9902190   0.0000000   0.0000000  -0.0200414  -0.0122280   0.0122280  -0.0129536   0.0000000   0.0000000   0.0000000   0.1638230  -0.1638230   0.1477450   0.0000000   0.0000000   0.0000000
 0.6500000  -2.5103500  -0.2896460   0.9901560   0.0000000   0.0000000  -0.0200414  -0.0114011   0.0114010  -0.0122058   0.0000000   0.0000000   0.0000000   0.1669260  -0.1669260   0.1513230   0.0000000   0.0000000   0.0000000
 0.6550000  -2.5104100  -0.2895910   0.9900970   0.0000000   0.0000000  -0.0200414  -0.0105592   0.0105592  -0.0114407   0.0000000   0.0000000   0.0000000   0.1697790  -0.1697790   0.1546500   0.0000000   0.0000000   0.0000000
 0.6600000  -2.5104600  -0.2895410   0.9900420   0.0000000   0.0000000  -0.0200414  -0.0097037   0.0097036  -0.0106597   0.0000000   0.0000000   0.0000000   0.1723810  -0.1723810   0.1577280   0.0000000   0.0000000   0.0000000
 0.6650000  -2.5105100  -0.2894940   0.9899900   0.0000000   0.0000000  -0.0200414  -0.0088358   0.0088358  -0.0098639   0.0000000   0.0000000   0.0000000   0.1747340  -0.1747340   0.1605560   0.0000000   0.0000000   0.0000000
 0.6700000  -2.5105500  -0.2894520   0.9899430   0.0000000   0.0000000  -0.0200414  -0.0079568   0.0079567  -0.0090545   0.0000000   0.0000000   0.0000000   0.1768370  -0.1768370   0.1631340   0.0000000   0.0000000   0.0000000
 0.6750000  -2.5105900  -0.2894150   0.9899000   0.0000000   0.0000000  -0.0200414  -0.0070678   0.0070678  -0.0082329   0.0000000   0.0000000   0.0000000   0.1786900  -0.1786900   0.1654620   0.0000000   0.0000000   0.0000000
 0.6800000  -2.5106200  -0.2893820   0.9898610   0.0000000   0.0000000  -0.0200414  -0.0061703   0.0061703  -0.0074003   0.0000000   0.0000000   0.0000000   0.1802920  -0.1802920   0.1675400   0.0000000   0.0000000   0.0000000
 0.6850000  -2.5106500  -0.2893530   0.9898260   0.0000000   0.0000000  -0.0200414  -0.0052653   0.0052653  -0.0065580   0.0000000   0.0000000   0.0000000   0.1816450  -0.1816450   0.1693680   0.0000000   0.0000000   0.0000000
 0.6900000  -2.5106700  -0.2893290   0.9897950   0.0000000   0.0000000  -0.0200414  -0.0043542   0.0043542  -0.0057071   0.0000000   0.0000000   0.0000000   0.1827480  -0.1827480   0.1709460   0.0000000   0.0000000   0.0000000
 0.6950000  -2.5106900  -0.2893100   0.9897690   0.0000000   0.0000000  -0.0200414  -0.0034383   0.0034382  -0.0048489   0.0000000   0.0000000   0.0000000   0.1836000  -0.1836010   0.1722730   0.0000000   0.0000000   0.0000000
 0.7000000  -2.5107100  -0.2892950   0.9897470   0.0000000   0.0000000  -0.0200414  -0.0025187   0.0025186  -0.0039848   0.0000000   0.0000000   0.0000000   0.1842030  -0.1842030   0.1733510   0.0000000   0.0000000   0.0000000
 0.7050000  -2.5107200  -0.2892850   0.9897290   0.0000000   0.0000000  -0.0200414  -0.0015967   0.0015966  -0.0031158   0.0000000   0.0000000   0.0000000   0.1845560  -0.1845560   0.1741790   0.0000000   0.0000000   0.0000000
 0.7100000  -2.5107200  -0.2892790   0.9897150   0.0000000   0.0000000  -0.0200414  -0.0006735   0.0006735  -0.0022434   0.0000000   0.0000000   0.0000000   0.1846590  -0.1846590   0.1747570   0.0000000   0.0000000   0.0000000
 0.7150000  -2.5107200  -0.2892780   0.9897060   0.0000000   0.0000000  -0.0200414   0.0002495  -0.0002495  -0.0013687   0.0000000   0.0000000   0.0000000   0.1845110  -0.1845110   0.1750850   0.0000000   0.0000000   0.0000000
 0.7200000  -2.5107200  -0.2892810   0.9897020   0.0000000   0.0000000  -0.0200414   0.0011712  -0.0011712  -0.0004930   0.0000000   0.0000000   0.0000000   0.1841140  -0.1841140   0.1751630   0.0000000   0.0000000   0.0000000
 0.7250000  -2.5107100  -0.2892890   0.9897020   0.0000000   0.0000000  -0.0200414   0.0020902  -0.0020903   0.0003825   0.0000000   0.0000000   0.0000000   0.1834670  -0.1834670   0.1749910   0.0000000   0.0000000   0.0000000
 0.7300000  -2.5107000  -0.2893020   0.9897060   0.0000000   0.0000000  -0.0200414   0.0030054  -0.0030055   0.0012565   0.0000000   0.0000000   0.0000000   0.1825700  -0.1825700   0.1745690   0.0000000   0.0000000   0.0000000
 0.7350000  -2.5106800  -0.2893200   0.9897140   0.0000000   0.0000000  -0.0200414   0.0039155  -0.0039156   0.0021278   0.0000000   0.0000000   0.0000000   0.1814220  -0.1814220   0.1738970   0.0000000   0.0000000   0.0000000
 0.7400000  -2.5106600  -0.2893410   0.9897270   0.0000000   0.0000000  -0.0200414   0.0048192  -0.0048193   0.0029951   0.0000000   0.0000000   0.0000000   0.1800250  -0.1800250   0.1729740   0.0000000   0.0000000   0.0000000
 0.7450000  -2.5106300  -0.2893680   0.9897440   0.0000000   0.0000000  -0.0200414   0.0057154  -0.0057154   0.0038571   0.0000000   0.0000000   0.0000000   0.1783780  -0.1783780   0.1718020   0.0000000   0.0000000   0.0000000
 0.7500000  -2.5106000  -0.2893990   0.9897650   0.0000000   0.0000000  -0.0200414   0.0066026  -0.0066026   0.0047127   0.0000000   0.0000000   0.0000000   0.1764810  -0.1764810   0.1703800   0.0000000   0.0000000   0.0000000
 0.7550000  -2.5105700  -0.2894340   0.9897910   0.0000000   0.0000000  -0.0200414   0.0074797  -0.0074798   0.0055605   0.0000000   0.0000000   0.0000000   0.1743330  -0.1743330   0.1687080   0.0000000   0.0000000   0.0000000
 0.7600000  -2.5105300  -0.2894730   0.9898210   0.0000000   0.0000000  -0.0200414   0.0083455  -0.0083456   0.0063994   0.0000000   0.0000000   0.0000000   0.1719360  -0.1719360   0.1667860   0.0000000   0.0000000   0.0000000
 0.7650000  -2.5104800  -0.2895170   0.9898550   0.0000000   0.0000000  -0.0200414   0.0091987  -0.0091987   0.0072280   0.0000000   0.0000000   0.0000000   0.1692890  -0.1692890   0.1646140   0.0000000   0.0000000   0.0000000
 0.7700000  -2.5104300  -0.2895650   0.9898930   0.0000000   0.0000000  -0.0200414   0.0100380  -0.0100380   0.0080451   0.0000000   0.0000000   0.0000000   0.1663920  -0.1663920   0.1621920   0.0000000   0.0000000   0.0000000
 0.7750000  -2.5103800  -0.2896180   0.9899360   0.0000000   0.0000000  -0.0200414   0.0108622  -0.0108622   0.0088495   0.0000000   0.0000000   0.0000000   0.1632440  -0.1632440   0.1595200   0.0000000   0.0000000   0.0000000
 0.7800000  -2.5103300  -0.2896740   0.9899820   0.0000000   0.0000000  -0.0200414   0.0116700  -0.0116701   0.0096399   0.0000000   0.0000000   0.0000000   0.1598470  -0.1598470   0.1565980   0.0000000   0.0000000   0.0000000
 0.7850000  -2.5102700  -0.2897340   0.9900320   0.0000000   0.0000000  -0.0200414   0.0124602  -0.0124603   0.0104150   0.0000000   0.0000000   0.0000000   0.1562000  -0.1562000   0.1534250   0.0000000   0.0000000   0.0000000
 0.7900000  -2.5102000  -0.2897980   0.9900860   0.0000000   0.0000000  -0.0200414   0.0132316  -0.0132316   0.0111737   0.0000000   0.0000000   0.0000000   0.1523030  -0.1523030   0.1500030   0.0000000   0.0000000   0.0000000
 0.7950000  -2.5101300  -0.2898660   0.9901440   0.0000000   0.0000000  -0.0200414   0.0139828  -0.0139829   0.0119146   0.0000000   0.0000000   0.0000000   0.1481550  -0.1481550   0.1463310   0.0000000   0.0000000   0.0000000
 0.8000000  -2.5100600  -0.2899380   0.9902050   0.0000000   0.0000000  -0.0200414   0.0147127  -0.0147128   0.0126366   0.0000000   0.0000000   0.0000000   0.1437580  -0.1437580   0.1424090   0.0000000   0.0000000   0.0000000
 0.8050000  -2.5099900  -0.2900140   0.9902700   0.0000000   0.0000000  -0.0200414   0.0154200  -0.0154200   0.0133383   0.0000000   0.0000000   0.0000000   0.1391110  -0.1391110   0.1382370   0.0000000   0.0000000   0.0000000
 0.8100000  -2.5099100  -0.2900920   0.9903380   0.0000000   0.0000000  -0.0200414   0.0161034  -0.0161035   0.0140185   0.0000000   0.0000000   0.0000000   0.1342140  -0.1342130   0.1338150   0.0000000   0.0000000   0.0000000
 0.8150000  -2.5098300  -0.2901750   0.9904100   0.0000000   0.0000000  -0.0200414   0.0167617  -0.0167618   0.0146760   0.0000000   0.0000000   0.0000000   0.1290660  -0.1290660   0.1291430   0.0000000   0.0000000   0.0000000
 0.8200000  -2.5097400  -0.2902600   0.9904850   0.0000000   0.0000000  -0.0200414   0.0173937  -0.0173937   0.0153096   0.0000000   0.0000000   0.0000000   0.1236690  -0.1236690   0.1242210   0.0000000   0.0000000   0.0000000
 0.8250000  -2.5096500  -0.2903480   0.9905630   0.0000000   0.0000000  -0.0200414   0.0179980  -0.0179980   0.0159178   0.0000000   0.0000000   0.0000000   0.1180220  -0.1180220   0.1190490   0.0000000   0.0000000   0.0000000
 0.8300000  -2.5095600  -0.2904400   0.9906440   0.0000000   0.0000000  -0.0200414   0.0185735  -0.0185735   0.0164996   0.0000000   0.0000000   0.0000000   0.1121250  -0.1121240   0.1136260   0.0000000   0.0000000   0.0000000
 0.8350000  -2.5094700  -0.2905340   0.9907280   0.0000000   0.0000000  -0.0200414   0.0191188  -0.0191189   0.0170537   0.0000000   0.0000000   0.0000000   0.1059770  -0.1059770   0.1079540   0.0000000   0.0000000   0.0000000
 0.8400000  -2.5093700  -0.2906310   0.9908150   0.0000000   0.0000000  -0.0200414   0.0196328  -0.0196329   0.0175787   0.0000000   0.0000000   0.0000000   0.0995800  -0.0995799   0.1020320   0.0000000   0.0000000   0.0000000
 0.8450000  -2.5092700  -0.2907300   0.9909040   0.0000000   0.0000000  -0.0200414   0.0201142  -0.0201142   0.0180736   0.0000000   0.0000000   0.0000000   0.0929328  -0.0929326   0.0958600   0.0000000   0.0000000   0.0000000
 0.8500000  -2.5091700  -0.2908320   0.9909950   0.0000000   0.0000000  -0.0200414   0.0205617  -0.0205618   0.0185369   0.0000000   0.0000000   0.0000000   0.0860355  -0.0860353   0.0894379   0.0000000   0.0000000   0.0000000
 0.8550000  -2.5090600  -0.2909360   0.9910890   0.0000000   0.0000000  -0.0200414   0.0209742  -0.0209742   0.0189675   0.0000000   0.0000000   0.0000000   0.0788883  -0.0788881   0.0827658   0.0000000   0.0000000   0.0000000
 0.8600000  -2.5089600  -0.2910420   0.9911850   0.0000000   0.0000000  -0.0200414   0.0213502  -0.0213502   0.0193642   0.0000000   0.0000000   0.0000000   0.0714910  -0.0714908   0.0758437   0.0000000   0.0000000   0.0000000
 0.8650000  -2.5088500  -0.2911490   0.9912830   0.0000000   0.0000000  -0.0200414   0.0216886  -0.0216887   0.0197256   0.0000000   0.0000000   0.0000000   0.0638438  -0.0638435   0.0686716   0.0000000   0.0000000   0.0000000
 0.8700000  -2.5087400  -0.2912590   0.9913820   0.0000000   0.0000000  -0.0200414   0.0219882  -0.0219883   0.0200505   0.0000000   0.0000000   0.0000000   0.0559465  -0.0559463   0.0612495   0.0000000   0.0000000   0.0000000
 0.8750000  -2.5086300  -0.2913690   0.9914830   0.0000000   0.0000000  -0.0200414   0.0222477  -0.0222477   0.0203376   0.0000000   0.0000000   0.0000000   0.0477992  -0.0477990   0.0535774   0.0000000   0.0000000   0.0000000
 0.8800000  -2.5085200  -0.2914810   0.9915860   0.0000000   0.0000000  -0.0200414   0.0224658  -0.0224658   0.0205858   0.0000000   0.0000000   0.0000000   0.0394020  -0.0394017   0.0456552   0.0000000   0.0000000   0.0000000
 0.8850000  -2.5084100  -0.2915940   0.9916890   0.0000000   0.0000000  -0.0200414   0.0226413  -0.0226413   0.0207938   0.0000000   0.0000000   0.0000000   0.0307547  -0.0307545   0.0374831   0.0000000   0.0000000   0.0000000
 0.8900000  -2.5082900  -0.2917070   0.9917930   0.0000000   0.0000000  -0.0200414   0.0227729  -0.0227730   0.0209602   0.0000000   0.0000000   0.0000000   0.0218575  -0.0218572   0.0290610   0.0000000   0.0000000   0.0000000
 0.8950000  -2.5081800  -0.2918210   0.9918990   0.0000000   0.0000000  -0.0200414   0.0228595  -0.0228595   0.0210840   0.0000000   0.0000000   0.0000000   0.0127102  -0.0127099   0.0203889   0.0000000   0.0000000   0.0000000
 0.9000000  -2.5080600  -0.2919360   0.9920040   0.0000000   0.0000000  -0.0200414   0.0228996  -0.0228996   0.0211637   0.0000000   0.0000000   0.0000000   0.0033130  -0.0033127   0.0114668   0.0000000   0.0000000   0.0000000
 0.9050000  -2.5079500  -0.2920500   0.9921100   0.0000000   0.0000000  -0.0200414   0.0228922  -0.0228922   0.0211982   0.0000000   0.0000000   0.0000000  -0.0063343   0.0063346   0.0022947   0.0000000   0.0000000   0.0000000
 0.9100000  -2.5078400  -0.2921650   0.9922160   0.0000000   0.0000000  -0.0200414   0.0228359  -0.0228359   0.0211862   0.0000000   0.0000000   0.0000000  -0.0162315   0.0162318  -0.0071274   0.0000000   0.0000000   0.0000000
 0.9150000  -2.5077200  -0.2922790   0.9923220   0.0000000   0.0000000  -0.0200414   0.0227294  -0.0227294   0.0211265   0.0000000   0.0000000   0.0000000  -0.0263788   0.0263791  -0.0167996   0.0000000   0.0000000   0.0000000
 0.9200000  -2.5076100  -0.2923920   0.9924270   0.0000000   0.0000000  -0.0200414   0.0225717  -0.0225717   0.0210178   0.0000000   0.0000000   0.0000000  -0.0367761   0.0367764  -0.0267217   0.0000000   0.0000000   0.0000000
 0.9250000  -2.5075000  -0.2925040   0.9925320   0.0000000   0.0000000  -0.0200414   0.0223613  -0.0223613   0.0208589   0.0000000   0.0000000   0.0000000  -0.0474233   0.0474236  -0.0368938   0.0000000   0.0000000   0.0000000
 0.9300000  -2.5073800  -0.2926150   0.9926360   0.0000000   0.0000000  -0.0200414   0.0220970  -0.0220970   0.0206485   0.0000000   0.0000000   0.0000000  -0.0583206   0.0583209  -0.0473159   0.0000000   0.0000000   0.0000000
 0.9350000  -2.5072700  -0.2927250   0.9927380   0.0000000   0.0000000  -0.0200414   0.0217776  -0.0217776   0.0203853   0.0000000   0.0000000   0.0000000  -0.0694678   0.0694682  -0.0579880   0.0000000   0.0000000   0.0000000
 0.9400000  -2.5071700  -0.2928330   0.9928390   0.0000000   0.0000000  -0.0200414   0.0214019  -0.0214019   0.0200682   0.0000000   0.0000000   0.0000000  -0.0808651   0.0808654  -0.0689101   0.0000000   0.0000000   0.0000000
 0.9450000  -2.5070600  -0.2929390   0.9929390   0.0000000   0.0000000  -0.0200414   0.0209686  -0.0209686   0.0196958   0.0000000   0.0000000   0.0000000  -0.0925123   0.0925127  -0.0800823   0.0000000   0.0000000   0.0000000
 0.9500000  -2.5069600  -0.2930430   0.9930360   0.0000000   0.0000000  -0.0200414   0.0204764  -0.0204764   0.0192669   0.0000000   0.0000000   0.0000000  -0.1044100   0.1044100  -0.0915044   0.0000000   0.0000000   0.0000000
 0.9550000  -2.5068600  -0.2931440   0.9931320   0.0000000   0.0000000  -0.0200414   0.0199241  -0.0199241   0.0187803   0.0000000   0.0000000   0.0000000  -0.1165570   0.1165570  -0.1031760   0.0000000   0.0000000   0.0000000
 0.9600000  -2.5067600  -0.2932420   0.9932240   0.0000000   0.0000000  -0.0200414   0.0193104  -0.0193104   0.0182348   0.0000000   0.0000000   0.0000000  -0.1289540   0.1289540  -0.1150990   0.0000000   0.0000000   0.0000000
 0.9650000  -2.5066600  -0.2933370   0.9933140   0.0000000   0.0000000  -0.0200414   0.0186341  -0.0186341   0.0176289   0.0000000   0.0000000   0.0000000  -0.1416010   0.1416020  -0.1272710   0.0000000   0.0000000   0.0000000
 0.9700000  -2.5065700  -0.2934280   0.9934000   0.0000000   0.0000000  -0.0200414   0.0178940  -0.0178939   0.0169616   0.0000000   0.0000000   0.0000000  -0.1544990   0.1544990  -0.1396930   0.0000000   0.0000000   0.0000000
 0.9750000  -2.5064800  -0.2935160   0.9934830   0.0000000   0.0000000  -0.0200414   0.0170887  -0.0170887   0.0162316   0.0000000   0.0000000   0.0000000  -0.1676460   0.1676460  -0.1523650   0.0000000   0.0000000   0.0000000
 0.9800000  -2.5064000  -0.2935990   0.9935620   0.0000000   0.0000000  -0.0200414   0.0162171  -0.0162171   0.0154376   0.0000000   0.0000000   0.0000000  -0.1810430   0.1810440  -0.1652870   0.0000000   0.0000000   0.0000000
 0.9850000  -2.5063200  -0.2936780   0.9936380   0.0000000   0.0000000  -0.0200414   0.0152778  -0.0152778   0.0145783   0.0000000   0.0000000   0.0000000  -0.1946900   0.1946910  -0.1784590   0.0000000   0.0000000   0.0000000
 0.9900000  -2.5062500  -0.2937520   0.9937080   0.0000000   0.0000000  -0.0200414   0.0142698  -0.0142697   0.0136526   0.0000000   0.0000000   0.0000000  -0.2085880   0.2085880  -0.1918810   0.0000000   0.0000000   0.0000000
 0.9950000  -2.5061800  -0.2938200   0.9937740   0.0000000   0.0000000  -0.0200414   0.0131916  -0.0131915   0.0126591   0.0000000   0.0000000   0.0000000  -0.2227350   0.2227350  -0.2055530   0.0000000   0.0000000   0.0000000
 1.0000000  -2.5061200  -0.2938830   0.9938350   0.0000000   0.0000000  -0.0200414   0.0120420  -0.0120420   0.0115966   0.0000000   0.0000000   0.0000000  -0.2371320   0.2371330  -0.2194760   0.0000000   0.0000000   0.0000000
 1.0050000  -2.5060600  -0.2939410   0.9938900   0.0000000   0.0000000  -0.0200414   0.0108198  -0.0108198   0.0104639   0.0000000   0.0000000   0.0000000  -0.2517670   0.2517680  -0.2336480   0.0000000   0.0000000   0.0000000
 1.0100000  -2.5060100  -0.2939910   0.9939390   0.0000000   0.0000000  -0.0200414   0.0095245  -0.0095245   0.0092597   0.0000000   0.0000000   0.0000000  -0.2663040   0.2663050  -0.2480520   0.0000000   0.0000000   0.0000000
 1.0150000  -2.5059600  -0.2940360   0.9939820   0.0000000   0.0000000  -0.0200414   0.0081572  -0.0081572   0.0079837   0.0000000   0.0000000   0.0000000  -0.2805910   0.2805920  -0.2623390   0.0000000   0.0000000   0.0000000
 1.0200000  -2.5059300  -0.2940730   0.9940190   0.0000000   0.0000000  -0.0200414   0.0067190  -0.0067190   0.0066368   0.0000000   0.0000000   0.0000000  -0.2946280   0.2946290  -0.2763770   0.0000000   0.0000000   0.0000000
 1.0250000  -2.5059000  -0.2941030   0.9940490   0.0000000   0.0000000  -0.0200414   0.0052113  -0.0052113   0.0052203   0.0000000   0.0000000   0.0000000  -0.3084150   0.3084160  -0.2901640   0.0000000   0.0000000   0.0000000
 1.0300000  -2.5058800  -0.2941250   0.9940710   0.0000000   0.0000000  -0.0200414   0.0036353  -0.0036353   0.0037355   0.0000000   0.0000000   0.0000000  -0.3219520   0.3219520  -0.3037010   0.0000000   0.0000000   0.0000000
 1.0350000  -2.5058600  -0.2941390   0.9940860   0.0000000   0.0000000  -0.0200414   0.0019922  -0.0019922   0.0021837   0.0000000   0.0000000   0.0000000  -0.3352390   0.3352390  -0.3169890   0.0000000   0.0000000   0.0000000
 1.0400000  -2.5058600  -0.2941450   0.9940930   0.0000000   0.0000000  -0.0200414   0.0002833  -0.0002833   0.0005661   0.0000000   0.0000000   0.0000000  -0.3482760   0.3482760  -0.3300260   0.0000000   0.0000000   0.0000000
 1.0450000  -2.5058600  -0.2941420   0.9940910   0.0000000   0.0000000  -0.0200414  -0.0014901   0.0014901  -0.0011161   0.0000000   0.0000000   0.0000000  -0.3610630   0.3610630  -0.3428140   0.0000000   0.0000000   0.0000000
 1.0500000  -2.5058700  -0.2941300   0.9940810   0.0000000   0.0000000  -0.0200414  -0.0033269   0.0033269  -0.0028617   0.0000000   0.0000000   0.0000000  -0.3736000   0.3736000  -0.3553510   0.0000000   0.0000000   0.0000000
 1.0550000  -2.5058900  -0.2941080   0.9940630   0.0000000   0.0000000  -0.0200414  -0.0052257   0.0052257  -0.0046692   0.0000000   0.0000000   0.0000000  -0.3858870   0.3858870  -0.3676390   0.0000000   0.0000000   0.0000000
 1.0600000  -2.5059200  -0.2940770   0.9940350   0.0000000   0.0000000  -0.0200414  -0.0071853   0.0071854  -0.0065376   0.0000000   0.0000000   0.0000000  -0.3979240   0.3979240  -0.3796760   0.0000000   0.0000000   0.0000000
 1.0650000  -2.5059600  -0.2940360   0.9939970   0.0000000   0.0000000  -0.0200414  -0.0092045   0.0092046  -0.0084656   0.0000000   0.0000000   0.0000000  -0.4097110   0.4097110  -0.3914640   0.0000000   0.0000000   0.0000000
 1.0700000  -2.5060100  -0.2939850   0.9939500   0.0000000   0.0000000  -0.0200414  -0.0112820   0.0112821  -0.0104519   0.0000000   0.0000000   0.0000000  -0.4212480   0.4212480  -0.4030010   0.0000000   0.0000000   0.0000000
 1.0750000  -2.5060800  -0.2939230   0.9938930   0.0000000   0.0000000  -0.0200414  -0.0134166   0.0134166  -0.0124952   0.0000000   0.0000000   0.0000000  -0.4325350   0.4325350  -0.4142890   0.0000000   0.0000000   0.0000000
 1.0800000  -2.5061500  -0.2938510   0.9938250   0.0000000   0.0000000  -0.0200414  -0.0156070   0.0156070  -0.0145943   0.0000000   0.0000000   0.0000000  -0.4435720   0.4435720  -0.4253260   0.0000000   0.0000000   0.0000000
 1.0850000  -2.5062300  -0.2937670   0.9937460   0.0000000   0.0000000  -0.0200414  -0.0178519   0.0178519  -0.0167480   0.0000000   0.0000000   0.0000000  -0.4543590   0.4543590  -0.4361140   0.0000000   0.0000000   0.0000000
 1.0900000  -2.5063300  -0.2936720   0.9936570   0.0000000   0.0000000  -0.0200414  -0.0201501   0.0201502  -0.0189550   0.0000000   0.0000000   0.0000000  -0.4648960   0.4648960  -0.4466510   0.0000000   0.0000000   0.0000000
 1.0950000  -2.5064300  -0.2935660   0.9935570   0.0000000   0.0000000  -0.0200414  -0.0225004   0.0225005  -0.0212141   0.0000000   0.0000000   0.0000000  -0.4751830   0.4751830  -0.4569390   0.0000000   0.0000000   0.0000000
 1.1000000  -2.5065500  -0.2934470   0.9934450   0.0000000   0.0000000  -0.0200414  -0.0249015   0.0249016  -0.0235240   0.0000000   0.0000000   0.0000000  -0.4852200   0.4852200  -0.4669760   0.0000000   0.0000000   0.0000000
 1.1050000  -2.5066800  -0.2933170   0.9933220   0.0000000   0.0000000  -0.0200414  -0.0273522   0.0273523  -0.0258835   0.0000000   0.0000000   0.0000000  -0.4950060   0.4950070  -0.4767640   0.0000000   0.0000000   0.0000000
 1.1100000  -2.5068300  -0.2931740   0.9931860   0.0000000   0.0000000  -0.0200414  -0.0298512   0.0298512  -0.0282912   0.0000000   0.0000000   0.0000000  -0.5045430   0.5045440  -0.4863010   0.0000000   0.0000000   0.0000000
 1.1150000  -2.5069800  -0.2930180   0.9930390   0.0000000   0.0000000  -0.0200414  -0.0323972   0.0323973  -0.0307461   0.0000000   0.0000000   0.0000000  -0.5138300   0.5138310  -0.4955880   0.0000000   0.0000000   0.0000000
 1.1200000  -2.5071500  -0.2928500   0.9928790   0.0000000   0.0000000  -0.0200414  -0.0349891   0.0349891  -0.0332467   0.0000000   0.0000000   0.0000000  -0.5228670   0.5228680  -0.5046260   0.0000000   0.0000000   0.0000000
 1.1250000  -2.5073300  -0.2926680   0.9927060   0.0000000   0.0000000  -0.0200414  -0.0376255   0.0376255  -0.0357919   0.0000000   0.0000000   0.0000000  -0.5316540   0.5316550  -0.5134130   0.0000000   0.0000000   0.0000000
 1.1300000  -2.5075300  -0.2924730   0.9925210   0.0000000   0.0000000  -0.0200414  -0.0403052   0.0403053  -0.0383804   0.0000000   0.0000000   0.0000000  -0.5401910   0.5401920  -0.5219510   0.0000000   0.0000000   0.0000000
 1.1350000  -2.5077400  -0.2922650   0.9923220   0.0000000   0.0000000  -0.0200414  -0.0430270   0.0430270  -0.0410110   0.0000000   0.0000000   0.0000000  -0.5484780   0.5484780  -0.5302380   0.0000000   0.0000000   0.0000000
 1.1400000  -2.5079600  -0.2920430   0.9921100   0.0000000   0.0000000  -0.0200414  -0.0457896   0.0457896  -0.0436824   0.0000000   0.0000000   0.0000000  -0.5565150   0.5565150  -0.5382760   0.0000000   0.0000000   0.0000000
 1.1450000  -2.5081900  -0.2918070   0.9918850   0.0000000   0.0000000  -0.0200414  -0.0485917   0.0485918  -0.0463933   0.0000000   0.0000000   0.0000000  -0.5643020   0.5643020  -0.5460630   0.0000000   0.0000000   0.0000000
 1.1500000  -2.5084400  -0.2915570   0.9916460   0.0000000   0.0000000  -0.0200414  -0.0514322   0.0514322  -0.0491426   0.0000000   0.0000000   0.0000000  -0.5718390   0.5718390  -0.5536010   0.0000000   0.0000000   0.0000000
 1.1550000  -2.5087100  -0.2912930   0.9913940   0.0000000   0.0000000  -0.0200414  -0.0543097   0.0543097  -0.0519289   0.0000000   0.0000000   0.0000000  -0.5791260   0.5791260  -0.5608880   0.0000000   0.0000000   0.0000000
 1.1600000  -2.5089900  -0.2910140   0.9911270   0.0000000   0.0000000  -0.0200414  -0.0572230   0.0572231  -0.0547511   0.0000000   0.0000000   0.0000000  -0.5861630   0.5861630  -0.5679260   0.0000000   0.0000000   0.0000000
 1.1650000  -2.5092800  -0.2907200   0.9908460   0.0000000   0.0000000  -0.0200414  -0.0601709   0.0601710  -0.0576078   0.0000000   0.0000000   0.0000000  -0.5929500   0.5929500  -0.5747130   0.0000000   0.0000000   0.0000000
 1.1700000  -2.5095900  -0.2904120   0.9905510   0.0000000   0.0000000  -0.0200414  -0.0631521   0.0631522  -0.0604978   0.0000000   0.0000000   0.0000000  -0.5994870   0.5994870  -0.5812510   0.0000000   0.0000000   0.0000000
 1.1750000  -2.5099100  -0.2900890   0.9902410   0.0000000   0.0000000  -0.0200414  -0.0661653   0.0661654  -0.0634199   0.0000000   0.0000000   0.0000000  -0.6057740   0.6057740  -0.5875380   0.0000000   0.0000000   0.0000000
 1.1800000  -2.5102500  -0.2897500   0.9899170   0.0000000   0.0000000  -0.0200414  -0.0692094   0.0692095  -0.0663728   0.0000000   0.0000000   0.0000000  -0.6118110   0.6118110  -0.5935760   0.0000000   0.0000000   0.0000000
 1.1850000  -2.5106000  -0.2893970   0.9895770   0.0000000   0.0000000  -0.0200414  -0.0722830   0.0722831  -0.0693552   0.0000000   0.0000000   0.0000000  -0.6175980   0.6175980  -0.5993630   0.0000000   0.0000000   0.0000000
 1.1900000  -2.5109700  -0.2890270   0.9892230   0.0000000   0.0000000  -0.0200414  -0.0753850   0.0753851  -0.0723660   0.0000000   0.0000000   0.0000000  -0.6231350   0.6231350  -0.6049010   0.0000000   0.0000000   0.0000000
 1.1950000  -2.5113600  -0.2886430   0.9888540   0.0000000   0.0000000  -0.0200414  -0.0785140   0.0785140  -0.0754038   0.0000000   0.0000000   0.0000000  -0.6284220   0.6284220  -0.6101880   0.0000000   0.0000000   0.0000000
 1.2000000  -2.5117600  -0.2882420   0.9884690   0.0000000   0.0000000  -0.0200414  -0.0816688   0.0816689  -0.0784674   0.0000000   0.0000000   0.0000000  -0.6334590   0.6334590  -0.6152250   0.0000000   0.0000000   0.0000000
 1.2050000  -2.5121700  -0.2878260   0.9880690   0.0000000   0.0000000  -0.0200414  -0.0848481   0.0848482  -0.0815556   0.0000000   0.0000000   0.0000000  -0.6382460   0.6382460  -0.6200130   0.0000000   0.0000000   0.0000000
 1.2100000  -2.5126100  -0.2873940   0.9876530   0.0000000   0.0000000  -0.0200414  -0.0880508   0.0880509  -0.0846671   0.0000000   0.0000000   0.0000000  -0.6427830   0.6427830  -0.6245500   0.0000000   0.0000000   0.0000000
 1.2150000  -2.5130500  -0.2869450   0.9872220   0.0000000   0.0000000  -0.0200414  -0.0912755   0.0912756  -0.0878007   0.0000000   0.0000000   0.0000000  -0.6470700   0.6470700  -0.6288380   0.0000000   0.0000000   0.0000000
 1.2200000  -2.5135200  -0.2864810   0.9867750   0.0000000   0.0000000  -0.0200414  -0.0945211   0.0945212  -0.0909551   0.0000000   0.0000000   0.0000000  -0.6511070   0.6511070  -0.6328750   0.0000000   0.0000000   0.0000000
 1.2250000  -2.5140000  -0.2860000   0.9863130   0.0000000   0.0000000  -0.0200414  -0.0977862   0.0977863  -0.0941291   0.0000000   0.0000000   0.0000000  -0.6548940   0.6548940  -0.6366630   0.0000000   0.0000000   0.0000000
 1.2300000  -2.5145000  -0.2855030   0.9858340   0.0000000   0.0000000  -0.0200414  -0.1010700   0.1010700  -0.0973213   0.0000000   0.0000000   0.0000000  -0.6584300   0.6584310  -0.6402000   0.0000000   0.0000000   0.0000000
 1.2350000  -2.5150100  -0.2849890   0.9853390   0.0000000   0.0000000  -0.0200414  -0.1043700   0.1043700  -0.1005310   0.0000000   0.0000000   0.0000000  -0.6617170   0.6617180  -0.6434880   0.0000000   0.0000000   0.0000000
 1.2400000  -2.5155400  -0.2844590   0.9848290   0.0000000   0.0000000  -0.0200414  -0.1076860   0.1076860  -0.1037560   0.0000000   0.0000000   0.0000000  -0.6647540   0.6647540  -0.6465250   0.0000000   0.0000000   0.0000000
 1.2450000  -2.5160900  -0.2839130   0.9843020   0.0000000   0.0000000  -0.0200414  -0.1110170   0.1110170  -0.1069950   0.0000000   0.0000000   0.0000000  -0.6675410   0.6675410  -0.6493130   0.0000000   0.0000000   0.0000000
 1.2500000  -2.5166500  -0.2833490   0.9837590   0.0000000   0.0000000  -0.0200414  -0.1143610   0.1143610  -0.1102480   0.0000000   0.0000000   0.0000000  -0.6700780   0.6700780  -0.6518500   0.0000000   0.0000000   0.0000000
 1.2550000  -2.5172300  -0.2827690   0.9831990   0.0000000   0.0000000  -0.0200414  -0.1177180   0.1177180  -0.1135140   0.0000000   0.0000000   0.0000000  -0.6723650   0.6723650  -0.6541380   0.0000000   0.0000000   0.0000000
 1.2600000  -2.5178300  -0.2821720   0.9826240   0.0000000   0.0000000  -0.0200414  -0.1210850   0.1210850  -0.1167890   0.0000000   0.0000000   0.0000000  -0.6744020   0.6744020  -0.6561750   0.0000000   0.0000000   0.0000000
 1.2650000  -2.5184400  -0.2815580   0.9820310   0.0000000   0.0000000  -0.0200414  -0.1244610   0.1244610  -0.1200750   0.0000000   0.0000000   0.0000000  -0.6761890   0.6761890  -0.6579630   0.0000000   0.0000000   0.0000000
 1.2700000  -2.5190700  -0.2809270   0.9814230   0.0000000   0.0000000  -0.0200414  -0.1278460   0.1278460  -0.1233690   0.0000000   0.0000000   0.0000000  -0.6777260   0.6777260  -0.6595000   0.0000000   0.0000000   0.0000000
 1.2750000  -2.5197200  -0.2802800   0.9807980   0.0000000   0.0000000  -0.0200414  -0.1312380   0.1312380  -0.1266690   0.0000000   0.0000000   0.0000000  -0.6790130   0.6790130  -0.6607880   0.0000000   0.0000000   0.0000000
 1.2800000  -2.5203900  -0.2796150   0.9801560   0.0000000   0.0000000  -0.0200414  -0.1346360   0.1346360  -0.1299760   0.0000000   0.0000000   0.0000000  -0.6800500   0.6800500  -0.6618250   0.0000000   0.0000000   0.0000000
 1.2850000  -2.5210700  -0.2789330   0.9794980   0.0000000   0.0000000  -0.0200414  -0.1380380   0.1380380  -0.1332870   0.0000000   0.0000000   0.0000000  -0.6808370   0.6808370  -0.6626120   0.0000000   0.0000000   0.0000000
 1.2900000  -2.5217700  -0.2782340   0.9788230   0.0000000   0.0000000  -0.0200414  -0.1414440   0.1414440  -0.1366020   0.0000000   0.0000000   0.0000000  -0.6813740   0.6813740  -0.6631500   0.0000000   0.0000000   0.0000000
 1.2950000  -2.5224800  -0.2775190   0.9781320   0.0000000   0.0000000  -0.0200414  -0.1448510   0.1448520  -0.1399180   0.0000000   0.0000000   0.0000000  -0.6816610   0.6816610  -0.6634370   0.0000000   0.0000000   0.0000000
 1.3000000  -2.5230300  -0.2769730   0.9776820   0.0000000   0.0000000  -0.0200414  -0.1471440   0.1471440  -0.1420650   0.0000000   0.0000000   0.0000000  -0.6817130   0.6817130  -0.6634900   0.0000000   0.0000000   0.0000000
 1.3050000  -2.5237700  -0.2762290   0.9769630   0.0000000   0.0000000  -0.0205409  -0.1505520   0.1505530  -0.1453820   0.0000000   0.0000000   0.0000000  -0.6815880   0.6818380  -0.6633650   0.0000000   0.0000000   0.0000000
 1.3100000  -2.5245300  -0.2754680   0.9762280   0.0000000   0.0000000  -0.0210467  -0.1539590   0.1539630  -0.1486980   0.0000000   0.0000000   0.0000000  -0.6812130   0.6822130  -0.6629900   0.0000000   0.0000000   0.0000000
 1.3150000  -2.5253100  -0.2746890   0.9754760   0.0000000   0.0000000  -0.0215588  -0.1573640   0.1573750  -0.1520120   0.0000000   0.0000000   0.0000000  -0.6805880   0.6828380  -0.6623650   0.0000000   0.0000000   0.0000000
