ts fx fy fz tx ty tz exfx exfy exfz extx exty extz xd yd zd rolld pitchd yawd vxd vyd vzd wxd wyd wzd axd ayd azd e_x e_y e_z e_vx e_vy e_vz e_rx e_ry e_rz e_wx e_wy e_wz
1704192519.298086000  0  0  11.6461  0.0247058  -0.143102  0.03509  nan  nan  nan  nan  nan  nan  -2.5  -0.3  1  0.0197249  -0.0502739  -0.000991358  0  0  0  0  0  0  0  0  0  0.0386891  0.00690738  -0.0190277  -0.0208635  0.0101366  0.00223969  -0.019518  0.0429432  -0.0389757  0.130154  -0.108874  -0.0488683 
1704192519.302099000  0  0  11.7229  0.0731183  -0.195807  0.0301472  nan  nan  nan  nan  nan  nan  -2.5  -0.3  1  0.0206123  -0.0496145  -0.00102239  0  0  0  0  0  0  0  0  0  0.0386022  0.00695863  -0.0190826  -0.0210962  0.0113476  -0.0040951  -0.0208143  0.0430237  -0.0385137  0.0452546  -0.00420362  0.00829701 
1704192519.307134000  0  0  11.67  0.0446769  -0.143831  0.0285268  nan  nan  nan  nan  nan  nan  -2.5  -0.3  1  0.0193091  -0.0466084  -0.000899751  0  0  0  0  0  0  0  0  0  0.0385055  0.00697312  -0.0190344  -0.0250855  0.00950947  0.000236464  -0.0188391  0.0393468  -0.0382227  0.0839657  -0.0743296  0.0256417 
1704192519.312143000  0  0  11.6673  0.00955347  -0.146651  0.0347853  nan  nan  nan  nan  nan  nan  -2.5  -0.3  1  0.019688  -0.0483087  -0.000950852  0  0  0  0  0  0  0  0  0  0.0384074  0.00702695  -0.0190355  -0.0226749  0.00987111  0.000521756  -0.0180718  0.0404451  -0.0389857  0.147154  -0.0787922  -0.0449589 
1704192519.317131000  0  0  11.701  0.0907126  -0.220906  0.0273879  nan  nan  nan  nan  nan  nan  -2.5  -0.3  1  0.0208727  -0.0490902  -0.00102438  0  0  0  0  0  0  0  0  0  0.0384978  0.007019  -0.018947  -0.0216694  0.0115016  -0.00252867  -0.0203321  0.0423654  -0.038204  0.00562982  0.0520512  0.0396911 
1704192519.322084000  0  0  11.6854  0.071281  -0.184006  0.0273142  nan  nan  nan  nan  nan  nan  -2.5  -0.3  1  0.020376  -0.0472101  -0.000961728  0  0  0  0  0  0  0  0  0  0.0384534  0.00703503  -0.0189063  -0.0241046  0.0107878  -0.001308  -0.0194188  0.0401707  -0.0380305  0.0360905  -0.00155948  0.0388778 
1704192519.327300000  0  0  11.6855  0.0525983  -0.188932  0.0339043  nan  nan  nan  nan  nan  nan  -2.5  -0.3  1  0.0201939  -0.0477515  -0.000964054  0  0  0  0  0  0  0  0  0  0.0383417  0.00708727  -0.0189114  -0.0231525  0.0104348  -0.00129194  -0.0186333  0.0406154  -0.0388166  0.0662297  0.00420176  -0.0356384 
1704192519.333115000  0  0  11.6733  0.092222  -0.212506  0.0289884  nan  nan  nan  nan  nan  nan  -2.5  -0.3  1  0.0212958  -0.0490595  -0.0010445  0  0  0  0  0  0  0  0  0  0.0384426  0.00707304  -0.0187745  -0.0217372  0.0118653  -0.000574192  -0.0202339  0.0422775  -0.0383284  0.00170819  0.0360599  0.0209294 
1704192519.338127000  0  0  11.6616  0.0978184  -0.205496  0.0296381  nan  nan  nan  nan  nan  nan  -2.5  -0.3  1  0.0213989  -0.0484084  -0.00103564  0  0  0  0  0  0  0  0  0  0.0385584  0.00703272  -0.0186372  -0.0229037  0.0120617  0.000111833  -0.020489  0.0416844  -0.0383281  -0.00713849  0.0274966  0.0128038 
1704192519.343162000  0  0  11.6374  0.0847956  -0.181756  0.0334458  nan  nan  nan  nan  nan  nan  -2.5  -0.3  1  0.0204641  -0.0475932  -0.000973721  0  0  0  0  0  0  0  0  0  0.0384396  0.00707658  -0.0186198  -0.0238291  0.0107004  0.00209146  -0.019391  0.0405979  -0.0388123  0.00880556  -0.00998896  -0.0299493 
1704192519.348201000  0  0  11.6553  0.111615  -0.218674  0.0333294  nan  nan  nan  nan  nan  nan  -2.5  -0.3  1  0.0221059  -0.0515992  -0.00114032  0  0  0  0  0  0  0  0  0  0.0387638  0.0070518  -0.0185298  -0.0192496  0.0129142  0.000421275  -0.0214398  0.0449874  -0.0389232  -0.025985  0.0234633  -0.0273861 
1704192519.353145000  0  0  11.5284  0.152739  -0.225538  0.0278278  nan  nan  nan  nan  nan  nan  -2.5  -0.3  0.995  0.0225366  -0.0490837  -0.00110592  2e-07  2e-07  2e-07  0  0  0  0.000125  0.000125  0.000125  0.0386359  0.00711186  -0.013526  -0.0229037  0.0130417  0.000524941  -0.0227267  0.043003  -0.0383387  -0.0963931  0.0554479  0.035539 
1704192519.358095000  0  0  11.458  0.110078  -0.16179  0.0308766  nan  nan  nan  nan  nan  nan  -2.5  -0.3  0.995  0.020881  -0.0476732  -0.000995231  1.7e-06  1.7e-06  1.7e-06  0  0  0  0.0005  0.0005  0.0005  0.0385661  0.00713638  -0.0134493  -0.0248924  0.010754  0.00629924  -0.0207235  0.0406284  -0.0386382  -0.029499  -0.0502021  0.000424184 
1704192519.363153000  0  0  11.5099  0.113045  -0.183261  0.0343368  nan  nan  nan  nan  nan  nan  -2.5  -0.3  0.995  0.0227795  -0.0517855  -0.00117932  5.6e-06  5.6e-06  5.6e-06  0  0  0  0.001125  0.001125  0.001125  0.0388375  0.00715836  -0.013384  -0.0198652  0.0133232  0.0019348  -0.0226494  0.0445297  -0.0391597  -0.0177163  -0.0431509  -0.0376128 
1704192519.368144000  0  0  11.5083  0.179628  -0.215628  0.0225498  nan  nan  nan  nan  nan  nan  -2.5  -0.3  0.995  0.0231504  -0.0487316  -0.00112801  1.33e-05  1.33e-05  1.33e-05  0  0  0  0.002  0.002  0.002  0.0387067  0.00722579  -0.0133722  -0.023382  0.013761  0.00204424  -0.0244059  0.0423522  -0.0377727  -0.134722  0.0416163  0.0958543 
1704192519.373094000  0  0  11.478  0.0885855  -0.127668  0.0307804  nan  nan  nan  nan  nan  nan  -2.5  -0.3  0.995  0.0219468  -0.0476076  -0.00104491  2.6e-05  2.6e-05  2.6e-05  0  0  0  0.003125  0.003125  0.003125  0.0386332  0.00725391  -0.0133129  -0.0246855  0.0122291  0.00462653  -0.0221232  0.0397222  -0.0383761  0.0263626  -0.110107  -0.000993687 
1704192519.378612000  0  0  11.5727  0.109873  -0.15484  0.0331723  nan  nan  nan  nan  nan  nan  -2.5  -0.3  0.995  0.0235991  -0.0486124  -0.00114747  4.5e-05  4.5e-05  4.5e-05  0  0  0  0.0045  0.0045  0.0045  0.0385747  0.00732054  -0.0133307  -0.022581  0.0146065  -0.00307788  -0.0238846  0.0404739  -0.0387742  -8.75059e-06  -0.0626796  -0.0269123 
1704192519.383144000  0  0  11.5707  0.145003  -0.172821  0.025124  nan  nan  nan  nan  nan  nan  -2.5  -0.299999  0.995  0.0234457  -0.0469413  -0.00110137  7.15e-05  7.15e-05  7.15e-05  0  0  0  0.006125  0.006125  0.006125  0.0384579  0.00738194  -0.0133292  -0.0242773  0.0144777  -0.00280643  -0.0244952  0.0392109  -0.0377978  -0.0646514  -0.0150977  0.0639285 
1704192519.388160000  0  0  11.5752  0.0681565  -0.11441  0.0326088  nan  nan  nan  nan  nan  nan  -2.5  -0.299999  0.995  0.0222368  -0.0451555  -0.00100564  0.0001067  0.0001067  0.0001067  0  0  0  0.008  0.008  0.008  0.0383888  0.00741409  -0.0133057  -0.0261709  0.0131031  -0.00300537  -0.0221351  0.0363472  -0.0384619  0.0673295  -0.105575  -0.0229918 
1704192519.393146000  0  0  11.6123  0.0773171  -0.132777  0.0337558  nan  nan  nan  nan  nan  nan  -2.5  -0.299998  0.995  0.0227896  -0.0449254  -0.00102636  0.0001519  0.0001519  0.0001519  0  0  0  0.010125  0.010125  0.010125  0.0382697  0.00748896  -0.0133376  -0.025747  0.0140103  -0.00582005  -0.0224533  0.0359413  -0.0387752  0.0519358  -0.0651068  -0.0341958 
1704192519.398093000  0  0  11.6446  0.0910922  -0.152697  0.0293694  nan  nan  nan  nan  nan  nan  -2.5  -0.299997  0.995  0.0229013  -0.0450151  -0.00103494  0.0002083  0.0002083  0.0002083  0  0  0  0.0125  0.0125  0.0125  0.0382231  0.00752438  -0.0133412  -0.025064  0.0144588  -0.00828203  -0.0226422  0.036194  -0.0383289  0.026124  -0.027591  0.0161705 
1704192519.403626000  0  0  11.6165  0.0434972  -0.118293  0.0322797  nan  nan  nan  nan  nan  nan  -2.5  -0.299996  0.995  0.0211994  -0.0418665  -0.000893519  0.0002773  0.0002773  0.0002773  0  0  0  0.015125  0.015125  0.015125  0.0381366  0.00754997  -0.013314  -0.0287567  0.0124719  -0.00573477  -0.019875  0.0325364  -0.0387085  0.0958558  -0.062749  -0.0164108 
1704192519.408159000  0  0  11.6185  0.0272253  -0.111504  0.0345821  nan  nan  nan  nan  nan  nan  -2.49999  -0.299995  0.99501  0.0209518  -0.0418306  -0.0008849  0.00036  0.00036  0.00036  0  0  0  0.018  0.018  0.018  0.0380112  0.00760805  -0.0133435  -0.0281525  0.0123919  -0.00554321  -0.0189189  0.0320662  -0.0390919  0.119603  -0.0720009  -0.0413572 
1704192519.413145000  0  0  11.6912  0.0436404  -0.148766  0.0316059  nan  nan  nan  nan  nan  nan  -2.49999  -0.299993  0.99501  0.0213187  -0.0423385  -0.00091437  0.0004577  0.0004577  0.0004577  0  0  0  0.021125  0.021125  0.021125  0.0379909  0.00761348  -0.0133906  -0.0267112  0.0134205  -0.0112036  -0.0190332  0.0329831  -0.0389415  0.0878247  -0.00591283  -0.00565815 
1704192519.418131000  0  0  11.6583  0.0281615  -0.141034  0.0285032  nan  nan  nan  nan  nan  nan  -2.49999  -0.29999  0.99501  0.0195627  -0.0390511  -0.000779849  0.0005717  0.0005717  0.0005717  0  0  0  0.0245  0.0245  0.0245  0.0378291  0.0076614  -0.0134038  -0.0303463  0.0113954  -0.0081458  -0.0166508  0.0299336  -0.0385953  0.0968641  0.00667884  0.0296636 
1704192519.423151000  0  0  11.6582  -0.0161289  -0.114915  0.0342535  nan  nan  nan  nan  nan  nan  -2.49999  -0.299987  0.99501  0.0181221  -0.0387642  -0.00072349  0.0007031  0.0007031  0.0007031  0  0  0  0.028125  0.028125  0.028125  0.0377935  0.00766001  -0.0133903  -0.0301843  0.00999255  -0.00779454  -0.0139807  0.0291642  -0.0392674  0.16088  -0.038481  -0.0354954 
1704192519.428671000  0  0  11.7074  0.0222392  -0.157134  0.0316465  nan  nan  nan  nan  nan  nan  -2.49998  -0.299983  0.99502  0.0190211  -0.0391558  -0.000771988  0.0008533  0.0008533  0.0008533  0  0  0  0.0319374  0.032  0.032  0.0377476  0.00767996  -0.013422  -0.0288741  0.0117067  -0.0114732  -0.0147387  0.0301609  -0.0391722  0.0911179  0.0367878  -0.00385933 
1704192519.433163000  0  0  11.6573  0.0288582  -0.160199  0.0283951  nan  nan  nan  nan  nan  nan  -2.49998  -0.299978  0.99502  0.0171739  -0.0370853  -0.000671618  0.0010221  0.0010235  0.0010235  0  0  0  0.0355621  0.036125  0.036125  0.037607  0.00771537  -0.0134225  -0.0310072  0.00965679  -0.00694183  -0.0128361  0.0286311  -0.038778  0.0603755  0.0569916  0.0328411 
1704192519.438113000  0  0  11.6738  -0.0184951  -0.131864  0.034086  nan  nan  nan  nan  nan  nan  -2.49997  -0.299973  0.99503  0.0151601  -0.035967  -0.000588887  0.0012085  0.001215  0.001215  0  0  0  0.0389369  0.0405  0.0405  0.0375762  0.00769427  -0.0134251  -0.0318982  0.00768007  -0.00789508  -0.0097036  0.0273414  -0.0394597  0.126263  0.0121869  -0.0314774 
1704192519.443160000  0  0  11.6873  0.0311677  -0.170339  0.0323904  nan  nan  nan  nan  nan  nan  -2.49997  -0.299966  0.99503  0.0164341  -0.0361489  -0.000648297  0.0014111  0.001429  0.001429  0  0  0  0.0420616  0.045125  0.045125  0.0374373  0.00776024  -0.0134658  -0.0309  0.00979543  -0.00851228  -0.0112661  0.0282959  -0.039414  0.0413125  0.0803565  -0.0107398 
1704192519.448155000  0  0  11.6751  0.0395142  -0.191548  0.0298722  nan  nan  nan  nan  nan  nan  -2.49996  -0.299958  0.99504  0.0149557  -0.036333  -0.000610005  0.0016287  0.0016667  0.0016667  0  0  0  0.0449364  0.05  0.05  0.0374206  0.0077279  -0.0134404  -0.0303086  0.0085467  -0.00712329  -0.00998333  0.0293828  -0.0391241  0.0128182  0.112775  0.0178382 
1704192519.453159000  0  0  11.6963  0.0290413  -0.17326  0.0347122  nan  nan  nan  nan  nan  nan  -2.49995  -0.299949  0.99505  0.0143036  -0.0335495  -0.000560821  0.00186  0.0019294  0.0019294  0  0  0  0.0475611  0.055125  0.055125  0.0372461  0.00776951  -0.0134892  -0.0331234  0.00829429  -0.00832667  -0.0090155  0.0270196  -0.0396674  0.02486  0.0979409  -0.0372279 
1704192519.458104000  0  0  11.6793  0.0467313  -0.173361  0.0350886  nan  nan  nan  nan  nan  nan  -2.49994  -0.299939  0.99506  0.0139896  -0.0339451  -0.000572318  0.0021039  0.0022183  0.0022183  0  0  0  0.0499359  0.0605  0.0605  0.0372497  0.00774911  -0.0134569  -0.0323792  0.00858613  -0.00648483  -0.00901599  0.0278513  -0.0398976  -0.0105155  0.0904902  -0.0396316 
1704192519.463161000  0  0  11.691  0.0691744  -0.213582  0.0333523  nan  nan  nan  nan  nan  nan  -2.49993  -0.299927  0.99507  0.0133932  -0.035906  -0.000597021  0.002359  0.0025348  0.0025348  0  0  0  0.0520606  0.066125  0.066125  0.0372736  0.00772129  -0.0134331  -0.0295676  0.00860324  -0.00700431  -0.00907319  0.0309347  -0.0398274  -0.0548754  0.142564  -0.0186295 
1704192519.468214000  0  0  11.6996  0.0861169  -0.193817  0.0328847  nan  nan  nan  nan  nan  nan  -2.49992  -0.299914  0.99509  0.0125076  -0.0318464  -0.000535675  0.0026241  0.00288  0.00288  0  0  0  0.0539354  0.072  0.072  0.0370873  0.0077613  -0.0134767  -0.0341637  0.00812414  -0.00711343  -0.00874733  0.0276111  -0.03984  -0.0917583  0.133612  -0.0126586 
1704192519.473155000  0  0  11.6646  0.0526593  -0.186668  0.0376083  nan  nan  nan  nan  nan  nan  -2.4999  -0.299898  0.9951  0.0104479  -0.0385798  -0.000564193  0.0028979  0.0032552  0.0032552  0  0  0  0.0555601  0.078125  0.078125  0.0380058  0.00749161  -0.0133013  -0.0273881  0.00677759  -0.00396755  -0.00675635  0.0345904  -0.0406047  -0.0431602  0.0551042  -0.0640572 
1704192519.478109000  0  0  11.7167  0.0861386  -0.233019  0.0358517  nan  nan  nan  nan  nan  nan  -2.49989  -0.299881  0.99512  0.0110828  -0.0406162  -0.000637735  0.0031792  0.0036617  0.0036617  0  0  0  0.0569349  0.0845  0.0845  0.0379047  0.00753903  -0.0133596  -0.0241072  0.00836423  -0.0076199  -0.00829177  0.0376139  -0.0406214  -0.0959928  0.11999  -0.0419324 
1704192519.483162000  0  0  11.7161  0.108819  -0.227877  0.0281222  nan  nan  nan  nan  nan  nan  -2.49987  -0.299862  0.99514  0.00867226  -0.0363925  -0.000532443  0.0034668  0.0041006  0.0041006  0  0  0  0.0580596  0.091125  0.091125  0.0378214  0.00751809  -0.0133461  -0.0292885  0.0061168  -0.00702439  -0.00697745  0.0344717  -0.0397626  -0.153446  0.138615  0.046099 
1704192519.488155000  0  0  11.7243  0.0409007  -0.19901  0.0368896  nan  nan  nan  nan  nan  nan  -2.49985  -0.29984  0.99516  0.0077462  -0.0410778  -0.000567214  0.0037594  0.0045733  0.0045733  0  0  0  0.0589343  0.098  0.098  0.0384768  0.00740835  -0.013299  -0.0244897  0.00602958  -0.00713857  -0.00565395  0.0390173  -0.0407355  -0.0297851  0.0390603  -0.0537649 
1704192519.493156000  0  0  11.8082  0.121259  -0.272008  0.0328772  nan  nan  nan  nan  nan  nan  -2.49983  -0.299816  0.99518  0.0085928  -0.0420329  -0.000645382  0.0040558  0.005081  0.005081  0  0  0  0.0595591  0.105125  0.105125  0.0383721  0.00745793  -0.0133815  -0.0225343  0.00800261  -0.0133487  -0.0082278  0.0415163  -0.0404518  -0.166822  0.162067  -0.00644757 
1704192519.498153000  0  0  11.7589  0.117082  -0.237663  0.0282412  nan  nan  nan  nan  nan  nan  -2.49981  -0.299789  0.99521  0.00621152  -0.039616  -0.000568514  0.0043546  0.005625  0.005625  0  0  0  0.0599338  0.1125  0.1125  0.0382968  0.00744182  -0.0133581  -0.0257143  0.00581776  -0.00861173  -0.00677061  0.0395146  -0.0398233  -0.171875  0.111792  0.0452185 
1704192519.503680000  0  0  11.827  0.0474536  -0.191324  0.0376079  nan  nan  nan  nan  nan  nan  -2.49979  -0.299759  0.99524  0.00504129  -0.0408903  -0.000569984  0.0046547  0.0062065  0.0062065  0  0  0  0.0600586  0.120125  0.120125  0.0386107  0.00741456  -0.0134064  -0.0244205  0.005352  -0.013443  -0.00511902  0.0403457  -0.0409471  -0.0478121  0.0114677  -0.0606278 
1704192519.508145000  0  0  11.8229  0.106697  -0.237516  0.0316546  nan  nan  nan  nan  nan  nan  -2.49977  -0.299727  0.99527  0.00500752  -0.0414974  -0.000616341  0.0049548  0.0068267  0.0068267  0  0  0  0.0599333  0.128  0.128  0.0385169  0.00744639  -0.0134478  -0.0234449  0.00623044  -0.0123105  -0.00644746  0.0418422  -0.0404515  -0.154077  0.0900845  0.00883291 
1704192519.513157000  0  0  11.8015  0.0941192  -0.216194  0.0304038  nan  nan  nan  nan  nan  nan  -2.49974  -0.299691  0.99531  0.00296263  -0.0411884  -0.000578492  0.0052536  0.0074869  0.0074869  0  0  0  0.0595581  0.136125  0.136125  0.0386223  0.00735551  -0.0133624  -0.0242331  0.00476902  -0.00993398  -0.00515098  0.0415999  -0.0402051  -0.140849  0.0496683  0.0220043 
1704192519.518105000  0  0  11.8601  0.0518131  -0.180105  0.0361171  nan  nan  nan  nan  nan  nan  -2.49971  -0.299652  0.99535  0.00160728  -0.0383476  -0.00056932  0.0055499  0.0081883  0.0081883  0  0  0  0.0589328  0.1445  0.144461  0.0384769  0.0073757  -0.0134475  -0.0274724  0.00401979  -0.0138336  -0.00354733  0.0385212  -0.0408769  -0.0709908  0.00581556  -0.0426942 
1704192519.523208000  0  0  11.8289  0.0710852  -0.188224  0.0344265  nan  nan  nan  nan  nan  nan  -2.49968  -0.299609  0.99539  0.00149505  -0.0404337  -0.000622734  0.0058425  0.0089323  0.0089312  0  0  0  0.0580576  0.153125  0.15264  0.0384306  0.00738061  -0.0134542  -0.0248673  0.00494499  -0.010441  -0.00426119  0.0405706  -0.0408432  -0.102967  0.00319819  -0.0218999 
1704192519.528650000  0  0  11.8324  0.0866468  -0.197506  0.0314532  nan  nan  nan  nan  nan  nan  -2.49965  -0.299563  0.99544  0.000420748  -0.0397778  -0.000637032  0.0061301  0.00972  0.0097143  0  0  0  0.0569323  0.162  0.160568  0.0383566  0.00737923  -0.0134828  -0.0256936  0.00466  -0.00993208  -0.00412448  0.0402455  -0.0404943  -0.135348  0.0247534  0.0117786 
1704192519.533154000  0  0  11.8804  0.0550997  -0.152377  0.0328504  nan  nan  nan  nan  nan  nan  -2.49962  -0.299512  0.99549  -0.00208555  -0.036188  -0.000606144  0.0064114  0.0105527  0.0105364  0  0  0  0.0555571  0.171125  0.168246  0.0382029  0.00737722  -0.0135618  -0.0300628  0.00251721  -0.0130188  -0.00164663  0.0362923  -0.0405933  -0.0950505  -0.029135  -0.00469685 
1704192519.538086000  0  0  11.8475  0.0310694  -0.130373  0.0362994  nan  nan  nan  nan  nan  nan  -2.49959  -0.299457  0.99554  -0.00288997  -0.0375856  -0.000637804  0.0066853  0.0114317  0.0113963  0  0  0  0.0539318  0.1805  0.175674  0.0381576  0.00736329  -0.0135594  -0.0284605  0.00268203  -0.00954628  -0.000893452  0.0369326  -0.0410577  -0.0539189  -0.0790339  -0.0431656 
1704192519.543160000  0  0  11.8971  0.0951247  -0.176528  0.0283433  nan  nan  nan  nan  nan  nan  -2.49956  -0.299398  0.9956  -0.00358312  -0.0368613  -0.000682451  0.0069503  0.0123581  0.0122928  0  0  0  0.0520566  0.190125  0.182852  0.0380172  0.00738375  -0.0136403  -0.0291373  0.00292226  -0.012855  -0.00176252  0.0369064  -0.0401701  -0.174034  0.0135172  0.04741 
1704192519.548154000  0  0  11.9116  0.0438861  -0.11766  0.0305971  nan  nan  nan  nan  nan  nan  -2.49952  -0.299333  0.99567  -0.00622944  -0.0343967  -0.000671767  0.0072054  0.0133333  0.0132244  0  0  0  0.0499313  0.2  0.189781  0.0379197  0.00734403  -0.0136834  -0.0324009  0.000755536  -0.0132705  0.000892795  0.0336836  -0.0401632  -0.095986  -0.0745682  0.019168 
1704192519.553107000  0  0  11.9131  0.0216508  -0.113357  0.037767  nan  nan  nan  nan  nan  nan  -2.49948  -0.299264  0.99573  -0.00658522  -0.0351602  -0.000729307  0.0074492  0.0143585  0.0141901  0  0  0  0.0475561  0.210125  0.196459  0.0377735  0.00736214  -0.0137311  -0.0313616  0.00152326  -0.0126398  0.00126796  0.0338594  -0.0410058  -0.0549668  -0.0847927  -0.0620302 
1704192519.558104000  0  0  11.9145  0.0715767  -0.160537  0.0319369  nan  nan  nan  nan  nan  nan  -2.49945  -0.29919  0.99581  -0.0078337  -0.0360493  -0.000756656  0.0076806  0.015435  0.0151886  0  0  0  0.0449308  0.2205  0.202887  0.0377211  0.00733516  -0.0137678  -0.0303949  0.00124112  -0.0120791  0.00100216  0.0353642  -0.0404364  -0.152373  -0.00427618  0.00515257 
1704192519.563162000  0  0  11.9536  0.0362656  -0.13012  0.0340631  nan  nan  nan  nan  nan  nan  -2.49941  -0.29911  0.99589  -0.00961546  -0.0343218  -0.000790435  0.0078981  0.016564  0.0162186  0  0  0  0.0420556  0.231125  0.209065  0.0376415  0.00729262  -0.0138237  -0.0327262  0.000281669  -0.0146127  0.00264679  0.0332582  -0.040558  -0.0968817  -0.0457353  -0.0202089 
1704192519.568153000  0  0  11.937  0.0327378  -0.129754  0.0385994  nan  nan  nan  nan  nan  nan  -2.49937  -0.299024  0.99597  -0.0111824  -0.0338434  -0.000826605  0.0081007  0.0177467  0.0172788  0  0  0  0.0389303  0.242  0.214994  0.0374774  0.00729166  -0.0138698  -0.0334595  -0.000399866  -0.0125461  0.00373462  0.0326355  -0.0412273  -0.0998342  -0.0407372  -0.0702188 
1704192519.573153000  0  0  11.9372  0.0526183  -0.163325  0.0348668  nan  nan  nan  nan  nan  nan  -2.49933  -0.298932  0.99606  -0.0123176  -0.0362157  -0.000846786  0.008287  0.0189844  0.0183681  0  0  0  0.0355551  0.253125  0.220672  0.0374427  0.00724708  -0.0138985  -0.0306614  -0.000402008  -0.0119599  0.00377902  0.0353486  -0.0409814  -0.140004  0.00144338  -0.0260213 
1704192519.578110000  0  0  11.9845  0.0599184  -0.186635  0.0336202  nan  nan  nan  nan  nan  nan  -2.49928  -0.298834  0.99615  -0.0132235  -0.0348611  -0.00092268  0.0084558  0.0202783  0.0194851  0  0  0  0.0319298  0.2645  0.2261  0.037265  0.00724794  -0.0139839  -0.0323431  -0.000235495  -0.0152246  0.00387027  0.0346858  -0.0408391  -0.155443  0.0541605  -0.0118608 
1704192519.583161000  0  0  11.9351  0.0392857  -0.158349  0.0349016  nan  nan  nan  nan  nan  nan  -2.49924  -0.298729  0.99625  -0.0162079  -0.0341439  -0.000923959  0.0086059  0.0216298  0.0206287  0  0  0  0.0281174  0.276125  0.231278  0.0372004  0.0071815  -0.013987  -0.0338319  -0.00249953  -0.0105694  0.00624771  0.033848  -0.0409882  -0.13605  0.00529578  -0.0263874 
1704192519.588138000  0  0  11.9536  0.0541438  -0.194959  0.0368989  nan  nan  nan  nan  nan  nan  -2.4992  -0.298618  0.99636  -0.0166019  -0.0376184  -0.000949554  0.0087374  0.02304  0.0217975  0  0  0  0.0244929  0.288  0.236207  0.0371908  0.00713355  -0.014027  -0.0295807  -0.00145298  -0.0115624  0.00563135  0.0377048  -0.0413374  -0.160096  0.0430332  -0.047862 
1704192519.593156000  0  0  12.0306  0.1114  -0.242441  0.0280462  nan  nan  nan  nan  nan  nan  -2.49915  -0.298499  0.99647  -0.0177014  -0.0347175  -0.00105891  0.0088513  0.0245102  0.0229903  0  0  0  0.0211184  0.300125  0.240885  0.0369948  0.00712838  -0.0141342  -0.0331357  -0.00151763  -0.017347  0.00476028  0.0363772  -0.0402562  -0.266594  0.150211  0.0519855 
1704192519.598093000  0  0  11.9922  0.0623768  -0.177507  0.0309376  nan  nan  nan  nan  nan  nan  -2.49911  -0.298372  0.99659  -0.0212091  -0.0330664  -0.00107421  0.008949  0.0260417  0.0242059  0  0  0  0.017994  0.3125  0.245313  0.0369459  0.00704138  -0.0141486  -0.035782  -0.0043525  -0.0136257  0.00781484  0.0342795  -0.0403587  -0.19665  0.0396428  0.0168669 
1704192519.603623000  0  0  12.0215  0.0555324  -0.217092  0.0375162  nan  nan  nan  nan  nan  nan  -2.49907  -0.298238  0.99671  -0.0212408  -0.0371604  -0.00109085  0.0090316  0.0276356  0.0254431  0  0  0  0.0151195  0.325125  0.249491  0.0369423  0.00700307  -0.014185  -0.0305561  -0.00278976  -0.0156143  0.00699799  0.0388638  -0.0412418  -0.175446  0.0766357  -0.0565341 
1704192519.608149000  0  0  12.0748  0.122711  -0.260222  0.0271687  nan  nan  nan  nan  nan  nan  -2.49902  -0.298096  0.99684  -0.0225751  -0.0348333  -0.00120076  0.0091006  0.0292933  0.0267004  0  0  0  0.012495  0.338  0.253419  0.0367606  0.00698175  -0.0142962  -0.0333953  -0.00302801  -0.019469  0.00608557  0.0381193  -0.0399789  -0.301409  0.169746  0.0601804 
1704192519.613148000  0  0  12.0284  0.0450809  -0.172416  0.0354371  nan  nan  nan  nan  nan  nan  -2.49897  -0.297945  0.99698  -0.0257684  -0.0340733  -0.00121826  0.009157  0.031016  0.0279768  0  0  0  0.0101205  0.351125  0.257098  0.0367314  0.00689533  -0.0143123  -0.0348375  -0.00532338  -0.0151307  0.00916426  0.0364735  -0.0407039  -0.174473  0.00927652  -0.0359238 
1704192519.618105000  0  0  12.0741  0.0445779  -0.195262  0.040742  nan  nan  nan  nan  nan  nan  -2.49893  -0.297786  0.99712  -0.0268741  -0.0356239  -0.00125031  0.0092022  0.032805  0.029271  0  0  0  0.007996  0.3645  0.260526  0.0365889  0.00687997  -0.0144163  -0.0325381  -0.00521534  -0.0183875  0.00934998  0.0383808  -0.0415389  -0.175176  0.0374207  -0.0938854 
1704192519.623164000  0  0  12.0701  0.109941  -0.237834  0.0304829  nan  nan  nan  nan  nan  nan  -2.49888  -0.297617  0.99727  -0.0278555  -0.035272  -0.00133833  0.0092374  0.0346615  0.0305817  0  0  0  0.0061215  0.378125  0.263704  0.0365605  0.00680542  -0.0144532  -0.0332057  -0.00463131  -0.0176778  0.00798035  0.0392852  -0.0404702  -0.293301  0.114243  0.0236657 
1704192519.628579000  0  0  12.0488  0.0551878  -0.180619  0.0375133  nan  nan  nan  nan  nan  nan  -2.49884  -0.297439  0.99743  -0.0306125  -0.0344584  -0.00138092  0.0092638  0.0365867  0.0319076  0  0  0  0.004497  0.391986  0.266632  0.0365503  0.0067305  -0.0144751  -0.0345731  -0.00633327  -0.0155009  0.0101471  0.0380306  -0.0411895  -0.203729  0.0113555  -0.0570208 
1704192519.633138000  0  0  12.0715  0.0640235  -0.194927  0.0390652  nan  nan  nan  nan  nan  nan  -2.49879  -0.297251  0.99759  -0.0325347  -0.0355232  -0.0013966  0.0092828  0.0385811  0.0332476  0  0  0  0.0031225  0.40574  0.269311  0.0364041  0.00668469  -0.014571  -0.0329124  -0.00714912  -0.0168957  0.0108499  0.0393678  -0.0415944  -0.227866  0.0276712  -0.0723714 
1704192519.638116000  0  0  12.0761  0.0888238  -0.216879  0.0335304  nan  nan  nan  nan  nan  nan  -2.49874  -0.297053  0.99776  -0.0332918  -0.0365216  -0.00145435  0.0092955  0.0406436  0.0346003  0  0  0  0.001998  0.419245  0.271739  0.036414  0.00659533  -0.0146103  -0.0317218  -0.0062787  -0.0169661  0.00991691  0.0409554  -0.0410263  -0.268883  0.0569682  -0.00886766 
1704192519.643176000  0  0  12.072  0.0667684  -0.177385  0.033894  nan  nan  nan  nan  nan  nan  -2.4987  -0.296844  0.99794  -0.0361901  -0.0335574  -0.00157485  0.0093032  0.0427731  0.0359646  0  0  0  0.0011235  0.4325  0.273917  0.0362269  0.00655034  -0.0146899  -0.0354291  -0.00836639  -0.0161509  0.0118398  0.0378387  -0.040988  -0.242463  0.00665334  -0.0137941 
1704192519.648105000  0  0  12.0515  0.0452125  -0.17282  0.0364608  nan  nan  nan  nan  nan  nan  -2.49865  -0.296625  0.99812  -0.0388156  -0.0354898  -0.00153194  0.0093071  0.0449682  0.0373391  0  0  0  0.000499  0.445505  0.275845  0.0362728  0.00642175  -0.014699  -0.0331037  -0.00987207  -0.0141665  0.0134972  0.0396336  -0.0413418  -0.214599  -0.0189879  -0.0423423 
1704192519.653112000  0  0  12.1206  0.0858889  -0.201035  0.0317903  nan  nan  nan  nan  nan  nan  -2.4986  -0.296395  0.99831  -0.0383641  -0.0352824  -0.00167714  0.0093086  0.0472277  0.0387226  0  0  0  0.0001245  0.45826  0.277524  0.0361059  0.00639589  -0.0148197  -0.0327944  -0.00789348  -0.019515  0.011331  0.0399075  -0.0408109  -0.276023  0.0349203  0.0107302 
1704192519.658115000  0  0  12.0785  0.0854893  -0.185448  0.0288123  nan  nan  nan  nan  nan  nan  -2.49856  -0.296153  0.99851  -0.0415941  -0.0340395  -0.00173671  0.0093088  0.0495504  0.0401139  0  0  0  0  0.470764  0.278952  0.0361185  0.0062527  -0.0148223  -0.0346877  -0.0101439  -0.0157574  0.0130233  0.0387788  -0.0402671  -0.290793  0.0141314  0.0425172 
1704192519.663115000  0  0  12.08  0.026621  -0.157942  0.0382355  nan  nan  nan  nan  nan  nan  -2.49851  -0.295899  0.99871  -0.0443541  -0.0353687  -0.00170635  0.0093088  0.051935  0.0415117  0  0  0  0  0.483019  0.28013  0.036168  0.00611697  -0.0148386  -0.0330162  -0.0120051  -0.015635  0.0153862  0.0395511  -0.0412568  -0.194795  -0.0479864  -0.0653758 
1704192519.668247000  0  0  12.1448  0.0881818  -0.197004  0.0324933  nan  nan  nan  nan  nan  nan  -2.49846  -0.295633  0.99892  -0.0441314  -0.0345249  -0.00187478  0.0093088  0.0543802  0.0429148  0  0  0  0  0.495024  0.281058  0.0359906  0.0060862  -0.0149577  -0.0335169  -0.0104377  -0.0206932  0.013081  0.0393416  -0.0407558  -0.296708  0.0320646  0.00139192 
1704192519.673152000  0  0  12.0789  0.0633556  -0.173783  0.0321189  nan  nan  nan  nan  nan  nan  -2.49842  -0.295355  0.99914  -0.0474772  -0.0346285  -0.00187783  0.0093088  0.0568848  0.0443219  0  0  0  0  0.506779  0.281736  0.0360312  0.00592119  -0.0149475  -0.0337346  -0.0127489  -0.0150357  0.0152532  0.0392748  -0.0406174  -0.267041  -0.0137629  0.00468875 
1704192519.678623000  0  0  12.0701  0.0287876  -0.160151  0.0377102  nan  nan  nan  nan  nan  nan  -2.49837  -0.295064  0.99937  -0.0500082  -0.0349811  -0.00189646  0.0093088  0.0594476  0.0457317  0  0  0  0  0.518283  0.282165  0.0360565  0.00580182  -0.0149624  -0.0333644  -0.0143755  -0.01412  0.0169647  0.0393359  -0.0413251  -0.213651  -0.0415895  -0.0581269 
1704192519.683110000  0  0  12.1055  0.0762702  -0.18661  0.0344295  nan  nan  nan  nan  nan  nan  -2.49832  -0.294761  0.9996  -0.0503261  -0.0350593  -0.00200577  0.0093088  0.0620672  0.0471431  0  0  0  0  0.529538  0.282343  0.0359053  0.00572471  -0.0150749  -0.0327952  -0.0134067  -0.0167923  0.0153958  0.0397941  -0.0410393  -0.294182  0.00711382  -0.0199748 
1704192519.688291000  0  0  12.0775  0.062176  -0.182377  0.0340742  nan  nan  nan  nan  nan  nan  -2.49828  -0.294444  0.99984  -0.0527685  -0.0351836  -0.00203807  0.0093088  0.0647425  0.0485547  0  0  0  0  0.540543  0.282271  0.035945  0.00557557  -0.0150798  -0.032839  -0.0148032  -0.014354  0.0164388  0.0399547  -0.0409592  -0.275589  -0.00282852  -0.0163361 
1704192519.693130000  0  0  12.0655  0.0553055  -0.161511  0.0358467  nan  nan  nan  nan  nan  nan  -2.49823  -0.294113  1.00009  -0.0552158  -0.0338797  -0.00214856  0.0093088  0.0674722  0.0499654  0  0  0  0  0.551298  0.281949  0.0357722  0.00548389  -0.0151535  -0.0342708  -0.0164431  -0.0131043  0.0176325  0.0384528  -0.0411448  -0.27283  -0.0307436  -0.0366351 
1704192519.698094000  0  0  12.0758  0.0522433  -0.159246  0.036059  nan  nan  nan  nan  nan  nan  -2.49818  -0.293769  1.00034  -0.0557488  -0.0353903  -0.002171  0.0093088  0.0702551  0.0513738  0  0  0  0  0.561803  0.281378  0.0358481  0.00535385  -0.0151704  -0.0323794  -0.0156081  -0.0139296  0.0168862  0.039672  -0.0412376  -0.259839  -0.0464897  -0.0383612 
1704192519.703144000  0  0  12.0813  0.10888  -0.204438  0.0316814  nan  nan  nan  nan  nan  nan  -2.49814  -0.29341  1.0006  -0.0569231  -0.0346418  -0.00229695  0.0093088  0.0730898  0.0527788  0  0  0  0  0.572057  0.280556  0.0356881  0.00527995  -0.0152429  -0.0330229  -0.0157559  -0.0142594  0.0155997  0.039749  -0.0407034  -0.361278  0.0431849  0.0110157 
1704192519.708146000  0  0  12.0349  0.0682177  -0.16449  0.0339748  nan  nan  nan  nan  nan  nan  -2.49809  -0.293038  1.00087  -0.0609753  -0.0337801  -0.00233369  0.0093088  0.0759752  0.054179  0  0  0  0  0.582062  0.279484  0.0357516  0.00507172  -0.0152764  -0.0345186  -0.0191438  -0.0102203  0.0184468  0.0386454  -0.0408451  -0.306146  -0.0265571  -0.0162333 
1704192519.713138000  0  0  12.0643  0.0625408  -0.175307  0.0388843  nan  nan  nan  nan  nan  nan  -2.49805  -0.292651  1.00114  -0.0602578  -0.0359548  -0.00235199  0.0093088  0.07891  0.0555732  0  0  0  0  0.591817  0.278162  0.0358021  0.00496455  -0.0153128  -0.0316053  -0.0169191  -0.0127321  0.0165123  0.0406278  -0.0414995  -0.276995  -0.0231625  -0.0710589 
1704192519.718136000  0  0  12.072  0.146583  -0.235306  0.0304724  nan  nan  nan  nan  nan  nan  -2.498  -0.292249  1.00142  -0.06134  -0.0351081  -0.00248991  0.0093088  0.081893  0.0569602  0  0  0  0  0.601322  0.276591  0.0356306  0.00488318  -0.0153815  -0.0323461  -0.017038  -0.0133301  0.0144978  0.041049  -0.04057  -0.426546  0.0929605  0.0247947 
1704192519.723135000  0  0  12.0368  0.0747456  -0.167718  0.0364069  nan  nan  nan  nan  nan  nan  -2.49795  -0.291832  1.00171  -0.0641053  -0.034545  -0.00255359  0.0093088  0.0849228  0.0583387  0  0  0  0  0.610577  0.274769  0.0356374  0.00473028  -0.0153809  -0.0332736  -0.0189782  -0.0103977  0.0164428  0.0398003  -0.0410283  -0.300765  -0.0307269  -0.0448031 
1704192519.728156000  0  0  12.0739  0.095607  -0.18299  0.0404231  nan  nan  nan  nan  nan  nan  -2.49791  -0.291399  1.00201  -0.0635726  -0.0348465  -0.00267788  0.0093088  0.0879983  0.0597074  0  0  0  0  0.619581  0.272697  0.0354861  0.00465811  -0.0154676  -0.0324002  -0.0172322  -0.0135042  0.0142683  0.0401056  -0.0416963  -0.322483  -0.00299082  -0.0883251 
1704192519.733141000  0  0  12.0552  0.171678  -0.237491  0.0297474  nan  nan  nan  nan  nan  nan  -2.49786  -0.290952  1.00231  -0.0650655  -0.0358589  -0.00268483  0.0093088  0.0911182  0.0610652  0  0  0  0  0.628336  0.270375  0.0355201  0.0045262  -0.0154779  -0.0312015  -0.0177036  -0.012079  0.012452  0.0422774  -0.0405344  -0.457914  0.0860309  0.033501 
1704192519.738094000  0  0  12.0353  0.120308  -0.194783  0.0337893  nan  nan  nan  nan  nan  nan  -2.49781  -0.290488  1.00262  -0.0671729  -0.0354292  -0.00276284  0.0093088  0.0942813  0.0624108  0  0  0  0  0.636841  0.267804  0.0355438  0.00438488  -0.0154847  -0.0319286  -0.0189825  -0.0105123  0.0133924  0.0414595  -0.0408123  -0.363826  0.00813902  -0.0142435 
1704192519.743147000  0  0  12.0593  0.138645  -0.203751  0.0340962  nan  nan  nan  nan  nan  nan  -2.49777  -0.290009  1.00293  -0.067718  -0.0349308  -0.00290222  0.0093088  0.0974862  0.0637428  0  0  0  0  0.645096  0.264982  0.0353895  0.00430078  -0.0155508  -0.0321761  -0.0186596  -0.0125875  0.0119507  0.041184  -0.0408504  -0.387237  0.0286096  -0.0176986 
1704192519.748148000  0  0  12.0376  0.151311  -0.213452  0.0295247  nan  nan  nan  nan  nan  nan  -2.49772  -0.289513  1.00325  -0.0684047  -0.0368456  -0.00287213  0.0093088  0.100732  0.0650602  0  0  0  0  0.653101  0.26191  0.035442  0.00416674  -0.0155521  -0.0298192  -0.0181131  -0.0110289  0.0104573  0.0433021  -0.0401941  -0.398828  0.0285244  0.0328818 
1704192519.753609000  0  0  12.054  0.136258  -0.203257  0.0319661  nan  nan  nan  nan  nan  nan  -2.49767  -0.289001  1.00358  -0.0702032  -0.0352412  -0.0030433  0.0093088  0.104017  0.0663615  0  0  0  0  0.660855  0.258588  0.0354821  0.00403748  -0.0155581  -0.0320179  -0.0193692  -0.0125685  0.0105224  0.0418793  -0.0402508  -0.369322  0.0212239  0.00293158 
1704192519.758091000  0  0  12.0533  0.113301  -0.179311  0.033916  nan  nan  nan  nan  nan  nan  -2.49763  -0.288473  1.00392  -0.0720845  -0.0342148  -0.00317575  0.0093088  0.10734  0.0676456  0  0  0  0  0.66836  0.255016  0.0353355  0.00388982  -0.0156504  -0.033095  -0.0205973  -0.0125168  0.0112571  0.0405876  -0.0403909  -0.330167  -0.0147848  -0.0200407 
1704192519.763150000  0  0  12.0629  0.122708  -0.198544  0.0343668  nan  nan  nan  nan  nan  nan  -2.49758  -0.287928  1.00426  -0.0714196  -0.0371938  -0.00311073  0.0093088  0.1107  0.0689113  0  0  0  0  0.675615  0.251195  0.035391  0.00377642  -0.0156748  -0.0291824  -0.018632  -0.0136696  0.00888641  0.0435453  -0.0404395  -0.327171  -0.00352975  -0.0251902 
1704192519.768149000  0  0  12.0581  0.130663  -0.19578  0.0299122  nan  nan  nan  nan  nan  nan  -2.49753  -0.287366  1.00461  -0.0736059  -0.0348422  -0.00332729  0.0093088  0.114096  0.0701572  0  0  0  0  0.68262  0.247123  0.0352136  0.00366743  -0.0157403  -0.0319933  -0.0203797  -0.0133614  0.00929508  0.0414809  -0.039858  -0.346841  0.00993603  0.0246776 
1704192519.773141000  0  0  12.0465  0.0585662  -0.142276  0.0364943  nan  nan  nan  nan  nan  nan  -2.49749  -0.286787  1.00496  -0.0750981  -0.0346704  -0.00341294  0.0093088  0.117526  0.0713821  0  0  0  0  0.689374  0.242801  0.0352473  0.00352334  -0.0157576  -0.0323641  -0.0211017  -0.0126341  0.0105628  0.0402919  -0.0405089  -0.21431  -0.0861344  -0.0510895 
1704192519.778659000  0  0  12.0741  0.0926194  -0.178895  0.035656  nan  nan  nan  nan  nan  nan  -2.49744  -0.286191  1.00532  -0.0744013  -0.0365965  -0.00341886  0.0093088  0.120989  0.0725848  0  0  0  0  0.695879  0.238229  0.0352776  0.00344233  -0.0157784  -0.0297409  -0.0194093  -0.0153597  0.00810757  0.0423426  -0.0405866  -0.259828  -0.0317623  -0.0398335 
1704192519.783147000  0  0  12.0557  0.10135  -0.17836  0.028464  nan  nan  nan  nan  nan  nan  -2.49739  -0.285577  1.00569  -0.0766281  -0.035429  -0.00355149  0.0093088  0.124484  0.073764  0  0  0  0  0.702134  0.233408  0.0351241  0.00328205  -0.0158694  -0.0310675  -0.0210818  -0.0139327  0.00888237  0.0412869  -0.03969  -0.284417  -0.0231192  0.0411 
1704192519.788148000  0  0  12.0782  0.0453436  -0.136688  0.0345429  nan  nan  nan  nan  nan  nan  -2.49735  -0.284946  1.00606  -0.0778267  -0.0347201  -0.00368903  0.0093088  0.12801  0.0749184  0  0  0  0  0.708139  0.228336  0.0351656  0.00313242  -0.0159231  -0.0320476  -0.0217826  -0.0160531  0.00982784  0.0397557  -0.0401547  -0.181103  -0.0923754  -0.0302397 
1704192519.793141000  0  0  12.0633  0.0650724  -0.146455  0.034134  nan  nan  nan  nan  nan  nan  -2.4973  -0.284297  1.00644  -0.0781744  -0.0352393  -0.00376124  0.0093088  0.131565  0.0760469  0  0  0  0  0.713894  0.223014  0.0350154  0.0030319  -0.0159931  -0.0310875  -0.0211714  -0.015129  0.00888957  0.0399921  -0.0401378  -0.211929  -0.0750166  -0.0252969 
1704192519.798147000  0  0  12.0425  0.0773125  -0.173992  0.0298314  nan  nan  nan  nan  nan  nan  -2.49725  -0.28363  1.00682  -0.079593  -0.0366345  -0.00372484  0.0093088  0.135148  0.0771481  0  0  0  0  0.719398  0.217442  0.0350646  0.00286786  -0.0160173  -0.0294214  -0.0218341  -0.0137833  0.00889305  0.0415952  -0.0395407  -0.236441  -0.0346912  0.0225144 
1704192519.803623000  0  0  12.0596  0.0534801  -0.153538  0.032696  nan  nan  nan  nan  nan  nan  -2.49721  -0.282945  1.00721  -0.0809497  -0.0347699  -0.003951  0.0093088  0.138759  0.0782209  0  0  0  0  0.724653  0.211621  0.0350952  0.00272846  -0.0161072  -0.0319517  -0.0228157  -0.0154464  0.00952167  0.0394513  -0.0396787  -0.19456  -0.0558758  -0.0119126 
1704192519.808146000  0  0  11.9942  0.0415509  -0.138618  0.0347182  nan  nan  nan  nan  nan  nan  -2.49716  -0.282242  1.0076  -0.0816776  -0.0362717  -0.00392766  0.0093088  0.142395  0.0792639  0  0  0  0  0.729658  0.205549  0.0349625  0.00256732  -0.0161655  -0.0299138  -0.022212  -0.0103895  0.00956612  0.0402579  -0.0398932  -0.17111  -0.0931377  -0.0350457 
1704192519.813146000  0  0  12.0117  0.0762792  -0.182839  0.0328767  nan  nan  nan  nan  nan  nan  -2.49711  -0.281521  1.008  -0.0815744  -0.037677  -0.00394162  0.0093088  0.146055  0.080276  0  0  0  0  0.734413  0.199227  0.0348247  0.00246301  -0.0162461  -0.0276657  -0.021414  -0.012297  0.00791384  0.0420283  -0.0396796  -0.225366  -0.0209825  -0.0141629 
1704192519.818250000  0  0  12.0024  0.0748756  -0.162604  0.0301697  nan  nan  nan  nan  nan  nan  -2.49707  -0.280782  1.0084  -0.0833637  -0.0348125  -0.00423806  0.0093088  0.149738  0.0812558  0  0  0  0  0.738918  0.192655  0.0348356  0.00228281  -0.0163224  -0.0315913  -0.022724  -0.0118312  0.00856269  0.0391504  -0.039206  -0.228528  -0.0349764  0.0149382 
1704192519.823166000  0  0  11.9327  0.0297947  -0.128547  0.0376065  nan  nan  nan  nan  nan  nan  -2.49702  -0.280024  1.00881  -0.083843  -0.0379458  -0.00408311  0.0093088  0.153444  0.0822021  0  0  0  0  0.743172  0.185833  0.0349199  0.00208806  -0.0163697  -0.0278874  -0.0217587  -0.00652622  0.0087337  0.0411939  -0.0399975  -0.139939  -0.121891  -0.070107 
1704192519.828579000  0  0  11.973  0.105042  -0.20715  0.0314215  nan  nan  nan  nan  nan  nan  -2.49697  -0.279247  1.00923  -0.0833029  -0.0392702  -0.00411824  0.0093088  0.15717  0.0831137  0  0  0  0  0.747177  0.178762  0.0349269  0.00199271  -0.0164067  -0.0259742  -0.0207151  -0.0105317  0.00595704  0.043413  -0.0394279  -0.264888  0.0148998  0.00150997 
1704192519.833154000  0  0  11.966  0.104449  -0.182188  0.0270257  nan  nan  nan  nan  nan  nan  -2.49693  -0.278452  1.00964  -0.0850837  -0.0362717  -0.00442849  0.0093088  0.160915  0.0839893  0  0  0  0  0.750932  0.17144  0.0347684  0.00182045  -0.0164818  -0.0296839  -0.022137  -0.0103284  0.00653535  0.0403362  -0.0386649  -0.269023  -0.00671617  0.0488278 
1704192519.838146000  0  0  11.927  0.0436837  -0.143  0.0378059  nan  nan  nan  nan  nan  nan  -2.49688  -0.277638  1.01006  -0.0852721  -0.038677  -0.00434115  0.0093088  0.164679  0.0848277  0  0  0  0  0.754437  0.163868  0.0348571  0.00166593  -0.0164797  -0.026849  -0.0212452  -0.00776559  0.00670605  0.0415759  -0.0397875  -0.149063  -0.0964979  -0.0746984 
1704192519.843148000  0  0  11.9299  0.133469  -0.218895  0.0293642  nan  nan  nan  nan  nan  nan  -2.49683  -0.276805  1.01049  -0.0851036  -0.0393387  -0.00441631  0.0093088  0.168459  0.0856276  0  0  0  0  0.757692  0.156046  0.0347249  0.00156908  -0.0165372  -0.0256727  -0.0204362  -0.00867503  0.00400543  0.043275  -0.0389319  -0.303788  0.0396612  0.0222667 
1704192519.848151000  0  0  11.9105  0.103169  -0.195555  0.0291704  nan  nan  nan  nan  nan  nan  -2.49679  -0.275953  1.01092  -0.0868028  -0.0396145  -0.0044501  0.0093088  0.172255  0.0863877  0  0  0  0  0.760696  0.147975  0.0351081  0.00125111  -0.0163162  -0.0262653  -0.0214117  -0.00814361  0.00493687  0.0434195  -0.0386747  -0.251757  -0.00834971  0.0221178 
1704192519.853092000  0  0  11.8824  0.0837302  -0.174247  0.0349101  nan  nan  nan  nan  nan  nan  -2.49674  -0.275083  1.01135  -0.0871673  -0.039016  -0.00461282  0.0093088  0.176065  0.0871069  0  0  0  0  0.763451  0.139661  0.0349707  0.00113892  -0.0163436  -0.0268944  -0.0210206  -0.00648727  0.00460645  0.0423334  -0.039264  -0.20984  -0.040974  -0.0437359 
1704192519.858143000  0  0  11.8513  0.127827  -0.226692  0.0301583  nan  nan  nan  nan  nan  nan  -2.4967  -0.274193  1.01179  -0.0871601  -0.0416114  -0.0045115  0.0093088  0.179889  0.0877845  0  0  0  0  0.765956  0.13143  0.0350033  0.0010347  -0.0163401  -0.0236758  -0.0201859  -0.00472527  0.00263689  0.045623  -0.0387356  -0.279913  0.0336519  0.0103777 
1704192519.863141000  0  0  11.8883  0.120247  -0.224505  0.0307097  nan  nan  nan  nan  nan  nan  -2.49665  -0.273284  1.01223  -0.0866445  -0.0411545  -0.00469786  0.0093088  0.183725  0.0884216  0  0  0  0  0.768211  0.123448  0.0351239  0.000927056  -0.0164158  -0.0243924  -0.0193472  -0.00845602  0.00116061  0.0454403  -0.0385779  -0.251172  0.0309584  0.00190803 
1704192519.868155000  0  0  11.85  0.111631  -0.200073  0.0331557  nan  nan  nan  nan  nan  nan  -2.4966  -0.272356  1.01268  -0.0876704  -0.0401844  -0.00486553  0.0093088  0.187571  0.0890194  0  0  0  0  0.770215  0.115717  0.0349874  0.000823598  -0.0164374  -0.0255683  -0.0198369  -0.00585912  0.00114431  0.0442113  -0.0387756  -0.233789  -0.00659698  -0.0266897 
1704192519.873140000  0  0  11.8311  0.117049  -0.211282  0.034684  nan  nan  nan  nan  nan  nan  -2.49656  -0.271408  1.01312  -0.0873854  -0.0426342  -0.00478763  0.0093088  0.191426  0.0895792  0  0  0  0  0.77197  0.108235  0.0350245  0.000694829  -0.016423  -0.0225073  -0.0187942  -0.00506442  -0.000335417  0.0466198  -0.0389864  -0.231012  -0.00633698  -0.0436858 
1704192519.878144000  0  0  11.9087  0.155848  -0.229639  0.0294295  nan  nan  nan  nan  nan  nan  -2.49651  -0.270441  1.01357  -0.0860455  -0.0404379  -0.00515946  0.0093088  0.19529  0.0901022  0  0  0  0  0.773475  0.101004  0.0348826  0.000609553  -0.0165134  -0.0247564  -0.0173981  -0.0121393  -0.00330338  0.0449384  -0.038346  -0.281305  0.0458457  0.0155914 
1704192519.883142000  0  0  11.8353  0.113364  -0.183328  0.031267  nan  nan  nan  nan  nan  nan  -2.49646  -0.269455  1.01402  -0.0888213  -0.0410635  -0.00511581  0.0093088  0.199161  0.0905897  0  0  0  0  0.77473  0.0940222  0.0352196  0.000320358  -0.0163414  -0.0250377  -0.0195346  -0.00679932  -0.00109129  0.0449172  -0.0384576  -0.216689  -0.0465822  -0.00626177 
1704192519.888154000  0  0  11.8592  0.105836  -0.19932  0.035335  nan  nan  nan  nan  nan  nan  -2.49642  -0.26845  1.01448  -0.0886576  -0.0436132  -0.00502114  0.0093088  0.203037  0.0910428  0  0  0  0  0.775735  0.0872908  0.0354819  0.000125051  -0.0162822  -0.0221467  -0.0190194  -0.00956515  -0.00197254  0.0472832  -0.0389722  -0.193524  -0.0363652  -0.0519653 
1704192519.893142000  0  0  11.8989  0.150313  -0.220105  0.0279444  nan  nan  nan  nan  nan  nan  -2.49637  -0.267425  1.01493  -0.0877225  -0.0420354  -0.00532586  0.0093088  0.206918  0.091463  0  0  0  0  0.776489  0.0808093  0.0353528  3.63272e-05  -0.0163531  -0.0237753  -0.0178868  -0.0134342  -0.00454892  0.0461265  -0.0380952  -0.258777  0.0158469  0.0316464 
1704192519.898145000  0  0  11.8312  0.0961146  -0.165249  0.030849  nan  nan  nan  nan  nan  nan  -2.49632  -0.26638  1.01539  -0.0892162  -0.0417755  -0.00541094  0.0093088  0.210801  0.0918513  0  0  0  0  0.776994  0.0745778  0.0353851  -9.75322e-05  -0.016374  -0.0245304  -0.0188174  -0.00818157  -0.00319702  0.0448843  -0.0382055  -0.162817  -0.0824384  -0.00355762 
1704192519.903138000  0  0  11.8536  0.106403  -0.168741  0.0339503  nan  nan  nan  nan  nan  nan  -2.49628  -0.265317  1.01585  -0.0887309  -0.0416762  -0.00556519  0.0093088  0.214687  0.0922092  0  0  0  0  0.777249  0.0685964  0.0352747  -0.000186726  -0.0164389  -0.024326  -0.0181778  -0.0105051  -0.004542  0.044418  -0.0385124  -0.17102  -0.0711643  -0.0392543 
1704192519.908333000  0  0  11.853  0.118827  -0.169331  0.0282713  nan  nan  nan  nan  nan  nan  -2.49623  -0.264234  1.01631  -0.0881039  -0.041782  -0.00570718  0.0093088  0.218574  0.0925377  0  0  0  0  0.777254  0.0628649  0.0352492  -0.000277652  -0.016455  -0.0241421  -0.0171542  -0.0110166  -0.00616999  0.0442496  -0.0378341  -0.18089  -0.068434  0.0249491 
1704192519.913101000  0  0  11.8252  0.0928294  -0.158985  0.0296971  nan  nan  nan  nan  nan  nan  -2.49618  -0.263131  1.01678  -0.0895628  -0.0419644  -0.00575439  0.0093088  0.222459  0.0928382  0  0  0  0  0.777009  0.0573834  0.0354499  -0.000574015  -0.0164167  -0.0245011  -0.0181668  -0.00915663  -0.00491653  0.0439788  -0.0378686  -0.140427  -0.0866353  0.00747209 
1704192519.918152000  0  0  11.8032  0.0825936  -0.131779  0.0331187  nan  nan  nan  nan  nan  nan  -2.49614  -0.262009  1.01724  -0.0898135  -0.0411451  -0.00594261  0.0093088  0.226343  0.093112  0  0  0  0  0.776513  0.052152  0.0353295  -0.00065711  -0.0164433  -0.0254341  -0.0181482  -0.00770922  -0.00509222  0.042258  -0.0381728  -0.118339  -0.125215  -0.0322559 
1704192519.923316000  0  0  11.8577  0.101305  -0.156962  0.0312507  nan  nan  nan  nan  nan  nan  -2.49609  -0.260868  1.01771  -0.0880985  -0.0420577  -0.00605818  0.0093088  0.230224  0.0933602  0  0  0  0  0.775768  0.0471705  0.035295  -0.000735168  -0.0165087  -0.0239044  -0.0163799  -0.0127234  -0.00751184  0.0429086  -0.0379445  -0.133502  -0.0808355  -0.0111889 
1704192519.928783000  0  0  11.8161  0.0879735  -0.154522  0.0289912  nan  nan  nan  nan  nan  nan  -2.49604  -0.259707  1.01818  -0.0894376  -0.0399204  -0.00631793  0.0093088  0.2341  0.0935841  0  0  0  0  0.774773  0.0424391  0.0352346  -0.000792529  -0.0164917  -0.0268093  -0.0177078  -0.00962551  -0.00661885  0.0406233  -0.0376207  -0.115054  -0.064691  0.0138177 
1704192519.933319000  0  0  11.7934  0.0464563  -0.114485  0.0347958  nan  nan  nan  nan  nan  nan  -2.496  -0.258527  1.01864  -0.0894429  -0.0398032  -0.00645332  0.0093088  0.237971  0.093785  0  0  0  0  0.773528  0.0379576  0.0351195  -0.000976273  -0.0165578  -0.0268242  -0.0172379  -0.00798305  -0.0062694  0.0393642  -0.0381558  -0.0352341  -0.13318  -0.0533899 
1704192519.938316000  0  0  11.8606  0.106395  -0.177739  0.0314668  nan  nan  nan  nan  nan  nan  -2.49595  -0.257327  1.01911  -0.0872291  -0.0409483  -0.00656705  0.0093088  0.241835  0.0939641  0  0  0  0  0.772033  0.0337261  0.0350996  -0.00110532  -0.0166435  -0.0249639  -0.0149283  -0.0140239  -0.00957866  0.0409329  -0.0379102  -0.124667  -0.0211039  -0.0142336 
1704192519.943098000  0  0  11.8187  0.114235  -0.175034  0.0276443  nan  nan  nan  nan  nan  nan  -2.4959  -0.256108  1.01958  -0.0885613  -0.0390848  -0.00680242  0.0093088  0.245691  0.0941227  0  0  0  0  0.770287  0.0297447  0.0349539  -0.00124468  -0.0166934  -0.0273144  -0.0161634  -0.010699  -0.0090217  0.0391601  -0.0373866  -0.145471  -0.0102049  0.0283128 
1704192519.948329000  0  0  11.7982  0.0345715  -0.131564  0.0376073  nan  nan  nan  nan  nan  nan  -2.49586  -0.25487  1.02006  -0.0886702  -0.0402601  -0.00681872  0.0093088  0.249538  0.094262  0  0  0  0  0.768292  0.0260132  0.0351955  -0.00145383  -0.0166029  -0.0264078  -0.0159019  -0.00947665  -0.00785633  0.0392184  -0.0383743  0.0031353  -0.0976802  -0.0863482 
1704192519.952290000  0  0  11.84  0.0872778  -0.179449  0.0336715  nan  nan  nan  nan  nan  nan  -2.49581  -0.253613  1.02053  -0.0877766  -0.0408736  -0.00692613  0.0093088  0.253374  0.0943832  0  0  0  0  0.766047  0.0225317  0.0350898  -0.00176479  -0.0167674  -0.0251828  -0.0147544  -0.0130461  -0.00966125  0.0402816  -0.0381224  -0.085672  -0.0116919  -0.0396692 
1704192519.958100000  0  0  11.8166  0.116405  -0.190415  0.0273398  nan  nan  nan  nan  nan  nan  -2.49576  -0.252336  1.021  -0.0874191  -0.0403308  -0.00711338  0.0093088  0.257198  0.0944877  0  0  0  0  0.763552  0.0193003  0.035016  -0.00169599  -0.0167345  -0.0258492  -0.0145326  -0.0115397  -0.0110787  0.0400176  -0.0372904  -0.130885  0.0126679  0.0311569 
1704192519.963313000  0  0  11.8187  0.0703794  -0.16445  0.0353231  nan  nan  nan  nan  nan  nan  -2.49572  -0.251041  1.02147  -0.0872646  -0.0401169  -0.00726336  0.0093088  0.261009  0.0945766  0  0  0  0  0.760807  0.0163188  0.0351608  -0.00186671  -0.0167367  -0.0264584  -0.0143213  -0.0119817  -0.0107342  0.039341  -0.0380616  -0.0420041  -0.0330362  -0.0609226 
1704192519.968168000  0  0  11.8151  0.103171  -0.184512  0.0313833  nan  nan  nan  nan  nan  nan  -2.49567  -0.249726  1.02194  -0.0861612  -0.040392  -0.0074093  0.0093088  0.264805  0.0946513  0  0  0  0  0.757811  0.0135873  0.0350376  -0.00196694  -0.0168037  -0.0258394  -0.0130139  -0.0119254  -0.0125587  0.0397916  -0.0377288  -0.090801  0.00294076  -0.0150028 
1704192519.973132000  0  0  11.7994  0.10974  -0.191572  0.0287464  nan  nan  nan  nan  nan  nan  -2.49562  -0.248393  1.02242  -0.0861015  -0.0417498  -0.00741963  0.0093088  0.268587  0.0947129  0  0  0  0  0.754566  0.0111059  0.0351171  -0.00218616  -0.0168671  -0.0243087  -0.0127302  -0.0107383  -0.0130397  0.0412503  -0.0373011  -0.0995144  0.00364172  0.0136808 
1704192519.978603000  0  0  11.8125  0.0908277  -0.183216  0.0307408  nan  nan  nan  nan  nan  nan  -2.49558  -0.247041  1.02289  -0.0863733  -0.0402621  -0.00766191  0.0093088  0.272351  0.0947628  0  0  0  0  0.751071  0.0088744  0.0352386  -0.00229261  -0.0168629  -0.0264991  -0.0134094  -0.0120234  -0.0126337  0.0397635  -0.037436  -0.0654254  0.000607812  -0.00990065 
1704192519.983135000  0  0  11.782  0.0840051  -0.166263  0.0327688  nan  nan  nan  nan  nan  nan  -2.49553  -0.245669  1.02337  -0.0856079  -0.0405949  -0.00778951  0.0093088  0.276097  0.0948021  0  0  0  0  0.747326  0.0068929  0.0351201  -0.00247433  -0.0169451  -0.0259383  -0.0121981  -0.00956503  -0.0134674  0.0396698  -0.0375997  -0.0441106  -0.0324363  -0.0336124 
1704192519.988157000  0  0  11.8099  0.106412  -0.196484  0.0315826  nan  nan  nan  nan  nan  nan  -2.49549  -0.24428  1.02384  -0.083996  -0.0418985  -0.00787074  0.0093088  0.279824  0.0948321  0  0  0  0  0.74333  0.0051615  0.0351719  -0.00261063  -0.0170549  -0.0242059  -0.0105864  -0.0119874  -0.0154699  0.0412784  -0.0375167  -0.0705009  0.0132059  -0.0196151 
1704192519.993134000  0  0  11.8169  0.120498  -0.193471  0.0287131  nan  nan  nan  nan  nan  nan  -2.49544  -0.242871  1.02431  -0.0841905  -0.0391645  -0.00821806  0.0093088  0.28353  0.0948541  0  0  0  0  0.739085  0.00368  0.0350183  -0.00268537  -0.0171154  -0.0274559  -0.0112584  -0.0125894  -0.0158417  0.0388463  -0.0370982  -0.0952515  0.0295554  0.0120676 
1704192519.998134000  0  0  11.7763  0.0642795  -0.139273  0.0360181  nan  nan  nan  nan  nan  nan  -2.49539  -0.241444  1.02479  -0.084257  -0.0406537  -0.00821477  0.0093088  0.287214  0.0948693  0  0  0  0  0.73459  0.0024485  0.0352202  -0.00295165  -0.0172272  -0.0261361  -0.0109588  -0.00904578  -0.0148301  0.0393142  -0.0379298  0.00787823  -0.0831439  -0.070928 
1704192520.003598000  0  0  11.8045  0.119818  -0.202782  0.0317147  nan  nan  nan  nan  nan  nan  -2.49535  -0.239999  1.02526  -0.0828366  -0.0436312  -0.00815101  0.0093088  0.290875  0.094879  0  0  0  0  0.729845  0.0014671  0.0354967  -0.003149  -0.0172437  -0.0226952  -0.009577  -0.0116186  -0.0170226  0.0429291  -0.037678  -0.0830284  0.010616  -0.0196543 
1704192520.008147000  0  0  11.7748  0.141121  -0.191327  0.0264255  nan  nan  nan  nan  nan  nan  -2.4953  -0.238536  1.02574  -0.083396  -0.0414048  -0.00843739  0.0093088  0.294512  0.0948844  0  0  0  0  0.72485  0.0007356  0.0353609  -0.00333518  -0.0173207  -0.0254824  -0.0102341  -0.00902314  -0.0172918  0.0408084  -0.0369039  -0.123157  0.00721785  0.0387206 
1704192520.013146000  0  0  11.7892  0.096309  -0.145355  0.0326384  nan  nan  nan  nan  nan  nan  -2.49525  -0.237054  1.02621  -0.0822516  -0.0401269  -0.00871534  0.0093088  0.298123  0.0948868  0  0  0  0  0.719604  0.0002541  0.0352767  -0.00341117  -0.0173768  -0.0269152  -0.00936094  -0.0102172  -0.0178308  0.0386048  -0.0374659  -0.0285743  -0.0644555  -0.0333209 
1704192520.018147000  0  0  11.7735  0.141073  -0.178103  0.0299923  nan  nan  nan  nan  nan  nan  -2.49521  -0.235554  1.02669  -0.0798529  -0.0415465  -0.00882379  0.0093088  0.301708  0.0948874  0  0  0  0  0.714109  2.27e-05  0.0351727  -0.00344093  -0.0174244  -0.0248684  -0.00675243  -0.00909381  -0.0210828  0.0401439  -0.0371473  -0.0881839  -0.0131186  -0.00343022 
1704192520.023145000  0  0  11.8111  0.143614  -0.181453  0.0267687  nan  nan  nan  nan  nan  nan  -2.49516  -0.234037  1.02716  -0.079743  -0.0414856  -0.00895824  0.0093088  0.305264  0.0948874  0  0  0  0  0.708364  0  0.0352052  -0.00365083  -0.0177464  -0.0248616  -0.00721413  -0.0115797  -0.0213711  0.0404961  -0.0366042  -0.0906132  -0.00965781  0.0314337 
1704192520.028148000  0  0  11.8445  0.110675  -0.136566  0.0320064  nan  nan  nan  nan  nan  nan  -2.49511  -0.232502  1.02764  -0.0785852  -0.0384848  -0.00936768  0.0093088  0.308791  0.0948874  0  0  0  0  0.702369  0  0.035049  -0.00368883  -0.0178315  -0.0283319  -0.00663722  -0.0142503  -0.0220023  0.0367282  -0.0370489  -0.0189294  -0.0647671  -0.0295915 
1704192520.033146000  0  0  11.8114  0.121997  -0.141665  0.0330489  nan  nan  nan  nan  nan  nan  -2.49507  -0.230949  1.02811  -0.0770301  -0.0400202  -0.00943447  0.0093088  0.312287  0.0948874  0  0  0  0  0.696124  0  0.0349928  -0.00374651  -0.0178743  -0.0263136  -0.00500482  -0.0115534  -0.0237898  0.0378556  -0.0371784  -0.0251269  -0.0649421  -0.0413268 
1704192520.038148000  0  0  11.8762  0.150394  -0.187588  0.0292414  nan  nan  nan  nan  nan  nan  -2.49502  -0.229379  1.02858  -0.0755723  -0.0403059  -0.00959662  0.0093088  0.315752  0.0948874  0  0  0  0  0.689628  0  0.0350112  -0.00387397  -0.0179467  -0.0256841  -0.00420297  -0.0169692  -0.0256954  0.038714  -0.0367818  -0.06439  0.0190072  0.00230061 
1704192520.043153000  0  0  11.8754  0.118729  -0.138232  0.0301494  nan  nan  nan  nan  nan  nan  -2.49497  -0.227792  1.02906  -0.0751743  -0.0369609  -0.00998949  0.0093089  0.319183  0.0948874  0  0  0  0.0001052  0.682883  0  0.0348431  -0.00390373  -0.0180251  -0.0297431  -0.00442225  -0.016745  -0.0256175  0.0347783  -0.0367613  -0.00177666  -0.0434975  -0.00925434 
1704192520.048147000  0  0  11.8182  0.0864578  -0.12979  0.0351569  nan  nan  nan  nan  nan  nan  -2.49493  -0.226187  1.02953  -0.0734796  -0.0395941  -0.00998377  0.0093103  0.32258  0.0948874  0  0  0  0.0004596  0.675888  0  0.0347943  -0.00394571  -0.018056  -0.0263372  -0.00255751  -0.0120399  -0.02652  0.0365881  -0.0373305  0.0710685  -0.077031  -0.0661564 
1704192520.053148000  0  0  11.8621  0.136898  -0.193947  0.0301105  nan  nan  nan  nan  nan  nan  -2.49488  -0.224566  1.03001  -0.071072  -0.0401364  -0.0101661  0.0093139  0.325942  0.0948874  0  0  0  0.001064  0.668643  0  0.0346672  -0.00394797  -0.0181619  -0.0250449  -0.000693413  -0.0157591  -0.0294736  0.0380319  -0.036833  -0.00263882  0.0379993  -0.00805096 
1704192520.058147000  0  0  11.8685  0.10087  -0.157231  0.0279246  nan  nan  nan  nan  nan  nan  -2.49483  -0.222928  1.03048  -0.0718328  -0.03708  -0.0104802  0.0093213  0.329266  0.0948874  0  0  0  0.0019184  0.661148  0  0.0346489  -0.00408355  -0.0184496  -0.0289401  -0.00235406  -0.015599  -0.0277999  0.0351151  -0.036443  0.0540183  -0.00859812  0.0153723 
1704192520.063154000  0  0  11.8548  0.0685298  -0.15811  0.0353309  nan  nan  nan  nan  nan  nan  -2.49479  -0.221273  1.03096  -0.0700491  -0.0387607  -0.0105538  0.0093335  0.332553  0.0948874  0  0  0  0.0030228  0.653402  0  0.0346051  -0.00411916  -0.018514  -0.026522  -0.000833901  -0.0144502  -0.028485  0.0363896  -0.0372256  0.125002  -0.0185646  -0.0693809 
1704192520.068147000  0  0  11.8859  0.131297  -0.224776  0.028656  nan  nan  nan  nan  nan  nan  -2.49474  -0.219602  1.03143  -0.067613  -0.0388918  -0.0107649  0.0093519  0.3358  0.0948874  0  0  0  0.0043771  0.645407  0  0.034476  -0.0041128  -0.0186086  -0.0257288  0.0010824  -0.0171408  -0.0314317  0.0377595  -0.0365982  0.0265766  0.102165  0.00778281 
1704192520.073155000  0  0  11.8759  0.0860961  -0.187523  0.0283512  nan  nan  nan  nan  nan  nan  -2.49469  -0.217915  1.03191  -0.0686294  -0.0381738  -0.0108995  0.0093777  0.339006  0.0948874  0  0  0  0.0059815  0.637162  0  0.034688  -0.00443505  -0.0186595  -0.0270191  -0.000498686  -0.0160695  -0.0291789  0.0371009  -0.0364468  0.0962534  0.0337178  0.0100775 
1704192520.078158000  0  0  11.862  0.064614  -0.174063  0.0345718  nan  nan  nan  nan  nan  nan  -2.49465  -0.216212  1.03238  -0.0671811  -0.0377786  -0.0111066  0.0094122  0.342171  0.0948874  0  0  0  0.0078359  0.628667  0  0.0345637  -0.00443361  -0.0187239  -0.027079  0.000431506  -0.0148719  -0.029528  0.0364301  -0.0371607  0.14243  0.0129694  -0.0605411 
1704192520.083136000  0  0  11.8483  0.0882912  -0.224751  0.0303452  nan  nan  nan  nan  nan  nan  -2.4946  -0.214494  1.03285  -0.0676693  -0.0426005  -0.0108865  0.0094565  0.345292  0.0948874  0  0  0  0.0099403  0.619921  0  0.035118  -0.00485227  -0.018699  -0.0217426  -0.000363619  -0.0137751  -0.0287042  0.0423746  -0.0368872  0.0874962  0.0596561  -0.0104435 
1704192520.088151000  0  0  11.8651  0.077021  -0.209664  0.0304353  nan  nan  nan  nan  nan  nan  -2.49455  -0.21276  1.03333  -0.0659238  -0.0408598  -0.0112011  0.009512  0.34837  0.0948874  0  0  0  0.0122947  0.610926  0  0.0350225  -0.00487104  -0.0187899  -0.0234428  0.000721569  -0.0151252  -0.0295922  0.0407065  -0.0368171  0.118206  0.0448276  -0.0122697 
1704192520.093150000  0  0  11.8345  0.068196  -0.185337  0.0315504  nan  nan  nan  nan  nan  nan  -2.4945  -0.21101  1.0338  -0.0648428  -0.0388928  -0.0114981  0.0095799  0.351401  0.0948874  0  0  0  0.014899  0.601681  0  0.0348878  -0.00487217  -0.0188377  -0.0255416  0.00121857  -0.0125508  -0.0297725  0.0385607  -0.0369309  0.137515  0.0159152  -0.025072 
1704192520.098148000  0  0  11.8155  0.0736417  -0.187307  0.0330227  nan  nan  nan  nan  nan  nan  -2.49446  -0.209246  1.03428  -0.0630726  -0.0414374  -0.0115316  0.0096614  0.354386  0.0948874  0  0  0  0.0177534  0.592186  0  0.0349201  -0.00491958  -0.0190449  -0.0219598  0.00252861  -0.0106812  -0.0307495  0.0411736  -0.0370637  0.135612  -0.00418375  -0.0421461 
1704192520.103148000  0  0  11.8864  0.102171  -0.202465  0.0287825  nan  nan  nan  nan  nan  nan  -2.49441  -0.207466  1.03475  -0.0608149  -0.0389972  -0.0118991  0.0097578  0.357323  0.0948874  0  0  0  0.0208578  0.582441  0  0.0347874  -0.00490554  -0.0191537  -0.0241582  0.00376086  -0.0165694  -0.032644  0.0391744  -0.036643  0.0959826  0.0445255  0.00664872 
