ts x y z roll pitch yaw vx vy vz wx wy wz ax ay az dwx dwy dwz jx jy jz ddwx ddwy ddwz
1704466836.245680000  -2.5  -0.3  1  0  0  0  -2e-07  2e-07  -2e-07  0  0  0  -0.000125  0.000125  -0.000125  0  0  0  0  0  0  0  0  0 
1704466836.250643000  -2.5  -0.3  1  0  0  0  -1.7e-06  1.7e-06  -1.7e-06  0  0  0  -0.0005  0.0005  -0.0005  0  0  0  0  0  0  0  0  0 
1704466836.255635000  -2.5  -0.3  1  0  0  0  -5.6e-06  5.6e-06  -5.6e-06  0  0  0  -0.001125  0.001125  -0.001125  0  0  0  0  0  0  0  0  0 
1704466836.260648000  -2.5  -0.3  1  0  0  1e-07  -1.33e-05  1.33e-05  -1.33e-05  0  0  0  -0.002  0.002  -0.002  0  0  0  0  0  0  0  0  0 
1704466836.265646000  -2.5  -0.3  1  0  0  2e-07  -2.6e-05  2.6e-05  -2.6e-05  0  0  0  -0.003125  0.003125  -0.003125  0  0  0  0  0  0  0  0  0 
1704466836.270651000  -2.5  -0.3  1  0  0  4e-07  -4.5e-05  4.5e-05  -4.5e-05  0  0  0  -0.0045  0.0045  -0.0045  0  0  0  0  0  0  0  0  0 
1704466836.275647000  -2.5  -0.299999  0.999999  0  0  6e-07  -7.15e-05  7.15e-05  -7.15e-05  0  0  0  -0.006125  0.006125  -0.006125  0  0  0  0  0  0  0  0  0 
1704466836.280647000  -2.5  -0.299999  0.999999  0  0  8e-07  -0.0001067  0.0001067  -0.0001067  0  0  0  -0.008  0.008  -0.008  0  0  0  0  0  0  0  0  0 
1704466836.285651000  -2.5  -0.299998  0.999998  0  0  1e-06  -0.0001519  0.0001519  -0.0001519  0  0  0  -0.010125  0.010125  -0.010125  0  0  0  0  0  0  0  0  0 
1704466836.290685000  -2.5  -0.299997  0.999997  0  0  1.2e-06  -0.0002083  0.0002083  -0.0002083  0  0  0  -0.0125  0.0125  -0.0125  0  0  0  0  0  0  0  0  0 
1704466836.295644000  -2.5  -0.299996  0.999996  0  0  1.4e-06  -0.0002773  0.0002773  -0.0002773  0  0  0  -0.015125  0.015125  -0.015125  0  0  0  0  0  0  0  0  0 
1704466836.300645000  -2.50001  -0.299995  0.999995  0  0  1.7e-06  -0.00036  0.00036  -0.00036  0  0  0  -0.018  0.018  -0.018  0  0  0  0  0  0  0  0  0 
1704466836.305647000  -2.50001  -0.299993  0.999993  0  0  2e-06  -0.0004577  0.0004577  -0.0004577  0  0  0  -0.021125  0.021125  -0.021125  0  0  0  0  0  0  0  0  0 
1704466836.310645000  -2.50001  -0.29999  0.99999  0  0  2.4e-06  -0.0005717  0.0005717  -0.0005717  0  0  0  -0.0245  0.0245  -0.0245  0  0  0  0  0  0  0  0  0 
1704466836.315647000  -2.50001  -0.299987  0.999987  0  0  2.9e-06  -0.0007031  0.0007031  -0.0007031  0  0  0  -0.028125  0.028125  -0.028125  0  0  0  0  0  0  0  0  0 
1704466836.320616000  -2.50002  -0.299983  0.999983  0  0  3.6e-06  -0.0008533  0.0008533  -0.0008533  0  0  0  -0.032  0.032  -0.0319997  0  0  0  0  0  0  0  0  0 
1704466836.325631000  -2.50002  -0.299978  0.999978  0  0  4.6e-06  -0.0010235  0.0010235  -0.0010231  0  0  0  -0.036125  0.036125  -0.0358572  0  0  0  0  0  0  0  0  0 
1704466836.330640000  -2.50003  -0.299973  0.999973  0  0  5.9e-06  -0.001215  0.001215  -0.0012115  0  0  0  -0.0405  0.0405  -0.0394647  0  0  0  0  0  0  0  0  0 
1704466836.335658000  -2.50003  -0.299966  0.999966  0  0  7.6e-06  -0.001429  0.001429  -0.0014173  0  0  0  -0.045125  0.045125  -0.0428223  0  0  0  0  0  0  0  0  0 
1704466836.340644000  -2.50004  -0.299958  0.999958  0  0  9.8e-06  -0.0016665  0.0016665  -0.0016393  0  0  0  -0.0498868  0.0498868  -0.0459298  0  0  0  0  0  0  0  0  0 
1704466836.345645000  -2.50005  -0.299949  0.99995  0  0  1.27e-05  -0.0019274  0.0019274  -0.0018762  0  0  0  -0.0544253  0.0544253  -0.0487873  0  0  0  0  0  0  0  0  0 
1704466836.350647000  -2.50006  -0.299939  0.99994  0  0  1.63e-05  -0.0022104  0.0022104  -0.0021268  0  0  0  -0.0587138  0.0587138  -0.0513948  0  0  0  0  0  0  0  0  0 
1704466836.355645000  -2.50007  -0.299927  0.999928  0  0  2.08e-05  -0.0025142  0.0025142  -0.0023897  0  0  0  -0.0627524  0.0627524  -0.0537524  0  0  0  0  0  0  0  0  0 
1704466836.360645000  -2.50009  -0.299914  0.999916  0  0  2.62e-05  -0.0028375  0.0028375  -0.0026639  0  0  0  -0.0665409  0.0665409  -0.0558599  0  0  0  0  0  0  0  0  0 
1704466836.365646000  -2.5001  -0.299899  0.999902  0  0  3.29e-05  -0.0031791  0.0031791  -0.0029479  0  0  0  -0.0700794  0.0700794  -0.0577174  0  0  0  0  0  0  0  0  0 
1704466836.370647000  -2.50012  -0.299882  0.999886  0  0  4.08e-05  -0.0035379  0.0035379  -0.0032406  0  0  0  -0.073368  0.073368  -0.0593249  0  0  0  0  0  0  0  0  0 
1704466836.375645000  -2.50014  -0.299863  0.999869  0  0  5.02e-05  -0.0039124  0.0039124  -0.0035407  0  0  0  -0.0764065  0.0764065  -0.0606825  0  0  0  0  0  0  0  0  0 
1704466836.380643000  -2.50016  -0.299843  0.999851  0  0  6.13e-05  -0.0043015  0.0043015  -0.003847  0  0  0  -0.079195  0.079195  -0.06179  0  0  0  0  0  0  0  0  0 
1704466836.385648000  -2.50018  -0.29982  0.999831  0  0  7.41e-05  -0.0047039  0.0047039  -0.0041582  0  0  0  -0.0817335  0.0817335  -0.0626475  0  0  0  0  0  0  0  0  0 
1704466836.390646000  -2.5002  -0.299796  0.999809  0  0  8.91e-05  -0.0051184  0.0051184  -0.0044731  0  0  0  -0.0840221  0.0840221  -0.063255  0  0  0  0  0  0  0  0  0 
1704466836.395635000  -2.50023  -0.299769  0.999786  0  0  0.0001062  -0.0055437  0.0055437  -0.0047904  0  0  0  -0.0860606  0.0860606  -0.0636126  0  0  0  0  0  0  0  0  0 
1704466836.400645000  -2.50026  -0.29974  0.999761  0  0  0.0001259  -0.0059786  0.0059786  -0.0051088  0  0  0  -0.0878491  0.0878491  -0.0637201  0  0  0  0  0  0  0  0  0 
1704466836.405646000  -2.50029  -0.299709  0.999735  0  0  0.0001482  -0.0064218  0.0064218  -0.0054271  0  0  0  -0.0893877  0.0893877  -0.0635776  0  0  0  0  0  0  0  0  0 
1704466836.410649000  -2.50032  -0.299676  0.999707  0  0  0.0001734  -0.0068721  0.0068721  -0.0057441  0  0  0  -0.0906762  0.0906762  -0.0631851  0  0  0  0  0  0  0  0  0 
1704466836.415645000  -2.50036  -0.299641  0.999678  0  0  0.0002018  -0.0073282  0.0073282  -0.0060586  0  0  0  -0.0917147  0.0917147  -0.0625427  0  0  0  0  0  0  0  0  0 
1704466836.420645000  -2.5004  -0.299603  0.999647  0  0  0.0002336  -0.0077888  0.0077888  -0.0063692  0  0  0  -0.0925032  0.0925032  -0.0616502  0  0  0  0  0  0  0  0  0 
1704466836.425647000  -2.50044  -0.299563  0.999614  0  0  0.000269  -0.0082528  0.0082528  -0.0066747  0  0  0  -0.0930418  0.0930418  -0.0605077  0  0  0  0  0  0  0  0  0 
1704466836.430646000  -2.50048  -0.29952  0.99958  0  0  0.0003083  -0.0087188  0.0087188  -0.0069738  0  0  0  -0.0933303  0.0933303  -0.0591152  0  0  0  0  0  0  0  0  0 
1704466836.435645000  -2.50052  -0.299476  0.999544  0  0  0.0003517  -0.0091857  0.0091857  -0.0072654  0  0  0  -0.0933688  0.0933688  -0.0574728  0  0  0  0  0  0  0  0  0 
1704466836.440647000  -2.50057  -0.299428  0.999507  0  0  0.0003993  -0.0096521  0.0096521  -0.0075481  0  0  0  -0.0931574  0.0931574  -0.0555803  0  0  0  0  0  0  0  0  0 
1704466836.445649000  -2.50062  -0.299379  0.999469  0  0  0.0004515  -0.0101168  0.0101168  -0.0078208  0  0  0  -0.0926959  0.0926959  -0.0534378  0  0  0  0  0  0  0  0  0 
1704466836.450649000  -2.50067  -0.299327  0.999429  0  0  0.0005083  -0.0105786  0.0105786  -0.0080821  0  0  0  -0.0919844  0.0919844  -0.0510453  0  0  0  0  0  0  0  0  0 
1704466836.455646000  -2.50073  -0.299273  0.999388  0  0  0.0005699  -0.0110362  0.0110362  -0.0083308  0  0  0  -0.0910229  0.0910229  -0.0484029  0  0  0  0  0  0  0  0  0 
1704466836.460642000  -2.50078  -0.299217  0.999346  0  0  0.0006365  -0.0114884  0.0114884  -0.0085657  0  0  0  -0.0898115  0.0898115  -0.0455104  0  0  0  0  0  0  0  0  0 
1704466836.465651000  -2.50084  -0.299158  0.999302  0  0  0.0007083  -0.0119339  0.0119339  -0.0087855  0  0  0  -0.08835  0.08835  -0.0423679  0  0  0  0  0  0  0  0  0 
1704466836.470648000  -2.5009  -0.299098  0.999258  0  0  0.0007853  -0.0123715  0.0123715  -0.008989  0  0  0  -0.0866385  0.0866385  -0.0389754  0  0  0  0  0  0  0  0  0 
1704466836.475646000  -2.50097  -0.299035  0.999212  0  0  0.0008678  -0.0127999  0.0127999  -0.0091748  0  0  0  -0.0846771  0.0846771  -0.035333  0  0  0  0  0  0  0  0  0 
1704466836.480646000  -2.50103  -0.29897  0.999166  0  0  0.0009559  -0.0132179  0.0132179  -0.0093419  0  0  0  -0.0824656  0.0824656  -0.0314432  0  0  0  0  0  0  0  0  0 
1704466836.485637000  -2.5011  -0.298903  0.999119  0  0  0.0010496  -0.0136242  0.0136242  -0.0094894  0  0  0  -0.0800041  0.0800041  -0.0276032  0  0  0  0  0  0  0  0  0 
1704466836.490646000  -2.50117  -0.298833  0.999071  0  0  0.001149  -0.0140175  0.0140175  -0.0096183  0  0  0  -0.0772927  0.0772927  -0.0240131  0  0  0  0  0  0  0  0  0 
1704466836.495646000  -2.50124  -0.298762  0.999023  0  0  0.0012543  -0.0143967  0.0143967  -0.0097299  0  0  0  -0.0743312  0.0743312  -0.0206731  0  0  0  0  0  0  0  0  0 
1704466836.500645000  -2.50131  -0.298689  0.998974  0  0  0.0013656  -0.0147604  0.0147604  -0.0098255  0  0  0  -0.0711197  0.0711197  -0.017583  0  0  0  0  0  0  0  0  0 
1704466836.505652000  -2.50139  -0.298615  0.998925  0  0  0.0014829  -0.0151074  0.0151074  -0.0099062  0  0  0  -0.0676582  0.0676582  -0.014743  0  0  0  0  0  0  0  0  0 
1704466836.510639000  -2.50146  -0.298538  0.998875  0  0  0.0016062  -0.0154366  0.0154366  -0.0099733  0  0  0  -0.0639468  0.0639468  -0.0121529  0  0  0  0  0  0  0  0  0 
1704466836.515635000  -2.50154  -0.29846  0.998825  0  0  0.0017357  -0.0157465  0.0157465  -0.0100281  0  0  0  -0.0599853  0.0599853  -0.0098129  0  0  0  0  0  0  0  0  0 
1704466836.520622000  -2.50162  -0.298381  0.998775  0  0  0.0018714  -0.016036  0.016036  -0.0100719  0  0  0  -0.0557738  0.0557738  -0.0077228  0  0  0  0  0  0  0  0  0 
1704466836.525629000  -2.5017  -0.2983  0.998724  0  0  0.0020132  -0.0163038  0.0163038  -0.0101058  0  0  0  -0.0513124  0.0513124  -0.0058828  0  0  0  0  0  0  0  0  0 
1704466836.530633000  -2.50178  -0.298218  0.998674  0  0  0.0021613  -0.0165487  0.0165487  -0.0101311  0  0  0  -0.046601  0.046601  -0.0042927  0  0  0  0  0  0  0  0  0 
1704466836.535621000  -2.50187  -0.298135  0.998623  0  0  0.0023157  -0.0167698  0.0167698  -0.0101491  0  0  0  -0.0418989  0.0418989  -0.0029527  0  0  0  0  0  0  0  0  0 
1704466836.540653000  -2.50195  -0.29805  0.998572  0  0  0.0024763  -0.0169681  0.0169681  -0.0101611  0  0  0  -0.0374469  0.0374469  -0.0018626  0  0  0  0  0  0  0  0  0 
1704466836.545626000  -2.50203  -0.297965  0.998521  0  0  0.0026431  -0.0171447  0.0171447  -0.0101682  0  0  0  -0.0332448  0.0332448  -0.0010226  0  0  0  0  0  0  0  0  0 
1704466836.550632000  -2.50212  -0.297879  0.99847  0  0  0.0028162  -0.017301  0.017301  -0.0101717  0  0  0  -0.0292927  0.0292927  -0.0004325  0  0  0  0  0  0  0  0  0 
1704466836.555629000  -2.50221  -0.297792  0.99842  0  0  0.0029956  -0.0174381  0.0174381  -0.0101729  0  0  0  -0.0255907  0.0255907  -9.25e-05  0  0  0  0  0  0  0  0  0 
1704466836.560630000  -2.5023  -0.297705  0.998369  0  0  0.0031812  -0.0175573  0.0175573  -0.010173  0  0  0  -0.0221386  0.0221386  0  0  0  0  0  0  0  0  0  0 
1704466836.565626000  -2.50238  -0.297617  0.998318  0  0  0.003373  -0.0176599  0.0176599  -0.010173  0  0  0  -0.0189366  0.0189366  0  0  0  0  0  0  0  0  0  0 
1704466836.570630000  -2.50247  -0.297528  0.998267  0  0  0.0035711  -0.0177471  0.0177471  -0.010173  0  0  0  -0.0159845  0.0159845  0  0  0  0  0  0  0  0  0  0 
1704466836.575631000  -2.50256  -0.297439  0.998216  0  0  0.0037755  -0.0178201  0.0178201  -0.010173  0  0  0  -0.0132825  0.0132825  0  0  0  0  0  0  0  0  0  0 
1704466836.580625000  -2.50265  -0.29735  0.998165  0  0  0.0039861  -0.0178803  0.0178803  -0.010173  0  0  0  -0.0108304  0.0108304  0  0  0  0  0  0  0  0  0  0 
1704466836.585627000  -2.50274  -0.29726  0.998114  0  0  0.0042029  -0.0179289  0.0179289  -0.010173  0  0  0  -0.0086283  0.0086283  0  0  0  0  0  0  0  0  0  0 
1704466836.590631000  -2.50283  -0.297171  0.998064  0  0  0.004426  -0.017967  0.017967  -0.010173  0  0  0  -0.0066763  0.0066763  0  0  0  0  0  0  0  0  0  0 
1704466836.595628000  -2.50292  -0.297081  0.998013  0  0  0.0046554  -0.017996  0.017996  -0.010173  0  0  0  -0.0049742  0.0049742  0  0  0  0  0  0  0  0  0  0 
1704466836.600625000  -2.50301  -0.296991  0.997962  0  0  0.004891  -0.0180172  0.0180172  -0.010173  0  0  0  -0.0035222  0.0035222  0  0  0  0  0  0  0  0  0  0 
1704466836.605627000  -2.5031  -0.2969  0.997911  0  0  0.0051328  -0.0180317  0.0180317  -0.010173  0  0  0  -0.0023201  0.0023201  0  0  0  0  0  0  0  0  0  0 
1704466836.610630000  -2.50319  -0.29681  0.99786  0  0  0.0053809  -0.0180408  0.0180408  -0.010173  0  0  0  -0.001368  0.001368  0  0  0  0  0  0  0  0  0  0 
1704466836.615625000  -2.50328  -0.29672  0.997809  0  0  0.0056353  -0.0180458  0.0180458  -0.010173  0  0  0  -0.000666  0.000666  0  0  0  0  0  0  0  0  0  0 
1704466836.620627000  -2.50337  -0.29663  0.997758  0  0  0.0058959  -0.0180479  0.0180479  -0.010173  0  0  0  -0.0002139  0.0002139  0  0  0  0  0  0  0  0  0  0 
1704466836.625627000  -2.50346  -0.29654  0.997708  0  0  0.0061627  -0.0180483  0.0180483  -0.010173  0  0  0  -1.19e-05  1.19e-05  0  0  0  0  0  0  0  0  0  0 
1704466836.630629000  -2.50355  -0.296449  0.997657  0  0  0.0064358  -0.0180483  0.0180483  -0.010173  0  0  0  4.6e-05  -4.6e-05  0  0  0  0  0  0  0  0  0  0 
1704466836.635628000  -2.50364  -0.296359  0.997606  0  0  0.0067151  -0.0180475  0.0180475  -0.010173  0  0  0  0.0003226  -0.0003226  0  0  0  0  0  0  0  0  0  0 
1704466836.640631000  -2.50373  -0.296269  0.997555  0  0  0.0070008  -0.0180447  0.0180446  -0.010173  0  0  0  0.0008491  -0.0008492  0  0  0  0  0  0  0  0  0  0 
1704466836.645626000  -2.50382  -0.296179  0.997504  0  0  0.0072926  -0.0180386  0.0180386  -0.010173  0  0  0  0.0016257  -0.0016258  0  0  0  0  0  0  0  0  0  0 
1704466836.650631000  -2.50391  -0.296089  0.997453  0  0  0.0075907  -0.018028  0.018028  -0.010173  0  0  0  0.0026523  -0.0026524  0  0  0  0  0  0  0  0  0  0 
1704466836.655628000  -2.504  -0.295998  0.997402  0  0  0.007895  -0.0180116  0.0180116  -0.010173  0  0  0  0.0039289  -0.003929  0  0  0  0  0  0  0  0  0  0 
1704466836.660626000  -2.50409  -0.295908  0.997351  0  0  0.0082056  -0.0179883  0.0179883  -0.010173  0  0  0  0.0054555  -0.0054556  0  0  0  0  0  0  0  0  0  0 
1704466836.665625000  -2.50418  -0.295819  0.997301  0  0  0.0085225  -0.0179567  0.0179567  -0.010173  0  0  0  0.0072321  -0.0072322  0  0  0  0  0  0  0  0  0  0 
1704466836.670645000  -2.50427  -0.295729  0.99725  0  0  0.0088456  -0.0179155  0.0179155  -0.010173  0  0  0  0.0092587  -0.0092588  0  0  0  0  0  0  0  0  0  0 
1704466836.675626000  -2.50436  -0.295639  0.997199  0  0  0.0091749  -0.0178637  0.0178636  -0.010173  0  0  0  0.0115353  -0.0115354  0  0  0  0  0  0  0  0  0  0 
1704466836.680628000  -2.50445  -0.29555  0.997148  0  0  0.0095105  -0.0177998  0.0177998  -0.010173  0  0  0  0.0140619  -0.014062  0  0  0  0  0  0  0  0  0  0 
1704466836.685635000  -2.50454  -0.295461  0.997097  0  0  0.0098524  -0.0177226  0.0177226  -0.010173  0  0  0  0.0168385  -0.0168386  0  0  0  0  0  0  0  0  0  0 
1704466836.690659000  -2.50463  -0.295373  0.997046  0  0  0.0102005  -0.017631  0.017631  -0.010173  0  0  0  0.0198651  -0.0198652  0  0  0  0  0  0  0  0  0  0 
1704466836.695631000  -2.50471  -0.295285  0.996995  0  0  0.0105548  -0.0175235  0.0175235  -0.010173  0  0  0  0.0231417  -0.0231418  0  0  0  0  0  0  0  0  0  0 
1704466836.700632000  -2.5048  -0.295198  0.996945  0  0  0.0109154  -0.0173991  0.0173991  -0.010173  0  0  0  0.0266682  -0.0266684  0  0  0  0  0  0  0  0  0  0 
1704466836.705628000  -2.50489  -0.295111  0.996894  0  0  0.0112823  -0.0172564  0.0172564  -0.010173  0  0  0  0.0304448  -0.030445  0  0  0  0  0  0  0  0  0  0 
1704466836.710636000  -2.50497  -0.295025  0.996843  0  0  0.0116554  -0.0170943  0.0170943  -0.010173  0  0  0  0.0344714  -0.0344716  0  0  0  0  0  0  0  0  0  0 
1704466836.715646000  -2.50506  -0.29494  0.996792  0  0  0.0120347  -0.0169113  0.0169113  -0.010173  0  0  0  0.038748  -0.0387482  0  0  0  0  0  0  0  0  0  0 
1704466836.720663000  -2.50514  -0.294856  0.996741  0  0  0.0124203  -0.0167064  0.0167064  -0.010173  0  0  0  0.0432746  -0.0432748  0  0  0  0  0  0  0  0  0  0 
1704466836.725653000  -2.50523  -0.294773  0.99669  0  0  0.0128122  -0.0164782  0.0164781  -0.010173  0  0  0  0.0480512  -0.0480514  0  0  0  0  0  0  0  0  0  0 
1704466836.730650000  -2.50531  -0.294691  0.996639  0  0  0.0132103  -0.0162254  0.0162254  -0.010173  0  0  0  0.0530778  -0.053078  0  0  0  0  0  0  0  0  0  0 
1704466836.735628000  -2.50539  -0.294611  0.996588  0  0  0.0136146  -0.015947  0.0159469  -0.010173  0  0  0  0.0583544  -0.0583546  0  0  0  0  0  0  0  0  0  0 
1704466836.740630000  -2.50547  -0.294532  0.996538  0  0  0.0140252  -0.0156415  0.0156415  -0.010173  0  0  0  0.063881  -0.0638812  0  0  0  0  0  0  0  0  0  0 
1704466836.745634000  -2.50555  -0.294455  0.996487  0  0  0.0144421  -0.0153077  0.0153077  -0.010173  0  0  0  0.0696549  -0.0696552  0  0  0  0  0  0  0  0  0  0 
1704466836.750632000  -2.50562  -0.294379  0.996436  0  0  0.0148652  -0.014945  0.014945  -0.010173  0  0  0  0.0753802  -0.0753805  0  0  0  0  0  0  0  0  0  0 
1704466836.755652000  -2.50569  -0.294305  0.996385  0  0  0.0152945  -0.0145543  0.0145543  -0.010173  0  0  0  0.0808555  -0.0808558  0  0  0  0  0  0  0  0  0  0 
1704466836.760665000  -2.50577  -0.294234  0.996334  0  0  0.0157301  -0.0141369  0.0141369  -0.010173  0  0  0  0.0860808  -0.086081  0  0  0  0  0  0  0  0  0  0 
1704466836.765637000  -2.50584  -0.294164  0.996283  0  0  0.0161719  -0.013694  0.0136939  -0.010173  0  0  0  0.0910561  -0.0910563  0  0  0  0  0  0  0  0  0  0 
1704466836.770629000  -2.5059  -0.294097  0.996232  0  0  0.01662  -0.0132268  0.0132267  -0.010173  0  0  0  0.0957814  -0.0957816  0  0  0  0  0  0  0  0  0  0 
1704466836.775621000  -2.50597  -0.294032  0.996182  0  0  0.0170744  -0.0127366  0.0127365  -0.010173  0  0  0  0.100257  -0.100257  0  0  0  0  0  0  0  0  0  0 
1704466836.780632000  -2.50603  -0.293969  0.996131  0  0  0.017535  -0.0122246  0.0122246  -0.010173  0  0  0  0.104482  -0.104482  0  0  0  0  0  0  0  0  0  0 
1704466836.785646000  -2.50609  -0.29391  0.99608  0  0  0.0180018  -0.0116922  0.0116921  -0.010173  0  0  0  0.108457  -0.108457  0  0  0  0  0  0  0  0  0  0 
1704466836.790622000  -2.50615  -0.293852  0.996029  0  0  0.0184749  -0.0111405  0.0111404  -0.010173  0  0  0  0.112183  -0.112183  0  0  0  0  0  0  0  0  0  0 
1704466836.795649000  -2.5062  -0.293798  0.995978  0  0  0.0184869  -0.0105707  0.0105707  -0.0101729  0  0  0  0.115658  -0.115658  8.63e-05  0  0  0  0  0  0  0  0  0 
1704466836.800627000  -2.50625  -0.293747  0.995927  0  0  0.0184869  -0.0099843  0.0099843  -0.0101718  0  0  0  0.118883  -0.118883  0.000419  0  0  0  0  0  0  0  0  0 
1704466836.805630000  -2.5063  -0.293698  0.995876  0  0  0.0184869  -0.0093823  0.0093823  -0.0101683  0  0  0  0.121858  -0.121859  0.0010017  0  0  0  0  0  0  0  0  0 
1704466836.810630000  -2.50635  -0.293653  0.995826  0  0  0.0184869  -0.0087661  0.0087661  -0.0101613  0  0  0  0.124584  -0.124584  0.0018344  0  0  0  0  0  0  0  0  0 
1704466836.815631000  -2.50639  -0.293611  0.995775  0  0  0.0184869  -0.0081369  0.0081369  -0.0101496  0  0  0  0.127059  -0.127059  0.0029171  0  0  0  0  0  0  0  0  0 
1704466836.820631000  -2.50643  -0.293572  0.995724  0  0  0.0184869  -0.007496  0.0074959  -0.0101317  0  0  0  0.129284  -0.129284  0.0042498  0  0  0  0  0  0  0  0  0 
1704466836.825632000  -2.50646  -0.293536  0.995673  0  0  0.0184869  -0.0068445  0.0068445  -0.0101066  0  0  0  0.13126  -0.13126  0.0058325  0  0  0  0  0  0  0  0  0 
1704466836.830634000  -2.5065  -0.293503  0.995623  0  0  0.0184869  -0.0061838  0.0061837  -0.010073  0  0  0  0.132985  -0.132985  0.0076652  0  0  0  0  0  0  0  0  0 
1704466836.835630000  -2.50653  -0.293474  0.995573  0  0  0.0184869  -0.0055151  0.005515  -0.0100296  0  0  0  0.13446  -0.13446  0.0097479  0  0  0  0  0  0  0  0  0 
1704466836.840629000  -2.50655  -0.293448  0.995523  0  0  0.0184869  -0.0048396  0.0048396  -0.0099751  0  0  0  0.135685  -0.135685  0.0120806  0  0  0  0  0  0  0  0  0 
1704466836.845632000  -2.50657  -0.293426  0.995473  0  0  0.0184869  -0.0041586  0.0041586  -0.0099083  0  0  0  0.136661  -0.136661  0.0146634  0  0  0  0  0  0  0  0  0 
1704466836.850632000  -2.50659  -0.293406  0.995424  0  0  0.0184869  -0.0034734  0.0034734  -0.009828  0  0  0  0.137386  -0.137386  0.0174961  0  0  0  0  0  0  0  0  0 
1704466836.855632000  -2.50661  -0.293391  0.995375  0  0  0.0184869  -0.0027852  0.0027851  -0.009733  0  0  0  0.137861  -0.137861  0.0205788  0  0  0  0  0  0  0  0  0 
1704466836.860630000  -2.50662  -0.293379  0.995326  0  0  0.0184869  -0.0020952  0.0020952  -0.0096218  0  0  0  0.138087  -0.138087  0.0239115  0  0  0  0  0  0  0  0  0 
1704466836.865631000  -2.50663  -0.29337  0.995279  0  0  0.0184869  -0.0014047  0.0014047  -0.0094934  0  0  0  0.138062  -0.138062  0.0274942  0  0  0  0  0  0  0  0  0 
1704466836.870635000  -2.50664  -0.293365  0.995231  0  0  0.0184869  -0.000715  0.000715  -0.0093465  0  0  0  0.137787  -0.137787  0.0313269  0  0  0  0  0  0  0  0  0 
1704466836.875635000  -2.50664  -0.293363  0.995185  0  0  0.0184869  -2.73e-05  2.72e-05  -0.0091798  0  0  0  0.137262  -0.137262  0.0354096  0  0  0  0  0  0  0  0  0 
1704466836.880632000  -2.50664  -0.293364  0.99514  0  0  0.0184869  0.0006572  -0.0006572  -0.008992  0  0  0  0.136488  -0.136488  0.0397423  0  0  0  0  0  0  0  0  0 
1704466836.885637000  -2.50663  -0.293369  0.995095  0  0  0.0184869  0.0013372  -0.0013372  -0.0087819  0  0  0  0.135463  -0.135463  0.044325  0  0  0  0  0  0  0  0  0 
1704466836.890637000  -2.50662  -0.293378  0.995052  0  0  0.0184869  0.0020114  -0.0020115  -0.0085483  0  0  0  0.134188  -0.134188  0.0491577  0  0  0  0  0  0  0  0  0 
1704466836.895632000  -2.50661  -0.293389  0.99501  0  0  0.0184869  0.0026786  -0.0026787  -0.0082899  0  0  0  0.132664  -0.132664  0.0542404  0  0  0  0  0  0  0  0  0 
1704466836.900630000  -2.5066  -0.293404  0.994969  0  0  0.0184869  0.0033376  -0.0033377  -0.0080055  0  0  0  0.130889  -0.130889  0.0595731  0  0  0  0  0  0  0  0  0 
1704466836.905635000  -2.50658  -0.293423  0.99493  0  0  0.0184869  0.0039871  -0.0039872  -0.0076938  0  0  0  0.128864  -0.128864  0.0651558  0  0  0  0  0  0  0  0  0 
1704466836.910634000  -2.50656  -0.293444  0.994892  0  0  0.0184869  0.0046259  -0.0046259  -0.0073535  0  0  0  0.126589  -0.126589  0.0709885  0  0  0  0  0  0  0  0  0 
1704466836.915631000  -2.50653  -0.293469  0.994856  0  0  0.0184869  0.0052526  -0.0052526  -0.0069835  0  0  0  0.124065  -0.124065  0.0770712  0  0  0  0  0  0  0  0  0 
1704466836.920631000  -2.5065  -0.293497  0.994822  0  0  0.0184869  0.0058661  -0.0058661  -0.0065824  0  0  0  0.12129  -0.12129  0.083404  0  0  0  0  0  0  0  0  0 
1704466836.925628000  -2.50647  -0.293528  0.994791  0  0  0.0184869  0.0064651  -0.0064651  -0.006149  0  0  0  0.118265  -0.118265  0.0899867  0  0  0  0  0  0  0  0  0 
1704466836.930632000  -2.50644  -0.293561  0.994761  0  0  0.0184869  0.0070483  -0.0070484  -0.0056821  0  0  0  0.114991  -0.11499  0.0968194  0  0  0  0  0  0  0  0  0 
1704466836.935629000  -2.5064  -0.293598  0.994734  0  0  0.0184869  0.0076146  -0.0076146  -0.0051804  0  0  0  0.111466  -0.111466  0.103902  0  0  0  0  0  0  0  0  0 
1704466836.940634000  -2.50636  -0.293637  0.994709  0  0  0.0184869  0.0081626  -0.0081626  -0.0046427  0  0  0  0.107691  -0.107691  0.111235  0  0  0  0  0  0  0  0  0 
1704466836.945632000  -2.50632  -0.29368  0.994687  0  0  0.0184869  0.0086911  -0.0086911  -0.0040676  0  0  0  0.103666  -0.103666  0.118817  0  0  0  0  0  0  0  0  0 
1704466836.950637000  -2.50628  -0.293724  0.994669  0  0  0.0184869  0.0091988  -0.0091988  -0.0034541  0  0  0  0.0993917  -0.0993916  0.12665  0  0  0  0  0  0  0  0  0 
1704466836.955633000  -2.50623  -0.293772  0.994653  0  0  0.0184869  0.0096846  -0.0096846  -0.0028008  0  0  0  0.094867  -0.0948669  0.13466  0  0  0  0  0  0  0  0  0 
1704466836.960648000  -2.50618  -0.293821  0.994641  0  0  0.0184869  0.0101471  -0.0101471  -0.0021079  0  0  0  0.0900923  -0.0900922  0.142472  0  0  0  0  0  0  0  0  0 
1704466836.965627000  -2.50613  -0.293873  0.994632  0  0  0.0184869  0.0105851  -0.0105851  -0.0013765  0  0  0  0.0850676  -0.0850674  0.150035  0  0  0  0  0  0  0  0  0 
1704466836.970636000  -2.50607  -0.293927  0.994627  0  0  0.0184869  0.0109973  -0.0109974  -0.0006079  0  0  0  0.0797929  -0.0797927  0.157347  0  0  0  0  0  0  0  0  0 
1704466836.975650000  -2.50602  -0.293983  0.994626  0  0  0.0184869  0.0113826  -0.0113826  0.0001966  0  0  0  0.0742682  -0.074268  0.164409  0  0  0  0  0  0  0  0  0 
1704466836.980638000  -2.50596  -0.294041  0.994629  0  0  0.0184869  0.0117396  -0.0117396  0.0010357  0  0  0  0.0684935  -0.0684933  0.171222  0  0  0  0  0  0  0  0  0 
1704466836.985652000  -2.5059  -0.2941  0.994636  0  0  0.0184869  0.0120671  -0.0120671  0.0019084  0  0  0  0.0624688  -0.0624686  0.177784  0  0  0  0  0  0  0  0  0 
1704466836.990649000  -2.50584  -0.294161  0.994648  0  0  0.0184869  0.0123639  -0.0123639  0.0028132  0  0  0  0.056194  -0.0561938  0.184096  0  0  0  0  0  0  0  0  0 
1704466836.995649000  -2.50578  -0.294224  0.994665  0  0  0.0184869  0.0126286  -0.0126287  0.0037489  0  0  0  0.0496693  -0.0496691  0.190159  0  0  0  0  0  0  0  0  0 
1704466837.000625000  -2.50571  -0.294288  0.994686  0  0  0.0184869  0.0128601  -0.0128602  0.0047143  0  0  0  0.0428946  -0.0428944  0.195971  0  0  0  0  0  0  0  0  0 
1704466837.005644000  -2.50565  -0.294352  0.994712  0  0  0.0184869  0.0130572  -0.0130572  0.0057082  0  0  0  0.0358699  -0.0358697  0.201533  0  0  0  0  0  0  0  0  0 
1704466837.010621000  -2.50558  -0.294418  0.994743  0  0  0.0184869  0.0132184  -0.0132184  0.0067293  0  0  0  0.0285952  -0.0285949  0.206846  0  0  0  0  0  0  0  0  0 
1704466837.015631000  -2.50552  -0.294485  0.994779  0  0  0.0184869  0.0133427  -0.0133427  0.0077763  0  0  0  0.0210705  -0.0210702  0.211908  0  0  0  0  0  0  0  0  0 
1704466837.020661000  -2.50545  -0.294551  0.994821  0  0  0.0184869  0.0134287  -0.0134287  0.0088479  0  0  0  0.0132958  -0.0132955  0.21672  0  0  0  0  0  0  0  0  0 
1704466837.025653000  -2.50538  -0.294619  0.994868  0  0  0.0184869  0.0134752  -0.0134753  0.009943  0  0  0  0.0052711  -0.0052708  0.221283  0  0  0  0  0  0  0  0  0 
1704466837.030619000  -2.50531  -0.294686  0.99492  0  0  0.0184869  0.013481  -0.013481  0.0110603  0  0  0  -0.0030037  0.0030039  0.225595  0  0  0  0  0  0  0  0  0 
1704466837.035648000  -2.50525  -0.294754  0.994978  0  0  0.0184869  0.0134448  -0.0134448  0.0121986  0  0  0  -0.0115284  0.0115287  0.229657  0  0  0  0  0  0  0  0  0 
1704466837.040657000  -2.50518  -0.294821  0.995042  0  0  0.0184869  0.0133653  -0.0133653  0.0133565  0  0  0  -0.0203031  0.0203034  0.23347  0  0  0  0  0  0  0  0  0 
1704466837.045622000  -2.50511  -0.294887  0.995112  0  0  0.0184869  0.0132413  -0.0132413  0.0145328  0  0  0  -0.0293278  0.0293281  0.237032  0  0  0  0  0  0  0  0  0 
1704466837.050639000  -2.50505  -0.294953  0.995187  0  0  0.0184869  0.0130716  -0.0130716  0.0157264  0  0  0  -0.0386025  0.0386028  0.240344  0  0  0  0  0  0  0  0  0 
1704466837.055630000  -2.50498  -0.295018  0.995269  0  0  0.0184869  0.0128549  -0.0128549  0.0169359  0  0  0  -0.0481272  0.0481276  0.243407  0  0  0  0  0  0  0  0  0 
1704466837.060627000  -2.50492  -0.295081  0.995357  0  0  0.0184869  0.0125899  -0.0125899  0.01816  0  0  0  -0.0579019  0.0579023  0.246219  0  0  0  0  0  0  0  0  0 
1704466837.065624000  -2.50486  -0.295144  0.995451  0  0  0.0184869  0.0122755  -0.0122755  0.0193977  0  0  0  -0.0679266  0.067927  0.248782  0  0  0  0  0  0  0  0  0 
1704466837.070635000  -2.5048  -0.295204  0.995551  0  0  0.0184869  0.0119102  -0.0119102  0.0206474  0  0  0  -0.0782013  0.0782017  0.251094  0  0  0  0  0  0  0  0  0 
1704466837.075631000  -2.50474  -0.295263  0.995657  0  0  0.0184869  0.011493  -0.011493  0.0219082  0  0  0  -0.0887261  0.0887264  0.253156  0  0  0  0  0  0  0  0  0 
1704466837.080629000  -2.50468  -0.295319  0.99577  0  0  0.0184869  0.0110226  -0.0110226  0.0231786  0  0  0  -0.0995008  0.0995012  0.254969  0  0  0  0  0  0  0  0  0 
1704466837.085626000  -2.50463  -0.295373  0.995889  0  0  0.0184869  0.0104976  -0.0104976  0.0244574  0  0  0  -0.110525  0.110526  0.256531  0  0  0  0  0  0  0  0  0 
1704466837.090629000  -2.50458  -0.295424  0.996015  0  0  0.0184869  0.0099169  -0.0099169  0.0257435  0  0  0  -0.1218  0.121801  0.257843  0  0  0  0  0  0  0  0  0 
1704466837.095627000  -2.50453  -0.295472  0.996146  0  0  0.0184869  0.0092792  -0.0092792  0.0270355  0  0  0  -0.133325  0.133325  0.258906  0  0  0  0  0  0  0  0  0 
1704466837.100632000  -2.50448  -0.295516  0.996285  0  0  0.0184869  0.0085832  -0.0085832  0.0283321  0  0  0  -0.1451  0.1451  0.259718  0  0  0  0  0  0  0  0  0 
1704466837.105635000  -2.50444  -0.295558  0.99643  0  0  0.0184869  0.0078278  -0.0078278  0.0296322  0  0  0  -0.157124  0.157125  0.26028  0  0  0  0  0  0  0  0  0 
1704466837.110636000  -2.50441  -0.295595  0.996581  0  0  0.0184869  0.0070116  -0.0070116  0.0309345  0  0  0  -0.169399  0.169399  0.260593  0  0  0  0  0  0  0  0  0 
1704466837.115627000  -2.50437  -0.295628  0.996739  0  0  0.0184869  0.0061334  -0.0061334  0.0322377  0  0  0  -0.181924  0.181924  0.260655  0  0  0  0  0  0  0  0  0 
1704466837.120625000  -2.50434  -0.295656  0.996904  0  0  0.0184869  0.0051919  -0.0051919  0.0335406  0  0  0  -0.194698  0.194699  0.260467  0  0  0  0  0  0  0  0  0 
1704466837.125630000  -2.50432  -0.295679  0.997075  0  0  0.0184869  0.004186  -0.0041859  0.034842  0  0  0  -0.207723  0.207724  0.26003  0  0  0  0  0  0  0  0  0 
1704466837.130646000  -2.5043  -0.295698  0.997252  0  0  0.0184869  0.0031143  -0.0031142  0.0361405  0  0  0  -0.220998  0.220998  0.259342  0  0  0  0  0  0  0  0  0 
1704466837.135626000  -2.50429  -0.29571  0.997436  0  0  0.0184869  0.0019756  -0.0019755  0.037435  0  0  0  -0.234523  0.234523  0.258404  0  0  0  0  0  0  0  0  0 
1704466837.140630000  -2.50428  -0.295717  0.997626  0  0  0.0184869  0.0007686  -0.0007686  0.0387241  0  0  0  -0.248297  0.248298  0.257217  0  0  0  0  0  0  0  0  0 
1704466837.145631000  -2.50428  -0.295718  0.997823  0  0  0.0184869  -0.0005078  0.0005078  0.0400067  0  0  0  -0.262256  0.262257  0.255779  0  0  0  0  0  0  0  0  0 
1704466837.150629000  -2.50429  -0.295712  0.998026  0  0  0.0184869  -0.0018536  0.0018536  0.0412815  0  0  0  -0.276025  0.276025  0.254091  0  0  0  0  0  0  0  0  0 
1704466837.155628000  -2.5043  -0.295699  0.998236  0  0  0.0184869  -0.0032676  0.0032676  0.0425472  0  0  0  -0.289543  0.289543  0.252154  0  0  0  0  0  0  0  0  0 
1704466837.160629000  -2.50432  -0.295679  0.998452  0  0  0.0184869  -0.0047486  0.0047486  0.0438026  0  0  0  -0.302811  0.302812  0.249966  0  0  0  0  0  0  0  0  0 
1704466837.165631000  -2.50435  -0.295652  0.998674  0  0  0.0184869  -0.0062953  0.0062953  0.0450465  0  0  0  -0.315829  0.31583  0.247528  0  0  0  0  0  0  0  0  0 
1704466837.170631000  -2.50438  -0.295616  0.998902  0  0  0.0184869  -0.0079065  0.0079065  0.0462775  0  0  0  -0.328598  0.328598  0.244841  0  0  0  0  0  0  0  0  0 
1704466837.175628000  -2.50443  -0.295573  0.999137  0  0  0.0184869  -0.0095809  0.0095809  0.0474945  0  0  0  -0.341116  0.341116  0.241903  0  0  0  0  0  0  0  0  0 
1704466837.180628000  -2.50448  -0.29552  0.999377  0  0  0.0184869  -0.0113172  0.0113172  0.0486961  0  0  0  -0.353384  0.353385  0.238716  0  0  0  0  0  0  0  0  0 
1704466837.185632000  -2.50454  -0.295459  0.999624  0  0  0.0184869  -0.0131143  0.0131143  0.0498812  0  0  0  -0.365402  0.365403  0.235278  0  0  0  0  0  0  0  0  0 
1704466837.190644000  -2.50461  -0.295389  0.999876  0  0  0.0184869  -0.0149708  0.0149709  0.0510485  0  0  0  -0.377171  0.377171  0.23159  0  0  0  0  0  0  0  0  0 
1704466837.195626000  -2.50469  -0.295309  1.00013  0  0  0.0184869  -0.0168856  0.0168856  0.0521967  0  0  0  -0.388689  0.388689  0.227653  0  0  0  0  0  0  0  0  0 
1704466837.200626000  -2.50478  -0.29522  1.0004  0  0  0.0184869  -0.0188573  0.0188573  0.0533246  0  0  0  -0.399957  0.399958  0.223465  0  0  0  0  0  0  0  0  0 
1704466837.205629000  -2.50488  -0.295121  1.00067  0  0  0.0184869  -0.0208847  0.0208848  0.0544309  0  0  0  -0.410975  0.410976  0.219027  0  0  0  0  0  0  0  0  0 
1704466837.210631000  -2.50499  -0.295011  1.00094  0  0  0.0184869  -0.0229666  0.0229667  0.0555145  0  0  0  -0.421744  0.421744  0.21434  0  0  0  0  0  0  0  0  0 
1704466837.215638000  -2.50511  -0.294891  1.00122  0  0  0.0184869  -0.0251017  0.0251018  0.0565739  0  0  0  -0.432262  0.432262  0.209402  0  0  0  0  0  0  0  0  0 
1704466837.220632000  -2.50524  -0.29476  1.00151  0  0  0.0184869  -0.0272888  0.0272889  0.0576081  0  0  0  -0.44253  0.442531  0.204214  0  0  0  0  0  0  0  0  0 
1704466837.225628000  -2.50538  -0.294618  1.0018  0  0  0.0189665  -0.0295013  0.0295017  0.0586289  0  0  0  -0.442405  0.442656  0.204089  0  0  0  0  0  0  0  0  0 
1704466837.230628000  -2.50553  -0.294465  1.00209  0  0  0.0194524  -0.0317125  0.0317159  0.0596485  0  0  0  -0.44203  0.443031  0.203714  0  0  0  0  0  0  0  0  0 
1704466837.235629000  -2.5057  -0.294301  1.00239  0  0  0.0199444  -0.0339212  0.0339325  0.0606656  0  0  0  -0.441405  0.443656  0.203089  0  0  0  0  0  0  0  0  0 
1704466837.240624000  -2.50587  -0.294126  1.0027  0  0  0.0204427  -0.0361261  0.0361528  0.061679  0  0  0  -0.44053  0.444531  0.202214  0  0  0  0  0  0  0  0  0 
1704466837.245633000  -2.50606  -0.293939  1.00301  0  0  0.0209471  -0.038326  0.0383782  0.0626874  0  0  0  -0.439405  0.445656  0.201089  0  0  0  0  0  0  0  0  0 
1704466837.250636000  -2.50626  -0.293742  1.00333  0  0  0.0214577  -0.0405197  0.0406098  0.0636895  0  0  0  -0.43803  0.447031  0.199714  0  0  0  0  0  0  0  0  0 
1704466837.255629000  -2.50647  -0.293533  1.00365  0  0  0.0219743  -0.0427059  0.0428489  0.0646841  0  0  0  -0.436405  0.448656  0.198089  0  0  0  0  0  0  0  0  0 
1704466837.260628000  -2.50668  -0.293313  1.00397  0  0  0.022497  -0.0448834  0.0450968  0.06567  0  0  0  -0.43453  0.450531  0.196214  0  0  0  0  0  0  0  0  0 
1704466837.265626000  -2.50691  -0.293082  1.00431  0  0  0.0230255  -0.0470508  0.0473546  0.0666458  0  0  0  -0.432405  0.452656  0.194089  0  0  0  0  0  0  0  0  0 
1704466837.270635000  -2.50715  -0.29284  1.00464  0  0  0.0235599  -0.049207  0.0496238  0.0676104  0  0  0  -0.43003  0.455031  0.191714  0  0  0  0  0  0  0  0  0 
1704466837.275634000  -2.50741  -0.292586  1.00498  0  0  0.0241001  -0.0513507  0.0519054  0.0685626  0  0  0  -0.427405  0.457656  0.189089  0  0  0  0  0  0  0  0  0 
1704466837.280633000  -2.50767  -0.292321  1.00533  0  0  0.0246459  -0.0534806  0.0542007  0.0695009  0  0  0  -0.42453  0.460531  0.186214  0  0  0  0  0  0  0  0  0 
1704466837.285633000  -2.50794  -0.292044  1.00568  0  0  0.0251972  -0.0555956  0.0565111  0.0704243  0  0  0  -0.421405  0.463656  0.183089  0  0  0  0  0  0  0  0  0 
1704466837.290644000  -2.50822  -0.291756  1.00603  0  0  0.0257539  -0.0576943  0.0588377  0.0713314  0  0  0  -0.41803  0.467031  0.179714  0  0  0  0  0  0  0  0  0 
1704466837.295634000  -2.50852  -0.291456  1.00639  0  0  0.0263159  -0.0597755  0.0611818  0.072221  0  0  0  -0.414405  0.470656  0.176089  0  0  0  0  0  0  0  0  0 
1704466837.300633000  -2.50882  -0.291144  1.00675  0  0  0.0268831  -0.0618379  0.0635447  0.0730919  0  0  0  -0.41053  0.474531  0.172214  0  0  0  0  0  0  0  0  0 
1704466837.305635000  -2.50914  -0.29082  1.00712  0  0  0.0274552  -0.0638804  0.0659275  0.0739427  0  0  0  -0.406405  0.478656  0.168089  0  0  0  0  0  0  0  0  0 
1704466837.310636000  -2.50946  -0.290484  1.00749  0  0  0.0280321  -0.0659015  0.0683316  0.0747723  0  0  0  -0.40203  0.483031  0.163714  0  0  0  0  0  0  0  0  0 
1704466837.315632000  -2.5098  -0.290137  1.00787  0  0  0.0286136  -0.0679002  0.0707583  0.0755795  0  0  0  -0.397405  0.487656  0.159089  0  0  0  0  0  0  0  0  0 
1704466837.320633000  -2.51014  -0.289777  1.00825  0  0  0.0291996  -0.0698752  0.0732086  0.0763628  0  0  0  -0.39253  0.492531  0.154214  0  0  0  0  0  0  0  0  0 
1704466837.325631000  -2.51049  -0.289405  1.00863  0  0  0.0297898  -0.0718251  0.075684  0.0771212  0  0  0  -0.387405  0.497656  0.149089  0  0  0  0  0  0  0  0  0 
1704466837.330632000  -2.51086  -0.28902  1.00902  0  0  0.030384  -0.0737488  0.0781856  0.0778533  0  0  0  -0.38203  0.503031  0.143714  0  0  0  0  0  0  0  0  0 
1704466837.335627000  -2.51123  -0.288623  1.00941  0  0  0.0309821  -0.075645  0.0807147  0.0785579  0  0  0  -0.376405  0.508656  0.138089  0  0  0  0  0  0  0  0  0 
1704466837.340628000  -2.51161  -0.288213  1.0098  0  0  0.0315838  -0.0775125  0.0832726  0.0792338  0  0  0  -0.37053  0.514531  0.132214  0  0  0  0  0  0  0  0  0 
1704466837.345630000  -2.51201  -0.28779  1.0102  0  0  0.0321889  -0.0793499  0.0858604  0.0798796  0  0  0  -0.364405  0.520656  0.126089  0  0  0  0  0  0  0  0  0 
1704466837.350630000  -2.51241  -0.287354  1.0106  0  0  0.0327971  -0.0811561  0.0884795  0.0804943  0  0  0  -0.35803  0.527031  0.119714  0  0  0  0  0  0  0  0  0 
1704466837.355627000  -2.51282  -0.286905  1.01101  0  0  0.0334082  -0.0829298  0.0911312  0.0810764  0  0  0  -0.351405  0.533656  0.113089  0  0  0  0  0  0  0  0  0 
1704466837.360625000  -2.51324  -0.286443  1.01141  0  0  0.0340218  -0.0846697  0.0938165  0.0816247  0  0  0  -0.34453  0.540531  0.106214  0  0  0  0  0  0  0  0  0 
1704466837.365624000  -2.51366  -0.285967  1.01182  0  0  0.0346378  -0.0863747  0.0965369  0.0821381  0  0  0  -0.337405  0.547656  0.0990893  0  0  0  0  0  0  0  0  0 
1704466837.370666000  -2.5141  -0.285477  1.01224  0  0  0.0352559  -0.0880434  0.0992931  0.0826152  0  0  0  -0.33003  0.554792  0.0917143  0  0  0  0  0  0  0  0  0 
1704466837.375666000  -2.51455  -0.284974  1.01265  0  0  0.0358757  -0.0896746  0.102084  0.0830548  0  0  0  -0.322405  0.561678  0.0840893  0  0  0  0  0  0  0  0  0 
1704466837.380629000  -2.515  -0.284456  1.01307  0  0  0.0364969  -0.091267  0.104909  0.0834557  0  0  0  -0.31453  0.568315  0.0762143  0  0  0  0  0  0  0  0  0 
1704466837.385693000  -2.51546  -0.283925  1.01348  0  0  0.0371193  -0.0928194  0.107767  0.0838165  0  0  0  -0.306405  0.574701  0.0680893  0  0  0  0  0  0  0  0  0 
1704466837.390642000  -2.51593  -0.283379  1.0139  0  0  0.0377424  -0.0943306  0.110656  0.0841362  0  0  0  -0.29803  0.580838  0.0597143  0  0  0  0  0  0  0  0  0 
1704466837.395638000  -2.5164  -0.282818  1.01433  0  0  0.0383661  -0.0957993  0.113575  0.0844133  0  0  0  -0.289405  0.586724  0.0510893  0  0  0  0  0  0  0  0  0 
1704466837.400653000  -2.51688  -0.282243  1.01475  0  0  0.0389898  -0.0972243  0.116523  0.0846466  0  0  0  -0.28053  0.592361  0.0422143  0  0  0  0  0  0  0  0  0 
1704466837.405647000  -2.51737  -0.281653  1.01517  0  0  0.0396133  -0.0986042  0.119498  0.084835  0  0  0  -0.271405  0.597747  0.0330893  0  0  0  0  0  0  0  0  0 
1704466837.410630000  -2.51787  -0.281048  1.0156  0  0  0.0402363  -0.0999379  0.1225  0.0849774  0  0  0  -0.26203  0.602884  0.0239209  0  0  0  0  0  0  0  0  0 
1704466837.415629000  -2.51837  -0.280428  1.01602  0  0  0.0408584  -0.101224  0.125527  0.0850746  0  0  0  -0.252405  0.60777  0.0150003  0  0  0  0  0  0  0  0  0 
1704466837.420617000  -2.51888  -0.279793  1.01645  0  0  0.0414792  -0.102462  0.128577  0.0851278  0  0  0  -0.24253  0.612407  0.0063298  0  0  0  0  0  0  0  0  0 
1704466837.425646000  -2.5194  -0.279142  1.01687  0  0  0.0420985  -0.103649  0.13165  0.0851383  0  0  0  -0.232405  0.616793  -0.0020908  0  0  0  0  0  0  0  0  0 
1704466837.430633000  -2.51992  -0.278476  1.0173  0  0  0.042716  -0.104785  0.134745  0.0851074  0  0  0  -0.22203  0.62093  -0.0102613  0  0  0  0  0  0  0  0  0 
1704466837.435623000  -2.52044  -0.277795  1.01772  0  0  0.0433314  -0.105869  0.137859  0.0850361  0  0  0  -0.211405  0.624816  -0.0181818  0  0  0  0  0  0  0  0  0 
1704466837.440629000  -2.52098  -0.277097  1.01815  0  0  0.0439443  -0.106899  0.140992  0.084926  0  0  0  -0.20053  0.628453  -0.0258524  0  0  0  0  0  0  0  0  0 
1704466837.445633000  -2.52151  -0.276385  1.01857  0  0  0.0445546  -0.107874  0.144143  0.084778  0  0  0  -0.189405  0.631839  -0.0332729  0  0  0  0  0  0  0  0  0 
1704466837.450638000  -2.52206  -0.275656  1.019  0  0  0.0451619  -0.108792  0.14731  0.0845936  0  0  0  -0.17803  0.634976  -0.0404434  0  0  0  0  0  0  0  0  0 
1704466837.455632000  -2.5226  -0.274911  1.01942  0  0  0.045766  -0.109654  0.150493  0.084374  0  0  0  -0.166405  0.637862  -0.047364  0  0  0  0  0  0  0  0  0 
1704466837.460627000  -2.52315  -0.274151  1.01984  0  0  0.0463667  -0.110456  0.153689  0.0841204  0  0  0  -0.15453  0.640499  -0.0540345  0  0  0  0  0  0  0  0  0 
1704466837.465635000  -2.52371  -0.273375  1.02026  0  0  0.0469637  -0.111199  0.156897  0.0838341  0  0  0  -0.142405  0.642885  -0.0604551  0  0  0  0  0  0  0  0  0 
1704466837.470635000  -2.52426  -0.272582  1.02068  0  0  0.0475568  -0.11188  0.160117  0.0835163  0  0  0  -0.13003  0.645022  -0.0666256  0  0  0  0  0  0  0  0  0 
1704466837.475634000  -2.52482  -0.271773  1.0211  0  0  0.0481458  -0.112498  0.163347  0.0831683  0  0  0  -0.117405  0.646908  -0.0725461  0  0  0  0  0  0  0  0  0 
1704466837.480632000  -2.52539  -0.270949  1.02151  0  0  0.0487305  -0.113053  0.166586  0.0827912  0  0  0  -0.10453  0.648545  -0.0782167  0  0  0  0  0  0  0  0  0 
1704466837.485634000  -2.52596  -0.270107  1.02192  0  0  0.0493107  -0.113543  0.169832  0.0823865  0  0  0  -0.0914053  0.649931  -0.0836372  0  0  0  0  0  0  0  0  0 
1704466837.490639000  -2.52652  -0.26925  1.02233  0  0  0.0498863  -0.113967  0.173085  0.0819553  0  0  0  -0.0780303  0.651068  -0.0888078  0  0  0  0  0  0  0  0  0 
1704466837.495635000  -2.52709  -0.268377  1.02274  0  0  0.0504569  -0.114323  0.176342  0.0814988  0  0  0  -0.0644053  0.651954  -0.0937283  0  0  0  0  0  0  0  0  0 
1704466837.500635000  -2.52767  -0.267487  1.02315  0  0  0.0510226  -0.114611  0.179604  0.0810184  0  0  0  -0.0505303  0.652591  -0.0983988  0  0  0  0  0  0  0  0  0 
1704466837.505636000  -2.52824  -0.266581  1.02355  0  0  0.0515831  -0.114828  0.182868  0.0805153  0  0  0  -0.0364053  0.652977  -0.102819  0  0  0  0  0  0  0  0  0 
1704466837.510632000  -2.52882  -0.265658  1.02395  0  0  0.0521383  -0.114974  0.186133  0.0799906  0  0  0  -0.0220303  0.653114  -0.10699  0  0  0  0  0  0  0  0  0 
1704466837.515631000  -2.52939  -0.264719  1.02435  0  0  0.052688  -0.115048  0.189399  0.0794458  0  0  0  -0.0074053  0.653  -0.11091  0  0  0  0  0  0  0  0  0 
1704466837.520628000  -2.52997  -0.263764  1.02475  0  0  0.0532322  -0.115048  0.192663  0.078882  0  0  0  0.0074697  0.652636  -0.114581  0  0  0  0  0  0  0  0  0 
1704466837.525629000  -2.53054  -0.262793  1.02514  0  0  0.0537707  -0.114973  0.195924  0.0783004  0  0  0  0.0225947  0.652023  -0.118002  0  0  0  0  0  0  0  0  0 
1704466837.530634000  -2.53112  -0.261805  1.02553  0  0  0.0543034  -0.114822  0.199183  0.0777024  0  0  0  0.0379697  0.651159  -0.121172  0  0  0  0  0  0  0  0  0 
1704466837.535631000  -2.53169  -0.260801  1.02592  0  0  0.0548303  -0.114593  0.202436  0.0770891  0  0  0  0.0535947  0.650046  -0.124093  0  0  0  0  0  0  0  0  0 
1704466837.540630000  -2.53226  -0.259781  1.0263  0  0  0.0553512  -0.114285  0.205683  0.0764618  0  0  0  0.0694697  0.648682  -0.126763  0  0  0  0  0  0  0  0  0 
1704466837.545631000  -2.53283  -0.258744  1.02668  0  0  0.0558661  -0.113898  0.208922  0.0758219  0  0  0  0.0855947  0.647069  -0.129184  0  0  0  0  0  0  0  0  0 
1704466837.550651000  -2.5334  -0.257691  1.02706  0  0  0.0563748  -0.113429  0.212153  0.0751704  0  0  0  0.101855  0.645205  -0.131354  0  0  0  0  0  0  0  0  0 
1704466837.555660000  -2.53397  -0.256622  1.02743  0  0  0.0568775  -0.112879  0.215374  0.0745088  0  0  0  0.117891  0.643092  -0.133275  0  0  0  0  0  0  0  0  0 
1704466837.560628000  -2.53453  -0.255538  1.02781  0  0  0.057374  -0.11225  0.218583  0.0738381  0  0  0  0.133677  0.640728  -0.134945  0  0  0  0  0  0  0  0  0 
1704466837.565639000  -2.53509  -0.254437  1.02817  0  0  0.0578642  -0.111543  0.221781  0.0731597  0  0  0  0.149213  0.638115  -0.136366  0  0  0  0  0  0  0  0  0 
1704466837.570637000  -2.53564  -0.25332  1.02854  0  0  0.0583483  -0.110759  0.224964  0.0724749  0  0  0  0.164499  0.635251  -0.137536  0  0  0  0  0  0  0  0  0 
1704466837.575629000  -2.5362  -0.252187  1.0289  0  0  0.058826  -0.109899  0.228133  0.0717848  0  0  0  0.179535  0.632138  -0.138457  0  0  0  0  0  0  0  0  0 
1704466837.580649000  -2.53674  -0.251038  1.02925  0  0  0.0592976  -0.108964  0.231285  0.0710907  0  0  0  0.194321  0.628774  -0.139127  0  0  0  0  0  0  0  0  0 
1704466837.585650000  -2.53728  -0.249874  1.02961  0  0  0.0597629  -0.107956  0.23442  0.0703939  0  0  0  0.208858  0.625161  -0.139548  0  0  0  0  0  0  0  0  0 
1704466837.590638000  -2.53782  -0.248694  1.02996  0  0  0.0602219  -0.106876  0.237536  0.0696956  0  0  0  0.223144  0.621297  -0.139719  0  0  0  0  0  0  0  0  0 
1704466837.595630000  -2.53835  -0.247499  1.03031  0  0  0.0606747  -0.105725  0.240633  0.0689971  0  0  0  0.23718  0.617184  -0.139639  0  0  0  0  0  0  0  0  0 
1704466837.600633000  -2.53888  -0.246288  1.03065  0  0  0.0611212  -0.104504  0.243708  0.0682997  0  0  0  0.250966  0.61282  -0.13931  0  0  0  0  0  0  0  0  0 
1704466837.605649000  -2.5394  -0.245062  1.03099  0  0  0.0615615  -0.103215  0.24676  0.0676045  0  0  0  0.264502  0.608207  -0.13873  0  0  0  0  0  0  0  0  0 
1704466837.610669000  -2.53991  -0.24382  1.03132  0  0  0.0619955  -0.10186  0.249789  0.0669128  0  0  0  0.277788  0.603343  -0.137901  0  0  0  0  0  0  0  0  0 
1704466837.615666000  -2.54042  -0.242564  1.03166  0  0  0.0624233  -0.100438  0.252793  0.0662259  0  0  0  0.290824  0.59823  -0.136821  0  0  0  0  0  0  0  0  0 
1704466837.620651000  -2.54092  -0.241293  1.03199  0  0  0.0628448  -0.0989518  0.255771  0.065545  0  0  0  0.30361  0.592866  -0.135492  0  0  0  0  0  0  0  0  0 
1704466837.625632000  -2.54141  -0.240006  1.03231  0  0  0.0632601  -0.0974023  0.258722  0.0648714  0  0  0  0.316146  0.587253  -0.133912  0  0  0  0  0  0  0  0  0 
1704466837.630626000  -2.54189  -0.238705  1.03264  0  0  0.0636691  -0.0957908  0.261643  0.0642063  0  0  0  0.328433  0.581389  -0.132083  0  0  0  0  0  0  0  0  0 
1704466837.635632000  -2.54236  -0.23739  1.03296  0  0  0.0640719  -0.0941184  0.264535  0.063551  0  0  0  0.340469  0.575276  -0.130003  0  0  0  0  0  0  0  0  0 
1704466837.640626000  -2.54283  -0.23606  1.03327  0  0  0.0644684  -0.0923865  0.267396  0.0629067  0  0  0  0.352255  0.568912  -0.127674  0  0  0  0  0  0  0  0  0 
1704466837.645627000  -2.54329  -0.234716  1.03358  0  0  0.0648587  -0.0905963  0.270224  0.0622746  0  0  0  0.363791  0.562299  -0.125094  0  0  0  0  0  0  0  0  0 
1704466837.650633000  -2.54374  -0.233358  1.03389  0  0  0.0652428  -0.088749  0.273018  0.0616561  0  0  0  0.375077  0.555435  -0.122265  0  0  0  0  0  0  0  0  0 
1704466837.655628000  -2.54418  -0.231986  1.0342  0  0  0.0656205  -0.0868459  0.275778  0.0610524  0  0  0  0.386113  0.548322  -0.119186  0  0  0  0  0  0  0  0  0 
1704466837.660625000  -2.5446  -0.2306  1.0345  0  0  0.0659921  -0.0848883  0.278501  0.0604647  0  0  0  0.396899  0.540958  -0.115856  0  0  0  0  0  0  0  0  0 
1704466837.665634000  -2.54502  -0.229201  1.03481  0  0  0.0663573  -0.0828774  0.281187  0.0598943  0  0  0  0.407435  0.533344  -0.112277  0  0  0  0  0  0  0  0  0 
1704466837.670645000  -2.54543  -0.227788  1.0351  0  0  0.0667164  -0.0808144  0.283834  0.0593423  0  0  0  0.417721  0.525481  -0.108447  0  0  0  0  0  0  0  0  0 
1704466837.675635000  -2.54583  -0.226363  1.0354  0  0  0.0670692  -0.0787006  0.286441  0.0588102  0  0  0  0.427758  0.517367  -0.104368  0  0  0  0  0  0  0  0  0 
1704466837.680631000  -2.54622  -0.224924  1.03569  0  0  0.0674157  -0.0765372  0.289007  0.0582991  0  0  0  0.437544  0.509004  -0.100038  0  0  0  0  0  0  0  0  0 
1704466837.685634000  -2.5466  -0.223473  1.03598  0  0  0.067756  -0.0743256  0.291531  0.0578102  0  0  0  0.44708  0.50039  -0.0954588  0  0  0  0  0  0  0  0  0 
1704466837.690633000  -2.54696  -0.222009  1.03627  0  0  0.06809  -0.0720668  0.294011  0.0573449  0  0  0  0.456366  0.491527  -0.0906293  0  0  0  0  0  0  0  0  0 
1704466837.695638000  -2.54732  -0.220533  1.03656  0  0  0.0684178  -0.0697623  0.296446  0.0569044  0  0  0  0.465402  0.482413  -0.0855499  0  0  0  0  0  0  0  0  0 
1704466837.700636000  -2.54766  -0.219044  1.03684  0  0  0.0687393  -0.0674132  0.298835  0.0564898  0  0  0  0.474188  0.47305  -0.0802204  0  0  0  0  0  0  0  0  0 
1704466837.705635000  -2.54799  -0.217544  1.03712  0  0  0.0690546  -0.0650208  0.301176  0.0561026  0  0  0  0.482724  0.463436  -0.0746409  0  0  0  0  0  0  0  0  0 
1704466837.710635000  -2.54831  -0.216033  1.0374  0  0  0.0693636  -0.0625864  0.303468  0.0557438  0  0  0  0.49101  0.453573  -0.0688193  0  0  0  0  0  0  0  0  0 
1704466837.715626000  -2.54862  -0.21451  1.03768  0  0  0.0696664  -0.0601112  0.305711  0.0554142  0  0  0  0.499046  0.443459  -0.0630783  0  0  0  0  0  0  0  0  0 
1704466837.720626000  -2.54891  -0.212976  1.03795  0  0  0.0699629  -0.0575964  0.307903  0.0551126  0  0  0  0.506832  0.433096  -0.0575874  0  0  0  0  0  0  0  0  0 
1704466837.725634000  -2.54919  -0.211431  1.03823  0  0  0.0702532  -0.0550433  0.310042  0.0548379  0  0  0  0.514369  0.422482  -0.0523464  0  0  0  0  0  0  0  0  0 
1704466837.730622000  -2.54946  -0.209875  1.0385  0  0  0.0705372  -0.0524531  0.312127  0.0545888  0  0  0  0.521655  0.411619  -0.0473554  0  0  0  0  0  0  0  0  0 
1704466837.735632000  -2.54972  -0.20831  1.03878  0  0  0.070815  -0.0498271  0.314157  0.0543639  0  0  0  0.528691  0.400505  -0.0426144  0  0  0  0  0  0  0  0  0 
1704466837.740623000  -2.54996  -0.206734  1.03905  0  0  0.0710866  -0.0471666  0.316132  0.0541622  0  0  0  0.535477  0.389142  -0.0381235  0  0  0  0  0  0  0  0  0 
1704466837.745648000  -2.55019  -0.205148  1.03932  0  0  0.0713518  -0.0444728  0.318048  0.0539823  0  0  0  0.542013  0.377528  -0.0338825  0  0  0  0  0  0  0  0  0 
1704466837.750626000  -2.55041  -0.203554  1.03959  0  0  0.0716109  -0.0417469  0.319907  0.053823  0  0  0  0.548299  0.365665  -0.0298915  0  0  0  0  0  0  0  0  0 
1704466837.755624000  -2.55061  -0.201949  1.03986  0  0  0.0718636  -0.0389902  0.321705  0.053683  0  0  0  0.554335  0.353551  -0.0261505  0  0  0  0  0  0  0  0  0 
1704466837.760646000  -2.5508  -0.200337  1.04012  0  0  0.0721102  -0.0362039  0.323442  0.053561  0  0  0  0.560121  0.341188  -0.0226596  0  0  0  0  0  0  0  0  0 
1704466837.765627000  -2.55097  -0.198715  1.04039  0  0  0.0723505  -0.0333894  0.325116  0.0534559  0  0  0  0.565657  0.328574  -0.0194186  0  0  0  0  0  0  0  0  0 
1704466837.770630000  -2.55113  -0.197086  1.04066  0  0  0.0725845  -0.0305478  0.326727  0.0533664  0  0  0  0.570944  0.315888  -0.0164276  0  0  0  0  0  0  0  0  0 
1704466837.775628000  -2.55127  -0.195448  1.04092  0  0  0.0728123  -0.0276804  0.328275  0.0532912  0  0  0  0.57598  0.303445  -0.0136866  0  0  0  0  0  0  0  0  0 
1704466837.780629000  -2.55141  -0.193803  1.04119  0  0  0.0730338  -0.0247884  0.329762  0.0532291  0  0  0  0.580766  0.291253  -0.0111957  0  0  0  0  0  0  0  0  0 
1704466837.785633000  -2.55152  -0.19215  1.04146  0  0  0.0732491  -0.0218731  0.331188  0.0531789  0  0  0  0.585302  0.27931  -0.0089547  0  0  0  0  0  0  0  0  0 
1704466837.790622000  -2.55162  -0.190491  1.04172  0  0  0.0734581  -0.0189358  0.332556  0.0531392  0  0  0  0.589588  0.267618  -0.0069637  0  0  0  0  0  0  0  0  0 
1704466837.795627000  -2.55171  -0.188825  1.04199  0  0  0.0736609  -0.0159777  0.333865  0.0531088  0  0  0  0.593624  0.256175  -0.0052227  0  0  0  0  0  0  0  0  0 
1704466837.800624000  -2.55178  -0.187153  1.04225  0  0  0.0738574  -0.013  0.335118  0.0530865  0  0  0  0.59741  0.244982  -0.0037318  0  0  0  0  0  0  0  0  0 
1704466837.805626000  -2.55184  -0.185474  1.04252  0  0  0.0740477  -0.010004  0.336315  0.0530711  0  0  0  0.600946  0.23404  -0.0024908  0  0  0  0  0  0  0  0  0 
1704466837.810632000  -2.55188  -0.183789  1.04278  0  0  0.0742317  -0.0069909  0.337459  0.0530612  0  0  0  0.604232  0.223347  -0.0014998  0  0  0  0  0  0  0  0  0 
1704466837.815647000  -2.55191  -0.182099  1.04305  0  0  0.0744095  -0.0039621  0.338549  0.0530557  0  0  0  0.607268  0.212905  -0.0007589  0  0  0  0  0  0  0  0  0 
1704466837.820625000  -2.55192  -0.180404  1.04331  0  0  0.074581  -0.0009187  0.339588  0.0530532  0  0  0  0.610055  0.202712  -0.0002679  0  0  0  0  0  0  0  0  0 
1704466837.825653000  -2.55192  -0.178704  1.04358  0  0  0.0747463  0.002138  0.340577  0.0530526  0  0  0  0.612591  0.192769  -2.69e-05  0  0  0  0  0  0  0  0  0 
1704466837.830623000  -2.5519  -0.176998  1.04385  0  0  0.0749054  0.0052068  0.341516  0.0530526  0  0  0  0.614877  0.183077  -0  0  0  0  0  0  0  0  0  0 
1704466837.835622000  -2.55187  -0.175289  1.04411  0  0  0.0750581  0.0082864  0.342408  0.0530526  0  0  0  0.616913  0.173634  -0  0  0  0  0  0  0  0  0  0 
1704466837.840668000  -2.55182  -0.173574  1.04438  0  0  0.0752047  0.0113755  0.343253  0.0530526  0  0  0  0.618699  0.164442  -0  0  0  0  0  0  0  0  0  0 
1704466837.845634000  -2.55176  -0.171856  1.04464  0  0  0.0753449  0.014473  0.344053  0.0530526  0  0  0  0.620235  0.155499  -0  0  0  0  0  0  0  0  0  0 
1704466837.850624000  -2.55167  -0.170134  1.04491  0  0  0.075479  0.0175775  0.344808  0.0530526  0  0  0  0.621521  0.146807  -0  0  0  0  0  0  0  0  0  0 
1704466837.855634000  -2.55158  -0.168408  1.04517  0  0  0.0756068  0.0206878  0.345521  0.0530526  0  0  0  0.622557  0.138364  -0  0  0  0  0  0  0  0  0  0 
1704466837.860627000  -2.55147  -0.166679  1.04544  0  0  0.0757283  0.0238026  0.346192  0.0530526  0  0  0  0.623343  0.130171  -0  0  0  0  0  0  0  0  0  0 
1704466837.865626000  -2.55134  -0.164946  1.0457  0  0  0.0758436  0.0269208  0.346823  0.0530526  0  0  0  0.62388  0.122229  -0  0  0  0  0  0  0  0  0  0 
1704466837.870635000  -2.5512  -0.163211  1.04597  0  0  0.0759526  0.030041  0.347415  0.0530526  0  0  0  0.624166  0.114536  -0  0  0  0  0  0  0  0  0  0 
1704466837.875618000  -2.55104  -0.161472  1.04623  0  0  0.0760554  0.033162  0.347969  0.0530526  0  0  0  0.624202  0.107094  -0  0  0  0  0  0  0  0  0  0 
1704466837.880648000  -2.55087  -0.159731  1.0465  0  0  0.0761519  0.0362826  0.348486  0.0530526  0  0  0  0.623988  0.0999012  -0  0  0  0  0  0  0  0  0  0 
1704466837.885654000  -2.55068  -0.157987  1.04676  0  0  0.0762422  0.0394015  0.348968  0.0530526  0  0  0  0.623524  0.0929586  -0  0  0  0  0  0  0  0  0  0 
1704466837.890649000  -2.55047  -0.156241  1.04703  0  0  0.0763262  0.0425174  0.349416  0.0530526  0  0  0  0.62281  0.086266  -0  0  0  0  0  0  0  0  0  0 
1704466837.895659000  -2.55025  -0.154493  1.04729  0  0  0.076404  0.0456292  0.349832  0.0530526  0  0  0  0.621846  0.0798235  -0  0  0  0  0  0  0  0  0  0 
1704466837.900650000  -2.55002  -0.152743  1.04756  0  0  0.0764755  0.0487355  0.350215  0.0530526  0  0  0  0.620632  0.0736309  -0  0  0  0  0  0  0  0  0  0 
1704466837.905642000  -2.54977  -0.150991  1.04782  0  0  0.0765408  0.0518351  0.350568  0.0530526  0  0  0  0.619168  0.0676883  -0  0  0  0  0  0  0  0  0  0 
1704466837.910620000  -2.5495  -0.149237  1.04809  0  0  0.0765998  0.0549267  0.350892  0.0530526  0  0  0  0.617454  0.0619957  -0  0  0  0  0  0  0  0  0  0 
1704466837.915630000  -2.54922  -0.147482  1.04835  0  0  0.0766526  0.0580092  0.351189  0.0530526  0  0  0  0.615491  0.0565532  -0  0  0  0  0  0  0  0  0  0 
1704466837.920634000  -2.54892  -0.145726  1.04862  0  0  0.0766992  0.0610812  0.351458  0.0530526  0  0  0  0.613277  0.0513606  -0  0  0  0  0  0  0  0  0  0 
1704466837.925624000  -2.54861  -0.143968  1.04889  0  0  0.0767394  0.0641416  0.351703  0.0530526  0  0  0  0.610813  0.046418  0  0  0  0  0  0  0  0  0  0 
1704466837.930656000  -2.54828  -0.142209  1.04915  0  0  0.0767735  0.0671889  0.351923  0.0530526  0  0  0  0.608099  0.0417255  0  0  0  0  0  0  0  0  0  0 
1704466837.935634000  -2.54793  -0.140449  1.04942  0  0  0.0768013  0.0702221  0.35212  0.0530526  0  0  0  0.605135  0.0372829  0  0  0  0  0  0  0  0  0  0 
1704466837.940635000  -2.54757  -0.138687  1.04968  0  0  0.0768228  0.0732399  0.352296  0.0530526  0  0  0  0.601921  0.0330903  0  0  0  0  0  0  0  0  0  0 
1704466837.945622000  -2.5472  -0.136926  1.04995  0  0  0.0768381  0.0762409  0.352452  0.0530526  0  0  0  0.598457  0.0291477  0  0  0  0  0  0  0  0  0  0 
1704466837.950635000  -2.54681  -0.135163  1.05021  0  0  0.0768471  0.079224  0.352588  0.0530526  0  0  0  0.594743  0.0254552  0  0  0  0  0  0  0  0  0  0 
1704466837.955630000  -2.54641  -0.1334  1.05048  0  0  0.0768499  0.0821879  0.352707  0.0530526  0  0  0  0.590779  0.0220126  0  0  0  0  0  0  0  0  0  0 
1704466837.960625000  -2.54599  -0.131636  1.05074  0  0  0.0768464  0.0851314  0.352809  0.0530526  0  0  0  0.586566  0.01882  0  0  0  0  0  0  0  0  0  0 
1704466837.965643000  -2.54556  -0.129872  1.05101  0  0  0.0768367  0.0880532  0.352895  0.0530526  0  0  0  0.582102  0.0158774  0  0  0  0  0  0  0  0  0  0 
1704466837.970637000  -2.54511  -0.128107  1.05127  0  0  0.0768207  0.090952  0.352968  0.0530526  0  0  0  0.577388  0.0131849  0  0  0  0  0  0  0  0  0  0 
1704466837.975645000  -2.54465  -0.126342  1.05154  0  0  0.0767985  0.0938266  0.353028  0.0530526  0  0  0  0.572424  0.0107423  0  0  0  0  0  0  0  0  0  0 
1704466837.980627000  -2.54417  -0.124577  1.0518  0  0  0.07677  0.0966758  0.353076  0.0530526  0  0  0  0.56721  0.0085497  0  0  0  0  0  0  0  0  0  0 
1704466837.985631000  -2.54368  -0.122811  1.05207  0  0  0.0767353  0.0994983  0.353113  0.0530526  0  0  0  0.561746  0.0066072  0  0  0  0  0  0  0  0  0  0 
1704466837.990640000  -2.54318  -0.121046  1.05233  0  0  0.0766943  0.102293  0.353142  0.0530526  0  0  0  0.556032  0.0049146  0  0  0  0  0  0  0  0  0  0 
1704466837.995627000  -2.54266  -0.11928  1.0526  0  0  0.0766471  0.105058  0.353163  0.0530526  0  0  0  0.550068  0.003472  0  0  0  0  0  0  0  0  0  0 
1704466838.000627000  -2.54213  -0.117514  1.05286  0  0  0.0765936  0.107793  0.353177  0.0530526  0  0  0  0.543854  0.0022794  0  0  0  0  0  0  0  0  0  0 
1704466838.005651000  -2.54158  -0.115748  1.05313  0  0  0.0765339  0.110496  0.353186  0.0530526  0  0  0  0.53739  0.0013369  0  0  0  0  0  0  0  0  0  0 
1704466838.010652000  -2.54102  -0.113982  1.05339  0  0  0.076468  0.113167  0.353191  0.0530526  0  0  0  0.530677  0.0006443  0  0  0  0  0  0  0  0  0  0 
1704466838.015631000  -2.54045  -0.112216  1.05366  0  0  0.0763957  0.115803  0.353193  0.0530526  0  0  0  0.523713  0.0002017  0  0  0  0  0  0  0  0  0  0 
1704466838.020660000  -2.53986  -0.11045  1.05393  0  0  0.0763173  0.118403  0.353193  0.0530526  0  0  0  0.516499  9.1e-06  0  0  0  0  0  0  0  0  0  0 
