ts fx fy fz tx ty tz exfx exfy exfz extx exty extz xd yd zd rolld pitchd yawd vxd vyd vzd wxd wyd wzd axd ayd azd e_x e_y e_z e_vx e_vy e_vz e_rx e_ry e_rz e_wx e_wy e_wz
1704466836.165713000  0  0  11.5461  0.0557725  -0.12506  0.0219349  nan  nan  nan  nan  nan  nan  -2.5  -0.3  1  0.0146686  -0.0382147  -0.000560461  0  0  0  0  0  0  0  0  0  0.0256745  0.00265718  -0.012617  -0.0143817  0.0106756  -0.000343601  -0.0197038  0.0322587  -0.0196581  0.0508158  -0.0260829  -0.0300487 
1704466836.169641000  0  0  11.6269  0.0566765  -0.14422  0.0197058  nan  nan  nan  nan  nan  nan  -2.5  -0.3  1  0.0155741  -0.0389693  -0.000606808  0  0  0  0  0  0  0  0  0  0.0256304  0.00271216  -0.0126845  -0.0131114  0.0117038  -0.00818013  -0.0203829  0.0331781  -0.019476  0.0542898  -0.000435546  -0.00318324 
1704466836.175695000  0  0  11.5228  0.0942705  -0.148997  0.0159166  nan  nan  nan  nan  nan  nan  -2.5  -0.3  1  0.0166912  -0.0364341  -0.00060805  0  0  0  0  0  0  0  0  0  0.025589  0.00274752  -0.0126722  -0.0162956  0.0127337  0.00207061  -0.0218277  0.0309821  -0.0189004  0.00132022  0.0238296  0.0389932 
1704466836.179690000  0  0  11.518  0.0441362  -0.108583  0.022951  nan  nan  nan  nan  nan  nan  -2.5  -0.3  1  0.01514  -0.03681  -0.000557221  0  0  0  0  0  0  0  0  0  0.0255314  0.00278444  -0.0126677  -0.01576  0.0108834  0.00258482  -0.01962  0.0307452  -0.0196525  0.0698888  -0.0428124  -0.0434563 
1704466836.185693000  0  0  11.6504  0.068628  -0.176437  0.0220072  nan  nan  nan  nan  nan  nan  -2.5  -0.3  1  0.0169005  -0.0388899  -0.000657156  0  0  0  0  0  0  0  0  0  0.0255486  0.0028249  -0.0128305  -0.0129258  0.0130066  -0.0101207  -0.0212414  0.0335923  -0.019842  0.0403916  0.0510296  -0.0285856 
1704466836.190696000  0  0  11.5206  0.103739  -0.155143  0.0162818  nan  nan  nan  nan  nan  nan  -2.5  -0.3  1  0.0170936  -0.0362066  -0.000618825  0  0  0  0  0  0  0  0  0  0.0255255  0.00283545  -0.0127979  -0.0164181  0.0129884  0.00262936  -0.0218889  0.031068  -0.0192047  -0.0142501  0.0335975  0.0381911 
1704466836.194721000  0  0  11.5397  0.0570609  -0.121172  0.0230393  nan  nan  nan  nan  nan  nan  -2.5  -0.3  1  0.0162786  -0.0369586  -0.00060155  0  0  0  0  0  0  0  0  0  0.0254711  0.00288169  -0.0128145  -0.0153742  0.0119897  0.000816996  -0.0204955  0.0313131  -0.0198705  0.0544693  -0.025695  -0.0417568 
1704466836.199705000  0  0  11.6619  0.0716859  -0.194049  0.0257517  nan  nan  nan  nan  nan  nan  -2.5  -0.3  1  0.017402  -0.0397605  -0.000691802  0  0  0  0  0  0  0  0  0  0.0255265  0.00289613  -0.0129768  -0.0118292  0.0134404  -0.0108789  -0.0215498  0.0350136  -0.0204626  0.0374898  0.0703584  -0.0695865 
1704466836.204119000  0  0  11.6708  0.103986  -0.211212  0.0207677  nan  nan  nan  nan  nan  nan  -2.5  -0.3  1  0.0181736  -0.0392896  -0.00071393  0  0  0  0  0  0  0  0  0  0.0255596  0.00288656  -0.0130741  -0.0124079  0.0143645  -0.0115398  -0.0226956  0.0352007  -0.0200329  -0.00872405  0.0980225  -0.00981688 
1704466836.210687000  0  0  11.591  0.0623045  -0.145401  0.0264078  nan  nan  nan  nan  nan  nan  -2.5  -0.3  1  0.0172163  -0.0397362  -0.000683999  0  0  0  0  0  0  0  0  0  0.0254689  0.00297065  -0.0130423  -0.0120055  0.0129391  -0.00365689  -0.0213077  0.034834  -0.0206614  0.0515806  -0.0106394  -0.0755893 
1704466836.215685000  0  0  11.6905  0.108051  -0.20948  0.0229862  nan  nan  nan  nan  nan  nan  -2.5  -0.3  1  0.0185425  -0.0406362  -0.000753377  0  0  0  0  0  0  0  0  0  0.025528  0.00298544  -0.013212  -0.0107067  0.0146003  -0.0131222  -0.023101  0.0367897  -0.0205853  -0.0126157  0.0833828  -0.031685 
1704466836.219690000  0  0  11.592  0.149483  -0.183699  0.0139196  nan  nan  nan  nan  nan  nan  -2.5  -0.3  1  0.0194629  -0.0386256  -0.000751673  0  0  0  0  0  0  0  0  0  0.0254554  0.00305452  -0.0131666  -0.0132341  0.0153173  -0.00350492  -0.0247029  0.0348079  -0.0195247  -0.0709228  0.0543605  0.0733878 
1704466836.225694000  0  0  11.581  0.113846  -0.163365  0.0201148  nan  nan  nan  nan  nan  nan  -2.5  -0.3  1  0.0187764  -0.0392562  -0.00073699  0  0  0  0  0  0  0  0  0  0.0255006  0.00304792  -0.0132541  -0.0126592  0.0145278  -0.00215571  -0.0238491  0.0352508  -0.0198972  -0.0169102  0.0166871  -0.00302815 
1704466836.229694000  0  0  11.6306  0.124508  -0.180366  0.0201954  nan  nan  nan  nan  nan  nan  -2.5  -0.3  1  0.0195664  -0.0392815  -0.000768499  0  0  0  0  0  0  0  0  0  0.0254538  0.00311339  -0.0133108  -0.0123307  0.0153765  -0.00694301  -0.0248178  0.0356115  -0.0199413  -0.0278132  0.0427981  -0.00350777 
1704466836.235710000  0  0  11.5986  0.151915  -0.17214  0.0130257  nan  nan  nan  nan  nan  nan  -2.5  -0.3  1  0.0190741  -0.0409564  -0.000781081  0  0  0  0  0  0  0  0  0  0.0258336  0.00292711  -0.0135457  -0.0113943  0.0151713  -0.00313489  -0.0249746  0.0373256  -0.0188766  -0.0730364  0.0162477  0.0766181 
1704466836.240697000  0  0  11.6066  0.129741  -0.162353  0.0189768  nan  nan  nan  nan  nan  nan  -2.5  -0.3  1  0.0189654  -0.0401928  -0.00076216  0  0  0  0  0  0  0  0  0  0.0258672  0.0029337  -0.0136315  -0.0123123  0.0150481  -0.00369359  -0.0248152  0.0365258  -0.0192988  -0.0366878  0.00557988  0.00405813 
1704466836.244772000  0  0  11.5994  0.122264  -0.148551  0.0204638  nan  nan  nan  nan  nan  nan  -2.5  -0.3  1  0.0192701  -0.0403551  -0.000777532  0  0  0  0  0  0  0  0  0  0.0258236  0.00299363  -0.0136439  -0.0120566  0.0152471  -0.00293645  -0.0251031  0.036452  -0.0194743  -0.0219145  -0.0172307  -0.0131545 
1704466836.250698000  0  0  11.6307  0.134181  -0.163766  0.0173576  nan  nan  nan  nan  nan  nan  -2.5  -0.3  1  0.0195126  -0.0414494  -0.000808656  -2e-07  2e-07  -2e-07  0  0  0  -0.000125  0.000125  -0.000125  0.0259663  0.00295225  -0.0138241  -0.0110111  0.0156905  -0.00557634  -0.025594  0.0376229  -0.0191001  -0.0384631  -0.000113524  0.0227017 
1704466836.255692000  0  0  11.6185  0.111884  -0.151442  0.0188804  nan  nan  nan  nan  nan  nan  -2.5  -0.3  1  0.0181708  -0.0407379  -0.000740118  -1.7e-06  1.7e-06  -1.7e-06  0  0  0  -0.0005  0.0005  -0.0005  0.0262144  0.00278771  -0.0139937  -0.0124809  0.014546  -0.00392166  -0.0241025  0.0367866  -0.0191706  -0.0117214  -0.0148049  0.00364312 
1704466836.260696000  0  0  11.5957  0.081357  -0.128028  0.022  nan  nan  nan  nan  nan  nan  -2.5  -0.3  1  0.0180681  -0.0415043  -0.00074977  -5.6e-06  5.6e-06  -5.6e-06  0  0  0  -0.001125  0.001125  -0.001125  0.0261642  0.00285628  -0.0139974  -0.0116544  0.0143024  -0.00168237  -0.0235528  0.036965  -0.0195624  0.0358843  -0.05574  -0.0321588 
1704466836.265690000  0  0  11.6633  0.0994665  -0.162646  0.0184553  nan  nan  nan  nan  nan  nan  -2.5  -0.3  1  0.0182422  -0.0424045  -0.000773305  -1.33e-05  1.33e-05  -1.33e-05  0  0  0  -0.002  0.002  -0.002  0.0262818  0.00280975  -0.014144  -0.0107045  0.014825  -0.00810072  -0.0238218  0.0381055  -0.0192606  0.00722168  -0.00556456  0.0104 
1704466836.269673000  0  0  11.6302  0.0953716  -0.140026  0.0160634  nan  nan  nan  nan  nan  nan  -2.5  -0.3  1  0.0182549  -0.0405693  -0.000740268  -2.6e-05  2.6e-05  -2.6e-05  0  0  0  -0.003125  0.003125  -0.003125  0.02622  0.00286698  -0.0141436  -0.012936  0.0147792  -0.00494251  -0.0237271  0.0360583  -0.0189415  0.0134536  -0.0287553  0.0376055 
1704466836.275691000  0  0  11.5925  0.0408359  -0.117127  0.0210684  nan  nan  nan  nan  nan  nan  -2.5  -0.3  1  0.0168338  -0.0418336  -0.000703678  -4.5e-05  4.5e-05  -4.5e-05  0  0  0  -0.0045  0.0045  -0.0045  0.0263107  0.00281559  -0.0142109  -0.0120048  0.0133583  -0.00110174  -0.0213747  0.0365587  -0.0194106  0.0884032  -0.0711929  -0.0219239 
1704466836.280691000  0  0  11.6649  0.0652175  -0.155897  0.018419  nan  nan  nan  nan  nan  nan  -2.5  -0.299999  0.999999  0.0171116  -0.0428668  -0.000732765  -7.15e-05  7.15e-05  -7.15e-05  0  0  0  -0.006125  0.006125  -0.006125  0.0263967  0.00278002  -0.0143441  -0.0108935  0.0140589  -0.00810133  -0.021614  0.0378227  -0.0191807  0.0489089  -0.0149007  0.00982928 
1704466836.285696000  0  0  11.6124  0.0680082  -0.138413  0.0151182  nan  nan  nan  nan  nan  nan  -2.5  -0.299999  0.999999  0.0171326  -0.0409307  -0.000700324  -0.0001067  0.0001067  -0.0001067  0  0  0  -0.008  0.008  -0.008  0.0263187  0.00285002  -0.0143333  -0.0133677  0.0140492  -0.00314308  -0.021461  0.0356987  -0.0186911  0.0430591  -0.0288361  0.0467256 
1704466836.290732000  0  0  11.5787  0.0339267  -0.131563  0.0209862  nan  nan  nan  nan  nan  nan  -2.5  -0.299998  0.999998  0.0160948  -0.0418726  -0.000672794  -0.0001519  0.0001519  -0.0001519  0  0  0  -0.010125  0.010125  -0.010125  0.0264087  0.00278309  -0.0143866  -0.0128728  0.0131981  0.00015271  -0.0197053  0.0362547  -0.0192351  0.0877934  -0.0445242  -0.023146 
1704466836.295688000  0  0  11.6213  0.0663301  -0.154757  0.0198193  nan  nan  nan  nan  nan  nan  -2.5  -0.299997  0.999997  0.0167799  -0.0426542  -0.000714384  -0.0002083  0.0002083  -0.0002083  0  0  0  -0.0125  0.0125  -0.0125  0.0263539  0.00285702  -0.014435  -0.0119432  0.0141486  -0.00421264  -0.0204847  0.0371518  -0.0192126  0.0387046  -0.0118859  -0.00812801 
1704466836.300689000  0  0  11.5997  0.0816932  -0.16167  0.015684  nan  nan  nan  nan  nan  nan  -2.5  -0.299996  0.999996  0.016424  -0.0421792  -0.000691207  -0.0002773  0.0002773  -0.0002773  0  0  0  -0.015125  0.015125  -0.015125  0.0264137  0.00280726  -0.0144901  -0.0130074  0.0141143  -0.00222509  -0.0202337  0.0367646  -0.0186839  0.0108578  0.00266485  0.0392054 
1704466836.305691000  0  0  11.5412  0.0644155  -0.137434  0.0199195  nan  nan  nan  nan  nan  nan  -2.50001  -0.299995  0.999995  0.0155972  -0.0422061  -0.000656456  -0.00036  0.00036  -0.00036  0  0  0  -0.018  0.018  -0.018  0.0264879  0.00275574  -0.014509  -0.0137127  0.0135196  0.00333417  -0.019116  0.0363529  -0.0190454  0.0318589  -0.0353136  -0.011636 
1704466836.310693000  0  0  11.5755  0.0858479  -0.155318  0.0197717  nan  nan  nan  nan  nan  nan  -2.50001  -0.299993  0.999993  0.0159164  -0.0438618  -0.000695958  -0.0004577  0.0004577  -0.0004577  0  0  0  -0.021125  0.021125  -0.021125  0.026435  0.00282719  -0.0145356  -0.0119109  0.0141245  -0.000345903  -0.019605  0.0379659  -0.0190868  -0.00080552  -0.0169361  -0.00915278 
1704466836.315690000  0  0  11.6123  0.119456  -0.188837  0.0151203  nan  nan  nan  nan  nan  nan  -2.50001  -0.29999  0.99999  0.0161756  -0.0431821  -0.000695938  -0.0005717  0.0005717  -0.0005717  0  0  0  -0.0245  0.0245  -0.0245  0.0264766  0.00279197  -0.0146168  -0.0130013  0.0149379  -0.00419694  -0.0204011  0.0378095  -0.0184915  -0.0518103  0.0409375  0.0440813 
1704466836.320694000  0  0  11.488  0.103452  -0.134531  0.0186782  nan  nan  nan  nan  nan  nan  -2.50001  -0.299987  0.999987  0.0159811  -0.0411955  -0.000655317  -0.0007031  0.0007031  -0.0007031  0  0  0  -0.028125  0.028125  -0.028125  0.0263813  0.00286308  -0.0145303  -0.0159747  0.0147686  0.00749732  -0.0202056  0.0352236  -0.0187431  -0.0261684  -0.031904  0.000689141 
1704466836.325674000  0  0  11.5474  0.0998254  -0.158395  0.0221891  nan  nan  nan  nan  nan  nan  -2.50002  -0.299983  0.999983  0.015447  -0.0448513  -0.000689042  -0.0008533  0.0008533  -0.0008533  0  0  0  -0.032  0.032  -0.0319997  0.026482  0.00282572  -0.014623  -0.0122334  0.0147715  0.00145425  -0.019791  0.0387271  -0.0192008  -0.0230869  -0.0173385  -0.0393815 
1704466836.330687000  0  0  11.5834  0.144432  -0.208493  0.0149894  nan  nan  nan  nan  nan  nan  -2.50002  -0.299978  0.999978  0.0162483  -0.0436835  -0.000705019  -0.0010235  0.0010235  -0.0010231  0  0  0  -0.036125  0.036125  -0.0358572  0.0264801  0.00282299  -0.0147112  -0.0138643  0.0162108  -0.00237316  -0.0213725  0.0384175  -0.018446  -0.0869156  0.0697173  0.0452008 
1704466836.335710000  0  0  11.4315  0.120474  -0.13354  0.0171723  nan  nan  nan  nan  nan  nan  -2.50003  -0.299973  0.999973  0.0155752  -0.0416455  -0.000642604  -0.001215  0.001215  -0.0012115  0  0  0  -0.0405  0.0405  -0.0394647  0.0263822  0.00289936  -0.0145922  -0.0170891  0.0155319  0.0119743  -0.0208026  0.0355844  -0.0184937  -0.0505741  -0.0362402  0.0171806 
1704466836.340687000  0  0  11.5235  0.0957089  -0.164975  0.0242845  nan  nan  nan  nan  nan  nan  -2.50003  -0.299966  0.999966  0.0145771  -0.0461096  -0.000664356  -0.001429  0.001429  -0.0014173  0  0  0  -0.045125  0.045125  -0.0428223  0.0264542  0.00288079  -0.0146973  -0.0123217  0.0150989  0.0028036  -0.0197679  0.039911  -0.0193478  -0.0162917  -0.0149268  -0.0649522 
1704466836.345689000  0  0  11.5549  0.152047  -0.204677  0.0146537  nan  nan  nan  nan  nan  nan  -2.50004  -0.299958  0.999958  0.0159166  -0.0442954  -0.000695058  -0.0016665  0.0016665  -0.0016393  0  0  0  -0.0498868  0.0498868  -0.0459298  0.026362  0.0029798  -0.0147127  -0.0145692  0.0169809  -0.000697856  -0.0220366  0.0388698  -0.0184622  -0.0949086  0.0599281  0.0498189 
1704466836.350690000  0  0  11.4319  0.11419  -0.118124  0.0177661  nan  nan  nan  nan  nan  nan  -2.50005  -0.299949  0.99995  0.0147153  -0.0435859  -0.000628523  -0.0019274  0.0019274  -0.0018762  0  0  0  -0.0544253  0.0544253  -0.0487873  0.0263495  0.00296975  -0.0146691  -0.0163921  0.0159698  0.0111097  -0.0208084  0.0370482  -0.0185172  -0.0398971  -0.0731117  0.0096971 
1704466836.354680000  0  0  11.4921  0.0730452  -0.145549  0.0261417  nan  nan  nan  nan  nan  nan  -2.50006  -0.299939  0.99994  0.0137365  -0.046957  -0.000628529  -0.0022104  0.0022104  -0.0021268  0  0  0  -0.0587138  0.0587138  -0.0513948  0.0263138  0.0030332  -0.0146907  -0.0127164  0.0152864  0.00495428  -0.0194733  0.0402614  -0.0195531  0.0198885  -0.050381  -0.0866318 
1704466836.360694000  0  0  11.5741  0.134957  -0.203711  0.0148267  nan  nan  nan  nan  nan  nan  -2.50007  -0.299927  0.999928  0.0152293  -0.0462332  -0.000683105  -0.0025142  0.0025142  -0.0023897  0  0  0  -0.0627524  0.0627524  -0.0537524  0.0263175  0.00308101  -0.0148158  -0.01362  0.0174445  -0.00317935  -0.0218304  0.0404243  -0.0185723  -0.0675086  0.0468387  0.0489932 
1704466836.365691000  0  0  11.4249  0.0989959  -0.131755  0.0152549  nan  nan  nan  nan  nan  nan  -2.50009  -0.299914  0.999916  0.0136249  -0.0457277  -0.000596657  -0.0028375  0.0028375  -0.0026639  0  0  0  -0.0665409  0.0665409  -0.0558599  0.0263336  0.00305328  -0.014759  -0.0153363  0.015906  0.0112785  -0.0201217  0.0388752  -0.0183382  -0.019247  -0.0635096  0.0403046 
1704466836.369685000  0  0  11.5136  0.0569139  -0.149368  0.0233952  nan  nan  nan  nan  nan  nan  -2.5001  -0.299899  0.999902  0.0125859  -0.0477781  -0.000568235  -0.0031791  0.0031791  -0.0029479  0  0  0  -0.0700794  0.0700794  -0.0577174  0.0262899  0.00311493  -0.0148062  -0.0129094  0.0151055  0.00243689  -0.0186216  0.040759  -0.0192494  0.0409098  -0.0475866  -0.0545726 
1704466836.375691000  0  0  11.5483  0.104616  -0.175301  0.0151507  nan  nan  nan  nan  nan  nan  -2.50012  -0.299882  0.999886  0.0138681  -0.047588  -0.000618947  -0.0035379  0.0035379  -0.0032406  0  0  0  -0.073368  0.073368  -0.0593249  0.0263007  0.00316765  -0.0149131  -0.0133532  0.0168563  -0.000927424  -0.0203657  0.0408712  -0.01851  -0.0269595  -0.00452893  0.043924 
1704466836.380687000  0  0  11.4471  0.0835907  -0.133452  0.0132781  nan  nan  nan  nan  nan  nan  -2.50014  -0.299863  0.999869  0.012289  -0.0473718  -0.000531762  -0.0039124  0.0039124  -0.0035407  0  0  0  -0.0764065  0.0764065  -0.0606825  0.0263224  0.00312972  -0.0148638  -0.0144669  0.0153673  0.00887074  -0.018721  0.0399092  -0.0180368  -0.00349983  -0.0682568  0.0622939 
1704466836.385692000  0  0  11.5128  0.0516994  -0.13897  0.022113  nan  nan  nan  nan  nan  nan  -2.50016  -0.299843  0.999851  0.0117485  -0.0478864  -0.000501106  -0.0043015  0.0043015  -0.003847  0  0  0  -0.079195  0.079195  -0.06179  0.026258  0.00320857  -0.0148942  -0.0137462  0.0149703  0.00234785  -0.0177192  0.0401251  -0.0189513  0.0430838  -0.0605094  -0.041656 
1704466836.390691000  0  0  11.5197  0.0830028  -0.141953  0.0161784  nan  nan  nan  nan  nan  nan  -2.50018  -0.29982  0.999831  0.0122281  -0.0484169  -0.000517743  -0.0047039  0.0047039  -0.0041582  0  0  0  -0.0817335  0.0817335  -0.0626475  0.0262769  0.00321147  -0.014949  -0.0134382  0.0158005  0.00171869  -0.018451  0.0404056  -0.0183736  -0.00449463  -0.05753  0.0286487 
1704466836.394684000  0  0  11.459  0.0907712  -0.134839  0.0132576  nan  nan  nan  nan  nan  nan  -2.5002  -0.299796  0.999809  0.0119869  -0.0477208  -0.000482735  -0.0051184  0.0051184  -0.0044731  0  0  0  -0.0840221  0.0840221  -0.063255  0.0262138  0.00326838  -0.014887  -0.0146305  0.0155858  0.00750747  -0.0183709  0.0394396  -0.0179156  -0.0182303  -0.0624495  0.0609728 
1704466836.400689000  0  0  11.4717  0.0517251  -0.117417  0.022008  nan  nan  nan  nan  nan  nan  -2.50023  -0.299769  0.999786  0.0107023  -0.0476478  -0.000403567  -0.0055437  0.0055437  -0.0047904  0  0  0  -0.0860606  0.0860606  -0.0636126  0.0262087  0.00325714  -0.0149212  -0.0148746  0.0144065  0.00634269  -0.01659  0.038743  -0.0187833  0.0347193  -0.0867972  -0.0424802 
1704466836.405692000  0  0  11.5079  0.0681194  -0.141073  0.0183495  nan  nan  nan  nan  nan  nan  -2.50026  -0.29974  0.999761  0.0108301  -0.0488835  -0.000403324  -0.0059786  0.0059786  -0.0051088  0  0  0  -0.0878491  0.0878491  -0.0637201  0.0262274  0.00324669  -0.0149776  -0.0135459  0.014814  0.00291703  -0.0167786  0.0398707  -0.0185216  0.00836699  -0.0550763  0.00209791 
1704466836.410691000  0  0  11.47  0.0864716  -0.136325  0.0141899  nan  nan  nan  nan  nan  nan  -2.50029  -0.299709  0.999735  0.0113152  -0.0471011  -0.000384584  -0.0064218  0.0064218  -0.0054271  0  0  0  -0.0893877  0.0893877  -0.0635776  0.026139  0.00332526  -0.0149287  -0.0157178  0.0153188  0.00653099  -0.0174994  0.0379086  -0.0179783  -0.0173765  -0.0486537  0.0495601 
1704466836.415689000  0  0  11.4408  0.0543428  -0.10599  0.0201919  nan  nan  nan  nan  nan  nan  -2.50032  -0.299676  0.999707  0.00980366  -0.0475802  -0.0002929  -0.0068721  0.0068721  -0.0057441  0  0  0  -0.0906762  0.0906762  -0.0631851  0.0261475  0.00329331  -0.014942  -0.0154806  0.0138032  0.00956432  -0.0156184  0.0375939  -0.0185339  0.0231305  -0.0976657  -0.0219187 
1704466836.419681000  0  0  11.4962  0.0636299  -0.137605  0.0200318  nan  nan  nan  nan  nan  nan  -2.50036  -0.299641  0.999678  0.0101734  -0.0488568  -0.000295062  -0.0073282  0.0073282  -0.0060586  0  0  0  -0.0917147  0.0917147  -0.0625427  0.0261119  0.00334882  -0.0149528  -0.0138104  0.0142671  0.00419117  -0.016036  0.0388939  -0.0186269  0.0104921  -0.0537479  -0.0185978 
1704466836.425691000  0  0  11.4597  0.10436  -0.141685  0.0145958  nan  nan  nan  nan  nan  nan  -2.5004  -0.299603  0.999647  0.0107361  -0.0471622  -0.000272569  -0.0077888  0.0077888  -0.0063692  0  0  0  -0.0925032  0.0925032  -0.0616502  0.0260781  0.00335546  -0.0149467  -0.0159124  0.0149409  0.00785492  -0.0172127  0.0371441  -0.0179627  -0.0497596  -0.0339495  0.0440277 
1704466836.430690000  0  0  11.454  0.0763131  -0.125016  0.0204241  nan  nan  nan  nan  nan  nan  -2.50044  -0.299563  0.999614  0.00920134  -0.0477328  -0.000170051  -0.0082528  0.0082528  -0.0066747  0  0  0  -0.0930418  0.0930418  -0.0605077  0.0260995  0.00331577  -0.0149661  -0.0154066  0.0133576  0.00864697  -0.0155642  0.0372282  -0.018524  -0.0144469  -0.0627769  -0.0250954 
1704466836.435689000  0  0  11.5049  0.0902191  -0.152098  0.0209363  nan  nan  nan  nan  nan  nan  -2.50048  -0.29952  0.99958  0.0102011  -0.0484441  -0.000185707  -0.0087188  0.0087188  -0.0069738  0  0  0  -0.0933303  0.0933303  -0.0591152  0.0260319  0.00339391  -0.0149714  -0.014239  0.0143931  0.00376067  -0.0167822  0.0380297  -0.0187554  -0.0290024  -0.0228543  -0.0287819 
1704466836.440687000  0  0  11.479  0.1199  -0.154708  0.0160646  nan  nan  nan  nan  nan  nan  -2.50052  -0.299476  0.999544  0.0103651  -0.0476053  -0.000141564  -0.0091857  0.0091857  -0.0072654  0  0  0  -0.0933688  0.0933688  -0.0574728  0.0259863  0.00339947  -0.0150232  -0.0152139  0.0145466  0.00664162  -0.0175105  0.0372041  -0.0182846  -0.0738611  -0.0123537  0.028975 
1704466836.444678000  0  0  11.4851  0.102622  -0.14779  0.018545  nan  nan  nan  nan  nan  nan  -2.50057  -0.299428  0.999507  0.00970955  -0.047075  -5.76227e-05  -0.0096521  0.0096521  -0.0075481  0  0  0  -0.0931574  0.0931574  -0.0555803  0.0259356  0.0034393  -0.0149962  -0.0156491  0.0137017  0.00617507  -0.0169151  0.0365625  -0.0185194  -0.0490112  -0.0193328  -0.00049614 
1704466836.450691000  0  0  11.4931  0.104035  -0.148308  0.0211156  nan  nan  nan  nan  nan  nan  -2.50062  -0.299379  0.999469  0.010749  -0.0473653  -5.74581e-05  -0.0101168  0.0101168  -0.0078208  0  0  0  -0.0926959  0.0926959  -0.0534378  0.025887  0.00349114  -0.0149812  -0.0151212  0.0147182  0.00557726  -0.018116  0.0367036  -0.0189281  -0.0425528  -0.0194955  -0.0288706 
1704466836.455690000  0  0  11.5008  0.128646  -0.164133  0.0167323  nan  nan  nan  nan  nan  nan  -2.50067  -0.299327  0.999429  0.00976449  -0.0484209  3.56647e-05  -0.0105786  0.0105786  -0.0080821  0  0  0  -0.0919844  0.0919844  -0.0510453  0.0259747  0.00335964  -0.0150646  -0.0140065  0.0138325  0.00531515  -0.0176891  0.0379404  -0.0185269  -0.0873458  -0.00183181  0.0233906 
1704466836.460686000  0  0  11.5275  0.111325  -0.155167  0.0182569  nan  nan  nan  nan  nan  nan  -2.50073  -0.299273  0.999388  0.00998811  -0.0465068  0.000105537  -0.0110362  0.0110362  -0.0083308  0  0  0  -0.0910229  0.0910229  -0.0484029  0.0258949  0.00342689  -0.0150589  -0.0157681  0.0138554  0.00293237  -0.0179905  0.0360213  -0.0186469  -0.0558142  -0.00286203  0.00495633 
1704466836.465696000  0  0  11.4922  0.0927869  -0.140412  0.020617  nan  nan  nan  nan  nan  nan  -2.50078  -0.299217  0.999346  0.00846263  -0.0481363  0.000229288  -0.0114884  0.0114884  -0.0085657  0  0  0  -0.0898115  0.0898115  -0.0455104  0.0261211  0.00318171  -0.0150642  -0.0144595  0.0125166  0.00682705  -0.0164605  0.0372106  -0.0189301  -0.0357183  -0.0365942  -0.0223012 
1704466836.470695000  0  0  11.5497  0.107861  -0.165795  0.0183437  nan  nan  nan  nan  nan  nan  -2.50084  -0.299158  0.999302  0.00884476  -0.0491451  0.000273787  -0.0119339  0.0119339  -0.0087855  0  0  0  -0.08835  0.08835  -0.0423679  0.026065  0.00324453  -0.0150789  -0.0127468  0.0126972  0.00151287  -0.0172484  0.0383581  -0.0187958  -0.0554205  -0.00209609  0.0057695 
1704466836.475689000  0  0  11.5496  0.102538  -0.15911  0.0169002  nan  nan  nan  nan  nan  nan  -2.5009  -0.299098  0.999258  0.00830473  -0.0468165  0.000396634  -0.0123715  0.0123715  -0.008989  0  0  0  -0.0866385  0.0866385  -0.0389754  0.0261816  0.00305028  -0.0151029  -0.0154707  0.0123328  0.00194684  -0.0168244  0.0359994  -0.0185974  -0.0495381  0.00397136  0.0221111 
1704466836.480690000  0  0  11.4615  0.0704043  -0.112362  0.0203447  nan  nan  nan  nan  nan  nan  -2.50097  -0.299035  0.999212  0.00638395  -0.0476059  0.000563996  -0.0127999  0.0127999  -0.0091748  0  0  0  -0.0846771  0.0846771  -0.035333  0.0263164  0.00290105  -0.0150525  -0.0150714  0.0102162  0.0110264  -0.0147541  0.0358148  -0.0189559  -0.0104171  -0.073775  -0.0183895 
1704466836.485680000  0  0  11.5885  0.0765811  -0.156095  0.0203091  nan  nan  nan  nan  nan  nan  -2.50103  -0.29897  0.999166  0.00732025  -0.0491109  0.000596534  -0.0132179  0.0132179  -0.0093419  0  0  0  -0.0824656  0.0824656  -0.0314432  0.0262597  0.00296144  -0.0151166  -0.0123804  0.0109845  -0.00094679  -0.0157682  0.0375084  -0.0191297  -0.013397  -0.0122507  -0.0156428 
1704466836.490691000  0  0  11.5243  0.104594  -0.1498  0.0147151  nan  nan  nan  nan  nan  nan  -2.5011  -0.298903  0.999119  0.00804527  -0.0454785  0.000683832  -0.0136242  0.0136242  -0.0094894  0  0  0  -0.0800041  0.0800041  -0.0276032  0.0262249  0.00293469  -0.0150625  -0.0164632  0.0115462  0.005636  -0.0169232  0.0339544  -0.0185646  -0.0522894  0.00328586  0.0503564 
1704466836.494693000  0  0  11.4495  0.0672196  -0.0872512  0.0189866  nan  nan  nan  nan  nan  nan  -2.50117  -0.298833  0.999071  0.00723141  -0.0448086  0.000825074  -0.0140175  0.0140175  -0.0096183  0  0  0  -0.0772927  0.0772927  -0.0240131  0.0261708  0.00295627  -0.0149721  -0.0171307  0.0102213  0.0132563  -0.0157946  0.0322974  -0.0189949  0.00263936  -0.0903474  -5.61381e-05 
1704466836.500691000  0  0  11.5825  0.0690744  -0.154592  0.0226939  nan  nan  nan  nan  nan  nan  -2.50124  -0.298762  0.999023  0.00773616  -0.0479401  0.000883562  -0.0143967  0.0143967  -0.0097299  0  0  0  -0.0743312  0.0743312  -0.0206731  0.0262029  0.00294308  -0.0150674  -0.0127084  0.0105967  0.000738553  -0.0162283  0.035654  -0.0196236  0.00269594  -0.0011285  -0.0404617 
1704466836.505695000  0  0  11.5132  0.112253  -0.147401  0.0144214  nan  nan  nan  nan  nan  nan  -2.50131  -0.298689  0.998974  0.00888486  -0.0434899  0.00097931  -0.0147604  0.0147604  -0.0098255  0  0  0  -0.0711197  0.0711197  -0.017583  0.0261201  0.00295971  -0.0150103  -0.0175394  0.0114476  0.00770981  -0.0179959  0.031395  -0.0188594  -0.0573448  0.0180875  0.058077 
1704466836.510685000  0  0  11.4356  0.0613817  -0.0787397  0.0207106  nan  nan  nan  nan  nan  nan  -2.50139  -0.298615  0.998925  0.00822874  -0.0434097  0.0011258  -0.0151074  0.0151074  -0.0099062  0  0  0  -0.0676582  0.0676582  -0.014743  0.0260416  0.00300779  -0.0149105  -0.0173996  0.0101495  0.0155073  -0.0168814  0.0301564  -0.0194541  0.0205263  -0.0889737  -0.0166568 
1704466836.515681000  0  0  11.5672  0.0863212  -0.158012  0.0237552  nan  nan  nan  nan  nan  nan  -2.50146  -0.298538  0.998875  0.00910881  -0.045656  0.00119046  -0.0154366  0.0154366  -0.0099733  0  0  0  -0.0639468  0.0639468  -0.0121529  0.0260847  0.00297977  -0.0149914  -0.0139565  0.0109132  0.00297328  -0.0180021  0.0330295  -0.0200419  -0.0134173  0.0239975  -0.0489043 
1704466836.519675000  0  0  11.5356  0.14286  -0.160352  0.0151442  nan  nan  nan  nan  nan  nan  -2.50154  -0.29846  0.998825  0.0106139  -0.0426472  0.00128317  -0.0157465  0.0157465  -0.0100281  0  0  0  -0.0599853  0.0599853  -0.0098129  0.0260139  0.00302011  -0.0149316  -0.0169161  0.0120593  0.00611524  -0.0203443  0.0303576  -0.0193  -0.0918313  0.047647  0.0543699 
1704466836.525683000  0  0  11.4554  0.0922109  -0.0966348  0.0204996  nan  nan  nan  nan  nan  nan  -2.50162  -0.298381  0.998775  0.00982143  -0.0418902  0.00146009  -0.016036  0.016036  -0.0100719  0  0  0  -0.0557738  0.0557738  -0.0077228  0.0259732  0.00299057  -0.0148481  -0.0175454  0.0106805  0.0141131  -0.0192647  0.028655  -0.0196949  -0.0140805  -0.0476288  -0.010731 
1704466836.530704000  0  0  11.5632  0.112224  -0.147458  0.0235866  nan  nan  nan  nan  nan  nan  -2.5017  -0.2983  0.998724  0.0112693  -0.0426438  0.00153276  -0.0163038  0.0163038  -0.0101058  0  0  0  -0.0513124  0.0513124  -0.0058828  0.0259222  0.00303857  -0.0148873  -0.0156278  0.0118311  0.00371708  -0.021007  0.0298823  -0.0203052  -0.0351072  0.0293302  -0.0432381 
1704466836.534829000  0  0  11.5143  0.158353  -0.141226  0.0139571  nan  nan  nan  nan  nan  nan  -2.50178  -0.298218  0.998674  0.012684  -0.0399186  0.00165508  -0.0165487  0.0165487  -0.0101311  0  0  0  -0.046601  0.046601  -0.0042927  0.0258438  0.00308228  -0.0148121  -0.0182219  0.012754  0.00845407  -0.0231776  0.0273838  -0.0194519  -0.0971714  0.0371949  0.0719411 
1704466836.540704000  0  0  11.4581  0.121292  -0.108155  0.0208013  nan  nan  nan  nan  nan  nan  -2.50187  -0.298135  0.998623  0.0130006  -0.038774  0.00181171  -0.0167698  0.0167698  -0.0101491  0  0  0  -0.0418989  0.0418989  -0.0029527  0.0257533  0.00313681  -0.0147324  -0.019006  0.0123939  0.0139513  -0.0234184  0.025886  -0.0200061  -0.0326827  -0.00772926  -0.0106091 
1704466836.544693000  0  0  11.5136  0.119808  -0.133953  0.0248184  nan  nan  nan  nan  nan  nan  -2.50195  -0.29805  0.998572  0.0136639  -0.0391648  0.00194126  -0.0169681  0.0169681  -0.0101611  0  0  0  -0.0374469  0.0374469  -0.0018626  0.0257034  0.00317109  -0.0147227  -0.0177414  0.0126472  0.00853844  -0.0241386  0.0265922  -0.0206916  -0.0248646  0.0307202  -0.0543353 
1704466836.549689000  0  0  11.5537  0.151726  -0.154343  0.0158283  nan  nan  nan  nan  nan  nan  -2.50203  -0.297965  0.998521  0.0149193  -0.0382837  0.00207203  -0.0171447  0.0171447  -0.0101682  0  0  0  -0.0332448  0.0332448  -0.0010226  0.0257136  0.00314233  -0.0147767  -0.0181439  0.0137276  0.00474251  -0.0259537  0.0262039  -0.0198987  -0.0655013  0.0680858  0.0532432 
1704466836.555701000  0  0  11.4661  0.119231  -0.124519  0.0189761  nan  nan  nan  nan  nan  nan  -2.50212  -0.297879  0.99847  0.0146983  -0.036604  0.00227826  -0.017301  0.017301  -0.0101717  0  0  0  -0.0292927  0.0292927  -0.0004325  0.0257006  0.00310144  -0.0147387  -0.0199014  0.0130004  0.0133743  -0.0256009  0.0244421  -0.0200217  -0.0131132  0.0305998  0.013549 
1704466836.560702000  0  0  11.5114  0.10368  -0.139744  0.0234128  nan  nan  nan  nan  nan  nan  -2.50221  -0.297792  0.99842  0.0149663  -0.0373185  0.00243717  -0.0174381  0.0174381  -0.0101729  0  0  0  -0.0255907  0.0255907  -9.25e-05  0.0256218  0.00316416  -0.0147238  -0.0183376  0.0128221  0.00888527  -0.0256548  0.0254266  -0.020732  0.0135992  0.0491091  -0.0353601 
1704466836.565693000  0  0  11.5725  0.130041  -0.163519  0.0156525  nan  nan  nan  nan  nan  nan  -2.5023  -0.297705  0.998369  0.0158551  -0.0364827  0.00260284  -0.0175573  0.0175573  -0.010173  0  0  0  -0.0221386  0.0221386  0  0.0256347  0.00313123  -0.0147877  -0.0187119  0.0136174  0.00296261  -0.0268438  0.0252522  -0.0200256  -0.0222465  0.0906263  0.0572152 
1704466836.570699000  0  0  11.4748  0.100895  -0.123597  0.0175296  nan  nan  nan  nan  nan  nan  -2.50238  -0.297617  0.998318  0.0162288  -0.034172  0.00281849  -0.0176599  0.0176599  -0.010173  0  0  0  -0.0189366  0.0189366  0  0.0255124  0.00319587  -0.0146794  -0.021045  0.0133814  0.0123323  -0.0268265  0.0228526  -0.020129  0.0269462  0.0407536  0.0339382 
1704466836.575700000  0  0  11.5392  0.0639902  -0.143062  0.024087  nan  nan  nan  nan  nan  nan  -2.50247  -0.297528  0.998267  0.0142759  -0.0368159  0.0030456  -0.0177471  0.0177471  -0.010173  0  0  0  -0.0159845  0.0159845  0  0.0257543  0.00294428  -0.0147799  -0.0180348  0.0115183  0.00629209  -0.0242381  0.0256866  -0.0208838  0.0703217  0.0528072  -0.0422169 
1704466836.580682000  0  0  11.5846  0.0845911  -0.176084  0.0175151  nan  nan  nan  nan  nan  nan  -2.50256  -0.297439  0.998216  0.0144402  -0.0366519  0.00324632  -0.0178201  0.0178201  -0.010173  0  0  0  -0.0132825  0.0132825  0  0.0258522  0.00281048  -0.014838  -0.017978  0.0117761  0.00193105  -0.0243113  0.0262554  -0.0203448  0.0360007  0.104495  0.0369588 
1704466836.585692000  0  0  11.498  0.066308  -0.14339  0.018003  nan  nan  nan  nan  nan  nan  -2.50265  -0.29735  0.998165  0.0146368  -0.0343566  0.00348329  -0.0178803  0.0178803  -0.010173  0  0  0  -0.0108304  0.0108304  0  0.0257435  0.00286564  -0.0147457  -0.0203752  0.0114745  0.0102469  -0.0240454  0.0240566  -0.0203872  0.0649796  0.0653739  0.031111 
1704466836.590682000  0  0  11.545  0.0303919  -0.160348  0.024083  nan  nan  nan  nan  nan  nan  -2.50274  -0.29726  0.998114  0.0131122  -0.0362116  0.00372816  -0.0179289  0.0179289  -0.010173  0  0  0  -0.0086283  0.0086283  0  0.02588  0.00272065  -0.0148056  -0.0181649  0.00990568  0.00580038  -0.0217413  0.026208  -0.0211229  0.108778  0.078217  -0.0390289 
1704466836.595685000  0  0  11.5788  0.0602317  -0.179255  0.018367  nan  nan  nan  nan  nan  nan  -2.50283  -0.297171  0.998064  0.0148261  -0.0352353  0.00390367  -0.017967  0.017967  -0.010173  0  0  0  -0.0066763  0.0066763  0  0.025786  0.00278657  -0.0148045  -0.0187364  0.0115403  0.00239581  -0.0232735  0.0259947  -0.0208167  0.069574  0.111782  0.0319668 
1704466836.600683000  0  0  11.504  0.0658043  -0.161046  0.0166169  nan  nan  nan  nan  nan  nan  -2.50292  -0.297081  0.998013  0.0145797  -0.0335379  0.00416648  -0.017996  0.017996  -0.010173  0  0  0  -0.0049742  0.0049742  0  0.0257162  0.0027914  -0.0147739  -0.0205745  0.0109503  0.0097146  -0.0227331  0.0246727  -0.020602  0.0561624  0.0907108  0.0521187 
1704466836.605694000  0  0  11.5175  0.0515323  -0.155242  0.0216654  nan  nan  nan  nan  nan  nan  -2.50301  -0.296991  0.997962  0.0150949  -0.0332048  0.00438983  -0.0180172  0.0180172  -0.010173  0  0  0  -0.0035222  0.0035222  0  0.0256345  0.00283505  -0.0147558  -0.020567  0.0112997  0.00832412  -0.0226982  0.0246121  -0.0212064  0.0800553  0.0813363  -0.00620681 
1704466836.610682000  0  0  11.5349  0.0908816  -0.152593  0.0185017  nan  nan  nan  nan  nan  nan  -2.5031  -0.2969  0.997911  0.0166385  -0.0327396  0.00458811  -0.0180317  0.0180317  -0.010173  0  0  0  -0.0023201  0.0023201  0  0.0255345  0.00290084  -0.0147332  -0.0206894  0.0128021  0.00650757  -0.0243782  0.0245056  -0.0210638  0.0258495  0.0776389  0.0334408 
1704466836.615687000  0  0  11.5006  0.0966199  -0.14134  0.0171926  nan  nan  nan  nan  nan  nan  -2.50319  -0.29681  0.99786  0.0164517  -0.0318495  0.00485696  -0.0180408  0.0180408  -0.010173  0  0  0  -0.001368  0.001368  0  0.0254829  0.00289238  -0.0147197  -0.0215889  0.0124506  0.00985763  -0.024176  0.0237404  -0.0209431  0.0146487  0.0642356  0.0490375 
1704466836.619677000  0  0  11.513  0.0914646  -0.126734  0.021791  nan  nan  nan  nan  nan  nan  -2.50328  -0.29672  0.997809  0.0171995  -0.0303263  0.00511373  -0.0180458  0.0180458  -0.010173  0  0  0  -0.000666  0.000666  0  0.0254068  0.00292747  -0.014687  -0.0230364  0.0131611  0.00851788  -0.0247121  0.022306  -0.0215515  0.0273232  0.05009  -0.00333042 
1704466836.625693000  0  0  11.4896  0.11276  -0.116443  0.0207575  nan  nan  nan  nan  nan  nan  -2.50337  -0.29663  0.997758  0.0178239  -0.0307847  0.00534722  -0.0180479  0.0180479  -0.010173  0  0  0  -0.0002139  0.0002139  0  0.0253431  0.00295932  -0.0146657  -0.0224011  0.0137164  0.0107819  -0.0255166  0.0227129  -0.0216531  -0.00278387  0.0296763  0.0115657 
1704466836.630684000  0  0  11.5443  0.119061  -0.139148  0.0191484  nan  nan  nan  nan  nan  nan  -2.50346  -0.29654  0.997708  0.0184618  -0.0304584  0.00560041  -0.0180483  0.0180483  -0.010173  0  0  0  -1.19e-05  1.19e-05  0  0.0252504  0.00301217  -0.0146735  -0.0223838  0.0144042  0.00534716  -0.0262231  0.0228812  -0.0216112  -0.00824011  0.0668569  0.0321323 
1704466836.635688000  0  0  11.5029  0.124129  -0.112123  0.0207408  nan  nan  nan  nan  nan  nan  -2.50355  -0.296449  0.997657  0.0195017  -0.0269522  0.00591018  -0.0180483  0.0180483  -0.010173  0  0  0  4.6e-05  -4.6e-05  0  0.0251058  0.00308754  -0.0146057  -0.026162  0.0153163  0.00923162  -0.0272672  0.0194824  -0.0219325  -0.00912331  0.0461707  0.0154486 
1704466836.640700000  0  0  11.5008  0.107008  -0.0957274  0.0226113  nan  nan  nan  nan  nan  nan  -2.50364  -0.296359  0.997606  0.0190392  -0.0283526  0.0061753  -0.0180475  0.0180475  -0.010173  0  0  0  0.0003226  -0.0003226  0  0.025022  0.00313453  -0.0145694  -0.0243641  0.0146693  0.00937038  -0.0266441  0.0206381  -0.0223392  0.0152567  0.00991038  -0.00376382 
1704466836.644692000  0  0  11.593  0.114589  -0.144309  0.0218122  nan  nan  nan  nan  nan  nan  -2.50373  -0.296269  0.997555  0.0201773  -0.028793  0.00641984  -0.0180447  0.0180446  -0.010173  0  0  0  0.0008491  -0.0008492  0  0.0249501  0.0031861  -0.0145994  -0.0233964  0.0159806  0.000274618  -0.0277672  0.0218115  -0.0225086  0.0107044  0.0834725  0.00894409 
1704466836.650698000  0  0  11.5008  0.132584  -0.114941  0.0180762  nan  nan  nan  nan  nan  nan  -2.50382  -0.296179  0.997504  0.0208242  -0.0242164  0.00678829  -0.0180386  0.0180386  -0.010173  0  0  0  0.0016257  -0.0016258  0  0.024772  0.00326659  -0.0145861  -0.0283664  0.0162352  0.00933039  -0.0285788  0.0176238  -0.0222481  -0.013766  0.0646339  0.0545551 
1704466836.655684000  0  0  11.5254  0.0757704  -0.105308  0.023799  nan  nan  nan  nan  nan  nan  -2.50391  -0.296089  0.997453  0.0200578  -0.0262194  0.00706479  -0.018028  0.018028  -0.010173  0  0  0  0.0026523  -0.0026524  0  0.0247192  0.00329021  -0.0146411  -0.0258011  0.0152709  0.00709055  -0.0269983  0.0195173  -0.0229627  0.0707272  0.0343811  -0.0111737 
1704466836.659678000  0  0  11.6108  0.102123  -0.172443  0.0234257  nan  nan  nan  nan  nan  nan  -2.504  -0.295998  0.997402  0.0215477  -0.0265087  0.00732378  -0.0180116  0.0180116  -0.010173  0  0  0  0.0039289  -0.003929  0  0.0246392  0.0033485  -0.0146738  -0.0249446  0.016882  -0.00132559  -0.0285307  0.020924  -0.0232899  0.0374247  0.13762  -0.00198388 
1704466836.665691000  0  0  11.5191  0.115733  -0.142983  0.0153405  nan  nan  nan  nan  nan  nan  -2.50409  -0.295908  0.997351  0.0215062  -0.0224197  0.0077234  -0.0179883  0.0179883  -0.010173  0  0  0  0.0054555  -0.0054556  0  0.0244889  0.00339876  -0.0146368  -0.0293215  0.0163283  0.00762941  -0.0285544  0.0175395  -0.0225244  0.0145694  0.112708  0.0940794 
1704466836.669636000  0  0  11.5049  0.0706265  -0.114531  0.0202162  nan  nan  nan  nan  nan  nan  -2.50418  -0.295819  0.997301  0.0210716  -0.0226182  0.00804587  -0.0179567  0.0179567  -0.010173  0  0  0  0.0072321  -0.0072322  0  0.0244022  0.00343933  -0.0145953  -0.0287372  0.0155238  0.00895418  -0.0273701  0.0176171  -0.0230807  0.0821712  0.063991  0.0373908 
1704466836.675680000  0  0  11.6166  0.105314  -0.20379  0.017508  nan  nan  nan  nan  nan  nan  -2.50427  -0.295729  0.99725  0.0225265  -0.0228553  0.00833071  -0.0179155  0.0179155  -0.010173  0  0  0  0.0092587  -0.0092588  0  0.0243214  0.00349555  -0.0146945  -0.0278292  0.0170792  -0.00189599  -0.0286951  0.0196788  -0.0230102  0.0332369  0.19984  0.0720066 
1704466836.680686000  0  0  11.5171  0.0988196  -0.155673  0.0116606  nan  nan  nan  nan  nan  nan  -2.50436  -0.295639  0.997199  0.0220526  -0.0202455  0.00872839  -0.0178637  0.0178636  -0.010173  0  0  0  0.0115353  -0.0115354  0  0.0242519  0.00347646  -0.0146419  -0.0306053  0.0160892  0.00782004  -0.0280001  0.0174125  -0.0221912  0.0391054  0.135118  0.138002 
1704466836.685683000  0  0  11.5321  0.0434571  -0.151508  0.0239408  nan  nan  nan  nan  nan  nan  -2.50445  -0.29555  0.997148  0.0221179  -0.0210555  0.00904476  -0.0177998  0.0177998  -0.010173  0  0  0  0.0140619  -0.014062  0  0.0241173  0.0035562  -0.0146263  -0.0290778  0.0157478  0.00632501  -0.026952  0.0185796  -0.0234408  0.125066  0.119469  -0.00676545 
1704466836.690712000  0  0  11.5746  0.0757239  -0.190081  0.0216418  nan  nan  nan  nan  nan  nan  -2.50454  -0.295461  0.997097  0.0231683  -0.0217166  0.00934921  -0.0177226  0.0177226  -0.010173  0  0  0  0.0168385  -0.0168386  0  0.02409  0.00356899  -0.0146718  -0.0278816  0.0167137  0.00220709  -0.0278462  0.0204159  -0.0235525  0.0770535  0.17121  0.0248699 
1704466836.695678000  0  0  11.5232  0.0833287  -0.164465  0.0170334  nan  nan  nan  nan  nan  nan  -2.50463  -0.295373  0.997046  0.023794  -0.0194273  0.00973819  -0.017631  0.017631  -0.010173  0  0  0  0.0198651  -0.0198652  0  0.0239354  0.00365064  -0.0146119  -0.0299178  0.016765  0.00713257  -0.0282016  0.0186615  -0.0231411  0.0668037  0.140791  0.0799518 
1704466836.700706000  0  0  11.5134  0.0398407  -0.150119  0.0267336  nan  nan  nan  nan  nan  nan  -2.50471  -0.295285  0.996995  0.0232606  -0.0194599  0.0101021  -0.0175235  0.0175235  -0.010173  0  0  0  0.0231417  -0.0231418  0  0.0239024  0.00361669  -0.0146091  -0.0294609  0.0158529  0.00811874  -0.0266453  0.019082  -0.0243052  0.128925  0.113418  -0.0320794 
1704466836.705695000  0  0  11.5337  0.0647713  -0.166331  0.0238915  nan  nan  nan  nan  nan  nan  -2.5048  -0.295198  0.996945  0.0240278  -0.0209876  0.0104111  -0.0173991  0.0173991  -0.010173  0  0  0  0.0266682  -0.0266684  0  0.0239071  0.00360522  -0.0146271  -0.0273186  0.0164272  0.00614947  -0.0271375  0.0212626  -0.024461  0.0903649  0.124783  0.00726239 
1704466836.710696000  0  0  11.5362  0.0994378  -0.171187  0.0160415  nan  nan  nan  nan  nan  nan  -2.50489  -0.295111  0.996894  0.0250151  -0.0186792  0.010815  -0.0172564  0.0172564  -0.010173  0  0  0  0.0304448  -0.030445  0  0.0237558  0.00368833  -0.0145999  -0.0291943  0.0169245  0.00580356  -0.0281863  0.0198025  -0.0237555  0.0394318  0.143759  0.101027 
1704466836.714818000  0  0  11.4813  0.0591313  -0.12766  0.0223626  nan  nan  nan  nan  nan  nan  -2.50497  -0.295025  0.996843  0.0243898  -0.0180556  0.011215  -0.0170943  0.0170943  -0.010173  0  0  0  0.0344714  -0.0344716  0  0.0237932  0.00360533  -0.0145564  -0.0296347  0.0158149  0.011151  -0.0268154  0.0191007  -0.0244145  0.0975354  0.0752754  0.0267162 
1704466836.719681000  0  0  11.499  0.0683062  -0.134089  0.0247649  nan  nan  nan  nan  nan  nan  -2.50506  -0.29494  0.996792  0.025765  -0.0188801  0.0115482  -0.0169113  0.0169113  -0.010173  0  0  0  0.038748  -0.0387482  0  0.023673  0.00368713  -0.0145279  -0.0279459  0.016769  0.00932183  -0.0277991  0.0202184  -0.0249461  0.0892582  0.0779184  0.00216237 
1704466836.725697000  0  0  11.533  0.120501  -0.167125  0.0146825  nan  nan  nan  nan  nan  nan  -2.50514  -0.294856  0.996741  0.0257012  -0.01836  0.0119483  -0.0167064  0.0167064  -0.010173  0  0  0  0.0432746  -0.0432748  0  0.0237809  0.00356609  -0.0145616  -0.0282194  0.0165499  0.00600379  -0.0280584  0.0209094  -0.0239362  0.00284701  0.128729  0.121229 
1704466836.730693000  0  0  11.4722  0.0717336  -0.11367  0.0213432  nan  nan  nan  nan  nan  nan  -2.50523  -0.294773  0.99669  0.0253962  -0.0174001  0.0123702  -0.0164782  0.0164781  -0.010173  0  0  0  0.0480512  -0.0480514  0  0.0237816  0.00352886  -0.0145116  -0.0288857  0.0155909  0.01193  -0.0269425  0.0196858  -0.0245091  0.0771463  0.0472897  0.0413352 
1704466836.735678000  0  0  11.5194  0.0907638  -0.141369  0.0259111  nan  nan  nan  nan  nan  nan  -2.50531  -0.294691  0.996639  0.0270668  -0.0186868  0.0127044  -0.0162254  0.0162254  -0.010173  0  0  0  0.0530778  -0.053078  0  0.0236583  0.00361745  -0.0145031  -0.0265376  0.0168679  0.00722118  -0.0284453  0.021414  -0.0253136  0.0560178  0.0814269  -0.00806048 
1704466836.740691000  0  0  11.5624  0.141367  -0.152745  0.0160516  nan  nan  nan  nan  nan  nan  -2.50539  -0.294611  0.996588  0.0281233  -0.0166331  0.0131467  -0.015947  0.0159469  -0.010173  0  0  0  0.0583544  -0.0583546  0  0.0235951  0.00363925  -0.0146044  -0.0280924  0.0175239  0.00319555  -0.0299167  0.0201608  -0.0244982  -0.01877  0.109911  0.110633 
1704466836.745681000  0  0  11.4842  0.106309  -0.107004  0.0214271  nan  nan  nan  nan  nan  nan  -2.50547  -0.294532  0.996538  0.028804  -0.0149358  0.0135949  -0.0156415  0.0156415  -0.010173  0  0  0  0.063881  -0.0638812  0  0.023447  0.00372167  -0.0145135  -0.0292082  0.0172499  0.0107366  -0.0300613  0.0182576  -0.0249939  0.0416207  0.0465334  0.0465913 
1704466836.750696000  0  0  11.5175  0.111605  -0.129724  0.0246817  nan  nan  nan  nan  nan  nan  -2.50555  -0.294455  0.996487  0.0297009  -0.0151703  0.0139914  -0.0153077  0.0153077  -0.010173  0  0  0  0.0696549  -0.0696552  0  0.023413  0.00374952  -0.0145894  -0.0281966  0.017662  0.00764135  -0.0307194  0.0190253  -0.0256335  0.0375082  0.0793234  0.0122677 
1704466836.755694000  0  0  11.5444  0.153267  -0.141563  0.015715  nan  nan  nan  nan  nan  nan  -2.50562  -0.294379  0.996436  0.0307337  -0.0145245  0.0144187  -0.014945  0.014945  -0.010173  0  0  0  0.0753802  -0.0753805  0  0.0234022  0.00373455  -0.0146234  -0.0282552  0.0183043  0.0050294  -0.0321643  0.0190649  -0.0248088  -0.0223443  0.0990641  0.119124 
1704466836.760707000  0  0  11.5057  0.111568  -0.132837  0.0205669  nan  nan  nan  nan  nan  nan  -2.50569  -0.294305  0.996385  0.0313802  -0.013182  0.0148807  -0.0145543  0.0145543  -0.010173  0  0  0  0.0808555  -0.0808558  0  0.0232532  0.00382007  -0.0145617  -0.0289066  0.0180948  0.00872882  -0.032142  0.0180676  -0.0252623  0.0480541  0.0916484  0.0613986 
1704466836.765681000  0  0  11.5281  0.104747  -0.147959  0.0238724  nan  nan  nan  nan  nan  nan  -2.50577  -0.294234  0.996334  0.032019  -0.012715  0.0153229  -0.0141369  0.0141369  -0.010173  0  0  0  0.0860808  -0.086081  0  0.0232479  0.00383134  -0.0146226  -0.0288368  0.018276  0.0066748  -0.0323122  0.0183079  -0.025874  0.0608511  0.115466  0.0260432 
1704466836.769681000  0  0  11.5552  0.120656  -0.151703  0.0201863  nan  nan  nan  nan  nan  nan  -2.50584  -0.294164  0.996283  0.0329995  -0.0127565  0.0157508  -0.013694  0.0136939  -0.010173  0  0  0  0.0910561  -0.0910563  0  0.0231578  0.00389146  -0.0146078  -0.028028  0.0187913  0.00393921  -0.0332513  0.0188232  -0.0257369  0.0408498  0.118004  0.0726184 
1704466836.775689000  0  0  11.5639  0.0955826  -0.183165  0.0211329  nan  nan  nan  nan  nan  nan  -2.5059  -0.294097  0.996232  0.0328321  -0.0132486  0.0161849  -0.0132268  0.0132267  -0.010173  0  0  0  0.0957814  -0.0957816  0  0.0232308  0.00380705  -0.0146581  -0.0271041  0.0183038  0.00320817  -0.0323253  0.020577  -0.0258147  0.0764543  0.15832  0.0612161 
1704466836.780696000  0  0  11.5234  0.0760774  -0.176363  0.0235268  nan  nan  nan  nan  nan  nan  -2.50597  -0.294032  0.996182  0.0310711  -0.0149101  0.016611  -0.0127366  0.0127365  -0.010173  0  0  0  0.100257  -0.100257  0  0.0236584  0.00351284  -0.0147047  -0.0257126  0.0163705  0.00734347  -0.0299782  0.0228459  -0.0261313  0.0921655  0.130091  0.0339534 
1704466836.785769000  0  0  11.6016  0.0615981  -0.192223  0.0232899  nan  nan  nan  nan  nan  nan  -2.50603  -0.293969  0.996131  0.0318154  -0.01622  0.0170188  -0.0122246  0.0122246  -0.010173  0  0  0  0.104482  -0.104482  0  0.0235469  0.00359839  -0.0147391  -0.0234084  0.0168285  -0.000326377  -0.0300175  0.0248558  -0.0263611  0.116957  0.142118  0.0400751 
1704466836.790676000  0  0  11.6229  0.07009  -0.219415  0.0214137  nan  nan  nan  nan  nan  nan  -2.50609  -0.29391  0.99608  0.0323671  -0.015811  0.0174899  -0.0116922  0.0116921  -0.010173  0  0  0  0.108457  -0.108457  0  0.02358  0.00357139  -0.0147887  -0.0234999  0.0171426  -0.00231285  -0.0301357  0.0255756  -0.0263532  0.103458  0.182829  0.0645939 
1704466836.794680000  0  0  11.5373  0.0658602  -0.178378  0.0208447  nan  nan  nan  nan  nan  nan  -2.50615  -0.293852  0.996029  0.0325953  -0.0134612  0.018036  -0.0111405  0.0111404  -0.010173  0  0  0  0.112183  -0.112183  0  0.0234828  0.00362074  -0.0147126  -0.0256858  0.0165559  0.00600461  -0.0298578  0.0234287  -0.0265019  0.108568  0.129206  0.0740104 
1704466836.800718000  0  0  11.6351  0.0362829  -0.187626  0.0244601  nan  nan  nan  nan  nan  nan  -2.5062  -0.293798  0.995978  0.032626  -0.0169188  0.0179347  -0.0105707  0.0105707  -0.0101729  0  0  0  0.115658  -0.115658  8.63e-05  0.0235274  0.00361813  -0.014832  -0.021307  0.0165948  -0.00337334  -0.0288203  0.0273282  -0.0265854  0.150973  0.116121  0.0276597 
1704466836.805699000  0  0  11.6173  0.0760746  -0.212368  0.0188005  nan  nan  nan  nan  nan  nan  -2.50625  -0.293747  0.995927  0.032605  -0.0165703  0.0179465  -0.0099843  0.0099843  -0.0101718  0  0  0  0.118883  -0.118883  0.000419  0.023766  0.00342496  -0.0148695  -0.0219093  0.0165799  -0.00149743  -0.0286937  0.0279709  -0.0257318  0.0827048  0.153253  0.090738 
1704466836.810721000  0  0  11.5389  0.0664556  -0.156834  0.0182841  nan  nan  nan  nan  nan  nan  -2.5063  -0.293698  0.995876  0.0327179  -0.014514  0.0180119  -0.0093823  0.0093823  -0.0101683  0  0  0  0.121858  -0.121859  0.0010017  0.0236431  0.00349963  -0.0148075  -0.0237636  0.015908  0.00622713  -0.0282469  0.0258218  -0.0252694  0.0956896  0.0751156  0.0914512 
1704466836.815687000  0  0  11.6251  0.0438928  -0.17089  0.0250505  nan  nan  nan  nan  nan  nan  -2.50635  -0.293653  0.995826  0.0337296  -0.0173661  0.017901  -0.0087661  0.0087661  -0.0101613  0  0  0  0.124584  -0.124584  0.0018344  0.0236907  0.003507  -0.0148904  -0.0201977  0.0170832  -0.00201084  -0.028438  0.0288625  -0.025694  0.135278  0.0764958  0.00822188 
1704466836.820702000  0  0  11.6059  0.120934  -0.177064  0.0168093  nan  nan  nan  nan  nan  nan  -2.50639  -0.293611  0.995775  0.0357814  -0.0151114  0.017946  -0.0081369  0.0081369  -0.0101496  0  0  0  0.127059  -0.127059  0.0029171  0.023564  0.00360523  -0.0148766  -0.0222869  0.0188202  -1.776e-05  -0.0309621  0.0272529  -0.024701  0.0235095  0.0988047  0.103349 
1704466836.825694000  0  0  11.5419  0.0945918  -0.116537  0.0167902  nan  nan  nan  nan  nan  nan  -2.50643  -0.293572  0.995724  0.0339102  -0.0147612  0.0179862  -0.007496  0.0074959  -0.0101317  0  0  0  0.129284  -0.129284  0.0042498  0.0237443  0.00342132  -0.014855  -0.0228961  0.0166203  0.00645484  -0.0286741  0.0262798  -0.0241268  0.0512265  0.0035512  0.0960705 
1704466836.830679000  0  0  11.6017  0.0794281  -0.131015  0.0242282  nan  nan  nan  nan  nan  nan  -2.50646  -0.293536  0.995673  0.0344063  -0.0173337  0.0178903  -0.0068445  0.0068445  -0.0101066  0  0  0  0.13126  -0.13126  0.0058325  0.0239298  0.00334926  -0.0149156  -0.0200759  0.0173827  0.000847773  -0.0287504  0.0286962  -0.0245417  0.0774484  0.0102457  0.00390158 
1704466836.835680000  0  0  11.6025  0.141791  -0.143635  0.0158801  nan  nan  nan  nan  nan  nan  -2.5065  -0.293503  0.995623  0.0360464  -0.0163318  0.017898  -0.0061838  0.0061837  -0.010073  0  0  0  0.132985  -0.132985  0.0076652  0.0238302  0.00344367  -0.0149083  -0.020835  0.0188341  0.000953101  -0.0309095  0.0280427  -0.0235444  -0.0121716  0.0364163  0.100376 
1704466836.840678000  0  0  11.5608  0.127305  -0.111511  0.0146656  nan  nan  nan  nan  nan  nan  -2.50653  -0.293474  0.995573  0.0356114  -0.0148731  0.017957  -0.0055151  0.005515  -0.0100296  0  0  0  0.13446  -0.13446  0.0097479  0.0238468  0.00339168  -0.0148809  -0.0224259  0.0181093  0.0052903  -0.0303173  0.0262062  -0.0228608  0.00797875  -0.00441107  0.107348 
1704466836.844676000  0  0  11.587  0.103884  -0.0981206  0.0222608  nan  nan  nan  nan  nan  nan  -2.50655  -0.293448  0.995523  0.0363836  -0.0145141  0.0179586  -0.0048396  0.0048396  -0.0099751  0  0  0  0.135685  -0.135685  0.0120806  0.023762  0.00346076  -0.014876  -0.0224865  0.0187821  0.00297358  -0.0306248  0.0255958  -0.0234114  0.049876  -0.0225715  0.0148968 
1704466836.850677000  0  0  11.6087  0.138726  -0.128757  0.0164133  nan  nan  nan  nan  nan  nan  -2.50657  -0.293426  0.995473  0.0373918  -0.0159964  0.0178885  -0.0041586  0.0041586  -0.0099083  0  0  0  0.136661  -0.136661  0.0146634  0.0237959  0.00349578  -0.0149235  -0.0207464  0.019857  0.00121304  -0.031987  0.0272194  -0.0225294  0.000955544  0.0173058  0.0800664 
1704466836.855680000  0  0  11.603  0.133475  -0.119183  0.0145851  nan  nan  nan  nan  nan  nan  -2.50659  -0.293406  0.995424  0.0373365  -0.0137491  0.0179733  -0.0034734  0.0034734  -0.009828  0  0  0  0.137386  -0.137386  0.0174961  0.0237583  0.00349219  -0.0149346  -0.0231593  0.0196519  0.00216252  -0.0318589  0.0249762  -0.0218648  0.00889642  0.0176354  0.0953433 
1704466836.860678000  0  0  11.5806  0.0899848  -0.0927156  0.0223936  nan  nan  nan  nan  nan  nan  -2.50661  -0.293391  0.995375  0.0373937  -0.0137841  0.0179712  -0.0027852  0.0027851  -0.009733  0  0  0  0.137861  -0.137861  0.0205788  0.0236551  0.00358466  -0.0149025  -0.022864  0.0193719  0.00468534  -0.0311461  0.0245969  -0.0224239  0.0772374  -0.0243573  0.000202992 
1704466836.865677000  0  0  11.6553  0.109975  -0.145781  0.0190939  nan  nan  nan  nan  nan  nan  -2.50662  -0.293379  0.995326  0.0382271  -0.0158383  0.0178812  -0.0020952  0.0020952  -0.0096218  0  0  0  0.138087  -0.138087  0.0239115  0.0236897  0.00361155  -0.0149774  -0.0204752  0.0205643  -0.00218617  -0.0320019  0.0271186  -0.0219719  0.0497173  0.0468565  0.0375779 
1704466836.869623000  0  0  11.6554  0.131186  -0.158034  0.0142218  nan  nan  nan  nan  nan  nan  -2.50663  -0.29337  0.995279  0.0392705  -0.0140857  0.0179335  -0.0014047  0.0014047  -0.0094934  0  0  0  0.138062  -0.138062  0.0274942  0.0235959  0.0036942  -0.0149631  -0.022302  0.0215436  -0.00181637  -0.0331013  0.0258777  -0.021275  0.0219261  0.0767348  0.0923753 
1704466836.875681000  0  0  11.6332  0.0502604  -0.115987  0.0232333  nan  nan  nan  nan  nan  nan  -2.50664  -0.293365  0.995231  0.0379722  -0.0146457  0.0179305  -0.000715  0.000715  -0.0093465  0  0  0  0.137787  -0.137787  0.0313269  0.0235177  0.00374653  -0.0150059  -0.0215182  0.0198908  0.000987869  -0.0304981  0.0260133  -0.0217525  0.139684  0.00458456  -0.019622 
1704466836.880679000  0  0  11.7241  0.0707622  -0.183278  0.0214581  nan  nan  nan  nan  nan  nan  -2.50664  -0.293363  0.995185  0.0395051  -0.0165187  0.017834  -2.73e-05  2.72e-05  -0.0091798  0  0  0  0.137262  -0.137262  0.0354096  0.0234385  0.00386328  -0.0151223  -0.0191385  0.0218408  -0.00728245  -0.0315681  0.0289392  -0.0216458  0.112875  0.0968923  0.00227567 
1704466836.885774000  0  0  11.6683  0.0896132  -0.166029  0.0127791  nan  nan  nan  nan  nan  nan  -2.50664  -0.293364  0.99514  0.0397404  -0.0136677  0.0179435  0.0006572  -0.0006572  -0.008992  0  0  0  0.136488  -0.136488  0.0397423  0.0233084  0.00397042  -0.015094  -0.0223051  0.021678  -0.00129574  -0.0316392  0.0265891  -0.0205537  0.0814997  0.0850223  0.101849 
1704466836.890711000  0  0  11.6644  0.0366878  -0.150807  0.0206828  nan  nan  nan  nan  nan  nan  -2.50663  -0.293369  0.995095  0.0390555  -0.0145895  0.0179168  0.0013372  -0.0013372  -0.0087819  0  0  0  0.135463  -0.135463  0.044325  0.0232501  0.00402697  -0.0151164  -0.0212201  0.020881  -0.000309543  -0.0297468  0.0275467  -0.0210471  0.157114  0.0522071  0.00459889 
1704466836.894708000  0  0  11.7007  0.0509485  -0.191823  0.0230122  nan  nan  nan  nan  nan  nan  -2.50662  -0.293378  0.995052  0.0400879  -0.0156425  0.0178595  0.0020114  -0.0020115  -0.0085483  0  0  0  0.134188  -0.134188  0.0491577  0.0231731  0.00412334  -0.0151385  -0.0199457  0.0221608  -0.00331533  -0.0303569  0.0293304  -0.0213662  0.137479  0.108471  -0.0217854 
1704466836.900659000  0  0  11.6835  0.0938089  -0.181705  0.0118618  nan  nan  nan  nan  nan  nan  -2.50661  -0.293389  0.99501  0.0405451  -0.0141976  0.017911  0.0026786  -0.0026787  -0.0082899  0  0  0  0.132664  -0.132664  0.0542404  0.0230532  0.0042498  -0.0152013  -0.0215458  0.0224755  -0.000861977  -0.030738  0.0285954  -0.0200102  0.0677592  0.0967635  0.10676 
1704466836.905702000  0  0  11.6715  0.0441857  -0.163071  0.0189214  nan  nan  nan  nan  nan  nan  -2.5066  -0.293404  0.994969  0.0399297  -0.0147068  0.0178994  0.0033376  -0.0033377  -0.0080055  0  0  0  0.130889  -0.130889  0.0595731  0.022992  0.0043309  -0.0152555  -0.0210252  0.0217454  0.001102  -0.0289844  0.0292726  -0.0203294  0.138809  0.0602426  0.0183021 
1704466836.910718000  0  0  11.6868  0.0565737  -0.176679  0.0199913  nan  nan  nan  nan  nan  nan  -2.50658  -0.293423  0.99493  0.0406986  -0.0148906  0.0178806  0.0039871  -0.0039872  -0.0076938  0  0  0  0.128864  -0.128864  0.0651558  0.0228871  0.00444871  -0.015266  -0.020799  0.0226575  0.00025277  -0.0292528  0.0299444  -0.0204542  0.119824  0.0783194  0.0058968 
1704466836.914700000  0  0  11.691  0.092608  -0.164722  0.0120228  nan  nan  nan  nan  nan  nan  -2.50656  -0.293444  0.994892  0.040825  -0.0149946  0.0178744  0.0046259  -0.0046259  -0.0073535  0  0  0  0.126589  -0.126589  0.0709885  0.0228309  0.00451812  -0.0153185  -0.0208045  0.022922  0.000627285  -0.0294014  0.0302563  -0.0194586  0.0599424  0.0557871  0.0974124 
1704466836.919706000  0  0  11.6786  0.074032  -0.151656  0.0171006  nan  nan  nan  nan  nan  nan  -2.50653  -0.293469  0.994856  0.0407602  -0.0142369  0.0179063  0.0052526  -0.0052526  -0.0069835  0  0  0  0.124065  -0.124065  0.0770712  0.0227143  0.00463034  -0.0153031  -0.0217147  0.0228109  0.00253579  -0.0287567  0.0295934  -0.0196453  0.0866257  0.038562  0.0332247 
1704466836.925688000  0  0  11.6612  0.0725689  -0.133099  0.0202329  nan  nan  nan  nan  nan  nan  -2.5065  -0.293497  0.994822  0.0407472  -0.0145145  0.0178952  0.0058661  -0.0058661  -0.0065824  0  0  0  0.12129  -0.12129  0.083404  0.0226258  0.00473881  -0.0153332  -0.0215306  0.0227983  0.00507367  -0.0281572  0.0297921  -0.0199267  0.084684  0.00569599  -0.0041908 
1704466836.929781000  0  0  11.733  0.0867404  -0.14432  0.0171383  nan  nan  nan  nan  nan  nan  -2.50647  -0.293528  0.994791  0.0407465  -0.0153861  0.0178596  0.0064651  -0.0064651  -0.006149  0  0  0  0.118265  -0.118265  0.0899867  0.0225788  0.00480587  -0.0154223  -0.0206585  0.0232947  -0.00106939  -0.0280004  0.0308963  -0.0195174  0.0595479  0.0165475  0.0310517 
1704466836.935724000  0  0  11.6732  0.0815607  -0.131699  0.0187029  nan  nan  nan  nan  nan  nan  -2.50644  -0.293561  0.994761  0.0410819  -0.0133109  0.0179398  0.0070483  -0.0070484  -0.0056821  0  0  0  0.114991  -0.11499  0.0968194  0.0224432  0.00493701  -0.0153733  -0.0232034  0.0234668  0.00554765  -0.0278787  0.0288819  -0.0195592  0.067416  0.0100345  0.0110688 
1704466836.939828000  0  0  11.6498  0.0716648  -0.109884  0.0208406  nan  nan  nan  nan  nan  nan  -2.5064  -0.293598  0.994734  0.0404463  -0.0142782  0.0179091  0.0076146  -0.0076146  -0.0051804  0  0  0  0.111466  -0.111466  0.103902  0.0223754  0.00501665  -0.015366  -0.0223516  0.0228776  0.00865617  -0.0268727  0.0294613  -0.0197531  0.0767487  -0.0311501  -0.0144416 
1704466836.944705000  0  0  11.754  0.0834509  -0.142489  0.0188771  nan  nan  nan  nan  nan  nan  -2.50636  -0.293637  0.994709  0.0407371  -0.015736  0.0178455  0.0081626  -0.0081626  -0.0046427  0  0  0  0.107691  -0.107691  0.111235  0.0222787  0.00513755  -0.0154165  -0.0207344  0.0238156  -0.000742779  -0.0270071  0.0311815  -0.019578  0.0577947  0.0113478  0.00902822 
1704466836.949694000  0  0  11.7131  0.100732  -0.134343  0.0158498  nan  nan  nan  nan  nan  nan  -2.50632  -0.29368  0.994687  0.0410742  -0.0139868  0.0179121  0.0086911  -0.0086911  -0.0040676  0  0  0  0.103666  -0.103666  0.118817  0.0221765  0.0052391  -0.0154029  -0.0230445  0.0242254  0.00417026  -0.0273218  0.0295775  -0.0191303  0.0308711  0.00938278  0.0428851 
1704466836.954701000  0  0  11.658  0.0744277  -0.103547  0.0197552  nan  nan  nan  nan  nan  nan  -2.50628  -0.293724  0.994669  0.0394189  -0.0149801  0.0178961  0.0091988  -0.0091988  -0.0034541  0  0  0  0.0993917  -0.0993916  0.12665  0.0221444  0.00529165  -0.0153915  -0.0223493  0.0224814  0.0104816  -0.0251822  0.0300919  -0.0193738  0.0596165  -0.0465201  -0.00517287 
1704466836.960654000  0  0  11.7817  0.0914516  -0.16837  0.0184  nan  nan  nan  nan  nan  nan  -2.50623  -0.293772  0.994653  0.0399129  -0.0168944  0.0178123  0.0096846  -0.0096846  -0.0028008  0  0  0  0.094867  -0.0948669  0.13466  0.0220355  0.00543332  -0.0154509  -0.0202234  0.0237695  -0.000770126  -0.0256031  0.0326885  -0.0192949  0.0339109  0.0440384  0.0115768 
1704466836.964679000  0  0  11.7279  0.111256  -0.160259  0.014117  nan  nan  nan  nan  nan  nan  -2.50618  -0.293821  0.994641  0.0395385  -0.0155515  0.0178717  0.0101471  -0.0101471  -0.0021079  0  0  0  0.0900923  -0.0900922  0.142472  0.0219786  0.00547833  -0.0154413  -0.0222632  0.0235305  0.00543184  -0.0253555  0.0316084  -0.0187086  -0.00142603  0.038273  0.0600951 
1704466836.969678000  0  0  11.7062  0.074379  -0.131188  0.0183126  nan  nan  nan  nan  nan  nan  -2.50613  -0.293873  0.994632  0.0382632  -0.0162733  0.017864  0.0105851  -0.0105851  -0.0013765  0  0  0  0.0850676  -0.0850674  0.150035  0.0218747  0.00558591  -0.0153934  -0.0217665  0.0223112  0.00829805  -0.0236023  0.0319347  -0.0189406  0.0480573  -0.0133252  0.0080776 
