    ts      x      y      z   roll  pitch    yaw     vx     vy     vz     wx     wy     wz     ax     ay     az    dwx    dwy    dwz
 0.0050000  -2.5000000  -0.3000000   1.0000000   0.0000000   0.0000000   0.0000000  -0.0000002   0.0000002  -0.0000002   0.0000000   0.0000000   0.0000000  -0.0001250   0.0001250  -0.0001250   0.0000000   0.0000000   0.0000000
 0.0100000  -2.5000000  -0.3000000   1.0000000   0.0000000   0.0000000   0.0000000  -0.0000017   0.0000017  -0.0000017   0.0000000   0.0000000   0.0000000  -0.0005000   0.0005000  -0.0005000   0.0000000   0.0000000   0.0000000
 0.0150000  -2.5000000  -0.3000000   1.0000000   0.0000000   0.0000000   0.0000000  -0.0000056   0.0000056  -0.0000056   0.0000000   0.0000000   0.0000000  -0.0011250   0.0011250  -0.0011250   0.0000000   0.0000000   0.0000000
 0.0200000  -2.5000000  -0.3000000   1.0000000   0.0000000   0.0000000   0.0000001  -0.0000133   0.0000133  -0.0000133   0.0000000   0.0000000   0.0000000  -0.0020000   0.0020000  -0.0020000   0.0000000   0.0000000   0.0000000
 0.0250000  -2.5000000  -0.3000000   1.0000000   0.0000000   0.0000000   0.0000002  -0.0000260   0.0000260  -0.0000260   0.0000000   0.0000000   0.0000000  -0.0031250   0.0031250  -0.0031250   0.0000000   0.0000000   0.0000000
 0.0300000  -2.5000000  -0.3000000   1.0000000   0.0000000   0.0000000   0.0000004  -0.0000450   0.0000450  -0.0000450   0.0000000   0.0000000   0.0000000  -0.0045000   0.0045000  -0.0045000   0.0000000   0.0000000   0.0000000
 0.0350000  -2.5000000  -0.2999990   0.9999990   0.0000000   0.0000000   0.0000006  -0.0000715   0.0000715  -0.0000715   0.0000000   0.0000000   0.0000000  -0.0061250   0.0061250  -0.0061250   0.0000000   0.0000000   0.0000000
 0.0400000  -2.5000000  -0.2999990   0.9999990   0.0000000   0.0000000   0.0000008  -0.0001067   0.0001067  -0.0001067   0.0000000   0.0000000   0.0000000  -0.0080000   0.0080000  -0.0080000   0.0000000   0.0000000   0.0000000
 0.0450000  -2.5000000  -0.2999980   0.9999980   0.0000000   0.0000000   0.0000010  -0.0001519   0.0001519  -0.0001519   0.0000000   0.0000000   0.0000000  -0.0101250   0.0101250  -0.0101250   0.0000000   0.0000000   0.0000000
 0.0500000  -2.5000000  -0.2999970   0.9999970   0.0000000   0.0000000   0.0000012  -0.0002083   0.0002083  -0.0002083   0.0000000   0.0000000   0.0000000  -0.0125000   0.0125000  -0.0125000   0.0000000   0.0000000   0.0000000
 0.0550000  -2.5000000  -0.2999960   0.9999960   0.0000000   0.0000000   0.0000014  -0.0002773   0.0002773  -0.0002773   0.0000000   0.0000000   0.0000000  -0.0151250   0.0151250  -0.0151250   0.0000000   0.0000000   0.0000000
 0.0600000  -2.5000100  -0.2999950   0.9999950   0.0000000   0.0000000   0.0000017  -0.0003600   0.0003600  -0.0003600   0.0000000   0.0000000   0.0000000  -0.0180000   0.0180000  -0.0180000   0.0000000   0.0000000   0.0000000
 0.0650000  -2.5000100  -0.2999930   0.9999930   0.0000000   0.0000000   0.0000020  -0.0004577   0.0004577  -0.0004577   0.0000000   0.0000000   0.0000000  -0.0211250   0.0211250  -0.0211250   0.0000000   0.0000000   0.0000000
 0.0700000  -2.5000100  -0.2999900   0.9999900   0.0000000   0.0000000   0.0000024  -0.0005717   0.0005717  -0.0005717   0.0000000   0.0000000   0.0000000  -0.0245000   0.0245000  -0.0245000   0.0000000   0.0000000   0.0000000
 0.0750000  -2.5000100  -0.2999870   0.9999870   0.0000000   0.0000000   0.0000029  -0.0007031   0.0007031  -0.0007031   0.0000000   0.0000000   0.0000000  -0.0281250   0.0281250  -0.0281250   0.0000000   0.0000000   0.0000000
 0.0800000  -2.5000200  -0.2999830   0.9999830   0.0000000   0.0000000   0.0000036  -0.0008533   0.0008533  -0.0008533   0.0000000   0.0000000   0.0000000  -0.0320000   0.0320000  -0.0319997   0.0000000   0.0000000   0.0000000
 0.0850000  -2.5000200  -0.2999780   0.9999780   0.0000000   0.0000000   0.0000046  -0.0010235   0.0010235  -0.0010231   0.0000000   0.0000000   0.0000000  -0.0361250   0.0361250  -0.0358572   0.0000000   0.0000000   0.0000000
 0.0900000  -2.5000300  -0.2999730   0.9999730   0.0000000   0.0000000   0.0000059  -0.0012150   0.0012150  -0.0012115   0.0000000   0.0000000   0.0000000  -0.0405000   0.0405000  -0.0394647   0.0000000   0.0000000   0.0000000
 0.0950000  -2.5000300  -0.2999660   0.9999660   0.0000000   0.0000000   0.0000076  -0.0014290   0.0014290  -0.0014173   0.0000000   0.0000000   0.0000000  -0.0451250   0.0451250  -0.0428223   0.0000000   0.0000000   0.0000000
 0.1000000  -2.5000400  -0.2999580   0.9999580   0.0000000   0.0000000   0.0000098  -0.0016665   0.0016665  -0.0016393   0.0000000   0.0000000   0.0000000  -0.0498868   0.0498868  -0.0459298   0.0000000   0.0000000   0.0000000
 0.1050000  -2.5000500  -0.2999490   0.9999500   0.0000000   0.0000000   0.0000127  -0.0019274   0.0019274  -0.0018762   0.0000000   0.0000000   0.0000000  -0.0544253   0.0544253  -0.0487873   0.0000000   0.0000000   0.0000000
 0.1100000  -2.5000600  -0.2999390   0.9999400   0.0000000   0.0000000   0.0000163  -0.0022104   0.0022104  -0.0021268   0.0000000   0.0000000   0.0000000  -0.0587138   0.0587138  -0.0513948   0.0000000   0.0000000   0.0000000
 0.1150000  -2.5000700  -0.2999270   0.9999280   0.0000000   0.0000000   0.0000208  -0.0025142   0.0025142  -0.0023897   0.0000000   0.0000000   0.0000000  -0.0627524   0.0627524  -0.0537524   0.0000000   0.0000000   0.0000000
 0.1200000  -2.5000900  -0.2999140   0.9999160   0.0000000   0.0000000   0.0000262  -0.0028375   0.0028375  -0.0026639   0.0000000   0.0000000   0.0000000  -0.0665409   0.0665409  -0.0558599   0.0000000   0.0000000   0.0000000
 0.1250000  -2.5001000  -0.2998990   0.9999020   0.0000000   0.0000000   0.0000329  -0.0031791   0.0031791  -0.0029479   0.0000000   0.0000000   0.0000000  -0.0700794   0.0700794  -0.0577174   0.0000000   0.0000000   0.0000000
 0.1300000  -2.5001200  -0.2998820   0.9998860   0.0000000   0.0000000   0.0000408  -0.0035379   0.0035379  -0.0032406   0.0000000   0.0000000   0.0000000  -0.0733680   0.0733680  -0.0593249   0.0000000   0.0000000   0.0000000
 0.1350000  -2.5001400  -0.2998630   0.9998690   0.0000000   0.0000000   0.0000502  -0.0039124   0.0039124  -0.0035407   0.0000000   0.0000000   0.0000000  -0.0764065   0.0764065  -0.0606825   0.0000000   0.0000000   0.0000000
 0.1400000  -2.5001600  -0.2998430   0.9998510   0.0000000   0.0000000   0.0000613  -0.0043015   0.0043015  -0.0038470   0.0000000   0.0000000   0.0000000  -0.0791950   0.0791950  -0.0617900   0.0000000   0.0000000   0.0000000
 0.1450000  -2.5001800  -0.2998200   0.9998310   0.0000000   0.0000000   0.0000741  -0.0047039   0.0047039  -0.0041582   0.0000000   0.0000000   0.0000000  -0.0817335   0.0817335  -0.0626475   0.0000000   0.0000000   0.0000000
 0.1500000  -2.5002000  -0.2997960   0.9998090   0.0000000   0.0000000   0.0000891  -0.0051184   0.0051184  -0.0044731   0.0000000   0.0000000   0.0000000  -0.0840221   0.0840221  -0.0632550   0.0000000   0.0000000   0.0000000
 0.1550000  -2.5002300  -0.2997690   0.9997860   0.0000000   0.0000000   0.0001062  -0.0055437   0.0055437  -0.0047904   0.0000000   0.0000000   0.0000000  -0.0860606   0.0860606  -0.0636126   0.0000000   0.0000000   0.0000000
 0.1600000  -2.5002600  -0.2997400   0.9997610   0.0000000   0.0000000   0.0001259  -0.0059786   0.0059786  -0.0051088   0.0000000   0.0000000   0.0000000  -0.0878491   0.0878491  -0.0637201   0.0000000   0.0000000   0.0000000
 0.1650000  -2.5002900  -0.2997090   0.9997350   0.0000000   0.0000000   0.0001482  -0.0064218   0.0064218  -0.0054271   0.0000000   0.0000000   0.0000000  -0.0893877   0.0893877  -0.0635776   0.0000000   0.0000000   0.0000000
 0.1700000  -2.5003200  -0.2996760   0.9997070   0.0000000   0.0000000   0.0001734  -0.0068721   0.0068721  -0.0057441   0.0000000   0.0000000   0.0000000  -0.0906762   0.0906762  -0.0631851   0.0000000   0.0000000   0.0000000
 0.1750000  -2.5003600  -0.2996410   0.9996780   0.0000000   0.0000000   0.0002018  -0.0073282   0.0073282  -0.0060586   0.0000000   0.0000000   0.0000000  -0.0917147   0.0917147  -0.0625427   0.0000000   0.0000000   0.0000000
 0.1800000  -2.5004000  -0.2996030   0.9996470   0.0000000   0.0000000   0.0002336  -0.0077888   0.0077888  -0.0063692   0.0000000   0.0000000   0.0000000  -0.0925032   0.0925032  -0.0616502   0.0000000   0.0000000   0.0000000
 0.1850000  -2.5004400  -0.2995630   0.9996140   0.0000000   0.0000000   0.0002690  -0.0082528   0.0082528  -0.0066747   0.0000000   0.0000000   0.0000000  -0.0930418   0.0930418  -0.0605077   0.0000000   0.0000000   0.0000000
 0.1900000  -2.5004800  -0.2995200   0.9995800   0.0000000   0.0000000   0.0003083  -0.0087188   0.0087188  -0.0069738   0.0000000   0.0000000   0.0000000  -0.0933303   0.0933303  -0.0591152   0.0000000   0.0000000   0.0000000
 0.1950000  -2.5005200  -0.2994760   0.9995440   0.0000000   0.0000000   0.0003517  -0.0091857   0.0091857  -0.0072654   0.0000000   0.0000000   0.0000000  -0.0933688   0.0933688  -0.0574728   0.0000000   0.0000000   0.0000000
 0.2000000  -2.5005700  -0.2994280   0.9995070   0.0000000   0.0000000   0.0003993  -0.0096521   0.0096521  -0.0075481   0.0000000   0.0000000   0.0000000  -0.0931574   0.0931574  -0.0555803   0.0000000   0.0000000   0.0000000
 0.2050000  -2.5006200  -0.2993790   0.9994690   0.0000000   0.0000000   0.0004515  -0.0101168   0.0101168  -0.0078208   0.0000000   0.0000000   0.0000000  -0.0926959   0.0926959  -0.0534378   0.0000000   0.0000000   0.0000000
 0.2100000  -2.5006700  -0.2993270   0.9994290   0.0000000   0.0000000   0.0005083  -0.0105786   0.0105786  -0.0080821   0.0000000   0.0000000   0.0000000  -0.0919844   0.0919844  -0.0510453   0.0000000   0.0000000   0.0000000
 0.2150000  -2.5007300  -0.2992730   0.9993880   0.0000000   0.0000000   0.0005699  -0.0110362   0.0110362  -0.0083308   0.0000000   0.0000000   0.0000000  -0.0910229   0.0910229  -0.0484029   0.0000000   0.0000000   0.0000000
 0.2200000  -2.5007800  -0.2992170   0.9993460   0.0000000   0.0000000   0.0006365  -0.0114884   0.0114884  -0.0085657   0.0000000   0.0000000   0.0000000  -0.0898115   0.0898115  -0.0455104   0.0000000   0.0000000   0.0000000
 0.2250000  -2.5008400  -0.2991580   0.9993020   0.0000000   0.0000000   0.0007083  -0.0119339   0.0119339  -0.0087855   0.0000000   0.0000000   0.0000000  -0.0883500   0.0883500  -0.0423679   0.0000000   0.0000000   0.0000000
 0.2300000  -2.5009000  -0.2990980   0.9992580   0.0000000   0.0000000   0.0007853  -0.0123715   0.0123715  -0.0089890   0.0000000   0.0000000   0.0000000  -0.0866385   0.0866385  -0.0389754   0.0000000   0.0000000   0.0000000
 0.2350000  -2.5009700  -0.2990350   0.9992120   0.0000000   0.0000000   0.0008678  -0.0127999   0.0127999  -0.0091748   0.0000000   0.0000000   0.0000000  -0.0846771   0.0846771  -0.0353330   0.0000000   0.0000000   0.0000000
 0.2400000  -2.5010300  -0.2989700   0.9991660   0.0000000   0.0000000   0.0009559  -0.0132179   0.0132179  -0.0093419   0.0000000   0.0000000   0.0000000  -0.0824656   0.0824656  -0.0314432   0.0000000   0.0000000   0.0000000
 0.2450000  -2.5011000  -0.2989030   0.9991190   0.0000000   0.0000000   0.0010496  -0.0136242   0.0136242  -0.0094894   0.0000000   0.0000000   0.0000000  -0.0800041   0.0800041  -0.0276032   0.0000000   0.0000000   0.0000000
 0.2500000  -2.5011700  -0.2988330   0.9990710   0.0000000   0.0000000   0.0011490  -0.0140175   0.0140175  -0.0096183   0.0000000   0.0000000   0.0000000  -0.0772927   0.0772927  -0.0240131   0.0000000   0.0000000   0.0000000
 0.2550000  -2.5012400  -0.2987620   0.9990230   0.0000000   0.0000000   0.0012543  -0.0143967   0.0143967  -0.0097299   0.0000000   0.0000000   0.0000000  -0.0743312   0.0743312  -0.0206731   0.0000000   0.0000000   0.0000000
 0.2600000  -2.5013100  -0.2986890   0.9989740   0.0000000   0.0000000   0.0013656  -0.0147604   0.0147604  -0.0098255   0.0000000   0.0000000   0.0000000  -0.0711197   0.0711197  -0.0175830   0.0000000   0.0000000   0.0000000
 0.2650000  -2.5013900  -0.2986150   0.9989250   0.0000000   0.0000000   0.0014829  -0.0151074   0.0151074  -0.0099062   0.0000000   0.0000000   0.0000000  -0.0676582   0.0676582  -0.0147430   0.0000000   0.0000000   0.0000000
 0.2700000  -2.5014600  -0.2985380   0.9988750   0.0000000   0.0000000   0.0016062  -0.0154366   0.0154366  -0.0099733   0.0000000   0.0000000   0.0000000  -0.0639468   0.0639468  -0.0121529   0.0000000   0.0000000   0.0000000
 0.2750000  -2.5015400  -0.2984600   0.9988250   0.0000000   0.0000000   0.0017357  -0.0157465   0.0157465  -0.0100281   0.0000000   0.0000000   0.0000000  -0.0599853   0.0599853  -0.0098129   0.0000000   0.0000000   0.0000000
 0.2800000  -2.5016200  -0.2983810   0.9987750   0.0000000   0.0000000   0.0018714  -0.0160360   0.0160360  -0.0100719   0.0000000   0.0000000   0.0000000  -0.0557738   0.0557738  -0.0077228   0.0000000   0.0000000   0.0000000
 0.2850000  -2.5017000  -0.2983000   0.9987240   0.0000000   0.0000000   0.0020132  -0.0163038   0.0163038  -0.0101058   0.0000000   0.0000000   0.0000000  -0.0513124   0.0513124  -0.0058828   0.0000000   0.0000000   0.0000000
 0.2900000  -2.5017800  -0.2982180   0.9986740   0.0000000   0.0000000   0.0021613  -0.0165487   0.0165487  -0.0101311   0.0000000   0.0000000   0.0000000  -0.0466010   0.0466010  -0.0042927   0.0000000   0.0000000   0.0000000
 0.2950000  -2.5018700  -0.2981350   0.9986230   0.0000000   0.0000000   0.0023157  -0.0167698   0.0167698  -0.0101491   0.0000000   0.0000000   0.0000000  -0.0418989   0.0418989  -0.0029527   0.0000000   0.0000000   0.0000000
 0.3000000  -2.5019500  -0.2980500   0.9985720   0.0000000   0.0000000   0.0024763  -0.0169681   0.0169681  -0.0101611   0.0000000   0.0000000   0.0000000  -0.0374469   0.0374469  -0.0018626   0.0000000   0.0000000   0.0000000
 0.3050000  -2.5020300  -0.2979650   0.9985210   0.0000000   0.0000000   0.0026431  -0.0171447   0.0171447  -0.0101682   0.0000000   0.0000000   0.0000000  -0.0332448   0.0332448  -0.0010226   0.0000000   0.0000000   0.0000000
 0.3100000  -2.5021200  -0.2978790   0.9984700   0.0000000   0.0000000   0.0028162  -0.0173010   0.0173010  -0.0101717   0.0000000   0.0000000   0.0000000  -0.0292927   0.0292927  -0.0004325   0.0000000   0.0000000   0.0000000
 0.3150000  -2.5022100  -0.2977920   0.9984200   0.0000000   0.0000000   0.0029956  -0.0174381   0.0174381  -0.0101729   0.0000000   0.0000000   0.0000000  -0.0255907   0.0255907  -0.0000925   0.0000000   0.0000000   0.0000000
 0.3200000  -2.5023000  -0.2977050   0.9983690   0.0000000   0.0000000   0.0031812  -0.0175573   0.0175573  -0.0101730   0.0000000   0.0000000   0.0000000  -0.0221386   0.0221386   0.0000000   0.0000000   0.0000000   0.0000000
 0.3250000  -2.5023800  -0.2976170   0.9983180   0.0000000   0.0000000   0.0033730  -0.0176599   0.0176599  -0.0101730   0.0000000   0.0000000   0.0000000  -0.0189366   0.0189366   0.0000000   0.0000000   0.0000000   0.0000000
 0.3300000  -2.5024700  -0.2975280   0.9982670   0.0000000   0.0000000   0.0035711  -0.0177471   0.0177471  -0.0101730   0.0000000   0.0000000   0.0000000  -0.0159845   0.0159845   0.0000000   0.0000000   0.0000000   0.0000000
 0.3350000  -2.5025600  -0.2974390   0.9982160   0.0000000   0.0000000   0.0037755  -0.0178201   0.0178201  -0.0101730   0.0000000   0.0000000   0.0000000  -0.0132825   0.0132825   0.0000000   0.0000000   0.0000000   0.0000000
 0.3400000  -2.5026500  -0.2973500   0.9981650   0.0000000   0.0000000   0.0039861  -0.0178803   0.0178803  -0.0101730   0.0000000   0.0000000   0.0000000  -0.0108304   0.0108304   0.0000000   0.0000000   0.0000000   0.0000000
 0.3450000  -2.5027400  -0.2972600   0.9981140   0.0000000   0.0000000   0.0042029  -0.0179289   0.0179289  -0.0101730   0.0000000   0.0000000   0.0000000  -0.0086283   0.0086283   0.0000000   0.0000000   0.0000000   0.0000000
 0.3500000  -2.5028300  -0.2971710   0.9980640   0.0000000   0.0000000   0.0044260  -0.0179670   0.0179670  -0.0101730   0.0000000   0.0000000   0.0000000  -0.0066763   0.0066763   0.0000000   0.0000000   0.0000000   0.0000000
 0.3550000  -2.5029200  -0.2970810   0.9980130   0.0000000   0.0000000   0.0046554  -0.0179960   0.0179960  -0.0101730   0.0000000   0.0000000   0.0000000  -0.0049742   0.0049742   0.0000000   0.0000000   0.0000000   0.0000000
 0.3600000  -2.5030100  -0.2969910   0.9979620   0.0000000   0.0000000   0.0048910  -0.0180172   0.0180172  -0.0101730   0.0000000   0.0000000   0.0000000  -0.0035222   0.0035222   0.0000000   0.0000000   0.0000000   0.0000000
 0.3650000  -2.5031000  -0.2969000   0.9979110   0.0000000   0.0000000   0.0051328  -0.0180317   0.0180317  -0.0101730   0.0000000   0.0000000   0.0000000  -0.0023201   0.0023201   0.0000000   0.0000000   0.0000000   0.0000000
 0.3700000  -2.5031900  -0.2968100   0.9978600   0.0000000   0.0000000   0.0053809  -0.0180408   0.0180408  -0.0101730   0.0000000   0.0000000   0.0000000  -0.0013680   0.0013680   0.0000000   0.0000000   0.0000000   0.0000000
 0.3750000  -2.5032800  -0.2967200   0.9978090   0.0000000   0.0000000   0.0056353  -0.0180458   0.0180458  -0.0101730   0.0000000   0.0000000   0.0000000  -0.0006660   0.0006660   0.0000000   0.0000000   0.0000000   0.0000000
 0.3800000  -2.5033700  -0.2966300   0.9977580   0.0000000   0.0000000   0.0058959  -0.0180479   0.0180479  -0.0101730   0.0000000   0.0000000   0.0000000  -0.0002139   0.0002139   0.0000000   0.0000000   0.0000000   0.0000000
 0.3850000  -2.5034600  -0.2965400   0.9977080   0.0000000   0.0000000   0.0061627  -0.0180483   0.0180483  -0.0101730   0.0000000   0.0000000   0.0000000  -0.0000119   0.0000119   0.0000000   0.0000000   0.0000000   0.0000000
 0.3900000  -2.5035500  -0.2964490   0.9976570   0.0000000   0.0000000   0.0064358  -0.0180483   0.0180483  -0.0101730   0.0000000   0.0000000   0.0000000   0.0000460  -0.0000460   0.0000000   0.0000000   0.0000000   0.0000000
 0.3950000  -2.5036400  -0.2963590   0.9976060   0.0000000   0.0000000   0.0067151  -0.0180475   0.0180475  -0.0101730   0.0000000   0.0000000   0.0000000   0.0003226  -0.0003226   0.0000000   0.0000000   0.0000000   0.0000000
 0.4000000  -2.5037300  -0.2962690   0.9975550   0.0000000   0.0000000   0.0070008  -0.0180447   0.0180446  -0.0101730   0.0000000   0.0000000   0.0000000   0.0008491  -0.0008492   0.0000000   0.0000000   0.0000000   0.0000000
 0.4050000  -2.5038200  -0.2961790   0.9975040   0.0000000   0.0000000   0.0072926  -0.0180386   0.0180386  -0.0101730   0.0000000   0.0000000   0.0000000   0.0016257  -0.0016258   0.0000000   0.0000000   0.0000000   0.0000000
 0.4100000  -2.5039100  -0.2960890   0.9974530   0.0000000   0.0000000   0.0075907  -0.0180280   0.0180280  -0.0101730   0.0000000   0.0000000   0.0000000   0.0026523  -0.0026524   0.0000000   0.0000000   0.0000000   0.0000000
 0.4150000  -2.5040000  -0.2959980   0.9974020   0.0000000   0.0000000   0.0078950  -0.0180116   0.0180116  -0.0101730   0.0000000   0.0000000   0.0000000   0.0039289  -0.0039290   0.0000000   0.0000000   0.0000000   0.0000000
 0.4200000  -2.5040900  -0.2959080   0.9973510   0.0000000   0.0000000   0.0082056  -0.0179883   0.0179883  -0.0101730   0.0000000   0.0000000   0.0000000   0.0054555  -0.0054556   0.0000000   0.0000000   0.0000000   0.0000000
 0.4250000  -2.5041800  -0.2958190   0.9973010   0.0000000   0.0000000   0.0085225  -0.0179567   0.0179567  -0.0101730   0.0000000   0.0000000   0.0000000   0.0072321  -0.0072322   0.0000000   0.0000000   0.0000000   0.0000000
 0.4300000  -2.5042700  -0.2957290   0.9972500   0.0000000   0.0000000   0.0088456  -0.0179155   0.0179155  -0.0101730   0.0000000   0.0000000   0.0000000   0.0092587  -0.0092588   0.0000000   0.0000000   0.0000000   0.0000000
 0.4350000  -2.5043600  -0.2956390   0.9971990   0.0000000   0.0000000   0.0091749  -0.0178637   0.0178636  -0.0101730   0.0000000   0.0000000   0.0000000   0.0115353  -0.0115354   0.0000000   0.0000000   0.0000000   0.0000000
 0.4400000  -2.5044500  -0.2955500   0.9971480   0.0000000   0.0000000   0.0095105  -0.0177998   0.0177998  -0.0101730   0.0000000   0.0000000   0.0000000   0.0140619  -0.0140620   0.0000000   0.0000000   0.0000000   0.0000000
 0.4450000  -2.5045400  -0.2954610   0.9970970   0.0000000   0.0000000   0.0098524  -0.0177226   0.0177226  -0.0101730   0.0000000   0.0000000   0.0000000   0.0168385  -0.0168386   0.0000000   0.0000000   0.0000000   0.0000000
 0.4500000  -2.5046300  -0.2953730   0.9970460   0.0000000   0.0000000   0.0102005  -0.0176310   0.0176310  -0.0101730   0.0000000   0.0000000   0.0000000   0.0198651  -0.0198652   0.0000000   0.0000000   0.0000000   0.0000000
 0.4550000  -2.5047100  -0.2952850   0.9969950   0.0000000   0.0000000   0.0105548  -0.0175235   0.0175235  -0.0101730   0.0000000   0.0000000   0.0000000   0.0231417  -0.0231418   0.0000000   0.0000000   0.0000000   0.0000000
 0.4600000  -2.5048000  -0.2951980   0.9969450   0.0000000   0.0000000   0.0109154  -0.0173991   0.0173991  -0.0101730   0.0000000   0.0000000   0.0000000   0.0266682  -0.0266684   0.0000000   0.0000000   0.0000000   0.0000000
 0.4650000  -2.5048900  -0.2951110   0.9968940   0.0000000   0.0000000   0.0112823  -0.0172564   0.0172564  -0.0101730   0.0000000   0.0000000   0.0000000   0.0304448  -0.0304450   0.0000000   0.0000000   0.0000000   0.0000000
 0.4700000  -2.5049700  -0.2950250   0.9968430   0.0000000   0.0000000   0.0116554  -0.0170943   0.0170943  -0.0101730   0.0000000   0.0000000   0.0000000   0.0344714  -0.0344716   0.0000000   0.0000000   0.0000000   0.0000000
 0.4750000  -2.5050600  -0.2949400   0.9967920   0.0000000   0.0000000   0.0120347  -0.0169113   0.0169113  -0.0101730   0.0000000   0.0000000   0.0000000   0.0387480  -0.0387482   0.0000000   0.0000000   0.0000000   0.0000000
 0.4800000  -2.5051400  -0.2948560   0.9967410   0.0000000   0.0000000   0.0124203  -0.0167064   0.0167064  -0.0101730   0.0000000   0.0000000   0.0000000   0.0432746  -0.0432748   0.0000000   0.0000000   0.0000000   0.0000000
 0.4850000  -2.5052300  -0.2947730   0.9966900   0.0000000   0.0000000   0.0128122  -0.0164782   0.0164781  -0.0101730   0.0000000   0.0000000   0.0000000   0.0480512  -0.0480514   0.0000000   0.0000000   0.0000000   0.0000000
 0.4900000  -2.5053100  -0.2946910   0.9966390   0.0000000   0.0000000   0.0132103  -0.0162254   0.0162254  -0.0101730   0.0000000   0.0000000   0.0000000   0.0530778  -0.0530780   0.0000000   0.0000000   0.0000000   0.0000000
 0.4950000  -2.5053900  -0.2946110   0.9965880   0.0000000   0.0000000   0.0136146  -0.0159470   0.0159469  -0.0101730   0.0000000   0.0000000   0.0000000   0.0583544  -0.0583546   0.0000000   0.0000000   0.0000000   0.0000000
 0.5000000  -2.5054700  -0.2945320   0.9965380   0.0000000   0.0000000   0.0140252  -0.0156415   0.0156415  -0.0101730   0.0000000   0.0000000   0.0000000   0.0638810  -0.0638812   0.0000000   0.0000000   0.0000000   0.0000000
 0.5050000  -2.5055500  -0.2944550   0.9964870   0.0000000   0.0000000   0.0144421  -0.0153077   0.0153077  -0.0101730   0.0000000   0.0000000   0.0000000   0.0696549  -0.0696552   0.0000000   0.0000000   0.0000000   0.0000000
 0.5100000  -2.5056200  -0.2943790   0.9964360   0.0000000   0.0000000   0.0148652  -0.0149450   0.0149450  -0.0101730   0.0000000   0.0000000   0.0000000   0.0753802  -0.0753805   0.0000000   0.0000000   0.0000000   0.0000000
 0.5150000  -2.5056900  -0.2943050   0.9963850   0.0000000   0.0000000   0.0152945  -0.0145543   0.0145543  -0.0101730   0.0000000   0.0000000   0.0000000   0.0808555  -0.0808558   0.0000000   0.0000000   0.0000000   0.0000000
 0.5200000  -2.5057700  -0.2942340   0.9963340   0.0000000   0.0000000   0.0157301  -0.0141369   0.0141369  -0.0101730   0.0000000   0.0000000   0.0000000   0.0860808  -0.0860810   0.0000000   0.0000000   0.0000000   0.0000000
 0.5250000  -2.5058400  -0.2941640   0.9962830   0.0000000   0.0000000   0.0161719  -0.0136940   0.0136939  -0.0101730   0.0000000   0.0000000   0.0000000   0.0910561  -0.0910563   0.0000000   0.0000000   0.0000000   0.0000000
 0.5300000  -2.5059000  -0.2940970   0.9962320   0.0000000   0.0000000   0.0166200  -0.0132268   0.0132267  -0.0101730   0.0000000   0.0000000   0.0000000   0.0957814  -0.0957816   0.0000000   0.0000000   0.0000000   0.0000000
 0.5350000  -2.5059700  -0.2940320   0.9961820   0.0000000   0.0000000   0.0170744  -0.0127366   0.0127365  -0.0101730   0.0000000   0.0000000   0.0000000   0.1002570  -0.1002570   0.0000000   0.0000000   0.0000000   0.0000000
 0.5400000  -2.5060300  -0.2939690   0.9961310   0.0000000   0.0000000   0.0175350  -0.0122246   0.0122246  -0.0101730   0.0000000   0.0000000   0.0000000   0.1044820  -0.1044820   0.0000000   0.0000000   0.0000000   0.0000000
 0.5450000  -2.5060900  -0.2939100   0.9960800   0.0000000   0.0000000   0.0180018  -0.0116922   0.0116921  -0.0101730   0.0000000   0.0000000   0.0000000   0.1084570  -0.1084570   0.0000000   0.0000000   0.0000000   0.0000000
 0.5500000  -2.5061500  -0.2938520   0.9960290   0.0000000   0.0000000   0.0184749  -0.0111405   0.0111404  -0.0101730   0.0000000   0.0000000   0.0000000   0.1121830  -0.1121830   0.0000000   0.0000000   0.0000000   0.0000000
 0.5550000  -2.5062000  -0.2937980   0.9959780   0.0000000   0.0000000   0.0184869  -0.0105707   0.0105707  -0.0101729   0.0000000   0.0000000   0.0000000   0.1156580  -0.1156580   0.0000863   0.0000000   0.0000000   0.0000000
 0.5600000  -2.5062500  -0.2937470   0.9959270   0.0000000   0.0000000   0.0184869  -0.0099843   0.0099843  -0.0101718   0.0000000   0.0000000   0.0000000   0.1188830  -0.1188830   0.0004190   0.0000000   0.0000000   0.0000000
 0.5650000  -2.5063000  -0.2936980   0.9958760   0.0000000   0.0000000   0.0184869  -0.0093823   0.0093823  -0.0101683   0.0000000   0.0000000   0.0000000   0.1218580  -0.1218590   0.0010017   0.0000000   0.0000000   0.0000000
 0.5700000  -2.5063500  -0.2936530   0.9958260   0.0000000   0.0000000   0.0184869  -0.0087661   0.0087661  -0.0101613   0.0000000   0.0000000   0.0000000   0.1245840  -0.1245840   0.0018344   0.0000000   0.0000000   0.0000000
 0.5750000  -2.5063900  -0.2936110   0.9957750   0.0000000   0.0000000   0.0184869  -0.0081369   0.0081369  -0.0101496   0.0000000   0.0000000   0.0000000   0.1270590  -0.1270590   0.0029171   0.0000000   0.0000000   0.0000000
 0.5800000  -2.5064300  -0.2935720   0.9957240   0.0000000   0.0000000   0.0184869  -0.0074960   0.0074959  -0.0101317   0.0000000   0.0000000   0.0000000   0.1292840  -0.1292840   0.0042498   0.0000000   0.0000000   0.0000000
 0.5850000  -2.5064600  -0.2935360   0.9956730   0.0000000   0.0000000   0.0184869  -0.0068445   0.0068445  -0.0101066   0.0000000   0.0000000   0.0000000   0.1312600  -0.1312600   0.0058325   0.0000000   0.0000000   0.0000000
 0.5900000  -2.5065000  -0.2935030   0.9956230   0.0000000   0.0000000   0.0184869  -0.0061838   0.0061837  -0.0100730   0.0000000   0.0000000   0.0000000   0.1329850  -0.1329850   0.0076652   0.0000000   0.0000000   0.0000000
 0.5950000  -2.5065300  -0.2934740   0.9955730   0.0000000   0.0000000   0.0184869  -0.0055151   0.0055150  -0.0100296   0.0000000   0.0000000   0.0000000   0.1344600  -0.1344600   0.0097479   0.0000000   0.0000000   0.0000000
 0.6000000  -2.5065500  -0.2934480   0.9955230   0.0000000   0.0000000   0.0184869  -0.0048396   0.0048396  -0.0099751   0.0000000   0.0000000   0.0000000   0.1356850  -0.1356850   0.0120806   0.0000000   0.0000000   0.0000000
 0.6050000  -2.5065700  -0.2934260   0.9954730   0.0000000   0.0000000   0.0184869  -0.0041586   0.0041586  -0.0099083   0.0000000   0.0000000   0.0000000   0.1366610  -0.1366610   0.0146634   0.0000000   0.0000000   0.0000000
 0.6100000  -2.5065900  -0.2934060   0.9954240   0.0000000   0.0000000   0.0184869  -0.0034734   0.0034734  -0.0098280   0.0000000   0.0000000   0.0000000   0.1373860  -0.1373860   0.0174961   0.0000000   0.0000000   0.0000000
 0.6150000  -2.5066100  -0.2933910   0.9953750   0.0000000   0.0000000   0.0184869  -0.0027852   0.0027851  -0.0097330   0.0000000   0.0000000   0.0000000   0.1378610  -0.1378610   0.0205788   0.0000000   0.0000000   0.0000000
 0.6200000  -2.5066200  -0.2933790   0.9953260   0.0000000   0.0000000   0.0184869  -0.0020952   0.0020952  -0.0096218   0.0000000   0.0000000   0.0000000   0.1380870  -0.1380870   0.0239115   0.0000000   0.0000000   0.0000000
 0.6250000  -2.5066300  -0.2933700   0.9952790   0.0000000   0.0000000   0.0184869  -0.0014047   0.0014047  -0.0094934   0.0000000   0.0000000   0.0000000   0.1380620  -0.1380620   0.0274942   0.0000000   0.0000000   0.0000000
 0.6300000  -2.5066400  -0.2933650   0.9952310   0.0000000   0.0000000   0.0184869  -0.0007150   0.0007150  -0.0093465   0.0000000   0.0000000   0.0000000   0.1377870  -0.1377870   0.0313269   0.0000000   0.0000000   0.0000000
 0.6350000  -2.5066400  -0.2933630   0.9951850   0.0000000   0.0000000   0.0184869  -0.0000273   0.0000272  -0.0091798   0.0000000   0.0000000   0.0000000   0.1372620  -0.1372620   0.0354096   0.0000000   0.0000000   0.0000000
 0.6400000  -2.5066400  -0.2933640   0.9951400   0.0000000   0.0000000   0.0184869   0.0006572  -0.0006572  -0.0089920   0.0000000   0.0000000   0.0000000   0.1364880  -0.1364880   0.0397423   0.0000000   0.0000000   0.0000000
 0.6450000  -2.5066300  -0.2933690   0.9950950   0.0000000   0.0000000   0.0184869   0.0013372  -0.0013372  -0.0087819   0.0000000   0.0000000   0.0000000   0.1354630  -0.1354630   0.0443250   0.0000000   0.0000000   0.0000000
 0.6500000  -2.5066200  -0.2933780   0.9950520   0.0000000   0.0000000   0.0184869   0.0020114  -0.0020115  -0.0085483   0.0000000   0.0000000   0.0000000   0.1341880  -0.1341880   0.0491577   0.0000000   0.0000000   0.0000000
 0.6550000  -2.5066100  -0.2933890   0.9950100   0.0000000   0.0000000   0.0184869   0.0026786  -0.0026787  -0.0082899   0.0000000   0.0000000   0.0000000   0.1326640  -0.1326640   0.0542404   0.0000000   0.0000000   0.0000000
 0.6600000  -2.5066000  -0.2934040   0.9949690   0.0000000   0.0000000   0.0184869   0.0033376  -0.0033377  -0.0080055   0.0000000   0.0000000   0.0000000   0.1308890  -0.1308890   0.0595731   0.0000000   0.0000000   0.0000000
 0.6650000  -2.5065800  -0.2934230   0.9949300   0.0000000   0.0000000   0.0184869   0.0039871  -0.0039872  -0.0076938   0.0000000   0.0000000   0.0000000   0.1288640  -0.1288640   0.0651558   0.0000000   0.0000000   0.0000000
 0.6700000  -2.5065600  -0.2934440   0.9948920   0.0000000   0.0000000   0.0184869   0.0046259  -0.0046259  -0.0073535   0.0000000   0.0000000   0.0000000   0.1265890  -0.1265890   0.0709885   0.0000000   0.0000000   0.0000000
 0.6750000  -2.5065300  -0.2934690   0.9948560   0.0000000   0.0000000   0.0184869   0.0052526  -0.0052526  -0.0069835   0.0000000   0.0000000   0.0000000   0.1240650  -0.1240650   0.0770712   0.0000000   0.0000000   0.0000000
 0.6800000  -2.5065000  -0.2934970   0.9948220   0.0000000   0.0000000   0.0184869   0.0058661  -0.0058661  -0.0065824   0.0000000   0.0000000   0.0000000   0.1212900  -0.1212900   0.0834040   0.0000000   0.0000000   0.0000000
 0.6850000  -2.5064700  -0.2935280   0.9947910   0.0000000   0.0000000   0.0184869   0.0064651  -0.0064651  -0.0061490   0.0000000   0.0000000   0.0000000   0.1182650  -0.1182650   0.0899867   0.0000000   0.0000000   0.0000000
 0.6900000  -2.5064400  -0.2935610   0.9947610   0.0000000   0.0000000   0.0184869   0.0070483  -0.0070484  -0.0056821   0.0000000   0.0000000   0.0000000   0.1149910  -0.1149900   0.0968194   0.0000000   0.0000000   0.0000000
 0.6950000  -2.5064000  -0.2935980   0.9947340   0.0000000   0.0000000   0.0184869   0.0076146  -0.0076146  -0.0051804   0.0000000   0.0000000   0.0000000   0.1114660  -0.1114660   0.1039020   0.0000000   0.0000000   0.0000000
 0.7000000  -2.5063600  -0.2936370   0.9947090   0.0000000   0.0000000   0.0184869   0.0081626  -0.0081626  -0.0046427   0.0000000   0.0000000   0.0000000   0.1076910  -0.1076910   0.1112350   0.0000000   0.0000000   0.0000000
 0.7050000  -2.5063200  -0.2936800   0.9946870   0.0000000   0.0000000   0.0184869   0.0086911  -0.0086911  -0.0040676   0.0000000   0.0000000   0.0000000   0.1036660  -0.1036660   0.1188170   0.0000000   0.0000000   0.0000000
 0.7100000  -2.5062800  -0.2937240   0.9946690   0.0000000   0.0000000   0.0184869   0.0091988  -0.0091988  -0.0034541   0.0000000   0.0000000   0.0000000   0.0993917  -0.0993916   0.1266500   0.0000000   0.0000000   0.0000000
 0.7150000  -2.5062300  -0.2937720   0.9946530   0.0000000   0.0000000   0.0184869   0.0096846  -0.0096846  -0.0028008   0.0000000   0.0000000   0.0000000   0.0948670  -0.0948669   0.1346600   0.0000000   0.0000000   0.0000000
 0.7200000  -2.5061800  -0.2938210   0.9946410   0.0000000   0.0000000   0.0184869   0.0101471  -0.0101471  -0.0021079   0.0000000   0.0000000   0.0000000   0.0900923  -0.0900922   0.1424720   0.0000000   0.0000000   0.0000000
 0.7250000  -2.5061300  -0.2938730   0.9946320   0.0000000   0.0000000   0.0184869   0.0105851  -0.0105851  -0.0013765   0.0000000   0.0000000   0.0000000   0.0850676  -0.0850674   0.1500350   0.0000000   0.0000000   0.0000000
 0.7300000  -2.5060700  -0.2939270   0.9946270   0.0000000   0.0000000   0.0184869   0.0109973  -0.0109974  -0.0006079   0.0000000   0.0000000   0.0000000   0.0797929  -0.0797927   0.1573470   0.0000000   0.0000000   0.0000000
 0.7350000  -2.5060200  -0.2939830   0.9946260   0.0000000   0.0000000   0.0184869   0.0113826  -0.0113826   0.0001966   0.0000000   0.0000000   0.0000000   0.0742682  -0.0742680   0.1644090   0.0000000   0.0000000   0.0000000
 0.7400000  -2.5059600  -0.2940410   0.9946290   0.0000000   0.0000000   0.0184869   0.0117396  -0.0117396   0.0010357   0.0000000   0.0000000   0.0000000   0.0684935  -0.0684933   0.1712220   0.0000000   0.0000000   0.0000000
 0.7450000  -2.5059000  -0.2941000   0.9946360   0.0000000   0.0000000   0.0184869   0.0120671  -0.0120671   0.0019084   0.0000000   0.0000000   0.0000000   0.0624688  -0.0624686   0.1777840   0.0000000   0.0000000   0.0000000
 0.7500000  -2.5058400  -0.2941610   0.9946480   0.0000000   0.0000000   0.0184869   0.0123639  -0.0123639   0.0028132   0.0000000   0.0000000   0.0000000   0.0561940  -0.0561938   0.1840960   0.0000000   0.0000000   0.0000000
 0.7550000  -2.5057800  -0.2942240   0.9946650   0.0000000   0.0000000   0.0184869   0.0126286  -0.0126287   0.0037489   0.0000000   0.0000000   0.0000000   0.0496693  -0.0496691   0.1901590   0.0000000   0.0000000   0.0000000
 0.7600000  -2.5057100  -0.2942880   0.9946860   0.0000000   0.0000000   0.0184869   0.0128601  -0.0128602   0.0047143   0.0000000   0.0000000   0.0000000   0.0428946  -0.0428944   0.1959710   0.0000000   0.0000000   0.0000000
 0.7650000  -2.5056500  -0.2943520   0.9947120   0.0000000   0.0000000   0.0184869   0.0130572  -0.0130572   0.0057082   0.0000000   0.0000000   0.0000000   0.0358699  -0.0358697   0.2015330   0.0000000   0.0000000   0.0000000
 0.7700000  -2.5055800  -0.2944180   0.9947430   0.0000000   0.0000000   0.0184869   0.0132184  -0.0132184   0.0067293   0.0000000   0.0000000   0.0000000   0.0285952  -0.0285949   0.2068460   0.0000000   0.0000000   0.0000000
 0.7750000  -2.5055200  -0.2944850   0.9947790   0.0000000   0.0000000   0.0184869   0.0133427  -0.0133427   0.0077763   0.0000000   0.0000000   0.0000000   0.0210705  -0.0210702   0.2119080   0.0000000   0.0000000   0.0000000
 0.7800000  -2.5054500  -0.2945510   0.9948210   0.0000000   0.0000000   0.0184869   0.0134287  -0.0134287   0.0088479   0.0000000   0.0000000   0.0000000   0.0132958  -0.0132955   0.2167200   0.0000000   0.0000000   0.0000000
 0.7850000  -2.5053800  -0.2946190   0.9948680   0.0000000   0.0000000   0.0184869   0.0134752  -0.0134753   0.0099430   0.0000000   0.0000000   0.0000000   0.0052711  -0.0052708   0.2212830   0.0000000   0.0000000   0.0000000
 0.7900000  -2.5053100  -0.2946860   0.9949200   0.0000000   0.0000000   0.0184869   0.0134810  -0.0134810   0.0110603   0.0000000   0.0000000   0.0000000  -0.0030037   0.0030039   0.2255950   0.0000000   0.0000000   0.0000000
 0.7950000  -2.5052500  -0.2947540   0.9949780   0.0000000   0.0000000   0.0184869   0.0134448  -0.0134448   0.0121986   0.0000000   0.0000000   0.0000000  -0.0115284   0.0115287   0.2296570   0.0000000   0.0000000   0.0000000
 0.8000000  -2.5051800  -0.2948210   0.9950420   0.0000000   0.0000000   0.0184869   0.0133653  -0.0133653   0.0133565   0.0000000   0.0000000   0.0000000  -0.0203031   0.0203034   0.2334700   0.0000000   0.0000000   0.0000000
 0.8050000  -2.5051100  -0.2948870   0.9951120   0.0000000   0.0000000   0.0184869   0.0132413  -0.0132413   0.0145328   0.0000000   0.0000000   0.0000000  -0.0293278   0.0293281   0.2370320   0.0000000   0.0000000   0.0000000
 0.8100000  -2.5050500  -0.2949530   0.9951870   0.0000000   0.0000000   0.0184869   0.0130716  -0.0130716   0.0157264   0.0000000   0.0000000   0.0000000  -0.0386025   0.0386028   0.2403440   0.0000000   0.0000000   0.0000000
 0.8150000  -2.5049800  -0.2950180   0.9952690   0.0000000   0.0000000   0.0184869   0.0128549  -0.0128549   0.0169359   0.0000000   0.0000000   0.0000000  -0.0481272   0.0481276   0.2434070   0.0000000   0.0000000   0.0000000
 0.8200000  -2.5049200  -0.2950810   0.9953570   0.0000000   0.0000000   0.0184869   0.0125899  -0.0125899   0.0181600   0.0000000   0.0000000   0.0000000  -0.0579019   0.0579023   0.2462190   0.0000000   0.0000000   0.0000000
 0.8250000  -2.5048600  -0.2951440   0.9954510   0.0000000   0.0000000   0.0184869   0.0122755  -0.0122755   0.0193977   0.0000000   0.0000000   0.0000000  -0.0679266   0.0679270   0.2487820   0.0000000   0.0000000   0.0000000
 0.8300000  -2.5048000  -0.2952040   0.9955510   0.0000000   0.0000000   0.0184869   0.0119102  -0.0119102   0.0206474   0.0000000   0.0000000   0.0000000  -0.0782013   0.0782017   0.2510940   0.0000000   0.0000000   0.0000000
 0.8350000  -2.5047400  -0.2952630   0.9956570   0.0000000   0.0000000   0.0184869   0.0114930  -0.0114930   0.0219082   0.0000000   0.0000000   0.0000000  -0.0887261   0.0887264   0.2531560   0.0000000   0.0000000   0.0000000
 0.8400000  -2.5046800  -0.2953190   0.9957700   0.0000000   0.0000000   0.0184869   0.0110226  -0.0110226   0.0231786   0.0000000   0.0000000   0.0000000  -0.0995008   0.0995012   0.2549690   0.0000000   0.0000000   0.0000000
 0.8450000  -2.5046300  -0.2953730   0.9958890   0.0000000   0.0000000   0.0184869   0.0104976  -0.0104976   0.0244574   0.0000000   0.0000000   0.0000000  -0.1105250   0.1105260   0.2565310   0.0000000   0.0000000   0.0000000
 0.8500000  -2.5045800  -0.2954240   0.9960150   0.0000000   0.0000000   0.0184869   0.0099169  -0.0099169   0.0257435   0.0000000   0.0000000   0.0000000  -0.1218000   0.1218010   0.2578430   0.0000000   0.0000000   0.0000000
 0.8550000  -2.5045300  -0.2954720   0.9961460   0.0000000   0.0000000   0.0184869   0.0092792  -0.0092792   0.0270355   0.0000000   0.0000000   0.0000000  -0.1333250   0.1333250   0.2589060   0.0000000   0.0000000   0.0000000
 0.8600000  -2.5044800  -0.2955160   0.9962850   0.0000000   0.0000000   0.0184869   0.0085832  -0.0085832   0.0283321   0.0000000   0.0000000   0.0000000  -0.1451000   0.1451000   0.2597180   0.0000000   0.0000000   0.0000000
 0.8650000  -2.5044400  -0.2955580   0.9964300   0.0000000   0.0000000   0.0184869   0.0078278  -0.0078278   0.0296322   0.0000000   0.0000000   0.0000000  -0.1571240   0.1571250   0.2602800   0.0000000   0.0000000   0.0000000
 0.8700000  -2.5044100  -0.2955950   0.9965810   0.0000000   0.0000000   0.0184869   0.0070116  -0.0070116   0.0309345   0.0000000   0.0000000   0.0000000  -0.1693990   0.1693990   0.2605930   0.0000000   0.0000000   0.0000000
 0.8750000  -2.5043700  -0.2956280   0.9967390   0.0000000   0.0000000   0.0184869   0.0061334  -0.0061334   0.0322377   0.0000000   0.0000000   0.0000000  -0.1819240   0.1819240   0.2606550   0.0000000   0.0000000   0.0000000
 0.8800000  -2.5043400  -0.2956560   0.9969040   0.0000000   0.0000000   0.0184869   0.0051919  -0.0051919   0.0335406   0.0000000   0.0000000   0.0000000  -0.1946980   0.1946990   0.2604670   0.0000000   0.0000000   0.0000000
 0.8850000  -2.5043200  -0.2956790   0.9970750   0.0000000   0.0000000   0.0184869   0.0041860  -0.0041859   0.0348420   0.0000000   0.0000000   0.0000000  -0.2077230   0.2077240   0.2600300   0.0000000   0.0000000   0.0000000
 0.8900000  -2.5043000  -0.2956980   0.9972520   0.0000000   0.0000000   0.0184869   0.0031143  -0.0031142   0.0361405   0.0000000   0.0000000   0.0000000  -0.2209980   0.2209980   0.2593420   0.0000000   0.0000000   0.0000000
 0.8950000  -2.5042900  -0.2957100   0.9974360   0.0000000   0.0000000   0.0184869   0.0019756  -0.0019755   0.0374350   0.0000000   0.0000000   0.0000000  -0.2345230   0.2345230   0.2584040   0.0000000   0.0000000   0.0000000
 0.9000000  -2.5042800  -0.2957170   0.9976260   0.0000000   0.0000000   0.0184869   0.0007686  -0.0007686   0.0387241   0.0000000   0.0000000   0.0000000  -0.2482970   0.2482980   0.2572170   0.0000000   0.0000000   0.0000000
 0.9050000  -2.5042800  -0.2957180   0.9978230   0.0000000   0.0000000   0.0184869  -0.0005078   0.0005078   0.0400067   0.0000000   0.0000000   0.0000000  -0.2622560   0.2622570   0.2557790   0.0000000   0.0000000   0.0000000
 0.9100000  -2.5042900  -0.2957120   0.9980260   0.0000000   0.0000000   0.0184869  -0.0018536   0.0018536   0.0412815   0.0000000   0.0000000   0.0000000  -0.2760250   0.2760250   0.2540910   0.0000000   0.0000000   0.0000000
 0.9150000  -2.5043000  -0.2956990   0.9982360   0.0000000   0.0000000   0.0184869  -0.0032676   0.0032676   0.0425472   0.0000000   0.0000000   0.0000000  -0.2895430   0.2895430   0.2521540   0.0000000   0.0000000   0.0000000
 0.9200000  -2.5043200  -0.2956790   0.9984520   0.0000000   0.0000000   0.0184869  -0.0047486   0.0047486   0.0438026   0.0000000   0.0000000   0.0000000  -0.3028110   0.3028120   0.2499660   0.0000000   0.0000000   0.0000000
 0.9250000  -2.5043500  -0.2956520   0.9986740   0.0000000   0.0000000   0.0184869  -0.0062953   0.0062953   0.0450465   0.0000000   0.0000000   0.0000000  -0.3158290   0.3158300   0.2475280   0.0000000   0.0000000   0.0000000
 0.9300000  -2.5043800  -0.2956160   0.9989020   0.0000000   0.0000000   0.0184869  -0.0079065   0.0079065   0.0462775   0.0000000   0.0000000   0.0000000  -0.3285980   0.3285980   0.2448410   0.0000000   0.0000000   0.0000000
 0.9350000  -2.5044300  -0.2955730   0.9991370   0.0000000   0.0000000   0.0184869  -0.0095809   0.0095809   0.0474945   0.0000000   0.0000000   0.0000000  -0.3411160   0.3411160   0.2419030   0.0000000   0.0000000   0.0000000
 0.9400000  -2.5044800  -0.2955200   0.9993770   0.0000000   0.0000000   0.0184869  -0.0113172   0.0113172   0.0486961   0.0000000   0.0000000   0.0000000  -0.3533840   0.3533850   0.2387160   0.0000000   0.0000000   0.0000000
 0.9450000  -2.5045400  -0.2954590   0.9996240   0.0000000   0.0000000   0.0184869  -0.0131143   0.0131143   0.0498812   0.0000000   0.0000000   0.0000000  -0.3654020   0.3654030   0.2352780   0.0000000   0.0000000   0.0000000
 0.9500000  -2.5046100  -0.2953890   0.9998760   0.0000000   0.0000000   0.0184869  -0.0149708   0.0149709   0.0510485   0.0000000   0.0000000   0.0000000  -0.3771710   0.3771710   0.2315900   0.0000000   0.0000000   0.0000000
 0.9550000  -2.5046900  -0.2953090   1.0001300   0.0000000   0.0000000   0.0184869  -0.0168856   0.0168856   0.0521967   0.0000000   0.0000000   0.0000000  -0.3886890   0.3886890   0.2276530   0.0000000   0.0000000   0.0000000
 0.9600000  -2.5047800  -0.2952200   1.0004000   0.0000000   0.0000000   0.0184869  -0.0188573   0.0188573   0.0533246   0.0000000   0.0000000   0.0000000  -0.3999570   0.3999580   0.2234650   0.0000000   0.0000000   0.0000000
 0.9650000  -2.5048800  -0.2951210   1.0006700   0.0000000   0.0000000   0.0184869  -0.0208847   0.0208848   0.0544309   0.0000000   0.0000000   0.0000000  -0.4109750   0.4109760   0.2190270   0.0000000   0.0000000   0.0000000
 0.9700000  -2.5049900  -0.2950110   1.0009400   0.0000000   0.0000000   0.0184869  -0.0229666   0.0229667   0.0555145   0.0000000   0.0000000   0.0000000  -0.4217440   0.4217440   0.2143400   0.0000000   0.0000000   0.0000000
 0.9750000  -2.5051100  -0.2948910   1.0012200   0.0000000   0.0000000   0.0184869  -0.0251017   0.0251018   0.0565739   0.0000000   0.0000000   0.0000000  -0.4322620   0.4322620   0.2094020   0.0000000   0.0000000   0.0000000
 0.9800000  -2.5052400  -0.2947600   1.0015100   0.0000000   0.0000000   0.0184869  -0.0272888   0.0272889   0.0576081   0.0000000   0.0000000   0.0000000  -0.4425300   0.4425310   0.2042140   0.0000000   0.0000000   0.0000000
 0.9850000  -2.5053800  -0.2946180   1.0018000   0.0000000   0.0000000   0.0189665  -0.0295013   0.0295017   0.0586289   0.0000000   0.0000000   0.0000000  -0.4424050   0.4426560   0.2040890   0.0000000   0.0000000   0.0000000
 0.9900000  -2.5055300  -0.2944650   1.0020900   0.0000000   0.0000000   0.0194524  -0.0317125   0.0317159   0.0596485   0.0000000   0.0000000   0.0000000  -0.4420300   0.4430310   0.2037140   0.0000000   0.0000000   0.0000000
 0.9950000  -2.5057000  -0.2943010   1.0023900   0.0000000   0.0000000   0.0199444  -0.0339212   0.0339325   0.0606656   0.0000000   0.0000000   0.0000000  -0.4414050   0.4436560   0.2030890   0.0000000   0.0000000   0.0000000
 1.0000000  -2.5058700  -0.2941260   1.0027000   0.0000000   0.0000000   0.0204427  -0.0361261   0.0361528   0.0616790   0.0000000   0.0000000   0.0000000  -0.4405300   0.4445310   0.2022140   0.0000000   0.0000000   0.0000000
 1.0050000  -2.5060600  -0.2939390   1.0030100   0.0000000   0.0000000   0.0209471  -0.0383260   0.0383782   0.0626874   0.0000000   0.0000000   0.0000000  -0.4394050   0.4456560   0.2010890   0.0000000   0.0000000   0.0000000
 1.0100000  -2.5062600  -0.2937420   1.0033300   0.0000000   0.0000000   0.0214577  -0.0405197   0.0406098   0.0636895   0.0000000   0.0000000   0.0000000  -0.4380300   0.4470310   0.1997140   0.0000000   0.0000000   0.0000000
 1.0150000  -2.5064700  -0.2935330   1.0036500   0.0000000   0.0000000   0.0219743  -0.0427059   0.0428489   0.0646841   0.0000000   0.0000000   0.0000000  -0.4364050   0.4486560   0.1980890   0.0000000   0.0000000   0.0000000
 1.0200000  -2.5066800  -0.2933130   1.0039700   0.0000000   0.0000000   0.0224970  -0.0448834   0.0450968   0.0656700   0.0000000   0.0000000   0.0000000  -0.4345300   0.4505310   0.1962140   0.0000000   0.0000000   0.0000000
 1.0250000  -2.5069100  -0.2930820   1.0043100   0.0000000   0.0000000   0.0230255  -0.0470508   0.0473546   0.0666458   0.0000000   0.0000000   0.0000000  -0.4324050   0.4526560   0.1940890   0.0000000   0.0000000   0.0000000
 1.0300000  -2.5071500  -0.2928400   1.0046400   0.0000000   0.0000000   0.0235599  -0.0492070   0.0496238   0.0676104   0.0000000   0.0000000   0.0000000  -0.4300300   0.4550310   0.1917140   0.0000000   0.0000000   0.0000000
 1.0350000  -2.5074100  -0.2925860   1.0049800   0.0000000   0.0000000   0.0241001  -0.0513507   0.0519054   0.0685626   0.0000000   0.0000000   0.0000000  -0.4274050   0.4576560   0.1890890   0.0000000   0.0000000   0.0000000
 1.0400000  -2.5076700  -0.2923210   1.0053300   0.0000000   0.0000000   0.0246459  -0.0534806   0.0542007   0.0695009   0.0000000   0.0000000   0.0000000  -0.4245300   0.4605310   0.1862140   0.0000000   0.0000000   0.0000000
 1.0450000  -2.5079400  -0.2920440   1.0056800   0.0000000   0.0000000   0.0251972  -0.0555956   0.0565111   0.0704243   0.0000000   0.0000000   0.0000000  -0.4214050   0.4636560   0.1830890   0.0000000   0.0000000   0.0000000
 1.0500000  -2.5082200  -0.2917560   1.0060300   0.0000000   0.0000000   0.0257539  -0.0576943   0.0588377   0.0713314   0.0000000   0.0000000   0.0000000  -0.4180300   0.4670310   0.1797140   0.0000000   0.0000000   0.0000000
 1.0550000  -2.5085200  -0.2914560   1.0063900   0.0000000   0.0000000   0.0263159  -0.0597755   0.0611818   0.0722210   0.0000000   0.0000000   0.0000000  -0.4144050   0.4706560   0.1760890   0.0000000   0.0000000   0.0000000
 1.0600000  -2.5088200  -0.2911440   1.0067500   0.0000000   0.0000000   0.0268831  -0.0618379   0.0635447   0.0730919   0.0000000   0.0000000   0.0000000  -0.4105300   0.4745310   0.1722140   0.0000000   0.0000000   0.0000000
 1.0650000  -2.5091400  -0.2908200   1.0071200   0.0000000   0.0000000   0.0274552  -0.0638804   0.0659275   0.0739427   0.0000000   0.0000000   0.0000000  -0.4064050   0.4786560   0.1680890   0.0000000   0.0000000   0.0000000
 1.0700000  -2.5094600  -0.2904840   1.0074900   0.0000000   0.0000000   0.0280321  -0.0659015   0.0683316   0.0747723   0.0000000   0.0000000   0.0000000  -0.4020300   0.4830310   0.1637140   0.0000000   0.0000000   0.0000000
 1.0750000  -2.5098000  -0.2901370   1.0078700   0.0000000   0.0000000   0.0286136  -0.0679002   0.0707583   0.0755795   0.0000000   0.0000000   0.0000000  -0.3974050   0.4876560   0.1590890   0.0000000   0.0000000   0.0000000
 1.0800000  -2.5101400  -0.2897770   1.0082500   0.0000000   0.0000000   0.0291996  -0.0698752   0.0732086   0.0763628   0.0000000   0.0000000   0.0000000  -0.3925300   0.4925310   0.1542140   0.0000000   0.0000000   0.0000000
 1.0850000  -2.5104900  -0.2894050   1.0086300   0.0000000   0.0000000   0.0297898  -0.0718251   0.0756840   0.0771212   0.0000000   0.0000000   0.0000000  -0.3874050   0.4976560   0.1490890   0.0000000   0.0000000   0.0000000
 1.0900000  -2.5108600  -0.2890200   1.0090200   0.0000000   0.0000000   0.0303840  -0.0737488   0.0781856   0.0778533   0.0000000   0.0000000   0.0000000  -0.3820300   0.5030310   0.1437140   0.0000000   0.0000000   0.0000000
 1.0950000  -2.5112300  -0.2886230   1.0094100   0.0000000   0.0000000   0.0309821  -0.0756450   0.0807147   0.0785579   0.0000000   0.0000000   0.0000000  -0.3764050   0.5086560   0.1380890   0.0000000   0.0000000   0.0000000
 1.1000000  -2.5116100  -0.2882130   1.0098000   0.0000000   0.0000000   0.0315838  -0.0775125   0.0832726   0.0792338   0.0000000   0.0000000   0.0000000  -0.3705300   0.5145310   0.1322140   0.0000000   0.0000000   0.0000000
 1.1050000  -2.5120100  -0.2877900   1.0102000   0.0000000   0.0000000   0.0321889  -0.0793499   0.0858604   0.0798796   0.0000000   0.0000000   0.0000000  -0.3644050   0.5206560   0.1260890   0.0000000   0.0000000   0.0000000
 1.1100000  -2.5124100  -0.2873540   1.0106000   0.0000000   0.0000000   0.0327971  -0.0811561   0.0884795   0.0804943   0.0000000   0.0000000   0.0000000  -0.3580300   0.5270310   0.1197140   0.0000000   0.0000000   0.0000000
 1.1150000  -2.5128200  -0.2869050   1.0110100   0.0000000   0.0000000   0.0334082  -0.0829298   0.0911312   0.0810764   0.0000000   0.0000000   0.0000000  -0.3514050   0.5336560   0.1130890   0.0000000   0.0000000   0.0000000
 1.1200000  -2.5132400  -0.2864430   1.0114100   0.0000000   0.0000000   0.0340218  -0.0846697   0.0938165   0.0816247   0.0000000   0.0000000   0.0000000  -0.3445300   0.5405310   0.1062140   0.0000000   0.0000000   0.0000000
 1.1250000  -2.5136600  -0.2859670   1.0118200   0.0000000   0.0000000   0.0346378  -0.0863747   0.0965369   0.0821381   0.0000000   0.0000000   0.0000000  -0.3374050   0.5476560   0.0990893   0.0000000   0.0000000   0.0000000
 1.1300000  -2.5141000  -0.2854770   1.0122400   0.0000000   0.0000000   0.0352559  -0.0880434   0.0992931   0.0826152   0.0000000   0.0000000   0.0000000  -0.3300300   0.5547920   0.0917143   0.0000000   0.0000000   0.0000000
 1.1350000  -2.5145500  -0.2849740   1.0126500   0.0000000   0.0000000   0.0358757  -0.0896746   0.1020840   0.0830548   0.0000000   0.0000000   0.0000000  -0.3224050   0.5616780   0.0840893   0.0000000   0.0000000   0.0000000
 1.1400000  -2.5150000  -0.2844560   1.0130700   0.0000000   0.0000000   0.0364969  -0.0912670   0.1049090   0.0834557   0.0000000   0.0000000   0.0000000  -0.3145300   0.5683150   0.0762143   0.0000000   0.0000000   0.0000000
 1.1450000  -2.5154600  -0.2839250   1.0134800   0.0000000   0.0000000   0.0371193  -0.0928194   0.1077670   0.0838165   0.0000000   0.0000000   0.0000000  -0.3064050   0.5747010   0.0680893   0.0000000   0.0000000   0.0000000
 1.1500000  -2.5159300  -0.2833790   1.0139000   0.0000000   0.0000000   0.0377424  -0.0943306   0.1106560   0.0841362   0.0000000   0.0000000   0.0000000  -0.2980300   0.5808380   0.0597143   0.0000000   0.0000000   0.0000000
 1.1550000  -2.5164000  -0.2828180   1.0143300   0.0000000   0.0000000   0.0383661  -0.0957993   0.1135750   0.0844133   0.0000000   0.0000000   0.0000000  -0.2894050   0.5867240   0.0510893   0.0000000   0.0000000   0.0000000
 1.1600000  -2.5168800  -0.2822430   1.0147500   0.0000000   0.0000000   0.0389898  -0.0972243   0.1165230   0.0846466   0.0000000   0.0000000   0.0000000  -0.2805300   0.5923610   0.0422143   0.0000000   0.0000000   0.0000000
 1.1650000  -2.5173700  -0.2816530   1.0151700   0.0000000   0.0000000   0.0396133  -0.0986042   0.1194980   0.0848350   0.0000000   0.0000000   0.0000000  -0.2714050   0.5977470   0.0330893   0.0000000   0.0000000   0.0000000
 1.1700000  -2.5178700  -0.2810480   1.0156000   0.0000000   0.0000000   0.0402363  -0.0999379   0.1225000   0.0849774   0.0000000   0.0000000   0.0000000  -0.2620300   0.6028840   0.0239209   0.0000000   0.0000000   0.0000000
 1.1750000  -2.5183700  -0.2804280   1.0160200   0.0000000   0.0000000   0.0408584  -0.1012240   0.1255270   0.0850746   0.0000000   0.0000000   0.0000000  -0.2524050   0.6077700   0.0150003   0.0000000   0.0000000   0.0000000
 1.1800000  -2.5188800  -0.2797930   1.0164500   0.0000000   0.0000000   0.0414792  -0.1024620   0.1285770   0.0851278   0.0000000   0.0000000   0.0000000  -0.2425300   0.6124070   0.0063298   0.0000000   0.0000000   0.0000000
 1.1850000  -2.5194000  -0.2791420   1.0168700   0.0000000   0.0000000   0.0420985  -0.1036490   0.1316500   0.0851383   0.0000000   0.0000000   0.0000000  -0.2324050   0.6167930  -0.0020908   0.0000000   0.0000000   0.0000000
 1.1900000  -2.5199200  -0.2784760   1.0173000   0.0000000   0.0000000   0.0427160  -0.1047850   0.1347450   0.0851074   0.0000000   0.0000000   0.0000000  -0.2220300   0.6209300  -0.0102613   0.0000000   0.0000000   0.0000000
 1.1950000  -2.5204400  -0.2777950   1.0177200   0.0000000   0.0000000   0.0433314  -0.1058690   0.1378590   0.0850361   0.0000000   0.0000000   0.0000000  -0.2114050   0.6248160  -0.0181818   0.0000000   0.0000000   0.0000000
 1.2000000  -2.5209800  -0.2770970   1.0181500   0.0000000   0.0000000   0.0439443  -0.1068990   0.1409920   0.0849260   0.0000000   0.0000000   0.0000000  -0.2005300   0.6284530  -0.0258524   0.0000000   0.0000000   0.0000000
 1.2050000  -2.5215100  -0.2763850   1.0185700   0.0000000   0.0000000   0.0445546  -0.1078740   0.1441430   0.0847780   0.0000000   0.0000000   0.0000000  -0.1894050   0.6318390  -0.0332729   0.0000000   0.0000000   0.0000000
 1.2100000  -2.5220600  -0.2756560   1.0190000   0.0000000   0.0000000   0.0451619  -0.1087920   0.1473100   0.0845936   0.0000000   0.0000000   0.0000000  -0.1780300   0.6349760  -0.0404434   0.0000000   0.0000000   0.0000000
 1.2150000  -2.5226000  -0.2749110   1.0194200   0.0000000   0.0000000   0.0457660  -0.1096540   0.1504930   0.0843740   0.0000000   0.0000000   0.0000000  -0.1664050   0.6378620  -0.0473640   0.0000000   0.0000000   0.0000000
 1.2200000  -2.5231500  -0.2741510   1.0198400   0.0000000   0.0000000   0.0463667  -0.1104560   0.1536890   0.0841204   0.0000000   0.0000000   0.0000000  -0.1545300   0.6404990  -0.0540345   0.0000000   0.0000000   0.0000000
 1.2250000  -2.5237100  -0.2733750   1.0202600   0.0000000   0.0000000   0.0469637  -0.1111990   0.1568970   0.0838341   0.0000000   0.0000000   0.0000000  -0.1424050   0.6428850  -0.0604551   0.0000000   0.0000000   0.0000000
 1.2300000  -2.5242600  -0.2725820   1.0206800   0.0000000   0.0000000   0.0475568  -0.1118800   0.1601170   0.0835163   0.0000000   0.0000000   0.0000000  -0.1300300   0.6450220  -0.0666256   0.0000000   0.0000000   0.0000000
 1.2350000  -2.5248200  -0.2717730   1.0211000   0.0000000   0.0000000   0.0481458  -0.1124980   0.1633470   0.0831683   0.0000000   0.0000000   0.0000000  -0.1174050   0.6469080  -0.0725461   0.0000000   0.0000000   0.0000000
 1.2400000  -2.5253900  -0.2709490   1.0215100   0.0000000   0.0000000   0.0487305  -0.1130530   0.1665860   0.0827912   0.0000000   0.0000000   0.0000000  -0.1045300   0.6485450  -0.0782167   0.0000000   0.0000000   0.0000000
 1.2450000  -2.5259600  -0.2701070   1.0219200   0.0000000   0.0000000   0.0493107  -0.1135430   0.1698320   0.0823865   0.0000000   0.0000000   0.0000000  -0.0914053   0.6499310  -0.0836372   0.0000000   0.0000000   0.0000000
 1.2500000  -2.5265200  -0.2692500   1.0223300   0.0000000   0.0000000   0.0498863  -0.1139670   0.1730850   0.0819553   0.0000000   0.0000000   0.0000000  -0.0780303   0.6510680  -0.0888078   0.0000000   0.0000000   0.0000000
 1.2550000  -2.5270900  -0.2683770   1.0227400   0.0000000   0.0000000   0.0504569  -0.1143230   0.1763420   0.0814988   0.0000000   0.0000000   0.0000000  -0.0644053   0.6519540  -0.0937283   0.0000000   0.0000000   0.0000000
 1.2600000  -2.5276700  -0.2674870   1.0231500   0.0000000   0.0000000   0.0510226  -0.1146110   0.1796040   0.0810184   0.0000000   0.0000000   0.0000000  -0.0505303   0.6525910  -0.0983988   0.0000000   0.0000000   0.0000000
 1.2650000  -2.5282400  -0.2665810   1.0235500   0.0000000   0.0000000   0.0515831  -0.1148280   0.1828680   0.0805153   0.0000000   0.0000000   0.0000000  -0.0364053   0.6529770  -0.1028190   0.0000000   0.0000000   0.0000000
 1.2700000  -2.5288200  -0.2656580   1.0239500   0.0000000   0.0000000   0.0521383  -0.1149740   0.1861330   0.0799906   0.0000000   0.0000000   0.0000000  -0.0220303   0.6531140  -0.1069900   0.0000000   0.0000000   0.0000000
 1.2750000  -2.5293900  -0.2647190   1.0243500   0.0000000   0.0000000   0.0526880  -0.1150480   0.1893990   0.0794458   0.0000000   0.0000000   0.0000000  -0.0074053   0.6530000  -0.1109100   0.0000000   0.0000000   0.0000000
 1.2800000  -2.5299700  -0.2637640   1.0247500   0.0000000   0.0000000   0.0532322  -0.1150480   0.1926630   0.0788820   0.0000000   0.0000000   0.0000000   0.0074697   0.6526360  -0.1145810   0.0000000   0.0000000   0.0000000
 1.2850000  -2.5305400  -0.2627930   1.0251400   0.0000000   0.0000000   0.0537707  -0.1149730   0.1959240   0.0783004   0.0000000   0.0000000   0.0000000   0.0225947   0.6520230  -0.1180020   0.0000000   0.0000000   0.0000000
 1.2900000  -2.5311200  -0.2618050   1.0255300   0.0000000   0.0000000   0.0543034  -0.1148220   0.1991830   0.0777024   0.0000000   0.0000000   0.0000000   0.0379697   0.6511590  -0.1211720   0.0000000   0.0000000   0.0000000
 1.2950000  -2.5316900  -0.2608010   1.0259200   0.0000000   0.0000000   0.0548303  -0.1145930   0.2024360   0.0770891   0.0000000   0.0000000   0.0000000   0.0535947   0.6500460  -0.1240930   0.0000000   0.0000000   0.0000000
 1.3000000  -2.5322600  -0.2597810   1.0263000   0.0000000   0.0000000   0.0553512  -0.1142850   0.2056830   0.0764618   0.0000000   0.0000000   0.0000000   0.0694697   0.6486820  -0.1267630   0.0000000   0.0000000   0.0000000
 1.3050000  -2.5328300  -0.2587440   1.0266800   0.0000000   0.0000000   0.0558661  -0.1138980   0.2089220   0.0758219   0.0000000   0.0000000   0.0000000   0.0855947   0.6470690  -0.1291840   0.0000000   0.0000000   0.0000000
 1.3100000  -2.5334000  -0.2576910   1.0270600   0.0000000   0.0000000   0.0563748  -0.1134290   0.2121530   0.0751704   0.0000000   0.0000000   0.0000000   0.1018550   0.6452050  -0.1313540   0.0000000   0.0000000   0.0000000
 1.3150000  -2.5339700  -0.2566220   1.0274300   0.0000000   0.0000000   0.0568775  -0.1128790   0.2153740   0.0745088   0.0000000   0.0000000   0.0000000   0.1178910   0.6430920  -0.1332750   0.0000000   0.0000000   0.0000000
