ts x y z roll pitch yaw vx vy vz wx wy wz ax ay az dwx dwy dwz jx jy jz ddwx ddwy ddwz
1704198035.298014000  -2.5  -0.3  0.995  0  0  0  2e-07  2e-07  2e-07  0  0  0  0.000125  0.000125  0.000125  0  0  0  0  0  0  0  0  0 
1704198035.302999000  -2.5  -0.3  0.995  0  0  0  1.7e-06  1.7e-06  1.7e-06  0  0  0  0.0005  0.0005  0.0005  0  0  0  0  0  0  0  0  0 
1704198035.307986000  -2.5  -0.3  0.995  0  0  0  5.6e-06  5.6e-06  5.6e-06  0  0  0  0.001125  0.001125  0.001125  0  0  0  0  0  0  0  0  0 
1704198035.312994000  -2.5  -0.3  0.995  0  0  -1e-07  1.33e-05  1.33e-05  1.33e-05  0  0  0  0.002  0.002  0.002  0  0  0  0  0  0  0  0  0 
1704198035.317998000  -2.5  -0.3  0.995  0  0  -3e-07  2.6e-05  2.6e-05  2.6e-05  0  0  0  0.003125  0.003125  0.003125  0  0  0  0  0  0  0  0  0 
1704198035.323007000  -2.5  -0.3  0.995  0  0  -5e-07  4.5e-05  4.5e-05  4.5e-05  0  0  0  0.0045  0.0045  0.0045  0  0  0  0  0  0  0  0  0 
1704198035.328002000  -2.5  -0.299999  0.995  0  0  -1e-06  7.15e-05  7.15e-05  7.15e-05  0  0  0  0.006125  0.006125  0.006125  0  0  0  0  0  0  0  0  0 
1704198035.333004000  -2.5  -0.299999  0.995  0  0  -1.7e-06  0.0001067  0.0001067  0.0001067  0  0  0  0.008  0.008  0.008  0  0  0  0  0  0  0  0  0 
1704198035.338002000  -2.5  -0.299998  0.995  0  0  -2.7e-06  0.0001519  0.0001519  0.0001519  0  0  0  0.010125  0.010125  0.010125  0  0  0  0  0  0  0  0  0 
1704198035.343006000  -2.5  -0.299997  0.995  0  0  -4.2e-06  0.0002083  0.0002083  0.0002083  0  0  0  0.0125  0.0125  0.0125  0  0  0  0  0  0  0  0  0 
1704198035.348001000  -2.5  -0.299996  0.995  0  0  -6.1e-06  0.0002773  0.0002773  0.0002773  0  0  0  0.015125  0.015125  0.015125  0  0  0  0  0  0  0  0  0 
1704198035.353003000  -2.49999  -0.299995  0.99501  0  0  -8.6e-06  0.00036  0.00036  0.00036  0  0  0  0.018  0.018  0.018  0  0  0  0  0  0  0  0  0 
1704198035.358001000  -2.49999  -0.299993  0.99501  0  0  -1.19e-05  0.0004577  0.0004577  0.0004577  0  0  0  0.021125  0.021125  0.021125  0  0  0  0  0  0  0  0  0 
1704198035.363005000  -2.49999  -0.29999  0.99501  0  0  -1.6e-05  0.0005717  0.0005717  0.0005717  0  0  0  0.0245  0.0245  0.0245  0  0  0  0  0  0  0  0  0 
1704198035.368014000  -2.49999  -0.299987  0.99501  0  0  -2.11e-05  0.0007031  0.0007031  0.0007031  0  0  0  0.028125  0.028125  0.028125  0  0  0  0  0  0  0  0  0 
1704198035.373000000  -2.49998  -0.299983  0.99502  0  0  -2.73e-05  0.0008533  0.0008533  0.0008533  0  0  0  0.0319374  0.032  0.032  0  0  0  0  0  0  0  0  0 
1704198035.378002000  -2.49998  -0.299978  0.99502  0  0  -3.48e-05  0.0010221  0.0010235  0.0010235  0  0  0  0.0355621  0.036125  0.036125  0  0  0  0  0  0  0  0  0 
1704198035.383004000  -2.49997  -0.299973  0.99503  0  0  -4.37e-05  0.0012085  0.001215  0.001215  0  0  0  0.0389369  0.0405  0.0405  0  0  0  0  0  0  0  0  0 
1704198035.388005000  -2.49997  -0.299966  0.99503  0  0  -5.43e-05  0.0014111  0.001429  0.001429  0  0  0  0.0420616  0.045125  0.045125  0  0  0  0  0  0  0  0  0 
1704198035.393002000  -2.49996  -0.299958  0.99504  0  0  -6.67e-05  0.0016287  0.0016667  0.0016667  0  0  0  0.0449364  0.05  0.05  0  0  0  0  0  0  0  0  0 
1704198035.398000000  -2.49995  -0.299949  0.99505  0  0  -8.1e-05  0.00186  0.0019294  0.0019294  0  0  0  0.0475611  0.055125  0.055125  0  0  0  0  0  0  0  0  0 
1704198035.403005000  -2.49994  -0.299939  0.99506  0  0  -9.75e-05  0.0021039  0.0022183  0.0022183  0  0  0  0.0499359  0.0605  0.0605  0  0  0  0  0  0  0  0  0 
1704198035.408002000  -2.49993  -0.299927  0.99507  0  0  -0.0001162  0.002359  0.0025348  0.0025348  0  0  0  0.0520606  0.066125  0.066125  0  0  0  0  0  0  0  0  0 
1704198035.412991000  -2.49992  -0.299914  0.99509  0  0  -0.0001374  0.0026241  0.00288  0.00288  0  0  0  0.0539354  0.072  0.072  0  0  0  0  0  0  0  0  0 
1704198035.418000000  -2.4999  -0.299898  0.9951  0  0  -0.0001612  0.0028979  0.0032552  0.0032552  0  0  0  0.0555601  0.078125  0.078125  0  0  0  0  0  0  0  0  0 
1704198035.422994000  -2.49989  -0.299881  0.99512  0  0  -0.0001877  0.0031792  0.0036617  0.0036617  0  0  0  0.0569349  0.0845  0.0845  0  0  0  0  0  0  0  0  0 
1704198035.427994000  -2.49987  -0.299862  0.99514  0  0  -0.0002169  0.0034668  0.0041006  0.0041006  0  0  0  0.0580596  0.091125  0.091125  0  0  0  0  0  0  0  0  0 
1704198035.432993000  -2.49985  -0.29984  0.99516  0  0  -0.0002491  0.0037594  0.0045733  0.0045733  0  0  0  0.0589343  0.098  0.098  0  0  0  0  0  0  0  0  0 
1704198035.437998000  -2.49983  -0.299816  0.99518  0  0  -0.0002843  0.0040558  0.005081  0.005081  0  0  0  0.0595591  0.105125  0.105125  0  0  0  0  0  0  0  0  0 
1704198035.442993000  -2.49981  -0.299789  0.99521  0  0  -0.0003225  0.0043546  0.005625  0.005625  0  0  0  0.0599338  0.1125  0.1125  0  0  0  0  0  0  0  0  0 
1704198035.447992000  -2.49979  -0.299759  0.99524  0  0  -0.0003639  0.0046547  0.0062065  0.0062065  0  0  0  0.0600586  0.120125  0.120125  0  0  0  0  0  0  0  0  0 
1704198035.452992000  -2.49977  -0.299727  0.99527  0  0  -0.0004086  0.0049548  0.0068267  0.0068267  0  0  0  0.0599333  0.128  0.128  0  0  0  0  0  0  0  0  0 
1704198035.457995000  -2.49974  -0.299691  0.99531  0  0  -0.0004565  0.0052536  0.0074869  0.0074869  0  0  0  0.0595581  0.136125  0.136125  0  0  0  0  0  0  0  0  0 
1704198035.462993000  -2.49971  -0.299652  0.99535  0  0  -0.0005077  0.0055499  0.0081883  0.0081883  0  0  0  0.0589328  0.1445  0.144461  0  0  0  0  0  0  0  0  0 
1704198035.467992000  -2.49968  -0.299609  0.99539  0  0  -0.0005623  0.0058425  0.0089323  0.0089312  0  0  0  0.0580576  0.153125  0.15264  0  0  0  0  0  0  0  0  0 
1704198035.472992000  -2.49965  -0.299563  0.99544  0  0  -0.0006203  0.0061301  0.00972  0.0097143  0  0  0  0.0569323  0.162  0.160568  0  0  0  0  0  0  0  0  0 
1704198035.477999000  -2.49962  -0.299512  0.99549  0  0  -0.0006816  0.0064114  0.0105527  0.0105364  0  0  0  0.0555571  0.171125  0.168246  0  0  0  0  0  0  0  0  0 
1704198035.482997000  -2.49959  -0.299457  0.99554  0  0  -0.0007464  0.0066853  0.0114317  0.0113963  0  0  0  0.0539318  0.1805  0.175674  0  0  0  0  0  0  0  0  0 
1704198035.487994000  -2.49956  -0.299398  0.9956  0  0  -0.0008145  0.0069503  0.0123581  0.0122928  0  0  0  0.0520566  0.190125  0.182852  0  0  0  0  0  0  0  0  0 
1704198035.492993000  -2.49952  -0.299333  0.99567  0  0  -0.000886  0.0072054  0.0133333  0.0132244  0  0  0  0.0499313  0.2  0.189781  0  0  0  0  0  0  0  0  0 
1704198035.498000000  -2.49948  -0.299264  0.99573  0  0  -0.0009608  0.0074492  0.0143585  0.0141901  0  0  0  0.0475561  0.210125  0.196459  0  0  0  0  0  0  0  0  0 
1704198035.502994000  -2.49945  -0.29919  0.99581  0  0  -0.001039  0.0076806  0.015435  0.0151886  0  0  0  0.0449308  0.2205  0.202887  0  0  0  0  0  0  0  0  0 
1704198035.507995000  -2.49941  -0.29911  0.99589  0  0  -0.0011204  0.0078981  0.016564  0.0162186  0  0  0  0.0420556  0.231125  0.209065  0  0  0  0  0  0  0  0  0 
1704198035.512993000  -2.49937  -0.299024  0.99597  0  0  -0.001205  0.0081007  0.0177467  0.0172788  0  0  0  0.0389303  0.242  0.214994  0  0  0  0  0  0  0  0  0 
1704198035.518000000  -2.49933  -0.298932  0.99606  0  0  -0.0012928  0.008287  0.0189844  0.0183681  0  0  0  0.0355551  0.253125  0.220672  0  0  0  0  0  0  0  0  0 
1704198035.522993000  -2.49928  -0.298834  0.99615  0  0  -0.0013836  0.0084558  0.0202783  0.0194851  0  0  0  0.0319298  0.2645  0.2261  0  0  0  0  0  0  0  0  0 
1704198035.527993000  -2.49924  -0.298729  0.99625  0  0  -0.0014773  0.0086059  0.0216298  0.0206287  0  0  0  0.0281174  0.276125  0.231278  0  0  0  0  0  0  0  0  0 
1704198035.532995000  -2.4992  -0.298618  0.99636  0  0  -0.001574  0.0087374  0.02304  0.0217975  0  0  0  0.0244929  0.288  0.236207  0  0  0  0  0  0  0  0  0 
1704198035.537999000  -2.49915  -0.298499  0.99647  0  0  -0.0016734  0.0088513  0.0245102  0.0229903  0  0  0  0.0211184  0.300125  0.240885  0  0  0  0  0  0  0  0  0 
1704198035.542994000  -2.49911  -0.298372  0.99659  0  0  -0.0017755  0.008949  0.0260417  0.0242059  0  0  0  0.017994  0.3125  0.245313  0  0  0  0  0  0  0  0  0 
1704198035.547993000  -2.49907  -0.298238  0.99671  0  0  -0.0018801  0.0090316  0.0276356  0.0254431  0  0  0  0.0151195  0.325125  0.249491  0  0  0  0  0  0  0  0  0 
1704198035.553002000  -2.49902  -0.298096  0.99684  0  0  -0.0019871  0.0091006  0.0292933  0.0267004  0  0  0  0.012495  0.338  0.253419  0  0  0  0  0  0  0  0  0 
1704198035.557997000  -2.49897  -0.297945  0.99698  0  0  -0.0020963  0.009157  0.031016  0.0279768  0  0  0  0.0101205  0.351125  0.257098  0  0  0  0  0  0  0  0  0 
1704198035.563003000  -2.49893  -0.297786  0.99712  0  0  -0.0022077  0.0092022  0.032805  0.029271  0  0  0  0.007996  0.3645  0.260526  0  0  0  0  0  0  0  0  0 
1704198035.567995000  -2.49888  -0.297617  0.99727  0  0  -0.0023209  0.0092374  0.0346615  0.0305817  0  0  0  0.0061215  0.378125  0.263704  0  0  0  0  0  0  0  0  0 
1704198035.572992000  -2.49884  -0.297439  0.99743  0  0  -0.0024359  0.0092638  0.0365867  0.0319076  0  0  0  0.004497  0.391986  0.266632  0  0  0  0  0  0  0  0  0 
1704198035.577998000  -2.49879  -0.297251  0.99759  0  0  -0.0025525  0.0092828  0.0385811  0.0332476  0  0  0  0.0031225  0.40574  0.269311  0  0  0  0  0  0  0  0  0 
1704198035.582999000  -2.49874  -0.297053  0.99776  0  0  -0.0026704  0.0092955  0.0406436  0.0346003  0  0  0  0.001998  0.419245  0.271739  0  0  0  0  0  0  0  0  0 
1704198035.587992000  -2.4987  -0.296844  0.99794  0  0  -0.0027896  0.0093032  0.0427731  0.0359646  0  0  0  0.0011235  0.4325  0.273917  0  0  0  0  0  0  0  0  0 
1704198035.592994000  -2.49865  -0.296625  0.99812  0  0  -0.0029099  0.0093071  0.0449682  0.0373391  0  0  0  0.000499  0.445505  0.275845  0  0  0  0  0  0  0  0  0 
1704198035.598000000  -2.4986  -0.296395  0.99831  0  0  -0.0030311  0.0093086  0.0472277  0.0387226  0  0  0  0.0001245  0.45826  0.277524  0  0  0  0  0  0  0  0  0 
1704198035.602993000  -2.49856  -0.296153  0.99851  0  0  -0.0031531  0.0093088  0.0495504  0.0401139  0  0  0  0  0.470764  0.278952  0  0  0  0  0  0  0  0  0 
1704198035.607993000  -2.49851  -0.295899  0.99871  0  0  -0.0032758  0.0093088  0.051935  0.0415117  0  0  0  0  0.483019  0.28013  0  0  0  0  0  0  0  0  0 
1704198035.612993000  -2.49846  -0.295633  0.99892  0  0  -0.0033991  0.0093088  0.0543802  0.0429148  0  0  0  0  0.495024  0.281058  0  0  0  0  0  0  0  0  0 
1704198035.618000000  -2.49842  -0.295355  0.99914  0  0  -0.0035228  0.0093088  0.0568848  0.0443219  0  0  0  0  0.506779  0.281736  0  0  0  0  0  0  0  0  0 
1704198035.623002000  -2.49837  -0.295064  0.99937  0  0  -0.0036469  0.0093088  0.0594476  0.0457317  0  0  0  0  0.518283  0.282165  0  0  0  0  0  0  0  0  0 
1704198035.628007000  -2.49832  -0.294761  0.9996  0  0  -0.0037713  0.0093088  0.0620672  0.0471431  0  0  0  0  0.529538  0.282343  0  0  0  0  0  0  0  0  0 
1704198035.633006000  -2.49828  -0.294444  0.99984  0  0  -0.003896  0.0093088  0.0647425  0.0485547  0  0  0  0  0.540543  0.282271  0  0  0  0  0  0  0  0  0 
1704198035.638010000  -2.49823  -0.294113  1.00009  0  0  -0.0040208  0.0093088  0.0674722  0.0499654  0  0  0  0  0.551298  0.281949  0  0  0  0  0  0  0  0  0 
1704198035.643005000  -2.49818  -0.293769  1.00034  0  0  -0.0041456  0.0093088  0.0702551  0.0513738  0  0  0  0  0.561803  0.281378  0  0  0  0  0  0  0  0  0 
1704198035.648007000  -2.49814  -0.29341  1.0006  0  0  -0.0042706  0.0093088  0.0730898  0.0527788  0  0  0  0  0.572057  0.280556  0  0  0  0  0  0  0  0  0 
1704198035.653005000  -2.49809  -0.293038  1.00087  0  0  -0.0043956  0.0093088  0.0759752  0.054179  0  0  0  0  0.582062  0.279484  0  0  0  0  0  0  0  0  0 
1704198035.658006000  -2.49805  -0.292651  1.00114  0  0  -0.0045207  0.0093088  0.07891  0.0555732  0  0  0  0  0.591817  0.278162  0  0  0  0  0  0  0  0  0 
1704198035.663006000  -2.498  -0.292249  1.00142  0  0  -0.0046457  0.0093088  0.081893  0.0569602  0  0  0  0  0.601322  0.276591  0  0  0  0  0  0  0  0  0 
1704198035.668006000  -2.49795  -0.291832  1.00171  0  0  -0.0047707  0.0093088  0.0849228  0.0583387  0  0  0  0  0.610577  0.274769  0  0  0  0  0  0  0  0  0 
1704198035.673006000  -2.49791  -0.291399  1.00201  0  0  -0.0048957  0.0093088  0.0879983  0.0597074  0  0  0  0  0.619581  0.272697  0  0  0  0  0  0  0  0  0 
1704198035.678009000  -2.49786  -0.290952  1.00231  0  0  -0.0050208  0.0093088  0.0911182  0.0610652  0  0  0  0  0.628336  0.270375  0  0  0  0  0  0  0  0  0 
1704198035.683007000  -2.49781  -0.290488  1.00262  0  0  -0.0051458  0.0093088  0.0942813  0.0624108  0  0  0  0  0.636841  0.267804  0  0  0  0  0  0  0  0  0 
1704198035.688006000  -2.49777  -0.290009  1.00293  0  0  -0.0052708  0.0093088  0.0974862  0.0637428  0  0  0  0  0.645096  0.264982  0  0  0  0  0  0  0  0  0 
1704198035.693008000  -2.49772  -0.289513  1.00325  0  0  -0.0053959  0.0093088  0.100732  0.0650602  0  0  0  0  0.653101  0.26191  0  0  0  0  0  0  0  0  0 
1704198035.698012000  -2.49767  -0.289001  1.00358  0  0  -0.0055209  0.0093088  0.104017  0.0663615  0  0  0  0  0.660855  0.258588  0  0  0  0  0  0  0  0  0 
1704198035.703005000  -2.49763  -0.288473  1.00392  0  0  -0.0056459  0.0093088  0.10734  0.0676456  0  0  0  0  0.66836  0.255016  0  0  0  0  0  0  0  0  0 
1704198035.708006000  -2.49758  -0.287928  1.00426  0  0  -0.005771  0.0093088  0.1107  0.0689113  0  0  0  0  0.675615  0.251195  0  0  0  0  0  0  0  0  0 
1704198035.713006000  -2.49753  -0.287366  1.00461  0  0  -0.005896  0.0093088  0.114096  0.0701572  0  0  0  0  0.68262  0.247123  0  0  0  0  0  0  0  0  0 
1704198035.718018000  -2.49749  -0.286787  1.00496  0  0  -0.006021  0.0093088  0.117526  0.0713821  0  0  0  0  0.689374  0.242801  0  0  0  0  0  0  0  0  0 
1704198035.722994000  -2.49744  -0.286191  1.00532  0  0  -0.0061461  0.0093088  0.120989  0.0725848  0  0  0  0  0.695879  0.238229  0  0  0  0  0  0  0  0  0 
1704198035.727993000  -2.49739  -0.285577  1.00569  0  0  -0.0062711  0.0093088  0.124484  0.073764  0  0  0  0  0.702134  0.233408  0  0  0  0  0  0  0  0  0 
1704198035.732994000  -2.49735  -0.284946  1.00606  0  0  -0.0063961  0.0093088  0.12801  0.0749184  0  0  0  0  0.708139  0.228336  0  0  0  0  0  0  0  0  0 
1704198035.738011000  -2.4973  -0.284297  1.00644  0  0  -0.0065211  0.0093088  0.131565  0.0760469  0  0  0  0  0.713894  0.223014  0  0  0  0  0  0  0  0  0 
1704198035.743012000  -2.49725  -0.28363  1.00682  0  0  -0.0066462  0.0093088  0.135148  0.0771481  0  0  0  0  0.719398  0.217442  0  0  0  0  0  0  0  0  0 
1704198035.747995000  -2.49721  -0.282945  1.00721  0  0  -0.0067712  0.0093088  0.138759  0.0782209  0  0  0  0  0.724653  0.211621  0  0  0  0  0  0  0  0  0 
1704198035.753004000  -2.49716  -0.282242  1.0076  0  0  -0.0068962  0.0093088  0.142395  0.0792639  0  0  0  0  0.729658  0.205549  0  0  0  0  0  0  0  0  0 
1704198035.757996000  -2.49711  -0.281521  1.008  0  0  -0.0070212  0.0093088  0.146055  0.080276  0  0  0  0  0.734413  0.199227  0  0  0  0  0  0  0  0  0 
1704198035.762993000  -2.49707  -0.280782  1.0084  0  0  -0.0071463  0.0093088  0.149738  0.0812558  0  0  0  0  0.738918  0.192655  0  0  0  0  0  0  0  0  0 
1704198035.767993000  -2.49702  -0.280024  1.00881  0  0  -0.0072713  0.0093088  0.153444  0.0822021  0  0  0  0  0.743172  0.185833  0  0  0  0  0  0  0  0  0 
1704198035.772995000  -2.49697  -0.279247  1.00923  0  0  -0.0073963  0.0093088  0.15717  0.0831137  0  0  0  0  0.747177  0.178762  0  0  0  0  0  0  0  0  0 
1704198035.778000000  -2.49693  -0.278452  1.00964  0  0  -0.0075214  0.0093088  0.160915  0.0839893  0  0  0  0  0.750932  0.17144  0  0  0  0  0  0  0  0  0 
1704198035.782998000  -2.49688  -0.277638  1.01006  0  0  -0.0076464  0.0093088  0.164679  0.0848277  0  0  0  0  0.754437  0.163868  0  0  0  0  0  0  0  0  0 
1704198035.787993000  -2.49683  -0.276805  1.01049  0  0  -0.0077714  0.0093088  0.168459  0.0856276  0  0  0  0  0.757692  0.156046  0  0  0  0  0  0  0  0  0 
1704198035.792994000  -2.49679  -0.275953  1.01092  0  0  -0.0078965  0.0093088  0.172255  0.0863877  0  0  0  0  0.760696  0.147975  0  0  0  0  0  0  0  0  0 
1704198035.797999000  -2.49674  -0.275083  1.01135  0  0  -0.0080215  0.0093088  0.176065  0.0871069  0  0  0  0  0.763451  0.139661  0  0  0  0  0  0  0  0  0 
1704198035.802996000  -2.4967  -0.274193  1.01179  0  0  -0.0081465  0.0093088  0.179889  0.0877845  0  0  0  0  0.765956  0.13143  0  0  0  0  0  0  0  0  0 
1704198035.807994000  -2.49665  -0.273284  1.01223  0  0  -0.0082716  0.0093088  0.183725  0.0884216  0  0  0  0  0.768211  0.123448  0  0  0  0  0  0  0  0  0 
1704198035.812997000  -2.4966  -0.272356  1.01268  0  0  -0.0083966  0.0093088  0.187571  0.0890194  0  0  0  0  0.770215  0.115717  0  0  0  0  0  0  0  0  0 
1704198035.818002000  -2.49656  -0.271408  1.01312  0  0  -0.0085216  0.0093088  0.191426  0.0895792  0  0  0  0  0.77197  0.108235  0  0  0  0  0  0  0  0  0 
1704198035.822995000  -2.49651  -0.270441  1.01357  0  0  -0.0086466  0.0093088  0.19529  0.0901022  0  0  0  0  0.773475  0.101004  0  0  0  0  0  0  0  0  0 
1704198035.827995000  -2.49646  -0.269455  1.01402  0  0  -0.0087717  0.0093088  0.199161  0.0905897  0  0  0  0  0.77473  0.0940222  0  0  0  0  0  0  0  0  0 
1704198035.832995000  -2.49642  -0.26845  1.01448  0  0  -0.0088967  0.0093088  0.203037  0.0910428  0  0  0  0  0.775735  0.0872908  0  0  0  0  0  0  0  0  0 
1704198035.838000000  -2.49637  -0.267425  1.01493  0  0  -0.0090217  0.0093088  0.206918  0.091463  0  0  0  0  0.776489  0.0808093  0  0  0  0  0  0  0  0  0 
1704198035.842994000  -2.49632  -0.26638  1.01539  0  0  -0.0091468  0.0093088  0.210801  0.0918513  0  0  0  0  0.776994  0.0745778  0  0  0  0  0  0  0  0  0 
1704198035.847993000  -2.49628  -0.265317  1.01585  0  0  -0.0092718  0.0093088  0.214687  0.0922092  0  0  0  0  0.777249  0.0685964  0  0  0  0  0  0  0  0  0 
1704198035.852994000  -2.49623  -0.264234  1.01631  0  0  -0.0093968  0.0093088  0.218574  0.0925377  0  0  0  0  0.777254  0.0628649  0  0  0  0  0  0  0  0  0 
1704198035.857998000  -2.49618  -0.263131  1.01678  0  0  -0.0095218  0.0093088  0.222459  0.0928382  0  0  0  0  0.777009  0.0573834  0  0  0  0  0  0  0  0  0 
1704198035.862994000  -2.49614  -0.262009  1.01724  0  0  -0.0096469  0.0093088  0.226343  0.093112  0  0  0  0  0.776513  0.052152  0  0  0  0  0  0  0  0  0 
1704198035.867996000  -2.49609  -0.260868  1.01771  0  0  -0.0097719  0.0093088  0.230224  0.0933602  0  0  0  0  0.775768  0.0471705  0  0  0  0  0  0  0  0  0 
1704198035.872993000  -2.49604  -0.259707  1.01818  0  0  -0.0098969  0.0093088  0.2341  0.0935841  0  0  0  0  0.774773  0.0424391  0  0  0  0  0  0  0  0  0 
1704198035.878001000  -2.496  -0.258527  1.01864  0  0  -0.010022  0.0093088  0.237971  0.093785  0  0  0  0  0.773528  0.0379576  0  0  0  0  0  0  0  0  0 
1704198035.883006000  -2.49595  -0.257327  1.01911  0  0  -0.010147  0.0093088  0.241835  0.0939641  0  0  0  0  0.772033  0.0337261  0  0  0  0  0  0  0  0  0 
1704198035.887994000  -2.4959  -0.256108  1.01958  0  0  -0.010272  0.0093088  0.245691  0.0941227  0  0  0  0  0.770287  0.0297447  0  0  0  0  0  0  0  0  0 
1704198035.892994000  -2.49586  -0.25487  1.02006  0  0  -0.010397  0.0093088  0.249538  0.094262  0  0  0  0  0.768292  0.0260132  0  0  0  0  0  0  0  0  0 
1704198035.898002000  -2.49581  -0.253613  1.02053  0  0  -0.0105221  0.0093088  0.253374  0.0943832  0  0  0  0  0.766047  0.0225317  0  0  0  0  0  0  0  0  0 
1704198035.902994000  -2.49576  -0.252336  1.021  0  0  -0.0106471  0.0093088  0.257198  0.0944877  0  0  0  0  0.763552  0.0193003  0  0  0  0  0  0  0  0  0 
1704198035.907994000  -2.49572  -0.251041  1.02147  0  0  -0.0107721  0.0093088  0.261009  0.0945766  0  0  0  0  0.760807  0.0163188  0  0  0  0  0  0  0  0  0 
1704198035.912994000  -2.49567  -0.249726  1.02194  0  0  -0.0108972  0.0093088  0.264805  0.0946513  0  0  0  0  0.757811  0.0135873  0  0  0  0  0  0  0  0  0 
1704198035.918000000  -2.49562  -0.248393  1.02242  0  0  -0.0110222  0.0093088  0.268587  0.0947129  0  0  0  0  0.754566  0.0111059  0  0  0  0  0  0  0  0  0 
1704198035.922994000  -2.49558  -0.247041  1.02289  0  0  -0.0111472  0.0093088  0.272351  0.0947628  0  0  0  0  0.751071  0.0088744  0  0  0  0  0  0  0  0  0 
1704198035.927994000  -2.49553  -0.245669  1.02337  0  0  -0.0112723  0.0093088  0.276097  0.0948021  0  0  0  0  0.747326  0.0068929  0  0  0  0  0  0  0  0  0 
1704198035.932995000  -2.49549  -0.24428  1.02384  0  0  -0.0113973  0.0093088  0.279824  0.0948321  0  0  0  0  0.74333  0.0051615  0  0  0  0  0  0  0  0  0 
1704198035.938000000  -2.49544  -0.242871  1.02431  0  0  -0.0115223  0.0093088  0.28353  0.0948541  0  0  0  0  0.739085  0.00368  0  0  0  0  0  0  0  0  0 
1704198035.942993000  -2.49539  -0.241444  1.02479  0  0  -0.0116473  0.0093088  0.287214  0.0948693  0  0  0  0  0.73459  0.0024485  0  0  0  0  0  0  0  0  0 
1704198035.947993000  -2.49535  -0.239999  1.02526  0  0  -0.0117724  0.0093088  0.290875  0.094879  0  0  0  0  0.729845  0.0014671  0  0  0  0  0  0  0  0  0 
1704198035.952994000  -2.4953  -0.238536  1.02574  0  0  -0.0118974  0.0093088  0.294512  0.0948844  0  0  0  0  0.72485  0.0007356  0  0  0  0  0  0  0  0  0 
1704198035.957995000  -2.49525  -0.237054  1.02621  0  0  -0.0120224  0.0093088  0.298123  0.0948868  0  0  0  0  0.719604  0.0002541  0  0  0  0  0  0  0  0  0 
1704198035.962993000  -2.49521  -0.235554  1.02669  0  0  -0.0121475  0.0093088  0.301708  0.0948874  0  0  0  0  0.714109  2.27e-05  0  0  0  0  0  0  0  0  0 
1704198035.967995000  -2.49516  -0.234037  1.02716  0  0  -0.0122725  0.0093088  0.305264  0.0948874  0  0  0  0  0.708364  0  0  0  0  0  0  0  0  0  0 
1704198035.972994000  -2.49511  -0.232502  1.02764  0  0  -0.0123975  0.0093088  0.308791  0.0948874  0  0  0  0  0.702369  0  0  0  0  0  0  0  0  0  0 
1704198035.977999000  -2.49507  -0.230949  1.02811  0  0  -0.0125225  0.0093088  0.312287  0.0948874  0  0  0  0  0.696124  0  0  0  0  0  0  0  0  0  0 
1704198035.982994000  -2.49502  -0.229379  1.02858  0  0  -0.0126476  0.0093088  0.315752  0.0948874  0  0  0  0  0.689628  0  0  0  0  0  0  0  0  0  0 
1704198035.988004000  -2.49497  -0.227792  1.02906  0  0  -0.0127726  0.0093089  0.319183  0.0948874  0  0  0  0.0001052  0.682883  0  0  0  0  0  0  0  0  0  0 
1704198035.992994000  -2.49493  -0.226187  1.02953  0  0  -0.0128976  0.0093103  0.32258  0.0948874  0  0  0  0.0004596  0.675888  0  0  0  0  0  0  0  0  0  0 
1704198035.998000000  -2.49488  -0.224566  1.03001  0  0  -0.0130227  0.0093139  0.325942  0.0948874  0  0  0  0.001064  0.668643  0  0  0  0  0  0  0  0  0  0 
1704198036.002993000  -2.49483  -0.222928  1.03048  0  0  -0.0131477  0.0093213  0.329266  0.0948874  0  0  0  0.0019184  0.661148  0  0  0  0  0  0  0  0  0  0 
1704198036.007994000  -2.49479  -0.221273  1.03096  0  0  -0.0132727  0.0093335  0.332553  0.0948874  0  0  0  0.0030228  0.653402  0  0  0  0  0  0  0  0  0  0 
1704198036.012993000  -2.49474  -0.219602  1.03143  0  0  -0.0133978  0.0093519  0.3358  0.0948874  0  0  0  0.0043771  0.645407  0  0  0  0  0  0  0  0  0  0 
1704198036.018000000  -2.49469  -0.217915  1.03191  0  0  -0.0135228  0.0093777  0.339006  0.0948874  0  0  0  0.0059815  0.637162  0  0  0  0  0  0  0  0  0  0 
1704198036.022994000  -2.49465  -0.216212  1.03238  0  0  -0.0136478  0.0094122  0.342171  0.0948874  0  0  0  0.0078359  0.628667  0  0  0  0  0  0  0  0  0  0 
1704198036.027997000  -2.4946  -0.214494  1.03285  0  0  -0.0137728  0.0094565  0.345292  0.0948874  0  0  0  0.0099403  0.619921  0  0  0  0  0  0  0  0  0  0 
1704198036.032994000  -2.49455  -0.21276  1.03333  0  0  -0.0138979  0.009512  0.34837  0.0948874  0  0  0  0.0122947  0.610926  0  0  0  0  0  0  0  0  0  0 
1704198036.038000000  -2.4945  -0.21101  1.0338  0  0  -0.0140229  0.0095799  0.351401  0.0948874  0  0  0  0.014899  0.601681  0  0  0  0  0  0  0  0  0  0 
1704198036.042993000  -2.49446  -0.209246  1.03428  0  0  -0.0141479  0.0096614  0.354386  0.0948874  0  0  0  0.0177534  0.592186  0  0  0  0  0  0  0  0  0  0 
1704198036.047993000  -2.49441  -0.207466  1.03475  0  0  -0.014273  0.0097578  0.357323  0.0948874  0  0  0  0.0208578  0.582441  0  0  0  0  0  0  0  0  0  0 
1704198036.052994000  -2.49436  -0.205673  1.03523  0  0  -0.014398  0.0098704  0.36021  0.0948874  0  0  0  0.0242122  0.572445  0  0  0  0  0  0  0  0  0  0 
1704198036.057999000  -2.49431  -0.203864  1.0357  0  0  -0.014523  0.0100004  0.363047  0.0948874  0  0  0  0.0278166  0.5622  0  0  0  0  0  0  0  0  0  0 
1704198036.062994000  -2.49426  -0.202042  1.03617  0  0  -0.014648  0.010149  0.365832  0.0948874  0  0  0  0.031671  0.551705  0  0  0  0  0  0  0  0  0  0 
1704198036.067993000  -2.49421  -0.200206  1.03665  0  0  -0.0147731  0.0103175  0.368563  0.0948874  0  0  0  0.0357753  0.54096  0  0  0  0  0  0  0  0  0  0 
1704198036.072993000  -2.49416  -0.198357  1.03712  0  0  -0.0148981  0.0105072  0.371241  0.0948874  0  0  0  0.0401297  0.529965  0  0  0  0  0  0  0  0  0  0 
1704198036.077994000  -2.4941  -0.196494  1.0376  0  0  -0.0150231  0.0107192  0.373863  0.0948874  0  0  0  0.0447341  0.518719  0  0  0  0  0  0  0  0  0  0 
1704198036.082994000  -2.49405  -0.194618  1.03807  0  0  -0.0151482  0.0109549  0.376428  0.0948874  0  0  0  0.0495885  0.507224  0  0  0  0  0  0  0  0  0  0 
1704198036.087993000  -2.49399  -0.19273  1.03855  0  0  -0.0152732  0.0112155  0.378935  0.0948874  0  0  0  0.0546929  0.495479  0  0  0  0  0  0  0  0  0  0 
1704198036.092996000  -2.49394  -0.190829  1.03902  0  0  -0.0153982  0.0115023  0.381382  0.0948874  0  0  0  0.0600472  0.483484  0  0  0  0  0  0  0  0  0  0 
1704198036.098001000  -2.49388  -0.188916  1.0395  0  0  -0.0155233  0.0118164  0.383769  0.0948874  0  0  0  0.0656516  0.471239  0  0  0  0  0  0  0  0  0  0 
1704198036.102993000  -2.49382  -0.186991  1.03997  0  0  -0.0156483  0.0121592  0.386094  0.0948874  0  0  0  0.071506  0.458743  0  0  0  0  0  0  0  0  0  0 
1704198036.107993000  -2.49376  -0.185055  1.04044  0  0  -0.0157733  0.0125319  0.388356  0.0948874  0  0  0  0.0776104  0.445998  0  0  0  0  0  0  0  0  0  0 
1704198036.112993000  -2.49369  -0.183108  1.04092  0  0  -0.0158983  0.0129357  0.390554  0.0948874  0  0  0  0.0839648  0.433003  0  0  0  0  0  0  0  0  0  0 
1704198036.117995000  -2.49363  -0.18115  1.04139  0  0  -0.0160234  0.0133719  0.392686  0.0948874  0  0  0  0.0905692  0.419758  0  0  0  0  0  0  0  0  0  0 
1704198036.123001000  -2.49356  -0.179181  1.04187  0  0  -0.0161484  0.0138418  0.394751  0.0948874  0  0  0  0.0974235  0.406262  0  0  0  0  0  0  0  0  0  0 
1704198036.128008000  -2.49349  -0.177202  1.04234  0  0  -0.0162734  0.0143466  0.396748  0.0948874  0  0  0  0.104528  0.392517  0  0  0  0  0  0  0  0  0  0 
1704198036.132993000  -2.49341  -0.175214  1.04282  0  0  -0.0163985  0.0148875  0.398676  0.0948874  0  0  0  0.111882  0.378652  0  0  0  0  0  0  0  0  0  0 
1704198036.138000000  -2.49334  -0.173216  1.04329  0  0  -0.0165235  0.0154658  0.400535  0.0948874  0  0  0  0.119487  0.365018  0  0  0  0  0  0  0  0  0  0 
1704198036.142994000  -2.49326  -0.171208  1.04377  0  0  -0.0166485  0.0160828  0.402326  0.0948874  0  0  0  0.127341  0.351633  0  0  0  0  0  0  0  0  0  0 
1704198036.147993000  -2.49318  -0.169192  1.04424  0  0  -0.0167735  0.0167397  0.404051  0.0948874  0  0  0  0.135445  0.338498  0  0  0  0  0  0  0  0  0  0 
1704198036.152993000  -2.49309  -0.167168  1.04471  0  0  -0.0168986  0.0174377  0.405712  0.0948874  0  0  0  0.1438  0.325614  0  0  0  0  0  0  0  0  0  0 
1704198036.157997000  -2.493  -0.165135  1.04519  0  0  -0.0170236  0.0181781  0.407308  0.0948874  0  0  0  0.152404  0.312979  0  0  0  0  0  0  0  0  0  0 
1704198036.162994000  -2.49291  -0.163095  1.04566  0  0  -0.0171486  0.0189621  0.408842  0.0948874  0  0  0  0.161259  0.300595  0  0  0  0  0  0  0  0  0  0 
1704198036.167993000  -2.49281  -0.161047  1.04614  0  0  -0.0172737  0.0197911  0.410314  0.0948874  0  0  0  0.170363  0.28846  0  0  0  0  0  0  0  0  0  0 
1704198036.172993000  -2.49271  -0.158992  1.04661  0  0  -0.0173987  0.0206662  0.411727  0.0948874  0  0  0  0.179717  0.276575  0  0  0  0  0  0  0  0  0  0 
1704198036.178000000  -2.49261  -0.15693  1.04709  0  0  -0.0175237  0.0215887  0.413081  0.0948874  0  0  0  0.189322  0.264941  0  0  0  0  0  0  0  0  0  0 
1704198036.182993000  -2.4925  -0.154861  1.04756  0  0  -0.0176488  0.0225598  0.414377  0.0948874  0  0  0  0.199176  0.253556  0  0  0  0  0  0  0  0  0  0 
1704198036.187993000  -2.49238  -0.152786  1.04804  0  0  -0.0177738  0.0235808  0.415617  0.0948874  0  0  0  0.209281  0.242422  0  0  0  0  0  0  0  0  0  0 
1704198036.192993000  -2.49226  -0.150705  1.04851  0  0  -0.0178988  0.024653  0.416801  0.0948874  0  0  0  0.219635  0.231537  0  0  0  0  0  0  0  0  0  0 
1704198036.198000000  -2.49213  -0.148618  1.04898  0  0  -0.0180238  0.0257776  0.417932  0.0948874  0  0  0  0.230239  0.220903  0  0  0  0  0  0  0  0  0  0 
1704198036.202994000  -2.492  -0.146526  1.04946  0  0  -0.0181489  0.0269558  0.419011  0.0948874  0  0  0  0.241094  0.210518  0  0  0  0  0  0  0  0  0  0 
1704198036.207995000  -2.49187  -0.144428  1.04993  0  0  -0.0182739  0.028189  0.420038  0.0948874  0  0  0  0.252198  0.200383  0  0  0  0  0  0  0  0  0  0 
1704198036.212993000  -2.49172  -0.142326  1.05041  0  0  -0.0183989  0.0294782  0.421015  0.0948874  0  0  0  0.263552  0.190499  0  0  0  0  0  0  0  0  0  0 
1704198036.218001000  -2.49157  -0.140218  1.05088  0  0  -0.018524  0.0308249  0.421943  0.0948874  0  0  0  0.275157  0.180864  0  0  0  0  0  0  0  0  0  0 
1704198036.222994000  -2.49141  -0.138106  1.05136  0  0  -0.018649  0.0322302  0.422824  0.0948874  0  0  0  0.287011  0.17148  0  0  0  0  0  0  0  0  0  0 
1704198036.227994000  -2.49125  -0.13599  1.05183  0  0  -0.018774  0.0336954  0.423659  0.0948874  0  0  0  0.299116  0.162345  0  0  0  0  0  0  0  0  0  0 
1704198036.232994000  -2.49108  -0.13387  1.05231  0  0  -0.018899  0.0352218  0.424448  0.0948874  0  0  0  0.31147  0.153461  0  0  0  0  0  0  0  0  0  0 
1704198036.238003000  -2.4909  -0.131746  1.05278  0  0  -0.0190241  0.0368106  0.425194  0.0948874  0  0  0  0.324074  0.144826  0  0  0  0  0  0  0  0  0  0 
1704198036.242996000  -2.49071  -0.129618  1.05325  0  0  -0.0191491  0.038463  0.425897  0.0948874  0  0  0  0.336929  0.136441  0  0  0  0  0  0  0  0  0  0 
1704198036.247995000  -2.49051  -0.127487  1.05373  0  0  -0.0192741  0.0401803  0.426558  0.0948874  0  0  0  0.350033  0.128307  0  0  0  0  0  0  0  0  0  0 
1704198036.252995000  -2.49031  -0.125352  1.0542  0  0  -0.0193992  0.0419637  0.42718  0.0948874  0  0  0  0.363387  0.120422  0  0  0  0  0  0  0  0  0  0 
1704198036.257996000  -2.49009  -0.123215  1.05468  0  0  -0.0195242  0.0438145  0.427763  0.0948874  0  0  0  0.376992  0.112788  0  0  0  0  0  0  0  0  0  0 
1704198036.262994000  -2.48987  -0.121075  1.05515  0  0  -0.0196492  0.045734  0.428308  0.0948874  0  0  0  0.390846  0.105403  0  0  0  0  0  0  0  0  0  0 
1704198036.267994000  -2.48963  -0.118932  1.05563  0  0  -0.0197743  0.0477234  0.428817  0.0948874  0  0  0  0.404951  0.0982684  0  0  0  0  0  0  0  0  0  0 
1704198036.272994000  -2.48939  -0.116787  1.0561  0  0  -0.0198994  0.049784  0.429291  0.0948874  0  0  0  0.419305  0.0913839  0  0  0  0  0  0  0  0  0  0 
1704198036.278002000  -2.48914  -0.114639  1.05658  0  0  -0.0200246  0.0519169  0.429732  0.0948874  0  0  0  0.433909  0.0847493  0  0  0  0  0  0  0  0  0  0 
1704198036.282995000  -2.48887  -0.11249  1.05705  0  0  -0.02015  0.0541235  0.430139  0.0948874  0  0  0  0.448764  0.0783647  0  0  0  0  0  0  0  0  0  0 
1704198036.287993000  -2.48859  -0.110338  1.05752  0  0  -0.0202756  0.0564049  0.430516  0.0948874  0  0  0  0.463868  0.0722301  0  0  0  0  0  0  0  0  0  0 
1704198036.292995000  -2.48831  -0.108184  1.058  0  0  -0.0204014  0.0587626  0.430862  0.0948874  0  0  0  0.479223  0.0663455  0  0  0  0  0  0  0  0  0  0 
1704198036.298001000  -2.48801  -0.106029  1.05847  0  0  -0.0205276  0.0611976  0.43118  0.0948874  0  0  0  0.494827  0.060711  0  0  0  0  0  0  0  0  0  0 
1704198036.302995000  -2.48769  -0.103873  1.05895  0  0  -0.0206542  0.0637113  0.43147  0.0948874  0  0  0  0.510681  0.0553264  0  0  0  0  0  0  0  0  0  0 
1704198036.307995000  -2.48737  -0.101715  1.05942  0  0  -0.0207813  0.0663048  0.431733  0.0948874  0  0  0  0.526786  0.0501918  0  0  0  0  0  0  0  0  0  0 
1704198036.312995000  -2.48703  -0.0995554  1.0599  0  0  -0.0209091  0.0689795  0.431972  0.0948874  0  0  0  0.54314  0.0453072  0  0  0  0  0  0  0  0  0  0 
1704198036.318002000  -2.48668  -0.097395  1.06037  0  0  -0.0210377  0.0717366  0.432187  0.0948874  0  0  0  0.559744  0.0406726  0  0  0  0  0  0  0  0  0  0 
1704198036.322996000  -2.48631  -0.0952335  1.06085  0  0  -0.0211671  0.0745774  0.432379  0.0948874  0  0  0  0.576599  0.0362881  0  0  0  0  0  0  0  0  0  0 
1704198036.327994000  -2.48593  -0.0930712  1.06132  0  0  -0.0212975  0.077503  0.43255  0.0948874  0  0  0  0.593703  0.0321535  0  0  0  0  0  0  0  0  0  0 
1704198036.332994000  -2.48554  -0.0909081  1.06179  0  0  -0.0214292  0.0805148  0.432701  0.0948874  0  0  0  0.611058  0.0282689  0  0  0  0  0  0  0  0  0  0 
1704198036.338002000  -2.48513  -0.0887442  1.06227  0  0  -0.0215621  0.083614  0.432833  0.0948874  0  0  0  0.628662  0.0246343  0  0  0  0  0  0  0  0  0  0 
1704198036.342995000  -2.4847  -0.0865798  1.06274  0  0  -0.0216966  0.0868019  0.432948  0.0948874  0  0  0  0.646516  0.0212497  0  0  0  0  0  0  0  0  0  0 
1704198036.347996000  -2.48426  -0.0844148  1.06322  0  0  -0.0218327  0.0900796  0.433046  0.0948874  0  0  0  0.664621  0.0181152  0  0  0  0  0  0  0  0  0  0 
1704198036.352993000  -2.4838  -0.0822493  1.06369  0  0  -0.0219708  0.0934485  0.433129  0.0948874  0  0  0  0.682975  0.0152306  0  0  0  0  0  0  0  0  0  0 
1704198036.358001000  -2.48333  -0.0800835  1.06417  0  0  -0.0221108  0.0969098  0.433199  0.0948874  0  0  0  0.701579  0.012596  0  0  0  0  0  0  0  0  0  0 
1704198036.362992000  -2.48283  -0.0779174  1.06464  0  0  -0.0222532  0.100465  0.433256  0.0948874  0  0  0  0.720434  0.0102114  0  0  0  0  0  0  0  0  0  0 
1704198036.367993000  -2.48232  -0.075751  1.06512  0  0  -0.022398  0.104115  0.433301  0.0948874  0  0  0  0.739538  0.0080768  0  0  0  0  0  0  0  0  0  0 
1704198036.372994000  -2.48179  -0.0735844  1.06559  0  0  -0.0225456  0.10786  0.433337  0.0948874  0  0  0  0.758821  0.0061922  0  0  0  0  0  0  0  0  0  0 
1704198036.377999000  -2.48124  -0.0714176  1.06606  0  0  -0.0226961  0.111702  0.433364  0.0948874  0  0  0  0.777908  0.0045577  0  0  0  0  0  0  0  0  0  0 
1704198036.382994000  -2.48067  -0.0692508  1.06654  0  0  -0.0228498  0.115639  0.433383  0.0948874  0  0  0  0.796745  0.0031731  0  0  0  0  0  0  0  0  0  0 
1704198036.387994000  -2.48009  -0.0670838  1.06701  0  0  -0.023007  0.119669  0.433396  0.0948874  0  0  0  0.815332  0.0020385  0  0  0  0  0  0  0  0  0  0 
1704198036.392994000  -2.47948  -0.0649168  1.06749  0  0  -0.0231678  0.123792  0.433404  0.0948874  0  0  0  0.833669  0.0011539  0  0  0  0  0  0  0  0  0  0 
1704198036.398000000  -2.47885  -0.0627498  1.06796  0  0  -0.0233325  0.128006  0.433408  0.0948874  0  0  0  0.851756  0.0005193  0  0  0  0  0  0  0  0  0  0 
1704198036.402995000  -2.4782  -0.0605827  1.06844  0  0  -0.0235014  0.132309  0.433409  0.0948874  0  0  0  0.869593  0.0001348  0  0  0  0  0  0  0  0  0  0 
1704198036.407996000  -2.47752  -0.0584157  1.06891  0  0  -0.0236746  0.136701  0.43341  0.0948874  0  0  0  0.88718  2e-07  0  0  0  0  0  0  0  0  0  0 
1704198036.412993000  -2.47683  -0.0562486  1.06939  0  0  -0.0238522  0.141181  0.43341  0.0948874  0  0  0  0.904517  0.0001141  0  0  0  0  0  0  0  0  0  0 
1704198036.417998000  -2.47611  -0.0540816  1.06986  0  0  -0.0240346  0.145746  0.433411  0.0948874  0  0  0  0.921604  0.0004779  0  0  0  0  0  0  0  0  0  0 
1704198036.422996000  -2.47537  -0.0519145  1.07033  0  0  -0.0242218  0.150396  0.433415  0.0948874  0  0  0  0.938441  0.0010917  0  0  0  0  0  0  0  0  0  0 
1704198036.427993000  -2.47461  -0.0497474  1.07081  0  0  -0.024414  0.15513  0.433422  0.0948874  0  0  0  0.955028  0.0019555  0  0  0  0  0  0  0  0  0  0 
1704198036.432999000  -2.47382  -0.0475803  1.07128  0  0  -0.0246114  0.159946  0.433435  0.0948874  0  0  0  0.971365  0.0030693  0  0  0  0  0  0  0  0  0  0 
1704198036.438000000  -2.47301  -0.0454131  1.07176  0  0  -0.0248141  0.164843  0.433454  0.0948874  0  0  0  0.987452  0.0044331  0  0  0  0  0  0  0  0  0  0 
1704198036.442994000  -2.47217  -0.0432457  1.07223  0  0  -0.0250223  0.16982  0.43348  0.0948874  0  0  0  1.00329  0.0060469  0  0  0  0  0  0  0  0  0  0 
1704198036.447992000  -2.47131  -0.0410783  1.07271  0  0  -0.025236  0.174876  0.433514  0.0948874  0  0  0  1.01888  0.0079107  0  0  0  0  0  0  0  0  0  0 
1704198036.452994000  -2.47042  -0.0389106  1.07318  0  0  -0.0254554  0.180008  0.433559  0.0948874  0  0  0  1.03421  0.0100245  0  0  0  0  0  0  0  0  0  0 
1704198036.457997000  -2.46951  -0.0367426  1.07366  0  0  -0.0256806  0.185217  0.433615  0.0948874  0  0  0  1.0493  0.0123883  0  0  0  0  0  0  0  0  0  0 
1704198036.462993000  -2.46857  -0.0345744  1.07413  0  0  -0.0259116  0.190501  0.433684  0.0948874  0  0  0  1.06414  0.0150021  0  0  0  0  0  0  0  0  0  0 
1704198036.467994000  -2.4676  -0.0324058  1.0746  0  0  -0.0261486  0.195858  0.433766  0.0948874  0  0  0  1.07872  0.0178659  0  0  0  0  0  0  0  0  0  0 
1704198036.472993000  -2.46661  -0.0302367  1.07508  0  0  -0.0263917  0.201288  0.433863  0.0948874  0  0  0  1.09306  0.0209798  0  0  0  0  0  0  0  0  0  0 
1704198036.478000000  -2.46559  -0.0280671  1.07555  0  0  -0.0266408  0.206788  0.433976  0.0948874  0  0  0  1.10715  0.0243436  0  0  0  0  0  0  0  0  0  0 
1704198036.482995000  -2.46454  -0.0258969  1.07603  0  0  -0.0268961  0.212359  0.434106  0.0948874  0  0  0  1.12098  0.0279574  0  0  0  0  0  0  0  0  0  0 
1704198036.487993000  -2.46347  -0.023726  1.0765  0  0  -0.0271575  0.217998  0.434256  0.0948874  0  0  0  1.13457  0.0318212  0  0  0  0  0  0  0  0  0  0 
1704198036.493003000  -2.46236  -0.0215543  1.07698  0  0  -0.0274252  0.223704  0.434425  0.0948874  0  0  0  1.14791  0.035935  0  0  0  0  0  0  0  0  0  0 
1704198036.497999000  -2.46123  -0.0193818  1.07745  0  0  -0.0276991  0.229477  0.434616  0.0948874  0  0  0  1.161  0.0402988  0  0  0  0  0  0  0  0  0  0 
1704198036.502992000  -2.46007  -0.0172082  1.07793  0  0  -0.0279792  0.235314  0.434828  0.0948874  0  0  0  1.17383  0.0449126  0  0  0  0  0  0  0  0  0  0 
1704198036.507995000  -2.45888  -0.0150334  1.0784  0  0  -0.0282656  0.241215  0.435065  0.0948874  0  0  0  1.18642  0.0497764  0  0  0  0  0  0  0  0  0  0 
1704198036.513011000  -2.45766  -0.0128575  1.07887  0  0  -0.0285582  0.247178  0.435327  0.0948874  0  0  0  1.19876  0.0548902  0  0  0  0  0  0  0  0  0  0 
1704198036.518020000  -2.45641  -0.0106801  1.07935  0  0  -0.0288571  0.253202  0.435614  0.0948874  0  0  0  1.21084  0.060254  0  0  0  0  0  0  0  0  0  0 
1704198036.522992000  -2.45512  -0.0085013  1.07982  0  0  -0.0291623  0.259286  0.43593  0.0948874  0  0  0  1.22268  0.0658678  0  0  0  0  0  0  0  0  0  0 
1704198036.527994000  -2.45381  -0.0063208  1.0803  0  0  -0.0294736  0.265428  0.436273  0.0948874  0  0  0  1.23427  0.0717316  0  0  0  0  0  0  0  0  0  0 
1704198036.532995000  -2.45247  -0.0041385  1.08077  0  0  -0.0297913  0.271628  0.436647  0.0948874  0  0  0  1.2456  0.0778454  0  0  0  0  0  0  0  0  0  0 
1704198036.538000000  -2.4511  -0.0019542  1.08125  0  0  -0.0301152  0.277884  0.437052  0.0948874  0  0  0  1.25669  0.0842093  0  0  0  0  0  0  0  0  0  0 
1704198036.542994000  -2.44969  0.0002321  1.08172  0  0  -0.0304453  0.284194  0.43749  0.0948874  0  0  0  1.26753  0.0908231  0  0  0  0  0  0  0  0  0  0 
1704198036.547993000  -2.44825  0.0024207  1.0822  0  0  -0.0307817  0.290559  0.437961  0.0948874  0  0  0  1.27812  0.0976869  0  0  0  0  0  0  0  0  0  0 
1704198036.552994000  -2.44679  0.0046118  1.08267  0  0  -0.0311243  0.296975  0.438467  0.0948874  0  0  0  1.28845  0.104801  0  0  0  0  0  0  0  0  0  0 
1704198036.558000000  -2.44528  0.0068054  1.08314  0  0  -0.0314732  0.303443  0.439009  0.0948874  0  0  0  1.29854  0.112164  0  0  0  0  0  0  0  0  0  0 
1704198036.562995000  -2.44375  0.0090019  1.08362  0  0  -0.0318284  0.30996  0.439589  0.0948874  0  0  0  1.30838  0.119778  0  0  0  0  0  0  0  0  0  0 
1704198036.567995000  -2.44218  0.0112014  1.08409  0  0  -0.0321897  0.316526  0.440208  0.0948874  0  0  0  1.31796  0.127642  0  0  0  0  0  0  0  0  0  0 
1704198036.572994000  -2.44059  0.0134041  1.08457  0  0  -0.0325574  0.323139  0.440866  0.0948874  0  0  0  1.3273  0.135756  0  0  0  0  0  0  0  0  0  0 
1704198036.577996000  -2.43895  0.0156101  1.08504  0  0  -0.0329313  0.329799  0.441566  0.0948874  0  0  0  1.33639  0.14412  0  0  0  0  0  0  0  0  0  0 
1704198036.582995000  -2.43729  0.0178198  1.08552  0  0  -0.0333114  0.336503  0.442308  0.0948874  0  0  0  1.34522  0.152734  0  0  0  0  0  0  0  0  0  0 
1704198036.587991000  -2.43559  0.0200333  1.08599  0  0  -0.0336978  0.34325  0.443093  0.0948874  0  0  0  1.35381  0.161597  0  0  0  0  0  0  0  0  0  0 
1704198036.592995000  -2.43386  0.0222508  1.08647  0  0  -0.0340904  0.35004  0.443924  0.0948874  0  0  0  1.36215  0.170711  0  0  0  0  0  0  0  0  0  0 
1704198036.598000000  -2.43209  0.0244726  1.08694  0  0  -0.0344893  0.356871  0.444801  0.0948874  0  0  0  1.37024  0.180075  0  0  0  0  0  0  0  0  0  0 
1704198036.602994000  -2.43029  0.0266989  1.08741  0  0  -0.0348945  0.363742  0.445725  0.0948874  0  0  0  1.37807  0.189689  0  0  0  0  0  0  0  0  0  0 
1704198036.607998000  -2.42845  0.0289299  1.08789  0  0  -0.0353059  0.370652  0.446698  0.0948874  0  0  0  1.38566  0.199553  0  0  0  0  0  0  0  0  0  0 
1704198036.612993000  -2.42658  0.0311659  1.08836  0  0  -0.0357235  0.377599  0.447721  0.0948874  0  0  0  1.393  0.209666  0  0  0  0  0  0  0  0  0  0 
1704198036.618000000  -2.42467  0.0334072  1.08884  0  0  -0.0361474  0.384581  0.448795  0.0948874  0  0  0  1.40008  0.22003  0  0  0  0  0  0  0  0  0  0 
1704198036.622993000  -2.42273  0.035654  1.08931  0  0  -0.0365775  0.391599  0.449922  0.0948874  0  0  0  1.40692  0.230644  0  0  0  0  0  0  0  0  0  0 
1704198036.628009000  -2.42076  0.0379065  1.08979  0  0  -0.0370139  0.39865  0.451102  0.0948874  0  0  0  1.41351  0.241508  0  0  0  0  0  0  0  0  0  0 
1704198036.632990000  -2.41875  0.0401651  1.09026  0  0  -0.0374565  0.405734  0.452337  0.0948874  0  0  0  1.41984  0.252622  0  0  0  0  0  0  0  0  0  0 
1704198036.638001000  -2.4167  0.04243  1.09074  0  0  -0.0379054  0.412848  0.453629  0.0948874  0  0  0  1.42593  0.263942  0  0  0  0  0  0  0  0  0  0 
1704198036.642993000  -2.41462  0.0447015  1.09121  0  0  -0.0383606  0.419992  0.454976  0.0948874  0  0  0  1.43177  0.275099  0  0  0  0  0  0  0  0  0  0 
1704198036.647993000  -2.4125  0.0469799  1.09168  0  0  -0.038822  0.427165  0.456379  0.0948874  0  0  0  1.43736  0.286005  0  0  0  0  0  0  0  0  0  0 
1704198036.652995000  -2.41035  0.0492654  1.09216  0  0  -0.0392896  0.434366  0.457836  0.0948874  0  0  0  1.44269  0.296662  0  0  0  0  0  0  0  0  0  0 
1704198036.657996000  -2.40816  0.0515583  1.09263  0  0  -0.0397635  0.441592  0.459346  0.0948874  0  0  0  1.44778  0.307068  0  0  0  0  0  0  0  0  0  0 
1704198036.662994000  -2.40593  0.0538589  1.09311  0  0  -0.0402436  0.448843  0.460906  0.0948874  0  0  0  1.45262  0.317225  0  0  0  0  0  0  0  0  0  0 
1704198036.667994000  -2.40367  0.0561674  1.09358  0  0  -0.04073  0.456118  0.462517  0.0948874  0  0  0  1.4572  0.327131  0  0  0  0  0  0  0  0  0  0 
1704198036.672993000  -2.40137  0.0584842  1.09406  0  0  -0.0412227  0.463415  0.464177  0.0948874  0  0  0  1.46154  0.336788  0  0  0  0  0  0  0  0  0  0 
1704198036.678000000  -2.39903  0.0608093  1.09453  0  0  -0.0417215  0.470733  0.465885  0.0948874  0  0  0  1.46563  0.346194  0  0  0  0  0  0  0  0  0  0 
1704198036.682991000  -2.39666  0.0631431  1.09501  0  0  -0.0422267  0.47807  0.467639  0.0948874  0  0  0  1.46946  0.355351  0  0  0  0  0  0  0  0  0  0 
1704198036.687993000  -2.39425  0.0654858  1.09548  0  0  -0.0427381  0.485427  0.469438  0.0948874  0  0  0  1.47305  0.364257  0  0  0  0  0  0  0  0  0  0 
1704198036.692995000  -2.39181  0.0678375  1.09595  0  0  -0.0432557  0.492801  0.471281  0.0948874  0  0  0  1.47639  0.372914  0  0  0  0  0  0  0  0  0  0 
1704198036.698001000  -2.38933  0.0701986  1.09643  0  0  -0.0437796  0.50019  0.473167  0.0948874  0  0  0  1.47947  0.38132  0  0  0  0  0  0  0  0  0  0 
1704198036.702994000  -2.38681  0.0725693  1.0969  0  0  -0.0443097  0.507595  0.475094  0.0948874  0  0  0  1.48231  0.389477  0  0  0  0  0  0  0  0  0  0 
1704198036.708063000  -2.38425  0.0749496  1.09738  0  0  -0.0448461  0.515013  0.477061  0.0948874  0  0  0  1.4849  0.397383  0  0  0  0  0  0  0  0  0  0 
1704198036.712993000  -2.38166  0.07734  1.09785  0  0  -0.0453888  0.522443  0.479067  0.0948874  0  0  0  1.48724  0.40504  0  0  0  0  0  0  0  0  0  0 
1704198036.718000000  -2.37903  0.0797404  1.09833  0  0  -0.0459377  0.529885  0.481111  0.0948874  0  0  0  1.48932  0.412447  0  0  0  0  0  0  0  0  0  0 
1704198036.722993000  -2.37636  0.0821511  1.0988  0  0  -0.0464928  0.537336  0.483191  0.0948874  0  0  0  1.49116  0.419603  0  0  0  0  0  0  0  0  0  0 
1704198036.727993000  -2.37365  0.0845724  1.09928  0  0  -0.0470542  0.544796  0.485307  0.0948874  0  0  0  1.49275  0.42651  0  0  0  0  0  0  0  0  0  0 
1704198036.733064000  -2.37091  0.0870042  1.09975  0  0  -0.0476218  0.552263  0.487456  0.0948874  0  0  0  1.49408  0.433166  0  0  0  0  0  0  0  0  0  0 
1704198036.738001000  -2.36813  0.089447  1.10022  0  0  -0.0481957  0.559737  0.489638  0.0948874  0  0  0  1.49517  0.439573  0  0  0  0  0  0  0  0  0  0 
1704198036.742995000  -2.36531  0.0919007  1.1007  0  0  -0.0487758  0.567215  0.491851  0.0948874  0  0  0  1.49601  0.445729  0  0  0  0  0  0  0  0  0  0 
1704198036.747995000  -2.36246  0.0943655  1.10117  0  0  -0.0493622  0.574696  0.494095  0.0948874  0  0  0  1.49659  0.451636  0  0  0  0  0  0  0  0  0  0 
1704198036.752985000  -2.35956  0.0968417  1.10165  0  0  -0.0499549  0.58218  0.496367  0.0948874  0  0  0  1.49693  0.457292  0  0  0  0  0  0  0  0  0  0 
1704198036.757998000  -2.35664  0.0993292  1.10212  0  0  -0.0505538  0.589665  0.498667  0.0948874  0  0  0  1.49702  0.462699  0  0  0  0  0  0  0  0  0  0 
1704198036.762994000  -2.35367  0.101828  1.1026  0  0  -0.0511589  0.59715  0.500994  0.0948874  0  0  0  1.49686  0.467855  0  0  0  0  0  0  0  0  0  0 
1704198036.767992000  -2.35066  0.104339  1.10307  0  0  -0.0517703  0.604633  0.503345  0.0948874  0  0  0  1.49644  0.472762  0  0  0  0  0  0  0  0  0  0 
1704198036.772992000  -2.34762  0.106862  1.10355  0  0  -0.0523879  0.612114  0.505721  0.0948874  0  0  0  1.49578  0.477418  0  0  0  0  0  0  0  0  0  0 
1704198036.778001000  -2.34454  0.109396  1.10402  0  0  -0.0530118  0.619591  0.508119  0.0948874  0  0  0  1.49487  0.481825  0  0  0  0  0  0  0  0  0  0 
1704198036.782994000  -2.34143  0.111943  1.10449  0  0  -0.053642  0.627062  0.510539  0.0948874  0  0  0  1.4937  0.485981  0  0  0  0  0  0  0  0  0  0 
1704198036.787992000  -2.33827  0.114502  1.10497  0  0  -0.0542783  0.634527  0.512978  0.0948874  0  0  0  1.49229  0.489888  0  0  0  0  0  0  0  0  0  0 
1704198036.792992000  -2.33508  0.117073  1.10544  0  0  -0.054921  0.641985  0.515437  0.0948874  0  0  0  1.49063  0.493544  0  0  0  0  0  0  0  0  0  0 
1704198036.798001000  -2.33185  0.119656  1.10592  0  0  -0.0555699  0.649433  0.517914  0.0948874  0  0  0  1.48871  0.496951  0  0  0  0  0  0  0  0  0  0 
1704198036.802993000  -2.32859  0.122252  1.10639  0  0  -0.056225  0.656871  0.520406  0.0948874  0  0  0  1.48655  0.500107  0  0  0  0  0  0  0  0  0  0 
1704198036.807995000  -2.32528  0.12486  1.10687  0  0  -0.0568864  0.664298  0.522914  0.0948874  0  0  0  1.48414  0.503014  0  0  0  0  0  0  0  0  0  0 
1704198036.812992000  -2.32194  0.127481  1.10734  0  0  -0.057554  0.671712  0.525436  0.0948874  0  0  0  1.48148  0.50567  0  0  0  0  0  0  0  0  0  0 
1704198036.818001000  -2.31857  0.130115  1.10781  0  0  -0.0582279  0.679113  0.52797  0.0948874  0  0  0  1.47856  0.508077  0  0  0  0  0  0  0  0  0  0 
1704198036.822992000  -2.31515  0.132761  1.10829  0  0  -0.0589081  0.686498  0.530516  0.0948874  0  0  0  1.4754  0.510233  0  0  0  0  0  0  0  0  0  0 
1704198036.827995000  -2.3117  0.13542  1.10876  0  0  -0.0595944  0.693866  0.533072  0.0948874  0  0  0  1.47199  0.51214  0  0  0  0  0  0  0  0  0  0 
1704198036.833061000  -2.30821  0.138092  1.10924  0  0  -0.0602871  0.701217  0.535637  0.0948874  0  0  0  1.46832  0.513796  0  0  0  0  0  0  0  0  0  0 
1704198036.837999000  -2.30469  0.140776  1.10971  0  0  -0.060986  0.708549  0.53821  0.0948874  0  0  0  1.46441  0.515203  0  0  0  0  0  0  0  0  0  0 
1704198036.842992000  -2.30113  0.143474  1.11019  0  0  -0.0616911  0.715861  0.540789  0.0948874  0  0  0  1.46025  0.516359  0  0  0  0  0  0  0  0  0  0 
1704198036.847993000  -2.29753  0.146184  1.11066  0  0  -0.0624025  0.723151  0.543373  0.0948874  0  0  0  1.45583  0.517266  0  0  0  0  0  0  0  0  0  0 
1704198036.852994000  -2.2939  0.148908  1.11114  0  0  -0.0631201  0.730419  0.545961  0.0948874  0  0  0  1.45117  0.517922  0  0  0  0  0  0  0  0  0  0 
1704198036.857995000  -2.29023  0.151644  1.11161  0  0  -0.063844  0.737662  0.548552  0.0948874  0  0  0  1.44626  0.518329  0  0  0  0  0  0  0  0  0  0 
1704198036.862993000  -2.28652  0.154393  1.11208  0  0  -0.0645742  0.744881  0.551144  0.0948874  0  0  0  1.4411  0.518485  0  0  0  0  0  0  0  0  0  0 
1704198036.867993000  -2.28278  0.157155  1.11256  0  0  -0.0653106  0.752073  0.553736  0.0948874  0  0  0  1.43568  0.518392  0  0  0  0  0  0  0  0  0  0 
1704198036.872996000  -2.279  0.15993  1.11303  0  0  -0.0660532  0.759237  0.556328  0.0948874  0  0  0  1.43002  0.518048  0  0  0  0  0  0  0  0  0  0 
1704198036.878000000  -2.27519  0.162719  1.11351  0  0  -0.0668021  0.766373  0.558916  0.0948874  0  0  0  1.42411  0.517455  0  0  0  0  0  0  0  0  0  0 
1704198036.882995000  -2.27134  0.16552  1.11398  0  0  -0.0675572  0.773478  0.561502  0.0948874  0  0  0  1.41794  0.516611  0  0  0  0  0  0  0  0  0  0 
1704198036.887993000  -2.26745  0.168334  1.11446  0  0  -0.0683186  0.780552  0.564082  0.0948874  0  0  0  1.41153  0.515518  0  0  0  0  0  0  0  0  0  0 
1704198036.892996000  -2.26353  0.17116  1.11493  0  0  -0.0690862  0.787593  0.566656  0.0948874  0  0  0  1.40487  0.514174  0  0  0  0  0  0  0  0  0  0 
1704198036.897997000  -2.25957  0.174  1.11541  0  0  -0.0698601  0.7946  0.569223  0.0948874  0  0  0  1.39795  0.512581  0  0  0  0  0  0  0  0  0  0 
1704198036.902995000  -2.25558  0.176853  1.11588  0  0  -0.0706403  0.801572  0.571782  0.0948874  0  0  0  1.39079  0.510737  0  0  0  0  0  0  0  0  0  0 
1704198036.907993000  -2.25156  0.179718  1.11635  0  0  -0.0714267  0.808507  0.57433  0.0948874  0  0  0  1.38338  0.508644  0  0  0  0  0  0  0  0  0  0 
1704198036.912995000  -2.2475  0.182596  1.11683  0  0  -0.0722193  0.815405  0.576868  0.0948874  0  0  0  1.37572  0.5063  0  0  0  0  0  0  0  0  0  0 
1704198036.918000000  -2.24341  0.185487  1.1173  0  0  -0.0730182  0.822264  0.579393  0.0948874  0  0  0  1.3678  0.503707  0  0  0  0  0  0  0  0  0  0 
1704198036.922996000  -2.23928  0.18839  1.11778  0  0  -0.0738233  0.829083  0.581904  0.0948874  0  0  0  1.35964  0.500863  0  0  0  0  0  0  0  0  0  0 
1704198036.927994000  -2.23511  0.191306  1.11825  0  0  -0.0746347  0.83586  0.584401  0.0948874  0  0  0  1.35123  0.49777  0  0  0  0  0  0  0  0  0  0 
1704198036.932994000  -2.23092  0.194234  1.11873  0  0  -0.0754524  0.842595  0.586882  0.0948874  0  0  0  1.34256  0.494426  0  0  0  0  0  0  0  0  0  0 
1704198036.938000000  -2.22669  0.197174  1.1192  0  0  -0.0762762  0.849285  0.589345  0.0948874  0  0  0  1.33365  0.490833  0  0  0  0  0  0  0  0  0  0 
1704198036.942995000  -2.22243  0.200127  1.11968  0  0  -0.0771064  0.855931  0.59179  0.0948874  0  0  0  1.32449  0.486989  0  0  0  0  0  0  0  0  0  0 
1704198036.947993000  -2.21813  0.203092  1.12015  0  0  -0.0779428  0.86253  0.594214  0.0948874  0  0  0  1.31507  0.482896  0  0  0  0  0  0  0  0  0  0 
1704198036.952992000  -2.2138  0.206069  1.12062  0  0  -0.0787854  0.869081  0.596618  0.0948874  0  0  0  1.30541  0.478552  0  0  0  0  0  0  0  0  0  0 
1704198036.958001000  -2.20944  0.209058  1.1211  0  0  -0.0796343  0.875583  0.599  0.0948874  0  0  0  1.2955  0.473959  0  0  0  0  0  0  0  0  0  0 
1704198036.962994000  -2.20504  0.212059  1.12157  0  0  -0.0804894  0.882036  0.601357  0.0948874  0  0  0  1.28533  0.469115  0  0  0  0  0  0  0  0  0  0 
1704198036.967994000  -2.20062  0.215072  1.12205  0  0  -0.0813508  0.888436  0.60369  0.0948874  0  0  0  1.27492  0.464022  0  0  0  0  0  0  0  0  0  0 
1704198036.972993000  -2.19616  0.218096  1.12252  0  0  -0.0822185  0.894784  0.605997  0.0948874  0  0  0  1.26426  0.458678  0  0  0  0  0  0  0  0  0  0 
1704198036.978002000  -2.19167  0.221132  1.123  0  0  -0.0830924  0.901079  0.608277  0.0948874  0  0  0  1.25335  0.453085  0  0  0  0  0  0  0  0  0  0 
1704198036.982992000  -2.18715  0.224179  1.12347  0  0  -0.0839725  0.907317  0.610528  0.0948874  0  0  0  1.24218  0.447241  0  0  0  0  0  0  0  0  0  0 
1704198036.988002000  -2.1826  0.227237  1.12395  0  0  -0.0848589  0.9135  0.612749  0.0948874  0  0  0  1.23077  0.441148  0  0  0  0  0  0  0  0  0  0 
1704198036.992994000  -2.17801  0.230306  1.12442  0  0  -0.0857515  0.919625  0.614939  0.0948874  0  0  0  1.21911  0.434804  0  0  0  0  0  0  0  0  0  0 
1704198036.998001000  -2.1734  0.233386  1.12489  0  0  -0.0866504  0.925691  0.617096  0.0948874  0  0  0  1.20719  0.428211  0  0  0  0  0  0  0  0  0  0 
1704198037.002993000  -2.16876  0.236477  1.12537  0  0  -0.0875555  0.931696  0.61922  0.0948874  0  0  0  1.19503  0.421367  0  0  0  0  0  0  0  0  0  0 
1704198037.007993000  -2.16408  0.239579  1.12584  0  0  -0.0884669  0.937641  0.62131  0.0948874  0  0  0  1.18262  0.414274  0  0  0  0  0  0  0  0  0  0 
1704198037.012991000  -2.15938  0.24269  1.12632  0  0  -0.0893846  0.943522  0.623363  0.0948874  0  0  0  1.16995  0.40693  0  0  0  0  0  0  0  0  0  0 
1704198037.017998000  -2.15465  0.245812  1.12679  0  0  -0.0903085  0.94934  0.625378  0.0948874  0  0  0  1.15704  0.399337  0  0  0  0  0  0  0  0  0  0 
1704198037.022993000  -2.14989  0.248944  1.12727  0  0  -0.0912386  0.955092  0.627356  0.0948874  0  0  0  1.14388  0.391493  0  0  0  0  0  0  0  0  0  0 
1704198037.027994000  -2.1451  0.252086  1.12774  0  0  -0.092175  0.960778  0.629293  0.0948874  0  0  0  1.13047  0.3834  0  0  0  0  0  0  0  0  0  0 
1704198037.032995000  -2.14028  0.255237  1.12822  0  0  -0.0931176  0.966396  0.631189  0.0948874  0  0  0  1.1168  0.375056  0  0  0  0  0  0  0  0  0  0 
1704198037.037999000  -2.13543  0.258397  1.12869  0  0  -0.0940665  0.971946  0.633043  0.0948874  0  0  0  1.10289  0.366463  0  0  0  0  0  0  0  0  0  0 
1704198037.042994000  -2.13056  0.261567  1.12916  0  0  -0.0950216  0.977425  0.634853  0.0948874  0  0  0  1.08873  0.357619  0  0  0  0  0  0  0  0  0  0 
1704198037.047993000  -2.12566  0.264746  1.12964  0  0  -0.095983  0.982832  0.636619  0.0948874  0  0  0  1.07431  0.348526  0  0  0  0  0  0  0  0  0  0 
1704198037.052993000  -2.12073  0.267933  1.13011  0  0  -0.0969507  0.988167  0.638338  0.0948874  0  0  0  1.05965  0.339182  0  0  0  0  0  0  0  0  0  0 
1704198037.057996000  -2.11578  0.271129  1.13059  0  0  -0.0979246  0.993429  0.64001  0.0948874  0  0  0  1.04474  0.329589  0  0  0  0  0  0  0  0  0  0 
1704198037.062993000  -2.1108  0.274333  1.13106  0  0  -0.0989047  0.998614  0.641634  0.0948874  0  0  0  1.02957  0.319745  0  0  0  0  0  0  0  0  0  0 
1704198037.067993000  -2.10579  0.277545  1.13154  0  0  -0.0998911  1.00372  0.643207  0.0948874  0  0  0  1.01416  0.309652  0  0  0  0  0  0  0  0  0  0 
1704198037.072993000  -2.10076  0.280765  1.13201  0  0  -0.100884  1.00876  0.64473  0.0948874  0  0  0  0.998499  0.299308  0  0  0  0  0  0  0  0  0  0 
1704198037.077997000  -2.09571  0.283993  1.13249  0  0  -0.101883  1.01371  0.6462  0.0948874  0  0  0  0.982585  0.288715  0  0  0  0  0  0  0  0  0  0 
1704198037.082991000  -2.09062  0.287227  1.13296  0  0  -0.102888  1.01858  0.647617  0.0948874  0  0  0  0.966422  0.277871  0  0  0  0  0  0  0  0  0  0 
1704198037.087993000  -2.08552  0.290469  1.13343  0  0  -0.103899  1.02337  0.648978  0.0948874  0  0  0  0.950009  0.266778  0  0  0  0  0  0  0  0  0  0 
1704198037.092994000  -2.08039  0.293717  1.13391  0  0  -0.104917  1.02808  0.650284  0.0948874  0  0  0  0.933346  0.255434  0  0  0  0  0  0  0  0  0  0 
1704198037.098001000  -2.07524  0.296971  1.13438  0  0  -0.105941  1.03271  0.651532  0.0948874  0  0  0  0.916433  0.243841  0  0  0  0  0  0  0  0  0  0 
1704198037.102994000  -2.07006  0.300232  1.13486  0  0  -0.106971  1.03724  0.652722  0.0948874  0  0  0  0.89927  0.231997  0  0  0  0  0  0  0  0  0  0 
1704198037.107993000  -2.06487  0.303499  1.13533  0  0  -0.108007  1.0417  0.653852  0.0948874  0  0  0  0.881857  0.219904  0  0  0  0  0  0  0  0  0  0 
1704198037.112993000  -2.05965  0.306771  1.13581  0  0  -0.10905  1.04606  0.654921  0.0948874  0  0  0  0.864194  0.20756  0  0  0  0  0  0  0  0  0  0 
1704198037.118003000  -2.05441  0.310048  1.13628  0  0  -0.110099  1.05034  0.655927  0.0948874  0  0  0  0.846281  0.194967  0  0  0  0  0  0  0  0  0  0 
1704198037.123000000  -2.04914  0.31333  1.13676  0  0  -0.111154  1.05453  0.65687  0.0948874  0  0  0  0.828118  0.182123  0  0  0  0  0  0  0  0  0  0 
1704198037.127993000  -2.04386  0.316616  1.13723  0  0  -0.112215  1.05862  0.657748  0.0948874  0  0  0  0.809705  0.16903  0  0  0  0  0  0  0  0  0  0 
1704198037.132993000  -2.03856  0.319907  1.1377  0  0  -0.113283  1.06262  0.65856  0.0948874  0  0  0  0.791042  0.155686  0  0  0  0  0  0  0  0  0  0 
1704198037.138000000  -2.03324  0.323202  1.13818  0  0  -0.114357  1.06653  0.659304  0.0948874  0  0  0  0.772129  0.142093  0  0  0  0  0  0  0  0  0  0 
1704198037.142995000  -2.02789  0.3265  1.13865  0  0  -0.115437  1.07034  0.65998  0.0948874  0  0  0  0.752966  0.128249  0  0  0  0  0  0  0  0  0  0 
1704198037.147996000  -2.02253  0.329801  1.13913  0  0  -0.116523  1.07406  0.660586  0.0948874  0  0  0  0.733553  0.114156  0  0  0  0  0  0  0  0  0  0 
1704198037.152996000  -2.01715  0.333106  1.1396  0  0  -0.117616  1.07768  0.661121  0.0948874  0  0  0  0.71389  0.0998124  0  0  0  0  0  0  0  0  0  0 
1704198037.158002000  -2.01176  0.336413  1.14008  0  0  -0.118715  1.0812  0.661584  0.0948874  0  0  0  0.693977  0.0852189  0  0  0  0  0  0  0  0  0  0 
1704198037.162992000  -2.00634  0.339721  1.14055  0  0  -0.11982  1.08462  0.661973  0.0948874  0  0  0  0.673814  0.0703754  0  0  0  0  0  0  0  0  0  0 
