ts fx fy fz tx ty tz exfx exfy exfz extx exty extz xd yd zd rolld pitchd yawd vxd vyd vzd wxd wyd wzd axd ayd azd e_x e_y e_z e_vx e_vy e_vz e_rx e_ry e_rz e_wx e_wy e_wz
1704198035.249192000  0  0  11.4226  0.108908  -0.0786857  0.0332892  nan  nan  nan  nan  nan  nan  -2.5  -0.3  1  0.0164918  -0.0246107  -0.00040587  0  0  0  0  0  0  0  0  0  0.0198971  0.00270282  -0.00934766  -0.0129604  0.0149239  0.000197559  -0.0210263  0.0277467  -0.0397595  -0.0243744  -0.0978983  -0.0185203 
1704198035.253142000  0  0  11.5757  0.145514  -0.120668  0.0299979  nan  nan  nan  nan  nan  nan  -2.5  -0.3  1  0.0157377  -0.0251329  -0.000395524  0  0  0  0  0  0  0  0  0  0.0200211  0.00258448  -0.00929428  -0.0121443  0.0144978  -0.0127091  -0.0212267  0.0288495  -0.0393766  -0.0957421  -0.024079  0.0187926 
1704198035.258147000  0  0  11.4661  0.132936  -0.0789528  0.0312144  nan  nan  nan  nan  nan  nan  -2.5  -0.3  1  0.0161905  -0.0224338  -0.000363217  0  0  0  0  0  0  0  0  0  0.0199196  0.00265414  -0.00925157  -0.0156676  0.0147291  -0.00363452  -0.0217124  0.0254111  -0.0394434  -0.0661175  -0.0758769  0.00425408 
1704198035.263084000  0  0  11.3648  0.12051  -0.0609565  0.0344121  nan  nan  nan  nan  nan  nan  -2.5  -0.3  1  0.0166505  -0.0238038  -0.000396343  0  0  0  0  0  0  0  0  0  0.0200553  0.00255753  -0.00901803  -0.0144902  0.0153413  0.00434081  -0.0221075  0.0257895  -0.0399062  -0.0376318  -0.11535  -0.0310901 
1704198035.267131000  0  0  11.5126  0.156296  -0.0983349  0.0307982  nan  nan  nan  nan  nan  nan  -2.5  -0.3  1  0.0166729  -0.0242213  -0.000403837  0  0  0  0  0  0  0  0  0  0.0200052  0.00261552  -0.00912497  -0.0134521  0.015515  -0.0077848  -0.0230628  0.026567  -0.0395151  -0.100414  -0.0477471  0.0101737 
1704198035.273075000  0  0  11.4585  0.118159  -0.0862807  0.0315703  nan  nan  nan  nan  nan  nan  -2.5  -0.3  1  0.01388  -0.0253862  -0.000352345  0  0  0  0  0  0  0  0  0  0.0205425  0.00207054  -0.00845984  -0.0133109  0.0130685  -0.00463214  -0.0202482  0.0272564  -0.0395909  -0.0500358  -0.0781973  0.00128061 
1704198035.278089000  0  0  11.3681  0.122319  -0.080101  0.0324702  nan  nan  nan  nan  nan  nan  -2.5  -0.3  1  0.014805  -0.025189  -0.00037291  0  0  0  0  0  0  0  0  0  0.0206004  0.00203805  -0.00828907  -0.0139433  0.0141698  0.00254889  -0.021356  0.026515  -0.0397363  -0.0481636  -0.0837356  -0.00851484 
1704198035.283156000  0  0  11.4501  0.118824  -0.102175  0.0311246  nan  nan  nan  nan  nan  nan  -2.5  -0.3  1  0.0137323  -0.0261543  -0.000359141  0  0  0  0  0  0  0  0  0  0.0205468  0.00209529  -0.00833824  -0.0123661  0.0128123  -0.00418184  -0.0205942  0.0275132  -0.0395903  -0.0481825  -0.0487711  0.00684616 
1704198035.287164000  0  0  11.5732  0.0873744  -0.108199  0.0324957  nan  nan  nan  nan  nan  nan  -2.5  -0.3  1  0.0135762  -0.0261404  -0.00035487  0  0  0  0  0  0  0  0  0  0.0206163  0.00204127  -0.00830568  -0.0121812  0.0129192  -0.0144975  -0.0199154  0.0274582  -0.0397786  0.00847275  -0.0362179  -0.00841048 
1704198035.292128000  0  0  11.4346  0.118576  -0.104342  0.0304097  nan  nan  nan  nan  nan  nan  -2.5  -0.3  1  0.015817  -0.023295  -0.000368453  0  0  0  0  0  0  0  0  0  0.020515  0.00213291  -0.00824398  -0.0159748  0.0153553  -0.00309533  -0.0225196  0.0245814  -0.0395264  -0.0299724  -0.0174654  0.0151434 
1704198035.298127000  0  0  11.4186  0.0913647  -0.107123  0.0320751  nan  nan  nan  nan  nan  nan  -2.5  -0.3  1  0.0137558  -0.0256713  -0.000353112  0  0  0  0  0  0  0  0  0  0.0205799  0.00208193  -0.00811821  -0.0131451  0.0128238  -0.00200542  -0.0203825  0.0266806  -0.039675  0.00478997  -0.0312154  -0.00418887 
1704198035.303120000  0  0  11.481  0.0858924  -0.14201  0.0321428  nan  nan  nan  nan  nan  nan  -2.5  -0.3  0.995  0.0147239  -0.0255949  -0.000376843  2e-07  2e-07  2e-07  0  0  0  0.000125  0.000125  0.000125  0.020636  0.00205327  -0.00314533  -0.0131719  0.014234  -0.0175705  -0.0210755  0.0272061  -0.0397726  0.0221097  0.0337243  -0.00405922 
1704198035.308136000  0  0  11.285  0.111348  -0.127862  0.0292003  nan  nan  nan  nan  nan  nan  -2.5  -0.3  0.995  0.0157628  -0.0229556  -0.000361843  1.7e-06  1.7e-06  1.7e-06  0  0  0  0.0005  0.0005  0.0005  0.0205287  0.00213768  -0.00304979  -0.0167551  0.0150775  -0.00140411  -0.0224659  0.024662  -0.0393681  -0.0160105  0.0288328  0.0286772 
1704198035.313119000  0  0  11.2606  0.0621355  -0.115746  0.0339603  nan  nan  nan  nan  nan  nan  -2.5  -0.3  0.995  0.0134766  -0.025421  -0.000342572  5.6e-06  5.6e-06  5.6e-06  0  0  0  0.001125  0.001125  0.001125  0.0206266  0.00205803  -0.00290749  -0.0138712  0.0124286  0.00042392  -0.0194989  0.026714  -0.0399376  0.0551184  -0.0142757  -0.0251274 
1704198035.317116000  0  0  11.4188  0.0649314  -0.147617  0.0340489  nan  nan  nan  nan  nan  nan  -2.5  -0.3  0.995  0.0143943  -0.0252399  -0.000363397  1.33e-05  1.33e-05  1.33e-05  0  0  0  0.002  0.002  0.002  0.020569  0.00212863  -0.00303164  -0.0134139  0.0137843  -0.012435  -0.0201843  0.0271246  -0.0400905  0.055833  0.0456876  -0.0247065 
1704198035.323126000  0  0  11.2983  0.0903142  -0.132441  0.0295588  nan  nan  nan  nan  nan  nan  -2.5  -0.3  0.995  0.0145626  -0.0231104  -0.000336842  2.6e-05  2.6e-05  2.6e-05  0  0  0  0.003125  0.003125  0.003125  0.0205965  0.0020985  -0.00283727  -0.0163458  0.0140136  -0.00269781  -0.0206355  0.0251781  -0.0395638  0.0092186  0.0332428  0.0261529 
1704198035.327133000  0  0  11.2179  0.0553131  -0.115732  0.0334216  nan  nan  nan  nan  nan  nan  -2.5  -0.3  0.995  0.012979  -0.0243203  -0.00031614  4.5e-05  4.5e-05  4.5e-05  0  0  0  0.0045  0.0045  0.0045  0.0206937  0.00203368  -0.00262595  -0.0150868  0.0122269  0.00371777  -0.0184315  0.0260053  -0.0400181  0.058944  -0.00778616  -0.0175895 
1704198035.332133000  0  0  11.3543  0.0570136  -0.139719  0.0332535  nan  nan  nan  nan  nan  nan  -2.5  -0.299999  0.995  0.013739  -0.0244062  -0.000336305  7.15e-05  7.15e-05  7.15e-05  0  0  0  0.006125  0.006125  0.006125  0.0206274  0.00211003  -0.00272995  -0.0142554  0.0134188  -0.007284  -0.0188622  0.0265415  -0.0401258  0.0595051  0.0352566  -0.0144109 
1704198035.337133000  0  0  11.3372  0.0784673  -0.136186  0.0298931  nan  nan  nan  nan  nan  nan  -2.5  -0.299999  0.995  0.013576  -0.0235188  -0.000320983  0.0001067  0.0001067  0.0001067  0  0  0  0.008  0.008  0.008  0.0206968  0.0020474  -0.00258721  -0.0153371  0.0135647  -0.00598265  -0.01892  0.0258602  -0.0397275  0.0171294  0.0344574  0.0236109 
1704198035.342138000  0  0  11.2863  0.061208  -0.109711  0.0315863  nan  nan  nan  nan  nan  nan  -2.5  -0.299998  0.995  0.0129029  -0.0223467  -0.000291028  0.0001519  0.0001519  0.0001519  0  0  0  0.010125  0.010125  0.010125  0.020613  0.00210591  -0.00256889  -0.0164868  0.0127832  -0.00155733  -0.017808  0.0243637  -0.0398742  0.0414179  -0.00472358  0.0039139 
1704198035.347134000  0  0  11.3096  0.0621575  -0.114378  0.0320271  nan  nan  nan  nan  nan  nan  -2.5  -0.299997  0.995  0.0125412  -0.0233759  -0.00029735  0.0002083  0.0002083  0.0002083  0  0  0  0.0125  0.0125  0.0125  0.020715  0.00204424  -0.00243864  -0.0150603  0.0127998  -0.00354417  -0.0173046  0.0253807  -0.0399373  0.0348873  -0.0047469  -0.000966397 
1704198035.352135000  0  0  11.3524  0.0799715  -0.124403  0.0295039  nan  nan  nan  nan  nan  nan  -2.5  -0.299996  0.995  0.0123258  -0.0235326  -0.000296145  0.0002773  0.0002773  0.0002773  0  0  0  0.015125  0.015125  0.015125  0.0208048  0.00197626  -0.00232821  -0.014618  0.0130715  -0.0070973  -0.017345  0.0257374  -0.0395872  -0.000368921  0.0120224  0.0270735 
1704198035.357133000  0  0  11.362  0.0855705  -0.0975464  0.0294503  nan  nan  nan  nan  nan  nan  -2.49999  -0.299995  0.99501  0.0122518  -0.0206067  -0.000261064  0.00036  0.00036  0.00036  0  0  0  0.018  0.018  0.018  0.0206941  0.00204137  -0.00236734  -0.0176792  0.0132119  -0.0075324  -0.0173181  0.0225815  -0.0394636  -0.011815  -0.0126574  0.0265075 
1704198035.362132000  0  0  11.2977  0.0688841  -0.0849613  0.032499  nan  nan  nan  nan  nan  nan  -2.49999  -0.299993  0.99501  0.0115021  -0.0220286  -0.000265265  0.0004577  0.0004577  0.0004577  0  0  0  0.021125  0.021125  0.021125  0.0207952  0.00197441  -0.00218771  -0.0158698  0.0127274  -0.00223309  -0.016344  0.0235038  -0.0397908  0.0125966  -0.0463124  -0.00832918 
1704198035.367139000  0  0  11.3985  0.096124  -0.106278  0.0316692  nan  nan  nan  nan  nan  nan  -2.49999  -0.29999  0.99501  0.012406  -0.0214663  -0.000282303  0.0005717  0.0005717  0.0005717  0  0  0  0.0245  0.0245  0.0245  0.0207188  0.00205069  -0.0022728  -0.0157368  0.0142598  -0.0101576  -0.0176739  0.0232134  -0.0397314  -0.0296479  -0.00100629  0.00144884 
1704198035.372136000  0  0  11.4119  0.10822  -0.0853536  0.0301398  nan  nan  nan  nan  nan  nan  -2.49999  -0.299987  0.99501  0.011362  -0.0190557  -0.000237607  0.0007031  0.0007031  0.0007031  0  0  0  0.028125  0.028125  0.028125  0.0207771  0.00197462  -0.00216245  -0.0184342  0.0135836  -0.011155  -0.0170725  0.0206663  -0.0395197  -0.0593739  -0.0194224  0.0184503 
1704198035.377131000  0  0  11.3157  0.0805832  -0.0688867  0.0343645  nan  nan  nan  nan  nan  nan  -2.49998  -0.299983  0.99502  0.0104912  -0.020156  -0.000238755  0.0008533  0.0008533  0.0008533  0  0  0  0.0319374  0.032  0.032  0.0208617  0.00191416  -0.00198207  -0.0169592  0.0129921  -0.00312424  -0.0159452  0.0211478  -0.0400555  -0.0144707  -0.0567866  -0.0290014 
1704198035.382137000  0  0  11.4043  0.119767  -0.100001  0.0313359  nan  nan  nan  nan  nan  nan  -2.49998  -0.299978  0.99502  0.0113731  -0.0190465  -0.000251413  0.0010221  0.0010235  0.0010235  0  0  0  0.0355621  0.036125  0.036125  0.0207774  0.00199218  -0.00206286  -0.0175194  0.014563  -0.00997347  -0.0176208  0.0205656  -0.0397805  -0.077423  0.0107992  0.00610666 
1704198035.387140000  0  0  11.4472  0.115028  -0.0845961  0.0305059  nan  nan  nan  nan  nan  nan  -2.49997  -0.299973  0.99503  0.00997882  -0.0178357  -0.000221676  0.0012085  0.001215  0.001215  0  0  0  0.0389369  0.0405  0.0405  0.0208428  0.00191924  -0.00198889  -0.0186878  0.0135606  -0.0132811  -0.0165908  0.0192719  -0.0396183  -0.0774205  -0.0081095  0.0148601 
1704198035.392125000  0  0  11.4004  0.0985605  -0.0887438  0.0341287  nan  nan  nan  nan  nan  nan  -2.49997  -0.299966  0.99503  0.00993426  -0.017883  -0.00023195  0.0014111  0.001429  0.001429  0  0  0  0.0420616  0.045125  0.045125  0.0207679  0.00198713  -0.00199294  -0.018158  0.0138874  -0.008929  -0.0164964  0.0193201  -0.040079  -0.0453542  -0.000256942  -0.0258195 
1704198035.398135000  0  0  11.3813  0.127163  -0.102696  0.0307425  nan  nan  nan  nan  nan  nan  -2.49996  -0.299958  0.99504  0.0099495  -0.0174551  -0.000240366  0.0016287  0.0016667  0.0016667  0  0  0  0.0449364  0.05  0.05  0.0208246  0.00195457  -0.00187677  -0.018498  0.0145762  -0.00714185  -0.0174203  0.0193299  -0.0397301  -0.0940589  0.0275578  0.0130204 
1704198035.403151000  0  0  11.511  0.105498  -0.107114  0.0314337  nan  nan  nan  nan  nan  nan  -2.49995  -0.299949  0.99505  0.00838209  -0.0183162  -0.000234523  0.00186  0.0019294  0.0019294  0  0  0  0.0475611  0.055125  0.055125  0.0209201  0.00188843  -0.00186194  -0.0170248  0.0135107  -0.0174845  -0.0159516  0.0203739  -0.0397526  -0.0642411  0.0267891  0.00460387 
1704198035.407135000  0  0  11.5067  0.110414  -0.127899  0.0314095  nan  nan  nan  nan  nan  nan  -2.49994  -0.299939  0.99506  0.00859045  -0.0169172  -0.000242823  0.0021039  0.0022183  0.0022183  0  0  0  0.0499359  0.0605  0.0605  0.0208393  0.00194835  -0.00190544  -0.0183419  0.0143217  -0.0165436  -0.0164291  0.0196595  -0.0397402  -0.069681  0.0749306  0.00478327 
1704198035.412131000  0  0  11.3826  0.10728  -0.108523  0.0312717  nan  nan  nan  nan  nan  nan  -2.49993  -0.299927  0.99507  0.00778122  -0.0165952  -0.000245328  0.002359  0.0025348  0.0025348  0  0  0  0.0520606  0.066125  0.066125  0.0209177  0.00188942  -0.00172521  -0.0188879  0.0140234  -0.00603537  -0.0159364  0.0193247  -0.0396753  -0.0679442  0.0392583  0.00585707 
1704198035.417086000  0  0  11.573  0.0839468  -0.128208  0.0336911  nan  nan  nan  nan  nan  nan  -2.49992  -0.299914  0.99509  0.00681709  -0.0178191  -0.00025887  0.0026241  0.00288  0.00288  0  0  0  0.0539354  0.072  0.072  0.020848  0.00195564  -0.00190824  -0.0165694  0.0135451  -0.0209739  -0.0148707  0.0210024  -0.0399957  -0.031083  0.063194  -0.0211822 
1704198035.422147000  0  0  11.6008  0.100099  -0.15324  0.0300542  nan  nan  nan  nan  nan  nan  -2.4999  -0.299898  0.9951  0.00664051  -0.0160623  -0.000267859  0.0028979  0.0032552  0.0032552  0  0  0  0.0555601  0.078125  0.078125  0.0208939  0.00191682  -0.00185958  -0.0186754  0.0142015  -0.0228287  -0.0151862  0.0203333  -0.0395907  -0.0604851  0.119415  0.0202285 
1704198035.427143000  0  0  11.3967  0.0736517  -0.109989  0.0325928  nan  nan  nan  nan  nan  nan  -2.49989  -0.299881  0.99512  0.00528288  -0.0159819  -0.000272128  0.0031792  0.0036617  0.0036617  0  0  0  0.0569349  0.0845  0.0845  0.0209829  0.00183493  -0.001672  -0.0191662  0.0133212  -0.00558012  -0.0136927  0.0198676  -0.0398028  -0.021331  0.0371971  -0.00938141 
1704198035.432139000  0  0  11.6231  0.0720192  -0.151527  0.0333224  nan  nan  nan  nan  nan  nan  -2.49987  -0.299862  0.99514  0.00451942  -0.0174353  -0.000295694  0.0034668  0.0041006  0.0041006  0  0  0  0.0580596  0.091125  0.091125  0.0209039  0.00190432  -0.00188498  -0.0165677  0.0131527  -0.0233977  -0.0130812  0.022212  -0.0399717  -0.0236917  0.0987041  -0.0168133 
1704198035.437133000  0  0  11.6905  0.0844142  -0.165698  0.0293245  nan  nan  nan  nan  nan  nan  -2.49985  -0.29984  0.99516  0.00383601  -0.0156647  -0.000309188  0.0037594  0.0045733  0.0045733  0  0  0  0.0589343  0.098  0.098  0.0209592  0.00184938  -0.00187763  -0.0187499  0.0132925  -0.0283871  -0.0128187  0.0214866  -0.0394556  -0.0508966  0.13372  0.0280002 
1704198035.442149000  0  0  11.4943  0.0569749  -0.119086  0.0326721  nan  nan  nan  nan  nan  nan  -2.49983  -0.299816  0.99518  0.003078  -0.0152732  -0.000331309  0.0040558  0.005081  0.005081  0  0  0  0.0595591  0.105125  0.105125  0.0208529  0.00191527  -0.00182975  -0.019277  0.0129971  -0.0114376  -0.0117488  0.0206161  -0.0397738  -0.00586096  0.0485043  -0.010664 
1704198035.448128000  0  0  11.702  0.0801856  -0.172737  0.0308562  nan  nan  nan  nan  nan  nan  -2.49981  -0.299789  0.99521  0.00190514  -0.0166795  -0.000354275  0.0043546  0.005625  0.005625  0  0  0  0.0599338  0.1125  0.1125  0.0209625  0.0018483  -0.00193511  -0.0172907  0.0126254  -0.0278653  -0.0112875  0.0234073  -0.0395949  -0.0565266  0.130127  0.0102471 
1704198035.452142000  0  0  11.7328  0.0748641  -0.166588  0.0299799  nan  nan  nan  nan  nan  nan  -2.49979  -0.299759  0.99524  0.000510995  -0.0161007  -0.000372127  0.0046547  0.0062065  0.0062065  0  0  0  0.0600586  0.120125  0.120125  0.021058  0.00174867  -0.00192937  -0.0181857  0.0120018  -0.0297117  -0.0101404  0.0233498  -0.0393802  -0.0564362  0.118358  0.0190534 
1704198035.457133000  0  0  11.5783  0.0622253  -0.13515  0.033245  nan  nan  nan  nan  nan  nan  -2.49977  -0.299727  0.99527  0.000165982  -0.0156219  -0.000411193  0.0049548  0.0068267  0.0068267  0  0  0  0.0599333  0.128  0.128  0.0209648  0.00181307  -0.00192627  -0.0188877  0.0124038  -0.0160798  -0.00975747  0.0226876  -0.0397202  -0.0346819  0.0615739  -0.0183601 
1704198035.462149000  0  0  11.6417  0.0811314  -0.156955  0.0313245  nan  nan  nan  nan  nan  nan  -2.49974  -0.299691  0.99531  -0.00101829  -0.0163964  -0.000439804  0.0052536  0.0074869  0.0074869  0  0  0  0.0595581  0.136125  0.136125  0.0210524  0.00173583  -0.00194066  -0.0180178  0.0120733  -0.0205828  -0.00930212  0.0242329  -0.0394836  -0.0766832  0.0909671  0.00327922 
1704198035.467136000  0  0  11.7294  0.0757779  -0.148345  0.0307943  nan  nan  nan  nan  nan  nan  -2.49971  -0.299652  0.99535  -0.00224859  -0.0162787  -0.000471098  0.0055499  0.0081883  0.0081883  0  0  0  0.0589328  0.1445  0.144461  0.0209624  0.00178975  -0.00209841  -0.0178915  0.0114007  -0.026772  -0.00845454  0.0243903  -0.0393274  -0.073774  0.0723001  0.00834479 
1704198035.473128000  0  0  11.6584  0.0964848  -0.138686  0.0317386  nan  nan  nan  nan  nan  nan  -2.49968  -0.299609  0.99539  -0.00195705  -0.0155248  -0.000531918  0.0058425  0.0089323  0.0089312  0  0  0  0.0580576  0.153125  0.15264  0.0210386  0.00174631  -0.00203378  -0.0192771  0.0129855  -0.0202214  -0.00953545  0.0238928  -0.0393968  -0.105243  0.0575576  -0.00276479 
1704198035.478136000  0  0  11.604  0.0984997  -0.126799  0.0316901  nan  nan  nan  nan  nan  nan  -2.49965  -0.299563  0.99544  -0.00377882  -0.0167739  -0.000556917  0.0061301  0.00972  0.0097143  0  0  0  0.0569323  0.162  0.160568  0.0211326  0.00166665  -0.00196272  -0.0181125  0.0119484  -0.0150765  -0.00852886  0.025099  -0.039323  -0.118534  0.0226881  -0.0028961 
1704198035.483142000  0  0  11.7974  0.0883759  -0.136492  0.0325202  nan  nan  nan  nan  nan  nan  -2.49962  -0.299512  0.99549  -0.00428561  -0.0172306  -0.000607759  0.0064114  0.0105527  0.0105364  0  0  0  0.0555571  0.171125  0.168246  0.0210496  0.00173113  -0.00218527  -0.0171436  0.0122144  -0.0300062  -0.00839143  0.0257848  -0.0394206  -0.0995506  0.035763  -0.0122959 
1704198035.487150000  0  0  11.7615  0.121073  -0.135067  0.0301576  nan  nan  nan  nan  nan  nan  -2.49959  -0.299457  0.99554  -0.00461101  -0.0158704  -0.000673224  0.0066853  0.0114317  0.0113963  0  0  0  0.0539318  0.1805  0.175674  0.0211196  0.00165658  -0.00212956  -0.019353  0.0131602  -0.0264239  -0.00915441  0.0247105  -0.0390763  -0.157926  0.0427967  0.0137933 
1704198035.492098000  0  0  11.5853  0.102683  -0.097334  0.0307936  nan  nan  nan  nan  nan  nan  -2.49956  -0.299398  0.9956  -0.00668466  -0.0158267  -0.000708707  0.0069503  0.0123581  0.0122928  0  0  0  0.0520566  0.190125  0.182852  0.0211835  0.00160017  -0.0019779  -0.0201027  0.0119257  -0.0113306  -0.00769675  0.024097  -0.039026  -0.134557  -0.0270241  0.00533918 
1704198035.497142000  0  0  11.7749  0.0898618  -0.113943  0.0332966  nan  nan  nan  nan  nan  nan  -2.49952  -0.299333  0.99567  -0.00730528  -0.0171432  -0.000760768  0.0072054  0.0133333  0.0132244  0  0  0  0.0499313  0.2  0.189781  0.0210963  0.00166692  -0.0021964  -0.0181229  0.0120733  -0.0260244  -0.00751136  0.0254443  -0.0393292  -0.110619  -0.00620082  -0.022915 
1704198035.503101000  0  0  11.7357  0.136556  -0.119847  0.028081  nan  nan  nan  nan  nan  nan  -2.49948  -0.299264  0.99573  -0.00767886  -0.0154009  -0.000842541  0.0074492  0.0143585  0.0141901  0  0  0  0.0475561  0.210125  0.196459  0.0211221  0.00163802  -0.0021488  -0.0208298  0.0129661  -0.0222253  -0.00887706  0.0241247  -0.0385989  -0.191443  0.0177466  0.0349765 
1704198035.507160000  0  0  11.638  0.0992956  -0.0869445  0.0306092  nan  nan  nan  nan  nan  nan  -2.49945  -0.29919  0.99581  -0.00937406  -0.0151193  -0.000897272  0.0076806  0.015435  0.0151886  0  0  0  0.0449308  0.2205  0.202887  0.0210325  0.00167316  -0.00217588  -0.0214984  0.0120937  -0.0133789  -0.00724765  0.0232436  -0.0387465  -0.131913  -0.0399523  0.00485006 
1704198035.513128000  0  0  11.7943  0.101271  -0.126917  0.0320999  nan  nan  nan  nan  nan  nan  -2.49941  -0.29911  0.99589  -0.0103944  -0.0172202  -0.000941409  0.0078981  0.016564  0.0162186  0  0  0  0.0420556  0.231125  0.209065  0.0210981  0.00165256  -0.00224751  -0.0189933  0.0119817  -0.0256806  -0.00715318  0.025813  -0.0389135  -0.136732  0.016355  -0.0121134 
1704198035.517128000  0  0  11.807  0.119829  -0.138725  0.0289704  nan  nan  nan  nan  nan  nan  -2.49937  -0.299024  0.99597  -0.0111412  -0.0165557  -0.00102055  0.0081007  0.0177467  0.0172788  0  0  0  0.0389303  0.242  0.214994  0.0210044  0.00168987  -0.00235081  -0.0200313  0.0122819  -0.0259642  -0.00737017  0.0255838  -0.0384506  -0.171852  0.0420785  0.0223767 
1704198035.523136000  0  0  11.7139  0.0963215  -0.111757  0.0310994  nan  nan  nan  nan  nan  nan  -2.49933  -0.298932  0.99606  -0.0129958  -0.0159824  -0.00108509  0.008287  0.0189844  0.0183681  0  0  0  0.0355551  0.253125  0.220672  0.0210404  0.0016526  -0.00226865  -0.0214612  0.011476  -0.0177953  -0.00608762  0.0247571  -0.0385255  -0.136637  -0.00425049  -0.00348784 
1704198035.528136000  0  0  11.7564  0.0900585  -0.135949  0.0321701  nan  nan  nan  nan  nan  nan  -2.49928  -0.298834  0.99615  -0.0148037  -0.0186101  -0.0011081  0.0084558  0.0202783  0.0194851  0  0  0  0.0319298  0.2645  0.2261  0.0211091  0.001594  -0.0022518  -0.0185671  0.010619  -0.020854  -0.00505147  0.0276995  -0.0386074  -0.133643  0.0170633  -0.0160526 
1704198035.533130000  0  0  11.8406  0.104631  -0.160626  0.0300744  nan  nan  nan  nan  nan  nan  -2.49924  -0.298729  0.99625  -0.014982  -0.0184993  -0.00120014  0.0086059  0.0216298  0.0206287  0  0  0  0.0281174  0.276125  0.231278  0.0210126  0.00165937  -0.00241015  -0.0188095  0.0115716  -0.0270711  -0.00580911  0.0282342  -0.0383081  -0.155818  0.0614973  0.00715153 
1704198035.538136000  0  0  11.759  0.0950922  -0.140499  0.0291613  nan  nan  nan  nan  nan  nan  -2.4992  -0.298618  0.99636  -0.0171157  -0.0169007  -0.00128472  0.0087374  0.02304  0.0217975  0  0  0  0.0244929  0.288  0.236207  0.0210493  0.00159514  -0.00233483  -0.0216142  0.010569  -0.0199064  -0.00436995  0.0267605  -0.0380303  -0.149981  0.0348017  0.0157866 
1704198035.542140000  0  0  11.7625  0.0653107  -0.131917  0.0329191  nan  nan  nan  nan  nan  nan  -2.49915  -0.298499  0.99647  -0.0192271  -0.0187835  -0.00131222  0.0088513  0.0245102  0.0229903  0  0  0  0.0211184  0.300125  0.240885  0.0209688  0.0016076  -0.0024322  -0.0193998  0.00930701  -0.0195177  -0.00245152  0.0284184  -0.0384078  -0.108067  0.00238509  -0.0274101 
1704198035.547134000  0  0  11.8716  0.0844399  -0.185754  0.0319105  nan  nan  nan  nan  nan  nan  -2.49911  -0.298372  0.99659  -0.019743  -0.0209938  -0.001361  0.008949  0.0260417  0.0242059  0  0  0  0.017994  0.3125  0.245313  0.0210464  0.00156288  -0.00247904  -0.0168253  0.0100535  -0.0281303  -0.00295778  0.0316319  -0.0383499  -0.141668  0.080494  -0.0153822 
1704198035.553125000  0  0  11.8073  0.0887848  -0.158075  0.0284099  nan  nan  nan  nan  nan  nan  -2.49907  -0.298238  0.99671  -0.0217574  -0.0181778  -0.00148456  0.0090316  0.0276356  0.0254431  0  0  0  0.0151195  0.325125  0.249491  0.0210681  0.00152443  -0.00241881  -0.0210923  0.00924164  -0.0224388  -0.0020408  0.0291245  -0.0377592  -0.158794  0.0482055  0.0224682 
1704198035.558148000  0  0  11.7683  0.0416477  -0.144618  0.0350562  nan  nan  nan  nan  nan  nan  -2.49902  -0.298096  0.99684  -0.0237694  -0.0205332  -0.00149898  0.0091006  0.0292933  0.0267004  0  0  0  0.012495  0.338  0.253419  0.0209811  0.00156825  -0.00249387  -0.0182348  0.00823296  -0.0186216  2.69545e-05  0.0310942  -0.0385369  -0.0835435  0.00316814  -0.052834 
1704198035.563138000  0  0  11.8738  0.0896797  -0.199762  0.029519  nan  nan  nan  nan  nan  nan  -2.49897  -0.297945  0.99698  -0.0244447  -0.0210456  -0.00158178  0.009157  0.031016  0.0279768  0  0  0  0.0101205  0.351125  0.257098  0.0210274  0.00151862  -0.00253662  -0.0177252  0.00883192  -0.0270029  -0.000829685  0.0328691  -0.0379414  -0.171726  0.0971287  0.0104263 
1704198035.567564000  0  0  11.8402  0.0831652  -0.175774  0.0277924  nan  nan  nan  nan  nan  nan  -2.49893  -0.297786  0.99712  -0.0267097  -0.0196938  -0.00168159  0.0092022  0.032805  0.029271  0  0  0  0.007996  0.3645  0.260526  0.0210925  0.00142143  -0.00249649  -0.0200069  0.0078561  -0.0238946  0.000644447  0.0316715  -0.0375192  -0.172259  0.0601706  0.0277878 
1704198035.573135000  0  0  11.7551  0.0458134  -0.153759  0.0345465  nan  nan  nan  nan  nan  nan  -2.49888  -0.297617  0.99727  -0.0288838  -0.0212606  -0.00170669  0.0092374  0.0346615  0.0305817  0  0  0  0.0061215  0.378125  0.263704  0.0209968  0.00147939  -0.00253416  -0.0181778  0.00686205  -0.0163697  0.0025679  0.0327544  -0.0383096  -0.115251  0.00617733  -0.0487347 
1704198035.577136000  0  0  11.8042  0.084102  -0.18043  0.0311729  nan  nan  nan  nan  nan  nan  -2.49884  -0.297439  0.99743  -0.0300224  -0.0214711  -0.00179114  0.0092638  0.0365867  0.0319076  0  0  0  0.004497  0.391986  0.266632  0.0209207  0.00147959  -0.00267453  -0.0178287  0.00696374  -0.0198766  0.00235046  0.0335871  -0.037927  -0.189828  0.0518579  -0.0103909 
1704198035.583102000  0  0  11.8084  0.0839326  -0.145873  0.0296862  nan  nan  nan  nan  nan  nan  -2.49879  -0.297251  0.99759  -0.0312732  -0.0207655  -0.00190293  0.0092828  0.0385811  0.0332476  0  0  0  0.0031225  0.40574  0.269311  0.0209491  0.00145099  -0.00262229  -0.0189912  0.00711551  -0.0200298  0.00243492  0.0325334  -0.0375912  -0.190267  -0.00756174  0.00483421 
1704198035.587135000  0  0  11.7682  0.0734987  -0.152085  0.0317338  nan  nan  nan  nan  nan  nan  -2.49874  -0.297053  0.99776  -0.0342752  -0.0214472  -0.00193506  0.0092955  0.0406436  0.0346003  0  0  0  0.001998  0.419245  0.271739  0.0210281  0.00132542  -0.00256725  -0.0185214  0.00531738  -0.0164825  0.00462039  0.0333815  -0.0377438  -0.189505  -0.00293947  -0.0192346 
1704198035.592138000  0  0  11.7471  0.082464  -0.141492  0.0312627  nan  nan  nan  nan  nan  nan  -2.4987  -0.296844  0.99794  -0.0355776  -0.0219453  -0.00200857  0.0093032  0.0427731  0.0359646  0  0  0  0.0011235  0.4325  0.273917  0.0209497  0.00135483  -0.00264011  -0.0178659  0.00530909  -0.0143232  0.00472602  0.0336435  -0.0376461  -0.208407  -0.026536  -0.0143228 
1704198035.598135000  0  0  11.8228  0.102785  -0.14492  0.028677  nan  nan  nan  nan  nan  nan  -2.49865  -0.296625  0.99812  -0.0361442  -0.0221427  -0.00210929  0.0093071  0.0449682  0.0373391  0  0  0  0.000499  0.445505  0.275845  0.0210057  0.0013232  -0.00261525  -0.0176333  0.00598069  -0.0204727  0.00370576  0.033768  -0.0372185  -0.239663  -0.0208252  0.0137228 
1704198035.603137000  0  0  11.7482  0.091166  -0.130604  0.0293721  nan  nan  nan  nan  nan  nan  -2.4986  -0.296395  0.99831  -0.0394188  -0.0213417  -0.00218947  0.0093086  0.0472277  0.0387226  0  0  0  0.0001245  0.45826  0.277524  0.0210577  0.001228  -0.00251562  -0.0190417  0.00383659  -0.0141824  0.00579363  0.03282  -0.0371014  -0.235633  -0.0407371  0.00386262 
1704198035.608154000  0  0  11.7189  0.0725775  -0.0996408  0.0343688  nan  nan  nan  nan  nan  nan  -2.49856  -0.296153  0.99851  -0.040074  -0.0225174  -0.00225033  0.0093088  0.0495504  0.0401139  0  0  0  0  0.470764  0.278952  0.0209848  0.00125864  -0.00256872  -0.0174402  0.00462391  -0.01145  0.00571726  0.0329375  -0.0377001  -0.197754  -0.103743  -0.0526091 
1704198035.613128000  0  0  11.8404  0.128468  -0.144151  0.029703  nan  nan  nan  nan  nan  nan  -2.49851  -0.295899  0.99871  -0.040784  -0.022548  -0.00235577  0.0093088  0.051935  0.0415117  0  0  0  0  0.483019  0.28013  0.0210421  0.00117675  -0.00258377  -0.0172328  0.00487997  -0.02141  0.00426706  0.033521  -0.0371601  -0.296193  -0.0200911  0.00031318 
1704198035.617129000  0  0  11.7999  0.112514  -0.124259  0.0296705  nan  nan  nan  nan  nan  nan  -2.49846  -0.295633  0.99892  -0.0437912  -0.0205133  -0.00250029  0.0093088  0.0543802  0.0429148  0  0  0  0  0.495024  0.281058  0.0209333  0.00112626  -0.00266186  -0.019781  0.00276258  -0.0176403  0.00625771  0.0313025  -0.0370152  -0.282598  -0.0394646  -0.000729421 
1704198035.622141000  0  0  11.7235  0.0691342  -0.0750717  0.0363871  nan  nan  nan  nan  nan  nan  -2.49842  -0.295355  0.99914  -0.0453358  -0.0220361  -0.00252317  0.0093088  0.0568848  0.0443219  0  0  0  0  0.506779  0.281736  0.0209981  0.00105171  -0.0025686  -0.0181242  0.00277379  -0.0113141  0.00733214  0.0313711  -0.0378757  -0.205724  -0.13847  -0.0760819 
1704198035.627143000  0  0  11.8432  0.136677  -0.128905  0.0297972  nan  nan  nan  nan  nan  nan  -2.49837  -0.295064  0.99937  -0.0454509  -0.0226385  -0.00261734  0.0093088  0.0594476  0.0457317  0  0  0  0  0.518283  0.282165  0.0210408  0.000977515  -0.00259059  -0.017141  0.00363594  -0.021198  0.00506203  0.0324677  -0.0371966  -0.319925  -0.0408925  -0.000498986 
1704198035.633135000  0  0  11.7912  0.113208  -0.0915189  0.0296815  nan  nan  nan  nan  nan  nan  -2.49832  -0.294761  0.9996  -0.0479886  -0.0210668  -0.00275963  0.0093088  0.0620672  0.0471431  0  0  0  0  0.529538  0.282343  0.0209204  0.00104025  -0.00261152  -0.0190839  0.00186912  -0.0166594  0.00605113  0.0301252  -0.0369516  -0.282087  -0.0941143  -0.00150295 
1704198035.638144000  0  0  11.7806  0.10751  -0.0932665  0.0324428  nan  nan  nan  nan  nan  nan  -2.49828  -0.294444  0.99984  -0.0483572  -0.0216941  -0.0028462  0.0093088  0.0647425  0.0485547  0  0  0  0  0.540543  0.282271  0.0209924  0.000981145  -0.00254921  -0.0184554  0.00296528  -0.0158842  0.00530194  0.0302421  -0.0372857  -0.263797  -0.0916945  -0.0326775 
1704198035.642139000  0  0  11.8037  0.146449  -0.124567  0.0272183  nan  nan  nan  nan  nan  nan  -2.49823  -0.294113  1.00009  -0.0495638  -0.0221468  -0.00292231  0.0093088  0.0674722  0.0499654  0  0  0  0  0.551298  0.281949  0.0209139  0.000928827  -0.00267852  -0.0176432  0.00273406  -0.0175241  0.00458311  0.0310439  -0.0365745  -0.335062  -0.0364692  0.0255163 
1704198035.648143000  0  0  11.8674  0.109379  -0.11956  0.0285071  nan  nan  nan  nan  nan  nan  -2.49818  -0.293769  1.00034  -0.0516954  -0.021997  -0.00300754  0.0093088  0.0702551  0.0513738  0  0  0  0  0.561803  0.281378  0.0209528  0.000891209  -0.0026388  -0.0177888  0.000988583  -0.0228494  0.00552287  0.0306623  -0.0364332  -0.269568  -0.0429733  0.00799275 
1704198035.653135000  0  0  11.7877  0.116989  -0.117548  0.0298008  nan  nan  nan  nan  nan  nan  -2.49814  -0.29341  1.0006  -0.0524797  -0.0215085  -0.00314089  0.0093088  0.0730898  0.0527788  0  0  0  0  0.572057  0.280556  0.021007  0.000822867  -0.00254876  -0.0187555  0.00187218  -0.0164307  0.00491894  0.0300021  -0.0364869  -0.279231  -0.0409237  -0.00764045 
1704198035.658144000  0  0  11.7862  0.115593  -0.133958  0.029457  nan  nan  nan  nan  nan  nan  -2.49809  -0.293038  1.00087  -0.0539789  -0.023332  -0.00313506  0.0093088  0.0759752  0.054179  0  0  0  0  0.582062  0.279484  0.0209309  0.000829096  -0.0026317  -0.0162114  0.00116302  -0.0161674  0.00495762  0.0318329  -0.0363456  -0.276796  -0.0249461  -0.00475653 
1704198035.662138000  0  0  11.9228  0.101221  -0.157434  0.029885  nan  nan  nan  nan  nan  nan  -2.49805  -0.292651  1.00114  -0.0561032  -0.0229579  -0.00323145  0.0093088  0.07891  0.0555732  0  0  0  0  0.591817  0.278162  0.0209811  0.000665934  -0.00273017  -0.0164858  -0.000871797  -0.0273642  0.00618965  0.0319732  -0.0363079  -0.259387  0.020714  -0.0104837 
1704198035.668143000  0  0  11.769  0.101721  -0.131689  0.0304706  nan  nan  nan  nan  nan  nan  -2.498  -0.292249  1.00142  -0.0565765  -0.0206848  -0.00347426  0.0093088  0.081893  0.0569602  0  0  0  0  0.601322  0.276591  0.0208459  0.000757092  -0.00269708  -0.0195657  0.000481661  -0.0147226  0.00526755  0.0295001  -0.0362826  -0.251903  -0.00802319  -0.0180567 
1704198035.673136000  0  0  11.7754  0.0855396  -0.150259  0.0331379  nan  nan  nan  nan  nan  nan  -2.49795  -0.291832  1.00171  -0.058696  -0.0240181  -0.00335945  0.0093088  0.0849228  0.0583387  0  0  0  0  0.610577  0.274769  0.0209452  0.00064802  -0.002628  -0.0154178  -0.000932798  -0.0154905  0.00633391  0.032856  -0.0366439  -0.229351  -0.0017576  -0.0477855 
1704198035.678146000  0  0  11.8825  0.0975825  -0.195732  0.0301885  nan  nan  nan  nan  nan  nan  -2.49791  -0.291399  1.00201  -0.0601047  -0.0248724  -0.0033991  0.0093088  0.0879983  0.0597074  0  0  0  0  0.619581  0.272697  0.0211978  0.000491281  -0.002343  -0.0145801  -0.00201009  -0.0251515  0.00639117  0.0347044  -0.0363539  -0.253964  0.0721831  -0.013817 
1704198035.683143000  0  0  11.7361  0.0817484  -0.15129  0.0306322  nan  nan  nan  nan  nan  nan  -2.49786  -0.290952  1.00231  -0.0615779  -0.0228229  -0.00361376  0.0093088  0.0911182  0.0610652  0  0  0  0  0.628336  0.270375  0.0210858  0.000489425  -0.00233789  -0.0174294  -0.00182635  -0.0130821  0.00694999  0.0322373  -0.0363245  -0.227437  0.00599782  -0.0196575 
1704198035.688143000  0  0  11.7051  0.0656149  -0.165009  0.0332293  nan  nan  nan  nan  nan  nan  -2.49781  -0.290488  1.00262  -0.0645207  -0.0270598  -0.00339767  0.0093088  0.0942813  0.0624108  0  0  0  0  0.636841  0.267804  0.0214894  0.000210825  -0.00184405  -0.0128992  -0.00376485  -0.0116564  0.00899521  0.0364906  -0.0367067  -0.213986  -0.00569662  -0.0482992 
1704198035.692135000  0  0  11.8154  0.0795046  -0.196795  0.0307546  nan  nan  nan  nan  nan  nan  -2.49777  -0.290009  1.00293  -0.065588  -0.0273879  -0.00347213  0.0093088  0.0974862  0.0637428  0  0  0  0  0.645096  0.264982  0.0214364  9.94889e-05  -0.00203228  -0.0120353  -0.00466912  -0.0206661  0.00887403  0.0374696  -0.0364303  -0.24065  0.0488692  -0.0201297 
1704198035.698142000  0  0  11.7016  0.0833924  -0.164943  0.0296468  nan  nan  nan  nan  nan  nan  -2.49772  -0.289513  1.00325  -0.0663381  -0.0258757  -0.00367702  0.0093088  0.100732  0.0650602  0  0  0  0  0.653101  0.26191  0.0214834  9.72403e-05  -0.00191557  -0.01447  -0.00378711  -0.011664  0.00827153  0.0358839  -0.0361623  -0.242883  -0.000246265  -0.0089627 
1704198035.703141000  0  0  11.6829  0.0767953  -0.151132  0.0313244  nan  nan  nan  nan  nan  nan  -2.49767  -0.289001  1.00358  -0.0686235  -0.0272725  -0.00364666  0.0093088  0.104017  0.0663615  0  0  0  0  0.660855  0.258588  0.0215818  -3.82312e-05  -0.00183003  -0.0129445  -0.00533592  -0.010454  0.00936885  0.0368511  -0.0363304  -0.239784  -0.0367666  -0.028251 
1704198035.708151000  0  0  11.7727  0.0907334  -0.173634  0.0304254  nan  nan  nan  nan  nan  nan  -2.49763  -0.288473  1.00392  -0.0686267  -0.028678  -0.003675  0.0093088  0.10734  0.0676456  0  0  0  0  0.66836  0.255016  0.0215423  -5.70024e-05  -0.00196256  -0.0107535  -0.00504464  -0.0179932  0.00793946  0.0384386  -0.0362218  -0.25451  -0.00636627  -0.0180998 
1704198035.713134000  0  0  11.7249  0.11853  -0.161056  0.0277592  nan  nan  nan  nan  nan  nan  -2.49758  -0.287928  1.00426  -0.0691926  -0.0266486  -0.00392439  0.0093088  0.1107  0.0689113  0  0  0  0  0.675615  0.251195  0.0215447  -0.000149608  -0.00195359  -0.0135777  -0.00428118  -0.0143337  0.0067231  0.0363308  -0.0357838  -0.298912  -0.0121309  0.0108474 
1704198035.718149000  0  0  11.6405  0.0997405  -0.109296  0.0307265  nan  nan  nan  nan  nan  nan  -2.49753  -0.287366  1.00461  -0.0713841  -0.0260749  -0.00403171  0.0093088  0.114096  0.0701572  0  0  0  0  0.68262  0.247123  0.0214649  -0.000177993  -0.00196383  -0.0144154  -0.00550591  -0.00749974  0.0077313  0.0346832  -0.0360325  -0.270609  -0.100493  -0.0237562 
1704198035.723135000  0  0  11.7321  0.0990909  -0.12993  0.0313953  nan  nan  nan  nan  nan  nan  -2.49749  -0.286787  1.00496  -0.0714735  -0.0296562  -0.00389806  0.0093088  0.117526  0.0713821  0  0  0  0  0.689374  0.242801  0.0215892  -0.000272389  -0.00203783  -0.00975629  -0.00530749  -0.0153754  0.00666212  0.0379892  -0.0361478  -0.259473  -0.0896418  -0.0309628 
1704198035.728135000  0  0  11.7317  0.156332  -0.152458  0.0248912  nan  nan  nan  nan  nan  nan  -2.49744  -0.286191  1.00532  -0.0716644  -0.0274988  -0.00417229  0.0093088  0.120989  0.0725848  0  0  0  0  0.695879  0.238229  0.0216614  -0.000405671  -0.00196063  -0.0127537  -0.00442385  -0.0159143  0.00458042  0.0362396  -0.0352474  -0.354804  -0.0284887  0.0413341 
1704198035.733139000  0  0  11.6205  0.1135  -0.0610349  0.0293385  nan  nan  nan  nan  nan  nan  -2.49739  -0.285577  1.00569  -0.0738498  -0.0264147  -0.00431706  0.0093088  0.124484  0.073764  0  0  0  0  0.702134  0.233408  0.0215747  -0.000432715  -0.0019551  -0.0143275  -0.00548923  -0.0069129  0.00584685  0.0331617  -0.0355502  -0.280791  -0.183017  -0.0112296 
1704198035.738141000  0  0  11.7146  0.116781  -0.090766  0.0331462  nan  nan  nan  nan  nan  nan  -2.49735  -0.284946  1.00606  -0.0738018  -0.0309236  -0.0041101  0.0093088  0.12801  0.0749184  0  0  0  0  0.708139  0.228336  0.0217432  -0.000555392  -0.00191874  -0.00855038  -0.00519549  -0.0152959  0.00453301  0.0369536  -0.0361048  -0.275265  -0.158442  -0.0532798 
1704198035.742137000  0  0  11.785  0.184991  -0.132097  0.0259252  nan  nan  nan  nan  nan  nan  -2.4973  -0.284297  1.00644  -0.0737192  -0.0284986  -0.00441668  0.0093088  0.131565  0.0760469  0  0  0  0  0.713894  0.223014  0.0216544  -0.000693449  -0.0021027  -0.0113138  -0.00461955  -0.0212657  0.00207506  0.0350627  -0.0351885  -0.389073  -0.0583828  0.0278195 
1704198035.747148000  0  0  11.6408  0.128567  -0.0477799  0.0286141  nan  nan  nan  nan  nan  nan  -2.49725  -0.28363  1.00682  -0.0766386  -0.0266965  -0.00459645  0.0093088  0.135148  0.0771481  0  0  0  0  0.719398  0.217442  0.0217231  -0.00086295  -0.00195962  -0.0142876  -0.00611466  -0.00983446  0.00429736  0.0314939  -0.0352846  -0.29667  -0.194185  -0.00482935 
1704198035.752659000  0  0  11.7053  0.1054  -0.0612513  0.0335973  nan  nan  nan  nan  nan  nan  -2.49721  -0.282945  1.00721  -0.0764049  -0.0298496  -0.00448644  0.0093088  0.138759  0.0782209  0  0  0  0  0.724653  0.211621  0.0217327  -0.000854381  -0.00209806  -0.0100159  -0.00573516  -0.0154536  0.0032199  0.0335867  -0.0359946  -0.240423  -0.186495  -0.0600205 
1704198035.757118000  0  0  11.7946  0.174518  -0.120306  0.0256694  nan  nan  nan  nan  nan  nan  -2.49716  -0.282242  1.0076  -0.0760902  -0.0286437  -0.00471278  0.0093088  0.142395  0.0792639  0  0  0  0  0.729658  0.205549  0.0216602  -0.000945109  -0.00227226  -0.0111594  -0.0052459  -0.0231266  0.00043331  0.0331085  -0.0350053  -0.353023  -0.063987  0.0291855 
1704198035.762146000  0  0  11.7133  0.119096  -0.0584771  0.0289333  nan  nan  nan  nan  nan  nan  -2.49711  -0.281521  1.008  -0.077698  -0.0273754  -0.00489017  0.0093088  0.146055  0.080276  0  0  0  0  0.734413  0.199227  0.0216789  -0.00104779  -0.00234666  -0.013137  -0.00580433  -0.0166508  0.00160569  0.0304999  -0.0351177  -0.252964  -0.163645  -0.0104891 
1704198035.767141000  0  0  11.7574  0.114737  -0.0950267  0.0314984  nan  nan  nan  nan  nan  nan  -2.49707  -0.280782  1.0084  -0.0786021  -0.0287442  -0.0048826  0.0093088  0.149738  0.0812558  0  0  0  0  0.738918  0.192655  0.0216409  -0.00108256  -0.00246325  -0.0111439  -0.00672721  -0.0206262  0.00138213  0.0317422  -0.0354897  -0.24219  -0.101975  -0.0388325 
1704198035.772141000  0  0  11.7979  0.130817  -0.134506  0.0273704  nan  nan  nan  nan  nan  nan  -2.49702  -0.280024  1.00881  -0.0788055  -0.0294279  -0.00494774  0.0093088  0.153444  0.0822021  0  0  0  0  0.743172  0.185833  0.0216635  -0.00118132  -0.00262491  -0.0101804  -0.00659984  -0.0243103  0.000163174  0.0330117  -0.0348985  -0.263136  -0.0346946  0.00685553 
1704198035.777134000  0  0  11.7762  0.101122  -0.129832  0.0284281  nan  nan  nan  nan  nan  nan  -2.49697  -0.279247  1.00923  -0.0800554  -0.0291097  -0.00506126  0.0093088  0.15717  0.0831137  0  0  0  0  0.747177  0.178762  0.0218586  -0.0014335  -0.0024449  -0.0111233  -0.00697324  -0.0234514  0.000965661  0.0324635  -0.0348873  -0.211129  -0.0390013  -0.00647753 
1704198035.782145000  0  0  11.7282  0.0957646  -0.154177  0.028906  nan  nan  nan  nan  nan  nan  -2.49693  -0.278452  1.00964  -0.0818355  -0.029702  -0.00508565  0.0093088  0.160915  0.0839893  0  0  0  0  0.750932  0.17144  0.0218172  -0.00147871  -0.00251198  -0.0104333  -0.00829034  -0.0198907  0.00168459  0.0334082  -0.0348846  -0.207027  0.0009976  -0.0124782 
1704198035.787100000  0  0  11.7882  0.0789098  -0.16488  0.0305652  nan  nan  nan  nan  nan  nan  -2.49688  -0.277638  1.01006  -0.0817902  -0.0312418  -0.00508583  0.0093088  0.164679  0.0848277  0  0  0  0  0.754437  0.163868  0.0218428  -0.00158152  -0.0025841  -0.00828264  -0.00812042  -0.0254521  0.00109251  0.0349951  -0.0350478  -0.167871  0.00780474  -0.0315869 
1704198035.792152000  0  0  11.8216  0.109972  -0.190295  0.0277158  nan  nan  nan  nan  nan  nan  -2.49683  -0.276805  1.01049  -0.081056  -0.0296256  -0.00536515  0.0093088  0.168459  0.0856276  0  0  0  0  0.757692  0.156046  0.0217749  -0.00160149  -0.00273261  -0.0101575  -0.00700271  -0.0287421  -0.000930524  0.0341165  -0.034695  -0.211382  0.0667176  0.000502121 
1704198035.797139000  0  0  11.7061  0.0797543  -0.171202  0.0292727  nan  nan  nan  nan  nan  nan  -2.49679  -0.275953  1.01092  -0.0837466  -0.0295993  -0.00541221  0.0093088  0.172255  0.0863877  0  0  0  0  0.760696  0.147975  0.021778  -0.00172015  -0.00276543  -0.0106041  -0.00880816  -0.0196352  0.00117552  0.034114  -0.0347598  -0.170323  0.0285558  -0.0183107 
1704198035.802143000  0  0  11.7842  0.0598956  -0.182392  0.0327941  nan  nan  nan  nan  nan  nan  -2.49674  -0.275083  1.01135  -0.083961  -0.0320048  -0.00532848  0.0093088  0.176065  0.0871069  0  0  0  0  0.763451  0.139661  0.0219719  -0.00195821  -0.00269939  -0.00763341  -0.00896057  -0.0270444  0.00119278  0.0365634  -0.0352882  -0.130765  0.0284014  -0.0570451 
1704198035.807140000  0  0  11.8097  0.114076  -0.209222  0.0266462  nan  nan  nan  nan  nan  nan  -2.4967  -0.274193  1.01179  -0.0832722  -0.0304695  -0.00560376  0.0093088  0.179889  0.0877845  0  0  0  0  0.765956  0.13143  0.0219181  -0.00199144  -0.00285306  -0.00945668  -0.0079036  -0.0297056  -0.00117364  0.0359318  -0.0345593  -0.217354  0.0878701  0.0125148 
1704198035.812142000  0  0  11.6755  0.0592432  -0.16508  0.0304183  nan  nan  nan  nan  nan  nan  -2.49665  -0.273284  1.01223  -0.0859243  -0.0307636  -0.00562216  0.0093088  0.183725  0.0884216  0  0  0  0  0.768211  0.123448  0.021936  -0.00211519  -0.00296149  -0.00959241  -0.00953222  -0.0188644  0.00152251  0.0359108  -0.0348598  -0.132493  -0.000220032  -0.0316311 
1704198035.817137000  0  0  11.7795  0.0661838  -0.170148  0.0329138  nan  nan  nan  nan  nan  nan  -2.4966  -0.272356  1.01268  -0.0847132  -0.0308517  -0.0057772  0.0093088  0.187571  0.0890194  0  0  0  0  0.770215  0.115717  0.0218901  -0.00215228  -0.00315935  -0.00903093  -0.00861628  -0.0279197  -0.000288219  0.0359636  -0.0352829  -0.129716  0.00943028  -0.0585935 
1704198035.823135000  0  0  11.787  0.113064  -0.170318  0.0274513  nan  nan  nan  nan  nan  nan  -2.49656  -0.271408  1.01312  -0.0840734  -0.030658  -0.0059384  0.0093088  0.191426  0.0895792  0  0  0  0  0.77197  0.108235  0.0219004  -0.00208913  -0.00328841  -0.00929211  -0.00777492  -0.0290501  -0.00256066  0.0361061  -0.0345816  -0.202569  0.00845892  0.00267555 
1704198035.828135000  0  0  11.7286  0.0775317  -0.146237  0.0312091  nan  nan  nan  nan  nan  nan  -2.49651  -0.270441  1.01357  -0.0853575  -0.0305357  -0.00603421  0.0093088  0.19529  0.0901022  0  0  0  0  0.773475  0.101004  0.0218652  -0.00216294  -0.0034532  -0.00959318  -0.00854329  -0.0244276  -0.00143517  0.0356251  -0.0349733  -0.14186  -0.0352766  -0.0403812 
1704198035.832136000  0  0  11.757  0.0936293  -0.145891  0.0307158  nan  nan  nan  nan  nan  nan  -2.49646  -0.269455  1.01402  -0.0853509  -0.0297062  -0.00623046  0.0093088  0.199161  0.0905897  0  0  0  0  0.77473  0.0940222  0.0218084  -0.00238552  -0.00366687  -0.0104757  -0.00814757  -0.0269938  -0.0022573  0.0347253  -0.0349452  -0.166491  -0.0276904  -0.0344953 
1704198035.837136000  0  0  11.7797  0.115089  -0.145984  0.028315  nan  nan  nan  nan  nan  nan  -2.49642  -0.26845  1.01448  -0.0857458  -0.0308983  -0.00624122  0.0093088  0.203037  0.0910428  0  0  0  0  0.775735  0.0872908  0.0218127  -0.00248914  -0.00388903  -0.00886087  -0.00853644  -0.0290353  -0.00302404  0.0358382  -0.0346194  -0.202356  -0.0377427  -0.00774239 
1704198035.842097000  0  0  11.78  0.108375  -0.148337  0.028687  nan  nan  nan  nan  nan  nan  -2.49637  -0.267425  1.01493  -0.0860353  -0.0299037  -0.00644295  0.0093088  0.206918  0.091463  0  0  0  0  0.776489  0.0808093  0.0217537  -0.00254325  -0.0040298  -0.0100536  -0.00869661  -0.0293522  -0.00347313  0.0348394  -0.0345806  -0.184798  -0.0238479  -0.012782 
1704198035.848135000  0  0  11.6822  0.114186  -0.115239  0.030006  nan  nan  nan  nan  nan  nan  -2.49632  -0.26638  1.01539  -0.0847855  -0.0293511  -0.00665263  0.0093088  0.210801  0.0918513  0  0  0  0  0.776994  0.0745778  0.0217474  -0.00244258  -0.0040878  -0.0110819  -0.00630179  -0.0217867  -0.00557008  0.0335669  -0.0346512  -0.177127  -0.0783375  -0.0285629 
1704198035.852133000  0  0  11.753  0.114536  -0.131876  0.030168  nan  nan  nan  nan  nan  nan  -2.49628  -0.265317  1.01585  -0.0863942  -0.0314692  -0.00654672  0.0093088  0.214687  0.0922092  0  0  0  0  0.777249  0.0685964  0.0218227  -0.00282961  -0.00427068  -0.00827245  -0.00819316  -0.0277207  -0.00466404  0.0356338  -0.0346545  -0.186162  -0.0640783  -0.0305542 
1704198035.857126000  0  0  11.8121  0.133066  -0.143243  0.0280597  nan  nan  nan  nan  nan  nan  -2.49623  -0.264234  1.01631  -0.0859137  -0.0293747  -0.00686725  0.0093088  0.218574  0.0925377  0  0  0  0  0.777254  0.0628649  0.0217493  -0.0028731  -0.00445243  -0.0106787  -0.00802376  -0.0328453  -0.00627312  0.033706  -0.0343687  -0.20842  -0.0236096  -0.00705975 
1704198035.862140000  0  0  11.6533  0.11232  -0.0905487  0.0303156  nan  nan  nan  nan  nan  nan  -2.49618  -0.263131  1.01678  -0.0861718  -0.0286663  -0.00704579  0.0093088  0.222459  0.0928382  0  0  0  0  0.777009  0.0573834  0.0217398  -0.00298193  -0.00454879  -0.0121029  -0.00662126  -0.0199208  -0.00634879  0.0319236  -0.0345736  -0.166232  -0.1126  -0.0332088 
1704198035.867143000  0  0  11.772  0.126789  -0.119603  0.0310389  nan  nan  nan  nan  nan  nan  -2.49614  -0.262009  1.01724  -0.0855085  -0.0302573  -0.00705372  0.0093088  0.226343  0.093112  0  0  0  0  0.776513  0.052152  0.0217102  -0.00302214  -0.00475209  -0.00958507  -0.0068902  -0.0299214  -0.00802485  0.0333722  -0.0347182  -0.179749  -0.0678189  -0.0408042 
1704198035.872142000  0  0  11.8295  0.13874  -0.138185  0.0281078  nan  nan  nan  nan  nan  nan  -2.49609  -0.260868  1.01771  -0.0858423  -0.0289747  -0.00727887  0.0093088  0.230224  0.0933602  0  0  0  0  0.775768  0.0471705  0.0217232  -0.00318858  -0.00483605  -0.0111356  -0.00759256  -0.0349746  -0.00858219  0.0324054  -0.0343383  -0.198524  -0.021761  -0.00796539 
1704198035.877133000  0  0  11.7065  0.111734  -0.0965815  0.030313  nan  nan  nan  nan  nan  nan  -2.49604  -0.259707  1.01818  -0.0857742  -0.0282131  -0.00747132  0.0093088  0.2341  0.0935841  0  0  0  0  0.774773  0.0424391  0.0217188  -0.00331689  -0.00495006  -0.0125216  -0.00616437  -0.0249533  -0.00879225  0.0307933  -0.0344884  -0.14258  -0.0901357  -0.0340287 
1704198035.882147000  0  0  11.77  0.13077  -0.118145  0.0289921  nan  nan  nan  nan  nan  nan  -2.496  -0.258527  1.01864  -0.0854158  -0.0290739  -0.00753293  0.0093088  0.237971  0.093785  0  0  0  0  0.773528  0.0379576  0.02168  -0.00335226  -0.00512481  -0.0111207  -0.00639703  -0.0303274  -0.0101763  0.0315894  -0.034348  -0.167919  -0.0543316  -0.0189216 
1704198035.887141000  0  0  11.8499  0.125758  -0.131318  0.0272576  nan  nan  nan  nan  nan  nan  -2.49595  -0.257327  1.01911  -0.0850295  -0.0288803  -0.00768573  0.0093088  0.241835  0.0939641  0  0  0  0  0.772033  0.0337261  0.021668  -0.00346232  -0.00532118  -0.0111081  -0.00659941  -0.0370023  -0.0111907  0.0314543  -0.0340233  -0.148561  -0.0267447  -0.000487165 
1704198035.892150000  0  0  11.7898  0.132756  -0.118723  0.0277962  nan  nan  nan  nan  nan  nan  -2.4959  -0.256108  1.01958  -0.083534  -0.0269052  -0.00801954  0.0093088  0.245691  0.0941227  0  0  0  0  0.770287  0.0297447  0.0215853  -0.00347397  -0.0054453  -0.0137093  -0.00426003  -0.032269  -0.0132759  0.0291895  -0.0339821  -0.143373  -0.0310973  -0.00763221 
1704198035.897141000  0  0  11.7424  0.132204  -0.113823  0.0283079  nan  nan  nan  nan  nan  nan  -2.49586  -0.25487  1.02006  -0.084634  -0.0277225  -0.00804543  0.0093088  0.249538  0.094262  0  0  0  0  0.768292  0.0260132  0.021601  -0.00361994  -0.00560929  -0.0128364  -0.00518895  -0.0282421  -0.0128205  0.0298824  -0.0339176  -0.14646  -0.0472718  -0.0146724 
1704198035.902154000  0  0  11.8732  0.101669  -0.140751  0.0303218  nan  nan  nan  nan  nan  nan  -2.49581  -0.253613  1.02053  -0.0851677  -0.0298914  -0.00797053  0.0093088  0.253374  0.0943832  0  0  0  0  0.766047  0.0225317  0.0217422  -0.00387387  -0.0056015  -0.00990366  -0.00687101  -0.0394096  -0.0121404  0.0322007  -0.0341943  -0.0916454  -0.0147446  -0.037079 
1704198035.907148000  0  0  11.8358  0.141807  -0.154813  0.0261158  nan  nan  nan  nan  nan  nan  -2.49576  -0.252336  1.021  -0.0831254  -0.0267775  -0.00841633  0.0093088  0.257198  0.0944877  0  0  0  0  0.763552  0.0193003  0.0216466  -0.00388239  -0.00575271  -0.0139159  -0.0041144  -0.0365135  -0.0151876  0.0295787  -0.0336803  -0.143889  0.0375016  0.0103549 
1704198035.912148000  0  0  11.7122  0.0953843  -0.110196  0.0298377  nan  nan  nan  nan  nan  nan  -2.49572  -0.251041  1.02147  -0.0855857  -0.0277121  -0.00839484  0.0093088  0.261009  0.0945766  0  0  0  0  0.760807  0.0163188  0.0216892  -0.00410268  -0.00590613  -0.0131882  -0.00602729  -0.0259583  -0.012436  0.0299708  -0.0339434  -0.076357  -0.0553386  -0.0335375 
1704198035.917146000  0  0  11.8774  0.0785061  -0.154326  0.0334386  nan  nan  nan  nan  nan  nan  -2.49567  -0.249726  1.02194  -0.0840926  -0.029974  -0.00837103  0.0093088  0.264805  0.0946513  0  0  0  0  0.757811  0.0135873  0.021648  -0.00413055  -0.00617317  -0.00960041  -0.00599013  -0.0395392  -0.0137704  0.0325382  -0.0345515  -0.0303242  0.00930127  -0.0724669 
1704198035.923133000  0  0  11.8168  0.138255  -0.168982  0.0256672  nan  nan  nan  nan  nan  nan  -2.49562  -0.248393  1.02242  -0.081979  -0.0255769  -0.00892096  0.0093088  0.268587  0.0947129  0  0  0  0  0.754566  0.0111059  0.0215579  -0.00396847  -0.00629927  -0.015383  -0.00339054  -0.0347154  -0.0170918  0.0291544  -0.0336354  -0.119266  0.0697441  0.0155147 
1704198035.927148000  0  0  11.7096  0.0711378  -0.10367  0.0322928  nan  nan  nan  nan  nan  nan  -2.49558  -0.247041  1.02289  -0.0841237  -0.0265113  -0.00891196  0.0093088  0.272351  0.0947628  0  0  0  0  0.751071  0.0088744  0.0215569  -0.00432392  -0.00643675  -0.0144957  -0.00485232  -0.0254891  -0.0142778  0.0288291  -0.0343457  -0.0109199  -0.0578886  -0.0602031 
1704198035.932148000  0  0  11.8553  0.0884333  -0.170129  0.0344035  nan  nan  nan  nan  nan  nan  -2.49553  -0.245669  1.02337  -0.0822934  -0.029175  -0.0088663  0.0093088  0.276097  0.0948021  0  0  0  0  0.747326  0.0068929  0.021512  -0.00434074  -0.00669909  -0.0104461  -0.00429491  -0.0374431  -0.016371  0.0322007  -0.0348897  -0.0262536  0.0440115  -0.0811473 
1704198035.937144000  0  0  11.8486  0.153341  -0.189387  0.0259166  nan  nan  nan  nan  nan  nan  -2.49549  -0.24428  1.02384  -0.0811337  -0.0259242  -0.00928959  0.0093088  0.279824  0.0948321  0  0  0  0  0.74333  0.0051615  0.0214539  -0.00446027  -0.00691408  -0.0146339  -0.00292516  -0.0367582  -0.0187928  0.0300547  -0.0339255  -0.133788  0.102271  0.0152971 
1704198035.942627000  0  0  11.7067  0.0812914  -0.110053  0.0323244  nan  nan  nan  nan  nan  nan  -2.49544  -0.242871  1.02431  -0.0814352  -0.0262159  -0.00938292  0.0093088  0.28353  0.0948541  0  0  0  0  0.739085  0.00368  0.0214212  -0.00439803  -0.00698347  -0.0145946  -0.00271168  -0.0248849  -0.0174729  0.0290246  -0.034615  -0.00183202  -0.0469203  -0.0579059 
1704198035.947148000  0  0  11.811  0.105488  -0.171749  0.0317514  nan  nan  nan  nan  nan  nan  -2.49539  -0.241444  1.02479  -0.0805725  -0.0280011  -0.00938659  0.0093088  0.287214  0.0948693  0  0  0  0  0.73459  0.0024485  0.0213709  -0.00454611  -0.00724222  -0.0118368  -0.00280271  -0.0332523  -0.0187811  0.031686  -0.0347376  -0.0381908  0.0519865  -0.0495166 
1704198035.952147000  0  0  11.8116  0.136235  -0.173419  0.0263691  nan  nan  nan  nan  nan  nan  -2.49535  -0.239999  1.02526  -0.079029  -0.0263089  -0.00968914  0.0093088  0.290875  0.094879  0  0  0  0  0.729845  0.0014671  0.0213415  -0.00463564  -0.00742602  -0.0139922  -0.00117993  -0.0331818  -0.0208964  0.0306063  -0.034043  -0.0802219  0.0652609  0.0108165 
1704198035.957140000  0  0  11.72  0.100885  -0.133374  0.0304811  nan  nan  nan  nan  nan  nan  -2.4953  -0.238536  1.02574  -0.0787236  -0.0256993  -0.0098703  0.0093088  0.294512  0.0948844  0  0  0  0  0.72485  0.0007356  0.0212606  -0.00464252  -0.00752651  -0.0148784  -0.000589247  -0.0254352  -0.0207362  0.02936  -0.0344515  -0.0109976  -0.00336467  -0.036499 
1704198035.962153000  0  0  11.7289  0.111683  -0.159901  0.0296091  nan  nan  nan  nan  nan  nan  -2.49525  -0.237054  1.02621  -0.0788842  -0.027421  -0.00985509  0.0093088  0.298123  0.0948868  0  0  0  0  0.719604  0.0002541  0.0213216  -0.0048113  -0.00759323  -0.0127506  -0.00119446  -0.0260892  -0.0206898  0.0315905  -0.034409  -0.0330194  0.0291697  -0.0260231 
1704198035.967148000  0  0  11.7873  0.120106  -0.149235  0.0273976  nan  nan  nan  nan  nan  nan  -2.49521  -0.235554  1.02669  -0.0765052  -0.0266089  -0.010108  0.0093088  0.301708  0.0948874  0  0  0  0  0.714109  2.27e-05  0.0212561  -0.0048068  -0.00777978  -0.0134808  0.000693232  -0.0308032  -0.0231317  0.0306792  -0.0340859  -0.0273997  0.0162201  -0.0016105 
1704198035.972149000  0  0  11.7587  0.111853  -0.140723  0.0279103  nan  nan  nan  nan  nan  nan  -2.49516  -0.234037  1.02716  -0.0772582  -0.0258881  -0.0102687  0.0093088  0.305264  0.0948874  0  0  0  0  0.708364  0  0.0213017  -0.00504022  -0.00782573  -0.0146328  -0.000245704  -0.028255  -0.0221697  0.030035  -0.0340511  -0.0197437  0.0051239  -0.0083677 
1704198035.977139000  0  0  11.7008  0.0934727  -0.128349  0.0303083  nan  nan  nan  nan  nan  nan  -2.49511  -0.232502  1.02764  -0.0773769  -0.0271569  -0.0102922  0.0093088  0.308791  0.0948874  0  0  0  0  0.702369  0  0.0213264  -0.0051903  -0.00789241  -0.0132074  -0.000346574  -0.0232735  -0.0216428  0.0310047  -0.0342955  0.0121688  -0.028545  -0.035899 
1704198035.982151000  0  0  11.8125  0.112559  -0.138509  0.0285497  nan  nan  nan  nan  nan  nan  -2.49507  -0.230949  1.02811  -0.0746507  -0.0265782  -0.010535  0.0093088  0.312287  0.0948874  0  0  0  0  0.696124  0  0.021264  -0.00517877  -0.00809527  -0.013478  0.00143713  -0.0324055  -0.0244027  0.0304443  -0.0341177  -0.000612361  -0.00306937  -0.0156934 
1704198035.987140000  0  0  11.787  0.114075  -0.125783  0.0271588  nan  nan  nan  nan  nan  nan  -2.49502  -0.229379  1.02858  -0.075251  -0.0257093  -0.0107095  0.0093088  0.315752  0.0948874  0  0  0  0  0.689628  0  0.0212927  -0.00537438  -0.00816009  -0.0147786  0.000486796  -0.0300838  -0.0237961  0.0294359  -0.0338662  -0.00922582  -0.0192429  -0.000823809 
1704198035.992138000  0  0  11.6875  0.087647  -0.105869  0.0317804  nan  nan  nan  nan  nan  nan  -2.49497  -0.227792  1.02906  -0.0740682  -0.0262402  -0.0108257  0.0093089  0.319183  0.0948874  0  0  0  0.0001052  0.682883  0  0.0212227  -0.005365  -0.00823642  -0.0141881  0.00196624  -0.0217341  -0.0243164  0.0292865  -0.034384  0.0484164  -0.0576988  -0.0534153 
1704198035.997135000  0  0  11.7883  0.119262  -0.130888  0.0290673  nan  nan  nan  nan  nan  nan  -2.49493  -0.226187  1.02953  -0.0720515  -0.0259181  -0.0110271  0.0093103  0.32258  0.0948874  0  0  0  0.0004596  0.675888  0  0.0212037  -0.0054358  -0.00842198  -0.0142212  0.00303334  -0.029933  -0.0264545  0.0293035  -0.0341884  0.00485725  -0.00781605  -0.0214581 
1704198036.002141000  0  0  11.7813  0.114035  -0.119741  0.0278182  nan  nan  nan  nan  nan  nan  -2.49488  -0.224566  1.03001  -0.0716414  -0.025834  -0.0111689  0.0093139  0.325942  0.0948874  0  0  0  0.001064  0.668643  0  0.021162  -0.00547947  -0.00857655  -0.0141879  0.00280118  -0.0290533  -0.0266388  0.0290625  -0.0339277  0.017006  -0.0278927  -0.00845049 
1704198036.007142000  0  0  11.7126  0.107349  -0.108938  0.030336  nan  nan  nan  nan  nan  nan  -2.49483  -0.222928  1.03048  -0.0698544  -0.0250153  -0.0113976  0.0093213  0.329266  0.0948874  0  0  0  0.0019184  0.661148  0  0.0210809  -0.00545527  -0.00866214  -0.0151439  0.00467162  -0.0233116  -0.0279451  0.0278764  -0.0342099  0.0423963  -0.0385877  -0.0371016 
1704198036.012098000  0  0  11.7244  0.124295  -0.108605  0.0279239  nan  nan  nan  nan  nan  nan  -2.49479  -0.221273  1.03096  -0.0682438  -0.0246084  -0.0115909  0.0093335  0.332553  0.0948874  0  0  0  0.0030228  0.653402  0  0.0210534  -0.0055307  -0.00882213  -0.0154289  0.0058574  -0.0241064  -0.029462  0.0274066  -0.0338661  0.0224601  -0.0349305  -0.010387 
1704198036.017093000  0  0  11.7793  0.117081  -0.120609  0.0291435  nan  nan  nan  nan  nan  nan  -2.49474  -0.219602  1.03143  -0.0684541  -0.0262112  -0.0116009  0.0093519  0.3358  0.0948874  0  0  0  0.0043771  0.645407  0  0.02118  -0.00572701  -0.00872829  -0.0133034  0.00456008  -0.0288419  -0.0288951  0.0289398  -0.0339349  0.0316726  -0.0250273  -0.0249442 
1704198036.023140000  0  0  11.7007  0.137995  -0.109354  0.0285269  nan  nan  nan  nan  nan  nan  -2.49469  -0.217915  1.03191  -0.0647453  -0.0231476  -0.0120221  0.0093777  0.339006  0.0948874  0  0  0  0.0059815  0.637162  0  0.0210688  -0.00532468  -0.00874514  -0.0170221  0.00806844  -0.0225984  -0.032413  0.0257532  -0.0338821  0.0222097  -0.0182205  -0.0177658 
1704198036.028141000  0  0  11.6602  0.125395  -0.0887334  0.030331  nan  nan  nan  nan  nan  nan  -2.49465  -0.216212  1.03238  -0.0630455  -0.023875  -0.0121407  0.0094122  0.342171  0.0948874  0  0  0  0.0078359  0.628667  0  0.0210046  -0.00528109  -0.0088294  -0.0157826  0.00936849  -0.0191807  -0.0335971  0.0257495  -0.0340581  0.0583033  -0.0594288  -0.0385566 
1704198036.032136000  0  0  11.7949  0.131938  -0.126816  0.0303849  nan  nan  nan  nan  nan  nan  -2.4946  -0.214494  1.03285  -0.0633596  -0.0247588  -0.0122022  0.0094565  0.345292  0.0948874  0  0  0  0.0099403  0.619921  0  0.0210152  -0.00572594  -0.00904764  -0.0140471  0.00787088  -0.0299206  -0.0331305  0.0271372  -0.0341035  0.0409245  0.00396973  -0.0387759 
1704198036.038139000  0  0  11.6742  0.149629  -0.0989024  0.0283931  nan  nan  nan  nan  nan  nan  -2.49455  -0.21276  1.03333  -0.0601565  -0.0208198  -0.012644  0.009512  0.34837  0.0948874  0  0  0  0.0122947  0.610926  0  0.0209252  -0.00536624  -0.00901904  -0.0189509  0.0109866  -0.0202114  -0.036135  0.0229844  -0.0339081  0.0331837  -0.0136513  -0.015833 
1704198036.042144000  0  0  11.6354  0.115764  -0.0666094  0.0321642  nan  nan  nan  nan  nan  nan  -2.4945  -0.21101  1.0338  -0.0595892  -0.0214278  -0.0127446  0.0095799  0.351401  0.0948874  0  0  0  0.014899  0.601681  0  0.0208505  -0.00566968  -0.00916873  -0.017754  0.0114709  -0.0166726  -0.0358252  0.0226952  -0.0343371  0.0980639  -0.0755775  -0.0586819 
1704198036.048138000  0  0  11.8087  0.160161  -0.142607  0.0283513  nan  nan  nan  nan  nan  nan  -2.49446  -0.209246  1.03428  -0.0567522  -0.0223015  -0.012881  0.0096614  0.354386  0.0948874  0  0  0  0.0177534  0.592186  0  0.0208016  -0.00529677  -0.00937111  -0.0156944  0.0119739  -0.0309806  -0.0387582  0.0247534  -0.034026  0.0362523  0.0574821  -0.0141314 
