ts x y z roll pitch yaw vx vy vz wx wy wz ax ay az dwx dwy dwz jx jy jz ddwx ddwy ddwz
1704465701.188495000  -2.5  -0.3  1  0  0  0  2e-07  2e-07  2e-07  0  0  0  0.000125  0.000125  0.000125  0  0  0  0  0  0  0  0  0 
1704465701.193479000  -2.5  -0.3  1  0  0  0  1.7e-06  1.7e-06  1.7e-06  0  0  0  0.0005  0.0005  0.0005  0  0  0  0  0  0  0  0  0 
1704465701.198487000  -2.5  -0.3  1  0  0  0  5.6e-06  5.6e-06  5.6e-06  0  0  0  0.001125  0.001125  0.001125  0  0  0  0  0  0  0  0  0 
1704465701.203486000  -2.5  -0.3  1  0  0  1e-07  1.33e-05  1.33e-05  1.33e-05  0  0  0  0.002  0.002  0.002  0  0  0  0  0  0  0  0  0 
1704465701.208484000  -2.5  -0.3  1  0  0  3e-07  2.6e-05  2.6e-05  2.6e-05  0  0  0  0.003125  0.003125  0.003125  0  0  0  0  0  0  0  0  0 
1704465701.213485000  -2.5  -0.3  1  0  0  5e-07  4.5e-05  4.5e-05  4.5e-05  0  0  0  0.0045  0.0045  0.0045  0  0  0  0  0  0  0  0  0 
1704465701.218478000  -2.5  -0.299999  1  0  0  1e-06  7.15e-05  7.15e-05  7.15e-05  0  0  0  0.006125  0.006125  0.006125  0  0  0  0  0  0  0  0  0 
1704465701.223496000  -2.5  -0.299999  1  0  0  1.7e-06  0.0001067  0.0001067  0.0001067  0  0  0  0.008  0.008  0.008  0  0  0  0  0  0  0  0  0 
1704465701.228485000  -2.5  -0.299998  1  0  0  2.7e-06  0.0001519  0.0001519  0.0001519  0  0  0  0.010125  0.010125  0.010125  0  0  0  0  0  0  0  0  0 
1704465701.233475000  -2.5  -0.299997  1  0  0  4.2e-06  0.0002083  0.0002083  0.0002083  0  0  0  0.0125  0.0125  0.0125  0  0  0  0  0  0  0  0  0 
1704465701.238477000  -2.5  -0.299996  1  0  0  6.1e-06  0.0002773  0.0002773  0.0002773  0  0  0  0.015125  0.015125  0.015125  0  0  0  0  0  0  0  0  0 
1704465701.243498000  -2.49999  -0.299995  1.00001  0  0  8.6e-06  0.00036  0.00036  0.00036  0  0  0  0.018  0.018  0.018  0  0  0  0  0  0  0  0  0 
1704465701.248477000  -2.49999  -0.299993  1.00001  0  0  1.19e-05  0.0004577  0.0004577  0.0004577  0  0  0  0.021125  0.021125  0.021125  0  0  0  0  0  0  0  0  0 
1704465701.253478000  -2.49999  -0.29999  1.00001  0  0  1.6e-05  0.0005717  0.0005717  0.0005717  0  0  0  0.0245  0.0245  0.0245  0  0  0  0  0  0  0  0  0 
1704465701.258479000  -2.49999  -0.299987  1.00001  0  0  2.11e-05  0.0007031  0.0007031  0.0007031  0  0  0  0.028125  0.028125  0.028125  0  0  0  0  0  0  0  0  0 
1704465701.263496000  -2.49998  -0.299983  1.00002  0  0  2.73e-05  0.0008533  0.0008533  0.0008533  0  0  0  0.032  0.032  0.032  0  0  0  0  0  0  0  0  0 
1704465701.268478000  -2.49998  -0.299978  1.00002  0  0  3.48e-05  0.0010235  0.0010235  0.0010235  0  0  0  0.036125  0.036125  0.036125  0  0  0  0  0  0  0  0  0 
1704465701.273478000  -2.49997  -0.299973  1.00003  0  0  4.37e-05  0.001215  0.001215  0.001215  0  0  0  0.0405  0.0405  0.0405  0  0  0  0  0  0  0  0  0 
1704465701.278477000  -2.49997  -0.299966  1.00003  0  0  5.43e-05  0.001429  0.001429  0.001429  0  0  0  0.045125  0.045125  0.045125  0  0  0  0  0  0  0  0  0 
1704465701.283496000  -2.49996  -0.299958  1.00004  0  0  6.67e-05  0.0016667  0.0016667  0.0016667  0  0  0  0.05  0.05  0.05  0  0  0  0  0  0  0  0  0 
1704465701.288485000  -2.49995  -0.299949  1.00005  0  0  8.1e-05  0.0019294  0.0019294  0.0019294  0  0  0  0.055125  0.055125  0.055125  0  0  0  0  0  0  0  0  0 
1704465701.293487000  -2.49994  -0.299939  1.00006  0  0  9.76e-05  0.0022183  0.0022183  0.0022183  0  0  0  0.0605  0.0605  0.0605  0  0  0  0  0  0  0  0  0 
1704465701.298487000  -2.49993  -0.299927  1.00007  0  0  0.0001165  0.0025348  0.0025348  0.0025348  0  0  0  0.066125  0.066125  0.066125  0  0  0  0  0  0  0  0  0 
1704465701.303497000  -2.49991  -0.299914  1.00009  0  0  0.0001381  0.00288  0.00288  0.00288  0  0  0  0.0719878  0.072  0.072  0  0  0  0  0  0  0  0  0 
1704465701.308489000  -2.4999  -0.299898  1.0001  0  0  0.0001623  0.0032544  0.0032552  0.0032552  0  0  0  0.0777521  0.078125  0.078125  0  0  0  0  0  0  0  0  0 
1704465701.313500000  -2.49988  -0.299881  1.00012  0  0  0.0001894  0.0036571  0.0036617  0.0036617  0  0  0  0.0832665  0.0845  0.0845  0  0  0  0  0  0  0  0  0 
1704465701.318496000  -2.49986  -0.299862  1.00014  0  0  0.0002196  0.0040867  0.0041006  0.0041006  0  0  0  0.0885309  0.091125  0.091125  0  0  0  0  0  0  0  0  0 
1704465701.323516000  -2.49984  -0.29984  1.00016  0  0  0.0002529  0.004542  0.0045733  0.0045733  0  0  0  0.0935453  0.098  0.098  0  0  0  0  0  0  0  0  0 
1704465701.328498000  -2.49982  -0.299816  1.00018  0  0  0.0002895  0.0050217  0.005081  0.005081  0  0  0  0.0983097  0.105125  0.105125  0  0  0  0  0  0  0  0  0 
1704465701.333498000  -2.49979  -0.299789  1.00021  0  0  0.0003296  0.0055247  0.005625  0.005625  0  0  0  0.102824  0.1125  0.112498  0  0  0  0  0  0  0  0  0 
1704465701.338492000  -2.49976  -0.299759  1.00024  0  0  0.0003732  0.0060496  0.0062065  0.0062059  0  0  0  0.107088  0.120125  0.119832  0  0  0  0  0  0  0  0  0 
1704465701.343511000  -2.49973  -0.299727  1.00027  0  0  0.0004204  0.0065951  0.0068267  0.0068229  0  0  0  0.111103  0.128  0.126915  0  0  0  0  0  0  0  0  0 
1704465701.348498000  -2.49969  -0.299691  1.00031  0  0  0.0004713  0.0071602  0.0074865  0.0074747  0  0  0  0.114867  0.135908  0.133749  0  0  0  0  0  0  0  0  0 
1704465701.353495000  -2.49966  -0.299652  1.00035  0  0  0.000526  0.0077434  0.0081853  0.00816  0  0  0  0.118382  0.143566  0.140332  0  0  0  0  0  0  0  0  0 
1704465701.358497000  -2.49962  -0.299609  1.00039  0  0  0.0005845  0.0083436  0.0089218  0.0088776  0  0  0  0.121646  0.150975  0.146665  0  0  0  0  0  0  0  0  0 
1704465701.363505000  -2.49957  -0.299563  1.00044  0  0  0.000647  0.0089594  0.0096947  0.0096262  0  0  0  0.12466  0.158134  0.152749  0  0  0  0  0  0  0  0  0 
1704465701.368495000  -2.49953  -0.299512  1.00049  0  0  0.0007134  0.0095898  0.0105027  0.0104046  0  0  0  0.127425  0.165042  0.158582  0  0  0  0  0  0  0  0  0 
1704465701.373484000  -2.49948  -0.299458  1.00054  0  0  0.0007839  0.0102333  0.0113447  0.0112116  0  0  0  0.129939  0.171701  0.164166  0  0  0  0  0  0  0  0  0 
1704465701.378483000  -2.49943  -0.299399  1.0006  0  0  0.0008583  0.0108887  0.0122193  0.0120459  0  0  0  0.132204  0.17811  0.169499  0  0  0  0  0  0  0  0  0 
1704465701.383495000  -2.49937  -0.299335  1.00066  0  0  0.0009368  0.0115549  0.0131253  0.0129062  0  0  0  0.134218  0.184269  0.174583  0  0  0  0  0  0  0  0  0 
1704465701.388485000  -2.49931  -0.299267  1.00073  0  0  0.0010194  0.0122305  0.0140616  0.0137913  0  0  0  0.135982  0.190177  0.179416  0  0  0  0  0  0  0  0  0 
1704465701.393488000  -2.49925  -0.299195  1.0008  0  0  0.001106  0.0129143  0.0150267  0.0146999  0  0  0  0.137497  0.195836  0.184  0  0  0  0  0  0  0  0  0 
1704465701.398486000  -2.49918  -0.299117  1.00088  0  0  0.0011966  0.013605  0.0160195  0.0156309  0  0  0  0.138761  0.201245  0.188333  0  0  0  0  0  0  0  0  0 
1704465701.403506000  -2.49911  -0.299034  1.00096  0  0  0.0012912  0.0143015  0.0170387  0.0165828  0  0  0  0.139775  0.206403  0.192416  0  0  0  0  0  0  0  0  0 
1704465701.408493000  -2.49904  -0.298947  1.00104  0  0  0.0013899  0.0150024  0.0180831  0.0175546  0  0  0  0.14054  0.211312  0.19625  0  0  0  0  0  0  0  0  0 
1704465701.413476000  -2.49896  -0.298854  1.00113  0  0  0.0014924  0.0157065  0.0191514  0.0185449  0  0  0  0.141054  0.215971  0.199833  0  0  0  0  0  0  0  0  0 
1704465701.418493000  -2.49888  -0.298755  1.00123  0  0  0.0015989  0.0164125  0.0202424  0.0195525  0  0  0  0.141319  0.22038  0.203167  0  0  0  0  0  0  0  0  0 
1704465701.423506000  -2.4988  -0.298651  1.00133  0  0  0.0017092  0.0171192  0.0213548  0.0205762  0  0  0  0.141333  0.224538  0.20625  0  0  0  0  0  0  0  0  0 
1704465701.428486000  -2.49871  -0.298542  1.00143  0  0  0.0018232  0.0178254  0.0224874  0.0216146  0  0  0  0.141097  0.228447  0.209084  0  0  0  0  0  0  0  0  0 
1704465701.433488000  -2.49862  -0.298426  1.00154  0  0  0.0019409  0.0185298  0.0236389  0.0226666  0  0  0  0.140612  0.232106  0.211667  0  0  0  0  0  0  0  0  0 
1704465701.438492000  -2.49852  -0.298305  1.00166  0  0  0.0020622  0.0192311  0.024808  0.0237309  0  0  0  0.139876  0.235514  0.214  0  0  0  0  0  0  0  0  0 
1704465701.443506000  -2.49843  -0.298178  1.00178  0  0  0.002187  0.0199281  0.0259936  0.0248062  0  0  0  0.13889  0.238673  0.216084  0  0  0  0  0  0  0  0  0 
1704465701.448486000  -2.49832  -0.298045  1.00191  0  0  0.0023151  0.0206196  0.0271943  0.0258913  0  0  0  0.137655  0.241582  0.217917  0  0  0  0  0  0  0  0  0 
1704465701.453486000  -2.49822  -0.297906  1.00204  0  0  0.0024464  0.0213043  0.028409  0.0269849  0  0  0  0.136169  0.244241  0.219501  0  0  0  0  0  0  0  0  0 
1704465701.458478000  -2.49811  -0.297761  1.00218  0  0  0.0025809  0.0219809  0.0296363  0.0280859  0  0  0  0.134434  0.246649  0.220834  0  0  0  0  0  0  0  0  0 
1704465701.463505000  -2.498  -0.29761  1.00232  0  0  0.0027184  0.0226482  0.0308751  0.0291929  0  0  0  0.132448  0.248808  0.221918  0  0  0  0  0  0  0  0  0 
1704465701.468484000  -2.49789  -0.297452  1.00247  0  0  0.0028586  0.0233049  0.032124  0.0303046  0  0  0  0.130212  0.250717  0.222751  0  0  0  0  0  0  0  0  0 
1704465701.473479000  -2.49777  -0.297289  1.00262  0  0  0.0030015  0.0239499  0.0333818  0.03142  0  0  0  0.127727  0.252376  0.223335  0  0  0  0  0  0  0  0  0 
1704465701.478478000  -2.49765  -0.297118  1.00278  0  0  0.0031469  0.0245818  0.0346473  0.0325376  0  0  0  0.124991  0.253784  0.223668  0  0  0  0  0  0  0  0  0 
1704465701.483495000  -2.49752  -0.296942  1.00295  0  0  0.0032946  0.0251994  0.0359193  0.0336562  0  0  0  0.122006  0.254943  0.223751  0  0  0  0  0  0  0  0  0 
1704465701.488494000  -2.49739  -0.296759  1.00312  0  0  0.0034443  0.0258014  0.0371964  0.0347747  0  0  0  0.11877  0.255852  0.223585  0  0  0  0  0  0  0  0  0 
1704465701.493493000  -2.49726  -0.29657  1.0033  0  0  0.003596  0.0263867  0.0384774  0.0358917  0  0  0  0.115284  0.25651  0.223168  0  0  0  0  0  0  0  0  0 
1704465701.498492000  -2.49713  -0.296374  1.00348  0  0  0.0037494  0.0269539  0.039761  0.0370059  0  0  0  0.111549  0.256919  0.222502  0  0  0  0  0  0  0  0  0 
1704465701.503505000  -2.49699  -0.296172  1.00367  0  0  0.0039044  0.0275017  0.0410461  0.0381163  0  0  0  0.107563  0.257078  0.221585  0  0  0  0  0  0  0  0  0 
1704465701.508488000  -2.49686  -0.295964  1.00386  0  0  0.0040607  0.0280291  0.0423314  0.0392214  0  0  0  0.103327  0.256987  0.220419  0  0  0  0  0  0  0  0  0 
1704465701.513489000  -2.49671  -0.295749  1.00406  0  0  0.0042182  0.0285346  0.0436156  0.04032  0  0  0  0.0988418  0.256645  0.219002  0  0  0  0  0  0  0  0  0 
1704465701.518487000  -2.49657  -0.295528  1.00426  0  0  0.0043768  0.0290171  0.0448974  0.041411  0  0  0  0.0941062  0.256054  0.217335  0  0  0  0  0  0  0  0  0 
1704465701.523498000  -2.49642  -0.2953  1.00447  0  0  0.0045363  0.0294752  0.0461757  0.042493  0  0  0  0.0891206  0.255213  0.215419  0  0  0  0  0  0  0  0  0 
1704465701.528485000  -2.49628  -0.295066  1.00469  0  0  0.0046965  0.0299079  0.0474491  0.0435648  0  0  0  0.083885  0.254121  0.213252  0  0  0  0  0  0  0  0  0 
1704465701.533485000  -2.49612  -0.294826  1.00491  0  0  0.0048575  0.0303137  0.0487165  0.0446251  0  0  0  0.0783994  0.25278  0.210836  0  0  0  0  0  0  0  0  0 
1704465701.538485000  -2.49597  -0.294579  1.00513  0  0  0.005019  0.0306914  0.0499765  0.0456727  0  0  0  0.0726638  0.251189  0.208169  0  0  0  0  0  0  0  0  0 
1704465701.543496000  -2.49582  -0.294326  1.00536  0  0  0.0051809  0.03104  0.051228  0.0467064  0  0  0  0.0667883  0.249348  0.205253  0  0  0  0  0  0  0  0  0 
1704465701.548485000  -2.49566  -0.294067  1.0056  0  0  0.0053432  0.0313597  0.0524696  0.0477248  0  0  0  0.0611345  0.247256  0.202086  0  0  0  0  0  0  0  0  0 
1704465701.553494000  -2.4955  -0.293801  1.00584  0  0  0.0055058  0.0316518  0.0537001  0.0487268  0  0  0  0.0557307  0.244915  0.19867  0  0  0  0  0  0  0  0  0 
1704465701.558486000  -2.49535  -0.29353  1.00609  0  0  0.0056686  0.0319175  0.0549183  0.0497111  0  0  0  0.050577  0.242324  0.195003  0  0  0  0  0  0  0  0  0 
1704465701.563505000  -2.49519  -0.293252  1.00634  0  0  0.0058316  0.032158  0.0561229  0.0506764  0  0  0  0.0456732  0.239482  0.191086  0  0  0  0  0  0  0  0  0 
1704465701.568498000  -2.49502  -0.292969  1.00659  0  0  0.0059946  0.0323746  0.0573127  0.0516215  0  0  0  0.0410194  0.236391  0.18692  0  0  0  0  0  0  0  0  0 
1704465701.573496000  -2.49486  -0.292679  1.00686  0  0  0.0061578  0.0325686  0.0584864  0.0525452  0  0  0  0.0366157  0.23305  0.182503  0  0  0  0  0  0  0  0  0 
1704465701.578498000  -2.4947  -0.292384  1.00712  0  0  0.0063209  0.0327412  0.0596428  0.0534461  0  0  0  0.0324619  0.229459  0.177837  0  0  0  0  0  0  0  0  0 
1704465701.583496000  -2.49453  -0.292083  1.00739  0  0  0.0064841  0.0328936  0.0607806  0.0543231  0  0  0  0.0285581  0.225617  0.17292  0  0  0  0  0  0  0  0  0 
1704465701.588487000  -2.49437  -0.291776  1.00766  0  0  0.0066473  0.0330272  0.0618986  0.0551749  0  0  0  0.0249044  0.221526  0.167754  0  0  0  0  0  0  0  0  0 
1704465701.593482000  -2.4942  -0.291464  1.00794  0  0  0.0068104  0.0331431  0.0629954  0.0560003  0  0  0  0.0215006  0.217185  0.162337  0  0  0  0  0  0  0  0  0 
1704465701.598485000  -2.49404  -0.291146  1.00822  0  0  0.0069736  0.0332426  0.06407  0.0567979  0  0  0  0.0183468  0.212593  0.156671  0  0  0  0  0  0  0  0  0 
1704465701.603499000  -2.49387  -0.290823  1.00851  0  0  0.0071368  0.033327  0.065121  0.0575666  0  0  0  0.0154431  0.207752  0.150754  0  0  0  0  0  0  0  0  0 
1704465701.608489000  -2.4937  -0.290495  1.0088  0  0  0.0073  0.0333974  0.0661471  0.058305  0  0  0  0.0127893  0.202661  0.144587  0  0  0  0  0  0  0  0  0 
1704465701.613477000  -2.49354  -0.290162  1.00909  0  0  0.0074631  0.0334553  0.0671472  0.059012  0  0  0  0.0103855  0.19732  0.138171  0  0  0  0  0  0  0  0  0 
1704465701.618489000  -2.49337  -0.289823  1.00939  0  0  0.0076263  0.0335017  0.0681199  0.0596863  0  0  0  0.0082318  0.191728  0.131504  0  0  0  0  0  0  0  0  0 
1704465701.623497000  -2.4932  -0.28948  1.00969  0  0  0.0077895  0.033538  0.069064  0.0603266  0  0  0  0.006328  0.185887  0.124588  0  0  0  0  0  0  0  0  0 
1704465701.628478000  -2.49303  -0.289133  1.00999  0  0  0.0079527  0.0335654  0.0699783  0.0609318  0  0  0  0.0046742  0.179796  0.117421  0  0  0  0  0  0  0  0  0 
1704465701.633493000  -2.49287  -0.288781  1.0103  0  0  0.0081158  0.0335852  0.0708616  0.0615004  0  0  0  0.0032705  0.173454  0.11002  0  0  0  0  0  0  0  0  0 
1704465701.638494000  -2.4927  -0.288424  1.01061  0  0  0.008279  0.0335985  0.0717125  0.0620322  0  0  0  0.0021167  0.166863  0.102728  0  0  0  0  0  0  0  0  0 
1704465701.643498000  -2.49253  -0.288064  1.01092  0  0  0.0084422  0.0336068  0.0725298  0.0625281  0  0  0  0.0012129  0.160022  0.0956864  0  0  0  0  0  0  0  0  0 
1704465701.648505000  -2.49236  -0.287699  1.01123  0  0  0.0086054  0.0336111  0.0733123  0.0629895  0  0  0  0.0005592  0.152931  0.0888945  0  0  0  0  0  0  0  0  0 
1704465701.653505000  -2.49219  -0.287331  1.01155  0  0  0.0087685  0.0336128  0.0740587  0.0634175  0  0  0  0.0001554  0.145589  0.0823526  0  0  0  0  0  0  0  0  0 
1704465701.658499000  -2.49203  -0.286958  1.01187  0  0  0.0089317  0.033613  0.0747677  0.0638134  0  0  0  1.7e-06  0.137998  0.0760607  0  0  0  0  0  0  0  0  0 
1704465701.663510000  -2.49186  -0.286583  1.01219  0  0  0.0090949  0.033613  0.0754382  0.0641785  0  0  0  -0  0.130157  0.0700189  0  0  0  0  0  0  0  0  0 
1704465701.668496000  -2.49169  -0.286204  1.01251  0  0  0.0092581  0.033613  0.0760691  0.064514  0  0  0  -0  0.122225  0.064227  0  0  0  0  0  0  0  0  0 
1704465701.673496000  -2.49152  -0.285822  1.01283  0  0  0.0094212  0.033613  0.0766609  0.0648212  0  0  0  -0  0.114532  0.0586851  0  0  0  0  0  0  0  0  0 
1704465701.678495000  -2.49135  -0.285438  1.01316  0  0  0.0095844  0.033613  0.0772148  0.0651013  0  0  0  -0  0.10709  0.0533932  0  0  0  0  0  0  0  0  0 
1704465701.683500000  -2.49119  -0.28505  1.01348  0  0  0.0097476  0.033613  0.0777322  0.0653556  0  0  0  -0  0.0998972  0.0483514  0  0  0  0  0  0  0  0  0 
1704465701.688478000  -2.49102  -0.28466  1.01381  0  0  0.0099108  0.033613  0.0782142  0.0655852  0  0  0  -0  0.0929548  0.0435595  0  0  0  0  0  0  0  0  0 
1704465701.693491000  -2.49085  -0.284268  1.01414  0  0  0.0100739  0.033613  0.0786622  0.0657916  0  0  0  -0  0.0862624  0.0390176  0  0  0  0  0  0  0  0  0 
1704465701.698510000  -2.49068  -0.283874  1.01447  0  0  0.0102371  0.033613  0.0790773  0.0659758  0  0  0  -0  0.0798199  0.0347257  0  0  0  0  0  0  0  0  0 
1704465701.703487000  -2.49051  -0.283477  1.0148  0  0  0.0104003  0.033613  0.0794608  0.0661392  0  0  0  -0  0.0736275  0.0306839  0  0  0  0  0  0  0  0  0 
1704465701.708481000  -2.49035  -0.283079  1.01513  0  0  0.0105635  0.033613  0.079814  0.0662831  0  0  0  -0  0.0676851  0.026892  0  0  0  0  0  0  0  0  0 
1704465701.713480000  -2.49018  -0.282679  1.01546  0  0  0.0107266  0.033613  0.0801381  0.0664086  0  0  0  -0  0.0619926  0.0233501  0  0  0  0  0  0  0  0  0 
1704465701.718481000  -2.49001  -0.282278  1.01579  0  0  0.0108898  0.033613  0.0804343  0.066517  0  0  0  -0  0.0565502  0.0200582  0  0  0  0  0  0  0  0  0 
1704465701.723501000  -2.48984  -0.281875  1.01613  0  0  0.011053  0.033613  0.080704  0.0666096  0  0  0  -0  0.0513578  0.0170163  0  0  0  0  0  0  0  0  0 
1704465701.728498000  -2.48967  -0.281471  1.01646  0  0  0.0112162  0.033613  0.0809483  0.0666876  0  0  0  -0  0.0464153  0.0142245  0  0  0  0  0  0  0  0  0 
1704465701.733494000  -2.48951  -0.281066  1.01679  0  0  0.0113793  0.033613  0.0811685  0.0667522  0  0  0  -0  0.0417229  0.0116826  0  0  0  0  0  0  0  0  0 
1704465701.738484000  -2.48934  -0.280659  1.01713  0  0  0.0115425  0.033613  0.0813659  0.0668048  0  0  0  -0  0.0372805  0.0093907  0  0  0  0  0  0  0  0  0 
1704465701.743481000  -2.48917  -0.280252  1.01746  0  0  0.0117057  0.033613  0.0815418  0.0668466  0  0  0  -0  0.033088  0.0073488  0  0  0  0  0  0  0  0  0 
1704465701.748475000  -2.489  -0.279844  1.0178  0  0  0.0118689  0.033613  0.0816972  0.0668787  0  0  0  -0  0.0291456  0.005557  0  0  0  0  0  0  0  0  0 
1704465701.753475000  -2.48883  -0.279435  1.01813  0  0  0.012032  0.033613  0.0818336  0.0669025  0  0  0  -0  0.0254532  0.0040151  0  0  0  0  0  0  0  0  0 
1704465701.758475000  -2.48867  -0.279026  1.01846  0  0  0.0121952  0.033613  0.0819522  0.0669193  0  0  0  -0  0.0220107  0.0027232  0  0  0  0  0  0  0  0  0 
1704465701.763488000  -2.4885  -0.278616  1.0188  0  0  0.0123584  0.033613  0.0820542  0.0669302  0  0  0  -0  0.0188183  0.0016813  0  0  0  0  0  0  0  0  0 
1704465701.768488000  -2.48833  -0.278205  1.01913  0  0  0.0125216  0.033613  0.0821408  0.0669365  0  0  0  -0  0.0158759  0.0008894  0  0  0  0  0  0  0  0  0 
1704465701.773491000  -2.48816  -0.277794  1.01947  0  0  0.0126847  0.033613  0.0822133  0.0669395  0  0  0  -1e-07  0.0131834  0.0003476  0  0  0  0  0  0  0  0  0 
1704465701.778490000  -2.48799  -0.277383  1.0198  0  0  0.0128479  0.0336128  0.082273  0.0669404  0  0  0  -0.0001317  0.010741  5.57e-05  0  0  0  0  0  0  0  0  0 
1704465701.783490000  -2.48782  -0.276971  1.02014  0  0  0.0130111  0.0336113  0.0823212  0.0669405  0  0  0  -0.0005134  0.0085486  0  0  0  0  0  0  0  0  0  0 
1704465701.788485000  -2.48766  -0.27656  1.02047  0  0  0.0131742  0.0336073  0.0823589  0.0669405  0  0  0  -0.001145  0.0066061  0  0  0  0  0  0  0  0  0  0 
1704465701.793475000  -2.48749  -0.276148  1.02081  0  0  0.0133374  0.0335994  0.0823876  0.0669405  0  0  0  -0.0020266  0.0049137  0  0  0  0  0  0  0  0  0  0 
1704465701.798482000  -2.48732  -0.275736  1.02114  0  0  0.0135006  0.0335866  0.0824085  0.0669405  0  0  0  -0.0031583  0.0034713  0  0  0  0  0  0  0  0  0  0 
1704465701.803487000  -2.48715  -0.275324  1.02148  0  0  0.0136638  0.0335675  0.0824228  0.0669405  0  0  0  -0.0045399  0.0022788  0  0  0  0  0  0  0  0  0  0 
1704465701.808485000  -2.48699  -0.274912  1.02181  0  0  0.0138269  0.0335408  0.0824317  0.0669405  0  0  0  -0.0061715  0.0013364  0  0  0  0  0  0  0  0  0  0 
1704465701.813482000  -2.48682  -0.274499  1.02215  0  0  0.0139901  0.0335053  0.0824365  0.0669405  0  0  0  -0.0080532  0.000644  0  0  0  0  0  0  0  0  0  0 
1704465701.818485000  -2.48665  -0.274087  1.02248  0  0  0.0141533  0.0334598  0.0824386  0.0669405  0  0  0  -0.0101848  0.0002015  0  0  0  0  0  0  0  0  0  0 
1704465701.823487000  -2.48648  -0.273675  1.02282  0  0  0.0143165  0.0334031  0.082439  0.0669405  0  0  0  -0.0125664  9.1e-06  0  0  0  0  0  0  0  0  0  0 
1704465701.828483000  -2.48632  -0.273263  1.02315  0  0  0.0144796  0.0333337  0.0824391  0.0669405  0  0  0  -0.0151981  6.67e-05  0  0  0  0  0  0  0  0  0  0 
1704465701.833481000  -2.48615  -0.272851  1.02348  0  0  0.0146428  0.0332507  0.0824401  0.0669405  0  0  0  -0.0180797  0.0003742  0  0  0  0  0  0  0  0  0  0 
1704465701.838482000  -2.48598  -0.272439  1.02382  0  0  0.014806  0.0331525  0.0824432  0.0669405  0  0  0  -0.0212113  0.0009318  0  0  0  0  0  0  0  0  0  0 
1704465701.843487000  -2.48582  -0.272026  1.02415  0  0  0.0149692  0.0330381  0.0824498  0.0669405  0  0  0  -0.024593  0.0017394  0  0  0  0  0  0  0  0  0  0 
1704465701.848482000  -2.48565  -0.271614  1.02449  0  0  0.0151323  0.0329062  0.082461  0.0669405  0  0  0  -0.0282246  0.0027969  0  0  0  0  0  0  0  0  0  0 
1704465701.853479000  -2.48549  -0.271202  1.02482  0  0  0.0152955  0.0327555  0.0824782  0.0669405  0  0  0  -0.0321062  0.0041045  0  0  0  0  0  0  0  0  0  0 
1704465701.858482000  -2.48533  -0.270789  1.02516  0  0  0.0154587  0.0325847  0.0825025  0.0669405  0  0  0  -0.0362379  0.0056621  0  0  0  0  0  0  0  0  0  0 
1704465701.863487000  -2.48516  -0.270377  1.02549  0  0  0.0156219  0.0323927  0.0825352  0.0669405  0  0  0  -0.0406195  0.0074696  0  0  0  0  0  0  0  0  0  0 
1704465701.868484000  -2.485  -0.269964  1.02583  0  0  0.015785  0.0321781  0.0825776  0.0669405  0  0  0  -0.0452511  0.0095272  0  0  0  0  0  0  0  0  0  0 
1704465701.873497000  -2.48484  -0.269551  1.02616  0  0  0.0159482  0.0319397  0.0826309  0.0669405  0  0  0  -0.0501328  0.0118348  0  0  0  0  0  0  0  0  0  0 
1704465701.878483000  -2.48468  -0.269138  1.0265  0  0  0.0161114  0.0316764  0.0826964  0.0669405  0  0  0  -0.0552644  0.0143923  0  0  0  0  0  0  0  0  0  0 
1704465701.883511000  -2.48452  -0.268724  1.02683  0  0  0.0162746  0.0313867  0.0827752  0.0669405  0  0  0  -0.060646  0.0171999  0  0  0  0  0  0  0  0  0  0 
1704465701.888508000  -2.48437  -0.26831  1.02717  0  0  0.0164377  0.0310695  0.0828688  0.0669405  0  0  0  -0.0662777  0.0202575  0  0  0  0  0  0  0  0  0  0 
1704465701.893499000  -2.48421  -0.267895  1.0275  0  0  0.0166009  0.0307235  0.0829782  0.0669405  0  0  0  -0.0721593  0.023565  0  0  0  0  0  0  0  0  0  0 
1704465701.898509000  -2.48406  -0.26748  1.02784  0  0  0.0167641  0.0303475  0.0831049  0.0669405  0  0  0  -0.0782909  0.0271226  0  0  0  0  0  0  0  0  0  0 
1704465701.903511000  -2.48391  -0.267064  1.02817  0  0  0.0169273  0.0299402  0.0832499  0.0669405  0  0  0  -0.0846726  0.0309302  0  0  0  0  0  0  0  0  0  0 
1704465701.908510000  -2.48376  -0.266647  1.02851  0  0  0.0170904  0.0295003  0.0834146  0.0669405  0  0  0  -0.0913042  0.0349877  0  0  0  0  0  0  0  0  0  0 
1704465701.913507000  -2.48362  -0.26623  1.02884  0  0  0.0172536  0.0290267  0.0836002  0.0669405  0  0  0  -0.0981858  0.0392953  0  0  0  0  0  0  0  0  0  0 
1704465701.918508000  -2.48347  -0.265811  1.02917  0  0  0.0174168  0.028518  0.0838079  0.0669405  0  0  0  -0.105317  0.0438529  0  0  0  0  0  0  0  0  0  0 
1704465701.923529000  -2.48333  -0.265392  1.02951  0  0  0.01758  0.0279731  0.0840391  0.0669405  0  0  0  -0.112699  0.0486604  0  0  0  0  0  0  0  0  0  0 
1704465701.928507000  -2.48319  -0.264971  1.02984  0  0  0.0177431  0.0273906  0.084295  0.0669405  0  0  0  -0.120331  0.053718  0  0  0  0  0  0  0  0  0  0 
1704465701.933507000  -2.48306  -0.264549  1.03018  0  0  0.0179063  0.0267694  0.0845767  0.0669405  0  0  0  -0.128212  0.0590256  0  0  0  0  0  0  0  0  0  0 
1704465701.938508000  -2.48292  -0.264125  1.03051  0  0  0.0180695  0.0261081  0.0848856  0.0669405  0  0  0  -0.136344  0.0645831  0  0  0  0  0  0  0  0  0  0 
1704465701.943512000  -2.4828  -0.2637  1.03085  0  0  0.0182327  0.0254055  0.085223  0.0669405  0  0  0  -0.144726  0.0703907  0  0  0  0  0  0  0  0  0  0 
1704465701.948509000  -2.48267  -0.263273  1.03118  0  0  0.0183958  0.0246604  0.08559  0.0669405  0  0  0  -0.153357  0.0764482  0  0  0  0  0  0  0  0  0  0 
1704465701.953506000  -2.48255  -0.262844  1.03152  0  0  0.018559  0.0238715  0.0859879  0.0669405  0  0  0  -0.162239  0.0827558  0  0  0  0  0  0  0  0  0  0 
1704465701.958506000  -2.48243  -0.262413  1.03185  0  0  0.0187222  0.0230376  0.0864179  0.0669405  0  0  0  -0.171371  0.0893134  0  0  0  0  0  0  0  0  0  0 
1704465701.963511000  -2.48232  -0.26198  1.03219  0  0  0.0188854  0.0221574  0.0868814  0.0669405  0  0  0  -0.180752  0.0961209  0  0  0  0  0  0  0  0  0  0 
1704465701.968508000  -2.48221  -0.261544  1.03252  0  0  0.0190485  0.0212297  0.0873796  0.0669405  0  0  0  -0.190384  0.103179  0  0  0  0  0  0  0  0  0  0 
1704465701.973510000  -2.48211  -0.261106  1.03286  0  0  0.0192117  0.0202532  0.0879136  0.0669405  0  0  0  -0.200265  0.110486  0  0  0  0  0  0  0  0  0  0 
1704465701.978508000  -2.48201  -0.260665  1.03319  0  0  0.0193749  0.0192266  0.0884848  0.0669405  0  0  0  -0.210397  0.118044  0  0  0  0  0  0  0  0  0  0 
1704465701.983510000  -2.48191  -0.260221  1.03353  0  0  0.0195381  0.0181488  0.0890945  0.0669405  0  0  0  -0.220779  0.125851  0  0  0  0  0  0  0  0  0  0 
1704465701.988509000  -2.48183  -0.259774  1.03386  0  0  0.0197012  0.0170184  0.0897438  0.0669405  0  0  0  -0.23141  0.133909  0  0  0  0  0  0  0  0  0  0 
1704465701.993508000  -2.48174  -0.259323  1.0342  0  0  0.0198644  0.0158343  0.090434  0.0669405  0  0  0  -0.242292  0.142216  0  0  0  0  0  0  0  0  0  0 
1704465701.998508000  -2.48167  -0.258869  1.03453  0  0  0.0200276  0.0145951  0.0911663  0.0669405  0  0  0  -0.253424  0.150774  0  0  0  0  0  0  0  0  0  0 
1704465702.003513000  -2.4816  -0.258412  1.03486  0  0  0.0201908  0.0132997  0.0919421  0.0669405  0  0  0  -0.264712  0.159581  0  0  0  0  0  0  0  0  0  0 
1704465702.008510000  -2.48154  -0.25795  1.0352  0  0  0.0203539  0.0119483  0.0927626  0.0669405  0  0  0  -0.275787  0.168639  0  0  0  0  0  0  0  0  0  0 
1704465702.013499000  -2.48148  -0.257484  1.03553  0  0  0.0205171  0.0105422  0.0936289  0.0669405  0  0  0  -0.286612  0.177947  0  0  0  0  0  0  0  0  0  0 
1704465702.018509000  -2.48143  -0.257014  1.03587  0  0  0.0206803  0.0090826  0.0945425  0.0669405  0  0  0  -0.297188  0.187504  0  0  0  0  0  0  0  0  0  0 
1704465702.023513000  -2.48139  -0.256538  1.0362  0  0  0.0208434  0.0075708  0.0955044  0.0669405  0  0  0  -0.307513  0.197312  0  0  0  0  0  0  0  0  0  0 
1704465702.028508000  -2.48135  -0.256058  1.03654  0  0  0.0210066  0.0060079  0.096516  0.0669405  0  0  0  -0.317589  0.207369  0  0  0  0  0  0  0  0  0  0 
1704465702.033508000  -2.48133  -0.255573  1.03687  0  0  0.0211698  0.0043953  0.0975785  0.0669405  0  0  0  -0.327414  0.217677  0  0  0  0  0  0  0  0  0  0 
1704465702.038508000  -2.48131  -0.255083  1.03721  0  0  0.021333  0.0027342  0.0986932  0.0669404  0  0  0  -0.33699  0.228234  -4.21e-05  0  0  0  0  0  0  0  0  0 
1704465702.043511000  -2.4813  -0.254586  1.03754  0  0  0.0214961  0.0010258  0.0998613  0.0669397  0  0  0  -0.346315  0.239042  -0.0003123  0  0  0  0  0  0  0  0  0 
1704465702.048510000  -2.4813  -0.254084  1.03788  0  0  0.0216593  -0.0007285  0.101084  0.0669369  0  0  0  -0.355391  0.2501  -0.0008325  0  0  0  0  0  0  0  0  0 
1704465702.053507000  -2.48131  -0.253575  1.03821  0  0  0.0218223  -0.0025277  0.102363  0.0669309  0  0  0  -0.364216  0.261407  -0.0016026  0  0  0  0  0  0  0  0  0 
1704465702.058508000  -2.48133  -0.25306  1.03855  0  0  0.0219853  -0.0043703  0.103699  0.0669204  0  0  0  -0.372792  0.272965  -0.0026228  0  0  0  0  0  0  0  0  0 
1704465702.063510000  -2.48135  -0.252538  1.03888  0  0  0.0221481  -0.0062552  0.105093  0.0669043  0  0  0  -0.381117  0.284772  -0.003893  0  0  0  0  0  0  0  0  0 
1704465702.068511000  -2.48139  -0.252009  1.03922  0  0  0.0223107  -0.0081811  0.106547  0.0668811  0  0  0  -0.389193  0.29683  -0.0054131  0  0  0  0  0  0  0  0  0 
1704465702.073510000  -2.48143  -0.251473  1.03955  0  0  0.0224731  -0.0101467  0.108061  0.0668497  0  0  0  -0.397018  0.309137  -0.0071833  0  0  0  0  0  0  0  0  0 
1704465702.078508000  -2.48149  -0.250928  1.03988  0  0  0.0226351  -0.0121508  0.109638  0.0668089  0  0  0  -0.404594  0.321695  -0.0092035  0  0  0  0  0  0  0  0  0 
1704465702.083511000  -2.48156  -0.250376  1.04022  0  0  0.0227966  -0.0141922  0.111279  0.0667573  0  0  0  -0.411919  0.334503  -0.0114736  0  0  0  0  0  0  0  0  0 
1704465702.088508000  -2.48163  -0.249815  1.04055  0  0  0.0229576  -0.0162696  0.112984  0.0666937  0  0  0  -0.418995  0.34756  -0.0139938  0  0  0  0  0  0  0  0  0 
1704465702.093508000  -2.48172  -0.249246  1.04088  0  0  0.0231179  -0.0183817  0.114755  0.0666169  0  0  0  -0.42582  0.360868  -0.0167639  0  0  0  0  0  0  0  0  0 
1704465702.098510000  -2.48182  -0.248668  1.04122  0  0  0.0232775  -0.0205274  0.116593  0.0665256  0  0  0  -0.432396  0.374425  -0.0197841  0  0  0  0  0  0  0  0  0 
1704465702.103510000  -2.48192  -0.24808  1.04155  0  0  0.0234361  -0.0227053  0.1185  0.0664187  0  0  0  -0.438721  0.388233  -0.0230543  0  0  0  0  0  0  0  0  0 
1704465702.108508000  -2.48204  -0.247483  1.04188  0  0  0.0235937  -0.0249142  0.120476  0.0662947  0  0  0  -0.444797  0.40229  -0.0265744  0  0  0  0  0  0  0  0  0 
1704465702.113507000  -2.48217  -0.246875  1.04221  0  0  0.0237501  -0.0271528  0.122523  0.0661525  0  0  0  -0.450622  0.416598  -0.0303446  0  0  0  0  0  0  0  0  0 
1704465702.118508000  -2.48231  -0.246257  1.04254  0  0  0.0239052  -0.02942  0.124642  0.0659908  0  0  0  -0.456198  0.431155  -0.0343648  0  0  0  0  0  0  0  0  0 
1704465702.123503000  -2.48247  -0.245629  1.04287  0  0  0.0240588  -0.0317144  0.126835  0.0658084  0  0  0  -0.461523  0.445963  -0.0386349  0  0  0  0  0  0  0  0  0 
1704465702.128510000  -2.48263  -0.244989  1.0432  0  0  0.0242106  -0.0340348  0.129102  0.0656041  0  0  0  -0.466599  0.461021  -0.0431551  0  0  0  0  0  0  0  0  0 
1704465702.133509000  -2.48281  -0.244338  1.04353  0  0  0.0243605  -0.03638  0.131445  0.0653765  0  0  0  -0.471424  0.476328  -0.0479252  0  0  0  0  0  0  0  0  0 
1704465702.138508000  -2.483  -0.243674  1.04385  0  0  0.0245084  -0.0387486  0.133866  0.0651244  0  0  0  -0.476  0.491886  -0.0529454  0  0  0  0  0  0  0  0  0 
1704465702.143513000  -2.4832  -0.242999  1.04418  0  0  0.024654  -0.0411395  0.136365  0.0648466  0  0  0  -0.480325  0.507693  -0.0582156  0  0  0  0  0  0  0  0  0 
1704465702.148509000  -2.48341  -0.242311  1.0445  0  0  0.024797  -0.0435515  0.138943  0.0645418  0  0  0  -0.484401  0.523751  -0.0637357  0  0  0  0  0  0  0  0  0 
1704465702.153508000  -2.48363  -0.241609  1.04483  0  0  0.0249373  -0.0459831  0.141603  0.0642088  0  0  0  -0.488226  0.540058  -0.0695059  0  0  0  0  0  0  0  0  0 
1704465702.158508000  -2.48387  -0.240894  1.04515  0  0  0.0250746  -0.0484333  0.144344  0.0638465  0  0  0  -0.491802  0.556616  -0.0753966  0  0  0  0  0  0  0  0  0 
1704465702.163513000  -2.48412  -0.240166  1.04546  0  0  0.0252087  -0.0509007  0.147169  0.0634553  0  0  0  -0.495127  0.573424  -0.081057  0  0  0  0  0  0  0  0  0 
1704465702.168511000  -2.48438  -0.239423  1.04578  0  0  0.0253393  -0.0533842  0.150079  0.0630363  0  0  0  -0.498203  0.590481  -0.0864673  0  0  0  0  0  0  0  0  0 
1704465702.173508000  -2.48465  -0.238665  1.04609  0  0  0.0254662  -0.0558823  0.153074  0.062591  0  0  0  -0.501028  0.607789  -0.0916277  0  0  0  0  0  0  0  0  0 
1704465702.178508000  -2.48493  -0.237892  1.04641  0  0  0.0255892  -0.058394  0.156157  0.0621205  0  0  0  -0.503604  0.625346  -0.096538  0  0  0  0  0  0  0  0  0 
1704465702.183512000  -2.48523  -0.237103  1.04672  0  0  0.025708  -0.060918  0.159328  0.061626  0  0  0  -0.505929  0.642914  -0.101198  0  0  0  0  0  0  0  0  0 
1704465702.188495000  -2.48554  -0.236298  1.04702  0  0  0.0258225  -0.0634529  0.162586  0.0611089  0  0  0  -0.508005  0.660231  -0.105609  0  0  0  0  0  0  0  0  0 
1704465702.193508000  -2.48587  -0.235477  1.04733  0  0  0.0259325  -0.0659976  0.16593  0.0605704  0  0  0  -0.50983  0.677299  -0.109769  0  0  0  0  0  0  0  0  0 
1704465702.198507000  -2.4862  -0.234639  1.04763  0  0  0.0260377  -0.0685508  0.169358  0.0600116  0  0  0  -0.511406  0.694117  -0.113679  0  0  0  0  0  0  0  0  0 
1704465702.203513000  -2.48655  -0.233783  1.04793  0  0  0.0261381  -0.0711112  0.172871  0.059434  0  0  0  -0.512731  0.710684  -0.11734  0  0  0  0  0  0  0  0  0 
1704465702.208508000  -2.48692  -0.23291  1.04822  0  0  0.0262335  -0.0736777  0.176465  0.0588387  0  0  0  -0.513807  0.727002  -0.12075  0  0  0  0  0  0  0  0  0 
1704465702.213509000  -2.48729  -0.232018  1.04851  0  0  0.0263236  -0.0762489  0.18014  0.0582269  0  0  0  -0.514632  0.74307  -0.12391  0  0  0  0  0  0  0  0  0 
1704465702.218509000  -2.48768  -0.231108  1.0488  0  0  0.0264084  -0.0788236  0.183895  0.0576  0  0  0  -0.515208  0.758887  -0.126821  0  0  0  0  0  0  0  0  0 
1704465702.223511000  -2.48808  -0.230179  1.04909  0  0  0.0264878  -0.0814005  0.187729  0.0569591  0  0  0  -0.515533  0.774455  -0.129481  0  0  0  0  0  0  0  0  0 
1704465702.228509000  -2.48849  -0.229231  1.04937  0  0  0.0265616  -0.0839785  0.191639  0.0563056  0  0  0  -0.515609  0.789773  -0.131892  0  0  0  0  0  0  0  0  0 
1704465702.233508000  -2.48892  -0.228263  1.04965  0  0  0.0266297  -0.0865562  0.195626  0.0556406  0  0  0  -0.515434  0.80484  -0.134052  0  0  0  0  0  0  0  0  0 
1704465702.238507000  -2.48936  -0.227275  1.04993  0  0  0.026692  -0.0891324  0.199687  0.0549655  0  0  0  -0.51501  0.819658  -0.135962  0  0  0  0  0  0  0  0  0 
1704465702.243512000  -2.48981  -0.226266  1.0502  0  0  0.0267484  -0.0917059  0.203822  0.0542814  0  0  0  -0.514335  0.834225  -0.137623  0  0  0  0  0  0  0  0  0 
1704465702.248510000  -2.49027  -0.225236  1.05047  0  0  0.0267989  -0.0942753  0.208029  0.0535897  0  0  0  -0.51341  0.848543  -0.139033  0  0  0  0  0  0  0  0  0 
1704465702.253507000  -2.49075  -0.224185  1.05074  0  0  0.0268433  -0.0968396  0.212307  0.0528915  0  0  0  -0.512236  0.862611  -0.140193  0  0  0  0  0  0  0  0  0 
1704465702.258509000  -2.49124  -0.223113  1.051  0  0  0.0268816  -0.0993973  0.216655  0.0521881  0  0  0  -0.510811  0.876428  -0.141104  0  0  0  0  0  0  0  0  0 
1704465702.263512000  -2.49175  -0.222019  1.05126  0  0  0.0269138  -0.101947  0.221071  0.0514809  0  0  0  -0.509137  0.889996  -0.141764  0  0  0  0  0  0  0  0  0 
1704465702.268508000  -2.49226  -0.220902  1.05152  0  0  0.0269398  -0.104488  0.225554  0.0507709  0  0  0  -0.507212  0.903314  -0.142174  0  0  0  0  0  0  0  0  0 
1704465702.273510000  -2.49279  -0.219763  1.05177  0  0  0.0269596  -0.107019  0.230104  0.0500595  0  0  0  -0.505038  0.916381  -0.142335  0  0  0  0  0  0  0  0  0 
1704465702.278508000  -2.49333  -0.218601  1.05202  0  0  0.0269731  -0.109538  0.234718  0.049348  0  0  0  -0.502613  0.929199  -0.142245  0  0  0  0  0  0  0  0  0 
1704465702.283510000  -2.49389  -0.217416  1.05226  0  0  0.0269804  -0.112045  0.239395  0.0486375  0  0  0  -0.499939  0.941767  -0.141905  0  0  0  0  0  0  0  0  0 
1704465702.288509000  -2.49445  -0.216207  1.0525  0  0  0.0269815  -0.114537  0.244135  0.0479294  0  0  0  -0.497014  0.954084  -0.141316  0  0  0  0  0  0  0  0  0 
1704465702.293509000  -2.49503  -0.214974  1.05274  0  0  0.0269763  -0.117014  0.248936  0.0472248  0  0  0  -0.49384  0.966152  -0.140476  0  0  0  0  0  0  0  0  0 
1704465702.298509000  -2.49562  -0.213718  1.05298  0  0  0.0269648  -0.119475  0.253796  0.046525  0  0  0  -0.490415  0.977969  -0.139386  0  0  0  0  0  0  0  0  0 
1704465702.303511000  -2.49623  -0.212436  1.05321  0  0  0.0269472  -0.121918  0.258715  0.0458313  0  0  0  -0.486741  0.989537  -0.138047  0  0  0  0  0  0  0  0  0 
1704465702.308508000  -2.49684  -0.21113  1.05343  0  0  0.0269233  -0.124342  0.263691  0.045145  0  0  0  -0.482816  1.00085  -0.136457  0  0  0  0  0  0  0  0  0 
1704465702.313508000  -2.49747  -0.209799  1.05366  0  0  0.0268933  -0.126746  0.268723  0.0444672  0  0  0  -0.478642  1.01192  -0.134618  0  0  0  0  0  0  0  0  0 
1704465702.318494000  -2.49811  -0.208443  1.05388  0  0  0.0268572  -0.129128  0.27381  0.0437992  0  0  0  -0.474217  1.02274  -0.132528  0  0  0  0  0  0  0  0  0 
1704465702.323514000  -2.49876  -0.207061  1.0541  0  0  0.026815  -0.131488  0.27895  0.0431423  0  0  0  -0.469543  1.03331  -0.130188  0  0  0  0  0  0  0  0  0 
1704465702.328510000  -2.49942  -0.205653  1.05431  0  0  0.0267669  -0.133823  0.284143  0.0424977  0  0  0  -0.464618  1.04363  -0.127599  0  0  0  0  0  0  0  0  0 
1704465702.333508000  -2.5001  -0.20422  1.05452  0  0  0.0267129  -0.136133  0.289386  0.0418667  0  0  0  -0.459444  1.05369  -0.124759  0  0  0  0  0  0  0  0  0 
1704465702.338506000  -2.50079  -0.202759  1.05473  0  0  0.026653  -0.138417  0.294679  0.0412506  0  0  0  -0.454019  1.06351  -0.121669  0  0  0  0  0  0  0  0  0 
1704465702.343511000  -2.50148  -0.201273  1.05493  0  0  0.0265875  -0.140673  0.300021  0.0406505  0  0  0  -0.448345  1.07308  -0.11833  0  0  0  0  0  0  0  0  0 
1704465702.348524000  -2.50219  -0.199759  1.05514  0  0  0.0265163  -0.1429  0.305409  0.0400677  0  0  0  -0.44242  1.0824  -0.11474  0  0  0  0  0  0  0  0  0 
1704465702.353507000  -2.50291  -0.198219  1.05533  0  0  0.0264397  -0.145097  0.310844  0.0395035  0  0  0  -0.436246  1.09146  -0.1109  0  0  0  0  0  0  0  0  0 
1704465702.358508000  -2.50364  -0.196651  1.05553  0  0  0.0263577  -0.147262  0.316324  0.0389591  0  0  0  -0.429821  1.10028  -0.106811  0  0  0  0  0  0  0  0  0 
1704465702.363511000  -2.50438  -0.195055  1.05572  0  0  0.0262706  -0.149395  0.321847  0.0384358  0  0  0  -0.423147  1.10885  -0.102471  0  0  0  0  0  0  0  0  0 
1704465702.368508000  -2.50514  -0.193432  1.05592  0  0  0.0261783  -0.151493  0.327412  0.0379348  0  0  0  -0.416222  1.11717  -0.0978814  0  0  0  0  0  0  0  0  0 
1704465702.373509000  -2.5059  -0.191781  1.0561  0  0  0.0260811  -0.153557  0.333018  0.0374574  0  0  0  -0.409048  1.12523  -0.0930417  0  0  0  0  0  0  0  0  0 
1704465702.378508000  -2.50667  -0.190102  1.05629  0  0  0.0259792  -0.155583  0.338664  0.0370048  0  0  0  -0.401623  1.13305  -0.0879521  0  0  0  0  0  0  0  0  0 
1704465702.383512000  -2.50746  -0.188394  1.05647  0  0  0.0258728  -0.157572  0.344348  0.0365783  0  0  0  -0.393949  1.14062  -0.0826124  0  0  0  0  0  0  0  0  0 
1704465702.388507000  -2.50825  -0.186658  1.05666  0  0  0.025762  -0.159522  0.350069  0.0361791  0  0  0  -0.386024  1.14794  -0.0770228  0  0  0  0  0  0  0  0  0 
1704465702.393510000  -2.50905  -0.184894  1.05684  0  0  0.025647  -0.161432  0.355827  0.0358085  0  0  0  -0.37785  1.155  -0.0711831  0  0  0  0  0  0  0  0  0 
1704465702.398508000  -2.50986  -0.1831  1.05701  0  0  0.025528  -0.163301  0.361619  0.0354677  0  0  0  -0.369425  1.16182  -0.0650935  0  0  0  0  0  0  0  0  0 
1704465702.403513000  -2.51068  -0.181277  1.05719  0  0  0.0254053  -0.165126  0.367445  0.035158  0  0  0  -0.360755  1.16839  -0.0587538  0  0  0  0  0  0  0  0  0 
1704465702.408512000  -2.51151  -0.179426  1.05737  0  0  0.0252791  -0.166908  0.373302  0.0348806  0  0  0  -0.352143  1.17471  -0.0521642  0  0  0  0  0  0  0  0  0 
1704465702.413478000  -2.51235  -0.177544  1.05754  0  0  0.0251497  -0.168648  0.379191  0.0346367  0  0  0  -0.343781  1.18078  -0.0453245  0  0  0  0  0  0  0  0  0 
1704465702.418502000  -2.5132  -0.175634  1.05771  0  0  0.0250172  -0.170346  0.38511  0.0344277  0  0  0  -0.33567  1.18659  -0.0382349  0  0  0  0  0  0  0  0  0 
1704465702.423517000  -2.51406  -0.173693  1.05788  0  0  0.0248819  -0.172005  0.391057  0.0342548  0  0  0  -0.327808  1.19216  -0.0308952  0  0  0  0  0  0  0  0  0 
1704465702.428496000  -2.51492  -0.171723  1.05805  0  0  0.0247441  -0.173625  0.397031  0.0341192  0  0  0  -0.320196  1.19748  -0.0233597  0  0  0  0  0  0  0  0  0 
1704465702.433498000  -2.51579  -0.169723  1.05822  0  0  0.0246042  -0.175207  0.403031  0.0340209  0  0  0  -0.312835  1.20255  -0.0160027  0  0  0  0  0  0  0  0  0 
1704465702.438498000  -2.51667  -0.167693  1.05839  0  0  0.0244622  -0.176754  0.409056  0.0339587  0  0  0  -0.305723  1.20736  -0.0088957  0  0  0  0  0  0  0  0  0 
1704465702.443516000  -2.51756  -0.165632  1.05856  0  0  0.0243187  -0.178265  0.415104  0.0339315  0  0  0  -0.298862  1.21193  -0.0020387  0  0  0  0  0  0  0  0  0 
1704465702.448517000  -2.51845  -0.163542  1.05873  0  0  0.0241738  -0.179743  0.421175  0.0339379  0  0  0  -0.29225  1.21625  0.0045683  0  0  0  0  0  0  0  0  0 
1704465702.453482000  -2.51936  -0.16142  1.0589  0  0  0.0240277  -0.181188  0.427266  0.0339767  0  0  0  -0.285888  1.22032  0.0109253  0  0  0  0  0  0  0  0  0 
1704465702.458482000  -2.52027  -0.159269  1.05907  0  0  0.0238808  -0.182602  0.433378  0.0340467  0  0  0  -0.279777  1.22413  0.0170323  0  0  0  0  0  0  0  0  0 
1704465702.463490000  -2.52118  -0.157087  1.05924  0  0  0.0237333  -0.183986  0.439507  0.0341467  0  0  0  -0.273915  1.2277  0.0228893  0  0  0  0  0  0  0  0  0 
1704465702.468483000  -2.52211  -0.154874  1.05942  0  0  0.0235855  -0.185342  0.445654  0.0342752  0  0  0  -0.268303  1.23102  0.0284963  0  0  0  0  0  0  0  0  0 
1704465702.473484000  -2.52304  -0.15263  1.05959  0  0  0.0234374  -0.18667  0.451817  0.0344312  0  0  0  -0.262942  1.23409  0.0338533  0  0  0  0  0  0  0  0  0 
1704465702.478481000  -2.52397  -0.150356  1.05976  0  0  0.0232895  -0.187971  0.457995  0.0346133  0  0  0  -0.25783  1.2369  0.0389603  0  0  0  0  0  0  0  0  0 
1704465702.483496000  -2.52492  -0.14805  1.05993  0  0  0.0231418  -0.189248  0.464186  0.0348204  0  0  0  -0.252968  1.23947  0.0438173  0  0  0  0  0  0  0  0  0 
1704465702.488488000  -2.52587  -0.145714  1.06011  0  0  0.0229946  -0.190502  0.470389  0.0350511  0  0  0  -0.248357  1.24179  0.0484243  0  0  0  0  0  0  0  0  0 
1704465702.493488000  -2.52682  -0.143346  1.06028  0  0  0.022848  -0.191732  0.476603  0.0353042  0  0  0  -0.243995  1.24386  0.0527813  0  0  0  0  0  0  0  0  0 
1704465702.498488000  -2.52778  -0.140948  1.06046  0  0  0.0227023  -0.192942  0.482827  0.0355785  0  0  0  -0.239884  1.24567  0.0568883  0  0  0  0  0  0  0  0  0 
1704465702.503479000  -2.52875  -0.138518  1.06064  0  0  0.0225575  -0.194132  0.48906  0.0358727  0  0  0  -0.236022  1.24724  0.0607453  0  0  0  0  0  0  0  0  0 
1704465702.508489000  -2.52972  -0.136057  1.06082  0  0  0.0224139  -0.195303  0.495299  0.0361855  0  0  0  -0.23241  1.24856  0.0643523  0  0  0  0  0  0  0  0  0 
1704465702.513488000  -2.5307  -0.133565  1.061  0  0  0.0222716  -0.196456  0.501545  0.0365158  0  0  0  -0.229049  1.24963  0.0677093  0  0  0  0  0  0  0  0  0 
1704465702.518501000  -2.53169  -0.131042  1.06118  0  0  0.0221307  -0.197593  0.507795  0.0368622  0  0  0  -0.225937  1.25045  0.0708163  0  0  0  0  0  0  0  0  0 
1704465702.523501000  -2.53268  -0.128487  1.06137  0  0  0.0219913  -0.198716  0.514049  0.0372235  0  0  0  -0.223075  1.25101  0.0736733  0  0  0  0  0  0  0  0  0 
1704465702.528509000  -2.53368  -0.125901  1.06156  0  0  0.0218537  -0.199825  0.520305  0.0375985  0  0  0  -0.220464  1.25133  0.0762803  0  0  0  0  0  0  0  0  0 
1704465702.533508000  -2.53468  -0.123284  1.06175  0  0  0.0217177  -0.200921  0.526562  0.0379859  0  0  0  -0.218102  1.2514  0.0786373  0  0  0  0  0  0  0  0  0 
1704465702.538507000  -2.53568  -0.120635  1.06194  0  0  0.0215837  -0.202006  0.532818  0.0383845  0  0  0  -0.21599  1.25122  0.0807443  0  0  0  0  0  0  0  0  0 
1704465702.543515000  -2.5367  -0.117956  1.06213  0  0  0.0214515  -0.203081  0.539073  0.0387929  0  0  0  -0.214129  1.25078  0.0826013  0  0  0  0  0  0  0  0  0 
1704465702.548500000  -2.53772  -0.115245  1.06232  0  0  0.0213214  -0.204148  0.545326  0.0392101  0  0  0  -0.212517  1.2501  0.0842083  0  0  0  0  0  0  0  0  0 
1704465702.553487000  -2.53874  -0.112502  1.06252  0  0  0.0211934  -0.205207  0.551574  0.0396346  0  0  0  -0.211156  1.24917  0.0855653  0  0  0  0  0  0  0  0  0 
1704465702.558497000  -2.53977  -0.109729  1.06272  0  0  0.0210675  -0.20626  0.557817  0.0400653  0  0  0  -0.210044  1.24809  0.0866723  0  0  0  0  0  0  0  0  0 
1704465702.563509000  -2.5408  -0.106924  1.06292  0  0  0.0209439  -0.207308  0.564055  0.0405009  0  0  0  -0.209182  1.24722  0.0875293  0  0  0  0  0  0  0  0  0 
1704465702.568497000  -2.54184  -0.104088  1.06313  0  0  0.0208224  -0.208352  0.57029  0.0409402  0  0  0  -0.208571  1.24661  0.0881363  0  0  0  0  0  0  0  0  0 
1704465702.573507000  -2.54289  -0.101221  1.06333  0  0  0.0207031  -0.209394  0.576522  0.0413819  0  0  0  -0.208209  1.24625  0.0884933  0  0  0  0  0  0  0  0  0 
1704465702.578496000  -2.5439  -0.098433  1.06347  0  0  0.0205018  -0.210398  0.582517  0.0417288  0  0  0  -0.208097  1.24613  0.0886009  0  0  0  0  0  0  0  0  0 
1704465702.583508000  -2.54495  -0.0955048  1.06368  0  0  0.0203865  -0.211438  0.588747  0.0421716  0  0  0  -0.207972  1.24601  0.0884759  0  0  0  0  0  0  0  0  0 
1704465702.588497000  -2.54601  -0.0925455  1.0639  0  0  0.0202735  -0.212477  0.594976  0.0426131  0  0  0  -0.207597  1.24563  0.0881009  0  0  0  0  0  0  0  0  0 
1704465702.593507000  -2.54708  -0.0895551  1.06411  0  0  0.0201627  -0.213514  0.601203  0.0430522  0  0  0  -0.206972  1.24501  0.0874759  0  0  0  0  0  0  0  0  0 
1704465702.598497000  -2.54815  -0.0865335  1.06433  0  0  0.0200542  -0.214547  0.607426  0.0434875  0  0  0  -0.206097  1.24413  0.0866009  0  0  0  0  0  0  0  0  0 
1704465702.603509000  -2.54922  -0.0834808  1.06454  0  0  0.0199478  -0.215574  0.613644  0.0439178  0  0  0  -0.204972  1.24301  0.0854759  0  0  0  0  0  0  0  0  0 
1704465702.608501000  -2.5503  -0.0803971  1.06477  0  0  0.0198436  -0.216596  0.619856  0.0443418  0  0  0  -0.203597  1.24163  0.0841009  0  0  0  0  0  0  0  0  0 
1704465702.613494000  -2.55139  -0.0772823  1.06499  0  0  0.0197415  -0.21761  0.62606  0.0447583  0  0  0  -0.201972  1.24001  0.0824759  0  0  0  0  0  0  0  0  0 
1704465702.618484000  -2.55248  -0.0741365  1.06521  0  0  0.0196413  -0.218615  0.632255  0.0451661  0  0  0  -0.200097  1.23813  0.0806009  0  0  0  0  0  0  0  0  0 
1704465702.623489000  -2.55357  -0.0709598  1.06544  0  0  0.0195431  -0.21961  0.638441  0.0455639  0  0  0  -0.197972  1.23601  0.0784759  0  0  0  0  0  0  0  0  0 
1704465702.628483000  -2.55467  -0.0677521  1.06567  0  0  0.0194468  -0.220594  0.644615  0.0459505  0  0  0  -0.195597  1.23363  0.0761009  0  0  0  0  0  0  0  0  0 
1704465702.633488000  -2.55578  -0.0645136  1.0659  0  0  0.0193523  -0.221566  0.650777  0.0463245  0  0  0  -0.192972  1.23101  0.0734759  0  0  0  0  0  0  0  0  0 
1704465702.638474000  -2.55689  -0.0612444  1.06613  0  0  0.0192593  -0.222524  0.656925  0.0466848  0  0  0  -0.190097  1.22813  0.0706009  0  0  0  0  0  0  0  0  0 
1704465702.643487000  -2.558  -0.0579444  1.06637  0  0  0.019168  -0.223467  0.663058  0.0470301  0  0  0  -0.186972  1.22501  0.0674759  0  0  0  0  0  0  0  0  0 
1704465702.648474000  -2.55912  -0.0546138  1.0666  0  0  0.019078  -0.224393  0.669174  0.0473592  0  0  0  -0.183597  1.22163  0.0641009  0  0  0  0  0  0  0  0  0 
1704465702.653490000  -2.56025  -0.0512527  1.06684  0  0  0.0189894  -0.225302  0.675273  0.0476707  0  0  0  -0.179972  1.21801  0.0604759  0  0  0  0  0  0  0  0  0 
1704465702.658474000  -2.56138  -0.0478611  1.06708  0  0  0.0189018  -0.226192  0.681354  0.0479635  0  0  0  -0.176097  1.21413  0.0566009  0  0  0  0  0  0  0  0  0 
1704465702.663477000  -2.56251  -0.0444392  1.06732  0  0  0.0188153  -0.227063  0.687414  0.0482363  0  0  0  -0.171972  1.21001  0.0524759  0  0  0  0  0  0  0  0  0 
1704465702.668561000  -2.56365  -0.040987  1.06756  0  0  0.0187295  -0.227912  0.693454  0.0484879  0  0  0  -0.167597  1.20563  0.0481009  0  0  0  0  0  0  0  0  0 
1704465702.673501000  -2.56479  -0.0375047  1.0678  0  0  0.0186445  -0.228738  0.69947  0.0487169  0  0  0  -0.162972  1.20101  0.0434759  0  0  0  0  0  0  0  0  0 
1704465702.678493000  -2.56593  -0.0339923  1.06805  0  0  0.0185598  -0.229541  0.705463  0.0489222  0  0  0  -0.158097  1.19613  0.0386119  0  0  0  0  0  0  0  0  0 
1704465702.683497000  -2.56708  -0.0304501  1.06829  0  0  0.0184755  -0.230319  0.711431  0.0491032  0  0  0  -0.152972  1.19101  0.0338416  0  0  0  0  0  0  0  0  0 
1704465702.688493000  -2.56824  -0.0268781  1.06854  0  0  0.0183911  -0.23107  0.717373  0.049261  0  0  0  -0.147597  1.18563  0.0293214  0  0  0  0  0  0  0  0  0 
1704465702.693493000  -2.56939  -0.0232764  1.06879  0  0  0.0183067  -0.231794  0.723287  0.0493969  0  0  0  -0.141972  1.18001  0.0250511  0  0  0  0  0  0  0  0  0 
1704465702.698506000  -2.57056  -0.0196453  1.06903  0  0  0.0182218  -0.23249  0.729172  0.049512  0  0  0  -0.136097  1.17413  0.0210309  0  0  0  0  0  0  0  0  0 
1704465702.703514000  -2.57172  -0.0159847  1.06928  0  0  0.0181363  -0.233155  0.735028  0.0496076  0  0  0  -0.129972  1.16801  0.0172606  0  0  0  0  0  0  0  0  0 
1704465702.708501000  -2.57289  -0.012295  1.06953  0  0  0.01805  -0.233789  0.740852  0.049685  0  0  0  -0.123597  1.16163  0.0137404  0  0  0  0  0  0  0  0  0 
1704465702.713491000  -2.57406  -0.0085763  1.06978  0  0  0.0179625  -0.23439  0.746644  0.0497454  0  0  0  -0.116972  1.15501  0.0104701  0  0  0  0  0  0  0  0  0 
1704465702.718497000  -2.57523  -0.0048287  1.07003  0  0  0.0178737  -0.234958  0.752402  0.0497901  0  0  0  -0.110097  1.14813  0.0074499  0  0  0  0  0  0  0  0  0 
1704465702.723510000  -2.57641  -0.0010523  1.07028  0  0  0.0177832  -0.235491  0.758125  0.0498203  0  0  0  -0.102972  1.14101  0.0046796  0  0  0  0  0  0  0  0  0 
1704465702.728517000  -2.57759  0.0027525  1.07052  0  0  0.0176908  -0.235987  0.763811  0.0498373  0  0  0  -0.0955971  1.13363  0.0021593  0  0  0  0  0  0  0  0  0 
1704465702.733515000  -2.57877  0.0065857  1.07077  0  0  0.0175961  -0.236447  0.769461  0.0498423  0  0  0  -0.0879721  1.12601  -0.0001109  0  0  0  0  0  0  0  0  0 
1704465702.738495000  -2.57995  0.0104471  1.07102  0  0  0.0174989  -0.236867  0.775071  0.0498366  0  0  0  -0.0800971  1.11813  -0.0021312  0  0  0  0  0  0  0  0  0 
1704465702.743501000  -2.58114  0.0143364  1.07127  0  0  0.017399  -0.237247  0.780642  0.0498214  0  0  0  -0.0719721  1.11001  -0.0039014  0  0  0  0  0  0  0  0  0 
1704465702.748495000  -2.58232  0.0182534  1.07152  0  0  0.017296  -0.237586  0.786171  0.049798  0  0  0  -0.0635971  1.10163  -0.0054217  0  0  0  0  0  0  0  0  0 
1704465702.753496000  -2.58351  0.022198  1.07177  0  0  0.0171897  -0.237883  0.791657  0.0497676  0  0  0  -0.0549721  1.09301  -0.0066919  0  0  0  0  0  0  0  0  0 
1704465702.758499000  -2.5847  0.0261699  1.07202  0  0  0.0170799  -0.238135  0.7971  0.0497315  0  0  0  -0.0460971  1.08413  -0.0077122  0  0  0  0  0  0  0  0  0 
1704465702.763515000  -2.58589  0.0301689  1.07227  0  0  0.0169664  -0.238343  0.802498  0.0496909  0  0  0  -0.0369721  1.07501  -0.0084825  0  0  0  0  0  0  0  0  0 
1704465702.768501000  -2.58708  0.0341948  1.07252  0  0  0.0168489  -0.238505  0.80785  0.0496471  0  0  0  -0.0275971  1.06563  -0.0090027  0  0  0  0  0  0  0  0  0 
1704465702.773497000  -2.58828  0.0382474  1.07276  0  0  0.0167272  -0.238619  0.813154  0.0496013  0  0  0  -0.0179721  1.05601  -0.009273  0  0  0  0  0  0  0  0  0 
1704465702.778497000  -2.58947  0.0423263  1.07301  0  0  0.0166011  -0.238684  0.81841  0.0495548  0  0  0  -0.0080971  1.04613  -0.0092932  0  0  0  0  0  0  0  0  0 
1704465702.783520000  -2.59066  0.0464314  1.07326  0  0  0.0164705  -0.238699  0.823615  0.0495088  0  0  0  0.0020279  1.03601  -0.0090635  0  0  0  0  0  0  0  0  0 
1704465702.788497000  -2.59186  0.0505624  1.07351  0  0  0.0163351  -0.238663  0.828769  0.0494646  0  0  0  0.0124029  1.02563  -0.0085837  0  0  0  0  0  0  0  0  0 
1704465702.793495000  -2.59305  0.054719  1.07375  0  0  0.0161948  -0.238575  0.833871  0.0494234  0  0  0  0.0230279  1.01501  -0.007854  0  0  0  0  0  0  0  0  0 
1704465702.798498000  -2.59424  0.058901  1.074  0  0  0.0160494  -0.238433  0.838919  0.0493865  0  0  0  0.0339029  1.00413  -0.0068742  0  0  0  0  0  0  0  0  0 
1704465702.803510000  -2.59544  0.0631081  1.07425  0  0  0.0158989  -0.238235  0.843912  0.0493551  0  0  0  0.0450279  0.993007  -0.0056445  0  0  0  0  0  0  0  0  0 
1704465702.808498000  -2.59663  0.06734  1.0745  0  0  0.0157429  -0.237982  0.848849  0.0493304  0  0  0  0.0564029  0.981632  -0.0041895  0  0  0  0  0  0  0  0  0 
1704465702.813494000  -2.59781  0.0715965  1.07474  0  0  0.0155815  -0.237671  0.853728  0.0493129  0  0  0  0.0680279  0.970007  -0.0028672  0  0  0  0  0  0  0  0  0 
1704465702.818496000  -2.599  0.0758772  1.07499  0  0  0.0154145  -0.237301  0.858548  0.0493013  0  0  0  0.0799029  0.958132  -0.0017949  0  0  0  0  0  0  0  0  0 
1704465702.823514000  -2.60019  0.0801819  1.07523  0  0  0.0152417  -0.236871  0.863309  0.0492945  0  0  0  0.0920279  0.946007  -0.0009725  0  0  0  0  0  0  0  0  0 
1704465702.828499000  -2.60137  0.0845102  1.07548  0  0  0.0150632  -0.236381  0.868008  0.0492912  0  0  0  0.104403  0.933632  -0.0004002  0  0  0  0  0  0  0  0  0 
1704465702.833500000  -2.60255  0.0888618  1.07573  0  0  0.0148787  -0.235827  0.872645  0.0492901  0  0  0  0.117028  0.921007  -7.79e-05  0  0  0  0  0  0  0  0  0 
1704465702.838497000  -2.60373  0.0932365  1.07597  0  0  0.0146883  -0.23521  0.877218  0.04929  0  0  0  0.129903  0.908132  -0  0  0  0  0  0  0  0  0  0 
1704465702.843513000  -2.6049  0.0976339  1.07622  0  0  0.0144918  -0.234528  0.881726  0.04929  0  0  0  0.143028  0.895007  -0  0  0  0  0  0  0  0  0  0 
1704465702.848499000  -2.60607  0.102054  1.07647  0  0  0.0142892  -0.233779  0.886167  0.04929  0  0  0  0.156403  0.881632  -0  0  0  0  0  0  0  0  0  0 
1704465702.853506000  -2.60724  0.106495  1.07671  0  0  0.0140805  -0.232963  0.890541  0.04929  0  0  0  0.170028  0.868007  -0  0  0  0  0  0  0  0  0  0 
1704465702.858511000  -2.6084  0.110959  1.07696  0  0  0.0138656  -0.232078  0.894847  0.04929  0  0  0  0.183903  0.854132  -0  0  0  0  0  0  0  0  0  0 
1704465702.863505000  -2.60956  0.115444  1.07721  0  0  0.0136444  -0.231124  0.899082  0.04929  0  0  0  0.198028  0.840007  -0  0  0  0  0  0  0  0  0  0 
1704465702.868494000  -2.61071  0.11995  1.07745  0  0  0.013417  -0.230098  0.903247  0.04929  0  0  0  0.212403  0.825632  -0  0  0  0  0  0  0  0  0  0 
1704465702.873493000  -2.61186  0.124476  1.0777  0  0  0.0131834  -0.228999  0.907338  0.04929  0  0  0  0.227028  0.811007  -0  0  0  0  0  0  0  0  0  0 
1704465702.878495000  -2.613  0.129023  1.07795  0  0  0.0129435  -0.227827  0.911356  0.04929  0  0  0  0.241903  0.796132  -0  0  0  0  0  0  0  0  0  0 
1704465702.883498000  -2.61414  0.13359  1.07819  0  0  0.0126973  -0.22658  0.915299  0.04929  0  0  0  0.257028  0.781007  -0  0  0  0  0  0  0  0  0  0 
1704465702.888495000  -2.61527  0.138176  1.07844  0  0  0.012445  -0.225256  0.919166  0.04929  0  0  0  0.272403  0.765632  -0  0  0  0  0  0  0  0  0  0 
1704465702.893495000  -2.61639  0.142781  1.07868  0  0  0.0121863  -0.223855  0.922955  0.04929  0  0  0  0.288028  0.750007  -0  0  0  0  0  0  0  0  0  0 
1704465702.898496000  -2.61751  0.147405  1.07893  0  0  0.0119214  -0.222376  0.926665  0.04929  0  0  0  0.303903  0.734132  -0  0  0  0  0  0  0  0  0  0 
1704465702.903509000  -2.61862  0.152048  1.07918  0  0  0.0116503  -0.220816  0.930296  0.04929  0  0  0  0.320028  0.718007  -0  0  0  0  0  0  0  0  0  0 
1704465702.908495000  -2.61972  0.156708  1.07942  0  0  0.0113729  -0.219175  0.933845  0.04929  0  0  0  0.336403  0.701632  -0  0  0  0  0  0  0  0  0  0 
1704465702.913494000  -2.62081  0.161386  1.07967  0  0  0.0110892  -0.217451  0.937312  0.04929  0  0  0  0.353028  0.685007  -0  0  0  0  0  0  0  0  0  0 
1704465702.918501000  -2.62189  0.166081  1.07992  0  0  0.0107993  -0.215644  0.940695  0.04929  0  0  0  0.369771  0.668132  -0  0  0  0  0  0  0  0  0  0 
1704465702.923492000  -2.62296  0.170793  1.08016  0  0  0.0105032  -0.213754  0.943993  0.04929  0  0  0  0.386283  0.651007  -0  0  0  0  0  0  0  0  0  0 
1704465702.928497000  -2.62403  0.175521  1.08041  0  0  0.0102008  -0.211782  0.947204  0.04929  0  0  0  0.402545  0.633632  -0  0  0  0  0  0  0  0  0  0 
1704465702.933496000  -2.62508  0.180265  1.08066  0  0  0.0098922  -0.209729  0.950329  0.04929  0  0  0  0.418557  0.616007  -0  0  0  0  0  0  0  0  0  0 
1704465702.938497000  -2.62613  0.185024  1.0809  0  0  0.0095773  -0.207597  0.953364  0.04929  0  0  0  0.434319  0.598132  -0  0  0  0  0  0  0  0  0  0 
1704465702.943511000  -2.62716  0.189798  1.08115  0  0  0.0092561  -0.205386  0.95631  0.04929  0  0  0  0.449831  0.580007  -0  0  0  0  0  0  0  0  0  0 
1704465702.948498000  -2.62818  0.194587  1.0814  0  0  0.0089287  -0.203099  0.959164  0.04929  0  0  0  0.465093  0.561632  -0  0  0  0  0  0  0  0  0  0 
1704465702.953513000  -2.62919  0.19939  1.08164  0  0  0.0085951  -0.200736  0.961925  0.04929  0  0  0  0.480105  0.543007  -0  0  0  0  0  0  0  0  0  0 
1704465702.958494000  -2.63019  0.204206  1.08189  0  0  0.0082552  -0.198298  0.964593  0.04929  0  0  0  0.494867  0.524132  -0  0  0  0  0  0  0  0  0  0 
1704465702.963517000  -2.63117  0.209035  1.08214  0  0  0.0079091  -0.195788  0.967166  0.04929  0  0  0  0.509379  0.505007  -0  0  0  0  0  0  0  0  0  0 
1704465702.968491000  -2.63214  0.213877  1.08238  0  0  0.0075567  -0.193205  0.969643  0.04929  0  0  0  0.523641  0.485632  -0  0  0  0  0  0  0  0  0  0 
1704465702.973504000  -2.6331  0.218732  1.08263  0  0  0.007198  -0.190552  0.972022  0.04929  0  0  0  0.537653  0.466007  -0  0  0  0  0  0  0  0  0  0 
1704465702.978492000  -2.63405  0.223598  1.08287  0  0  0.0068331  -0.187829  0.974303  0.04929  0  0  0  0.551415  0.446132  -0  0  0  0  0  0  0  0  0  0 
1704465702.983504000  -2.63498  0.228475  1.08312  0  0  0.006462  -0.185038  0.976483  0.04929  0  0  0  0.564926  0.426007  -0  0  0  0  0  0  0  0  0  0 
1704465702.988498000  -2.6359  0.233362  1.08337  0  0  0.0060846  -0.18218  0.978562  0.04929  0  0  0  0.578188  0.405632  -0  0  0  0  0  0  0  0  0  0 
1704465702.993514000  -2.6368  0.23826  1.08361  0  0  0.005701  -0.179256  0.980539  0.04929  0  0  0  0.5912  0.385007  -0  0  0  0  0  0  0  0  0  0 
1704465702.998504000  -2.63769  0.243167  1.08386  0  0  0.0053111  -0.176268  0.982412  0.04929  0  0  0  0.603962  0.364132  -0  0  0  0  0  0  0  0  0  0 
