ts fx fy fz tx ty tz exfx exfy exfz extx exty extz xd yd zd rolld pitchd yawd vxd vyd vzd wxd wyd wzd axd ayd azd e_x e_y e_z e_vx e_vy e_vz e_rx e_ry e_rz e_wx e_wy e_wz
1704465701.105078000  0  0  11.4917  0.0290765  -0.127543  0.0272113  nan  nan  nan  nan  nan  nan  -2.5  -0.3  1  0.0114642  -0.0291485  -0.000334132  0  0  0  0  0  0  0  0  0  0.0224366  0.000112891  -0.0131396  -0.0137649  0.0121529  0.00355754  -0.0178138  0.0282363  -0.0241605  0.109856  -0.0233581  -0.062888 
1704465701.109057000  0  0  11.436  0.0541287  -0.149994  0.0205971  nan  nan  nan  nan  nan  nan  -2.5  -0.3  1  0.0114235  -0.0302918  -0.000346  0  0  0  0  0  0  0  0  0  0.0226073  8.40177e-06  -0.0130829  -0.0130314  0.0122597  0.00752025  -0.0177688  0.0297227  -0.0237101  0.0630711  0.00453979  0.00135829 
1704465701.114062000  0  0  11.4092  0.0504672  -0.144581  0.0174448  nan  nan  nan  nan  nan  nan  -2.5  -0.3  1  0.0107606  -0.0300043  -0.000322829  0  0  0  0  0  0  0  0  0  0.0225407  6.12763e-05  -0.0130264  -0.0132827  0.0114135  0.00938357  -0.0168532  0.0293889  -0.0232967  0.0614358  -0.002412  0.030185 
1704465701.119042000  0  0  11.4878  0.0235227  -0.155038  0.0252941  nan  nan  nan  nan  nan  nan  -2.5  -0.3  1  0.0106112  -0.0298188  -0.000316379  0  0  0  0  0  0  0  0  0  0.0226073  5.40474e-05  -0.0130992  -0.0133962  0.0113461  0.00377326  -0.0158548  0.0295205  -0.0240037  0.102137  0.0157345  -0.0445024 
1704465701.123044000  0  0  11.4316  0.0354619  -0.149799  0.0233897  nan  nan  nan  nan  nan  nan  -2.5  -0.3  1  0.0113847  -0.0296118  -0.000337086  0  0  0  0  0  0  0  0  0  0.0225529  0.00010539  -0.0130422  -0.0136663  0.0120175  0.00778028  -0.0163988  0.0292751  -0.0239789  0.0850354  0.00829212  -0.0250565 
1704465701.129043000  0  0  11.453  0.045863  -0.180023  0.0195653  nan  nan  nan  nan  nan  nan  -2.5  -0.3  1  0.0102538  -0.0323446  -0.000331607  0  0  0  0  0  0  0  0  0  0.0227115  1.05734e-05  -0.0130223  -0.0109815  0.0110137  0.00616506  -0.0151217  0.0324472  -0.023609  0.0540489  0.0350913  0.0111031 
1704465701.134044000  0  0  11.4416  0.0421594  -0.172039  0.0209875  nan  nan  nan  nan  nan  nan  -2.5  -0.3  1  0.0100607  -0.0306205  -0.000308025  0  0  0  0  0  0  0  0  0  0.0228483  -5.76159e-05  -0.0130085  -0.0131488  0.0109333  0.00697159  -0.0145003  0.0310356  -0.0237155  0.0551946  0.0332817  -0.00262494 
1704465701.139042000  0  0  11.3356  0.045584  -0.138366  0.0219319  nan  nan  nan  nan  nan  nan  -2.5  -0.3  1  0.0102165  -0.0314134  -0.000320894  0  0  0  0  0  0  0  0  0  0.0227903  -4.56551e-06  -0.012906  -0.0124918  0.0108916  0.0145586  -0.0144795  0.0311825  -0.0238259  0.048665  -0.0303961  -0.0113811 
1704465701.142995000  0  0  11.4317  0.0477965  -0.169432  0.0216378  nan  nan  nan  nan  nan  nan  -2.5  -0.3  1  0.00963091  -0.0344922  -0.000332136  0  0  0  0  0  0  0  0  0  0.0229663  -8.00523e-05  -0.0129584  -0.0092506  0.010506  0.00761569  -0.013776  0.0345437  -0.0238089  0.0381056  -0.00377589  -0.00849711 
1704465701.148070000  0  0  11.3536  0.0837462  -0.154272  0.0166852  nan  nan  nan  nan  nan  nan  -2.5  -0.3  1  0.0108124  -0.0302848  -0.000327413  0  0  0  0  0  0  0  0  0  0.0228783  -1.80882e-05  -0.012877  -0.0138212  0.0115724  0.0131729  -0.0152677  0.0304915  -0.0233271  -0.0147314  0.00539547  0.0383045 
1704465701.154069000  0  0  11.2547  0.064831  -0.101702  0.0239435  nan  nan  nan  nan  nan  nan  -2.5  -0.3  1  0.00944621  -0.0327706  -0.000309512  0  0  0  0  0  0  0  0  0  0.0230341  -8.35745e-05  -0.0127691  -0.0117867  0.0101578  0.020248  -0.0137655  0.0316459  -0.0239277  0.00647831  -0.102519  -0.0312385 
1704465701.159057000  0  0  11.4186  0.101594  -0.168559  0.0247128  nan  nan  nan  nan  nan  nan  -2.5  -0.3  1  0.0106426  -0.0348311  -0.000370631  0  0  0  0  0  0  0  0  0  0.0231387  -9.91336e-05  -0.0128142  -0.00927591  0.0116179  0.00829701  -0.0155135  0.0343629  -0.0241675  -0.0455094  -0.00372945  -0.0370196 
1704465701.164058000  0  0  11.317  0.144834  -0.133279  0.0170193  nan  nan  nan  nan  nan  nan  -2.5  -0.3  1  0.0119848  -0.0297538  -0.000356559  0  0  0  0  0  0  0  0  0  0.0230349  -3.09896e-05  -0.0126984  -0.0148062  0.0128084  0.0155078  -0.0177381  0.0290975  -0.023449  -0.105106  -0.020654  0.0359544 
1704465701.168056000  0  0  11.2464  0.112531  -0.0817198  0.0231534  nan  nan  nan  nan  nan  nan  -2.5  -0.3  1  0.0115201  -0.0306309  -0.00035283  0  0  0  0  0  0  0  0  0  0.0230369  -1.53295e-05  -0.0125925  -0.0140809  0.0122053  0.0205056  -0.0171615  0.0287843  -0.0239491  -0.0506128  -0.113213  -0.0228849 
1704465701.174077000  0  0  11.4407  0.150252  -0.149026  0.0249263  nan  nan  nan  nan  nan  nan  -2.5  -0.3  1  0.013184  -0.0325164  -0.000428645  0  0  0  0  0  0  0  0  0  0.0229804  7.63432e-05  -0.0126225  -0.0113744  0.0140193  0.00629697  -0.0196634  0.0310928  -0.024395  -0.0974455  -0.00983967  -0.0371708 
1704465701.179068000  0  0  11.322  0.182728  -0.1073  0.0152962  nan  nan  nan  nan  nan  nan  -2.5  -0.3  1  0.0145173  -0.0284284  -0.000412677  0  0  0  0  0  0  0  0  0  0.0229198  0.000127666  -0.0124899  -0.0159692  0.0151898  0.0147151  -0.0219481  0.0265703  -0.0234677  -0.136567  -0.04552  0.0539206 
1704465701.184067000  0  0  11.2786  0.13588  -0.0685641  0.0252226  nan  nan  nan  nan  nan  nan  -2.5  -0.3  1  0.0140728  -0.0300153  -0.000422363  0  0  0  0  0  0  0  0  0  0.0229187  0.000166904  -0.0123905  -0.0144005  0.0145788  0.01774  -0.0213341  0.0269172  -0.0242697  -0.0554919  -0.120409  -0.041363 
1704465701.189078000  0  0  11.4509  0.156717  -0.12667  0.0240752  nan  nan  nan  nan  nan  nan  -2.5  -0.3  1  0.0146806  -0.0305422  -0.000448342  0  0  0  0  0  0  0  0  0  0.0228563  0.000247748  -0.0124248  -0.0132186  0.015298  0.00515477  -0.0225305  0.0279435  -0.0244156  -0.0830676  -0.0222834  -0.0281932 
1704465701.194058000  0  0  11.3624  0.172709  -0.0973002  0.0146449  nan  nan  nan  nan  nan  nan  -2.5  -0.3  1  0.0162166  -0.0276071  -0.000447676  2e-07  2e-07  2e-07  0  0  0  0.000125  0.000125  0.000125  0.022813  0.000303416  -0.0123229  -0.0165087  0.0167191  0.0114346  -0.0246213  0.0246318  -0.02346  -0.0934595  -0.0462193  0.0605779 
1704465701.198049000  0  0  11.2832  0.134407  -0.0704306  0.0215695  nan  nan  nan  nan  nan  nan  -2.5  -0.3  1  0.0157399  -0.027535  -0.000433378  1.7e-06  1.7e-06  1.7e-06  0  0  0  0.0005  0.0005  0.0005  0.0227485  0.000362505  -0.0122286  -0.0166219  0.0160133  0.0171115  -0.023844  0.023852  -0.0239498  -0.0297044  -0.0887897  -0.00651979 
1704465701.204043000  0  0  11.4705  0.108749  -0.118234  0.0232558  nan  nan  nan  nan  nan  nan  -2.5  -0.3  1  0.0149362  -0.0293781  -0.000438766  5.6e-06  5.6e-06  5.6e-06  0  0  0  0.001125  0.001125  0.001125  0.0227476  0.000422376  -0.0122665  -0.0140796  0.0153691  0.00352385  -0.022777  0.0259761  -0.0242951  0.00798456  -0.0198221  -0.0208183 
1704465701.209043000  0  0  11.4275  0.119734  -0.118924  0.013797  nan  nan  nan  nan  nan  nan  -2.5  -0.3  1  0.0164495  -0.0273577  -0.000449705  2.6e-05  2.6e-05  2.6e-05  0  0  0  0.003125  0.003125  0.003125  0.0227297  0.000475991  -0.0122087  -0.0161183  0.0170421  0.0067068  -0.0242969  0.024083  -0.0233352  0.00161727  -0.00115131  0.0682088 
1704465701.214046000  0  0  11.3275  0.0760709  -0.0943138  0.0196448  nan  nan  nan  nan  nan  nan  -2.5  -0.3  1  0.0152487  -0.0263494  -0.000401479  2.6e-05  2.6e-05  2.6e-05  0  0  0  0.003125  0.003125  0.003125  0.0226394  0.000547621  -0.0121027  -0.0172704  0.0154642  0.0138586  -0.022395  0.0226775  -0.023664  0.0649624  -0.033791  0.0107781 
1704465701.219051000  0  0  11.5165  0.0426489  -0.128193  0.0235673  nan  nan  nan  nan  nan  nan  -2.5  -0.3  1  0.014302  -0.0286429  -0.000409124  4.5e-05  4.5e-05  4.5e-05  0  0  0  0.0045  0.0045  0.0045  0.0226677  0.000584494  -0.0121699  -0.0142277  0.014782  0.00027399  -0.0206536  0.0252324  -0.0240996  0.110827  0.00544575  -0.0258014 
1704465701.223049000  0  0  11.5162  0.0634577  -0.1452  0.0191511  nan  nan  nan  nan  nan  nan  -2.5  -0.299999  1  0.0160944  -0.0269123  -0.000432123  7.15e-05  7.15e-05  7.15e-05  0  0  0  0.006125  0.006125  0.006125  0.0225941  0.000666429  -0.0121486  -0.0157788  0.0167319  0.000371757  -0.0222312  0.023972  -0.0237528  0.0868042  0.0485055  0.0166797 
1704465701.229044000  0  0  11.2863  0.0331815  -0.107459  0.0207258  nan  nan  nan  nan  nan  nan  -2.5  -0.299999  1  0.0143617  -0.0252105  -0.000360353  0.0001067  0.0001067  0.0001067  0  0  0  0.008  0.008  0.008  0.0225686  0.000699648  -0.0119831  -0.0179177  0.0146803  0.0170808  -0.0197113  0.0220197  -0.0237884  0.119692  -0.00341465  0.000737536 
1704465701.234061000  0  0  11.5108  -0.00948104  -0.139669  0.0287103  nan  nan  nan  nan  nan  nan  -2.5  -0.299998  1  0.013214  -0.0277957  -0.000364565  0.0001519  0.0001519  0.0001519  0  0  0  0.010125  0.010125  0.010125  0.0226105  0.00072586  -0.0120765  -0.014444  0.0139152  0.00101209  -0.0173715  0.0249077  -0.0247141  0.177163  0.0296698  -0.0733717 
1704465701.239054000  0  0  11.4403  0.0401575  -0.163324  0.0205742  nan  nan  nan  nan  nan  nan  -2.5  -0.299997  1  0.0152043  -0.0252793  -0.000380142  0.0002083  0.0002083  0.0002083  0  0  0  0.0125  0.0125  0.0125  0.0225129  0.00082655  -0.0120073  -0.0168828  0.016021  0.00621146  -0.0192817  0.0232238  -0.0242415  0.102833  0.088928  0.00639414 
1704465701.244058000  0  0  11.2479  0.0175846  -0.112934  0.0197084  nan  nan  nan  nan  nan  nan  -2.5  -0.299996  1  0.0131827  -0.0244094  -0.000315669  0.0002773  0.0002773  0.0002773  0  0  0  0.015125  0.015125  0.015125  0.0225291  0.000827558  -0.0118691  -0.0180141  0.0138882  0.0202857  -0.0166375  0.0219025  -0.0240856  0.12032  0.007796  0.0139285 
1704465701.248049000  0  0  11.4009  -0.0137957  -0.130666  0.0277234  nan  nan  nan  nan  nan  nan  -2.49999  -0.299995  1.00001  0.0122608  -0.025974  -0.000309841  0.00036  0.00036  0.00036  0  0  0  0.018  0.018  0.018  0.0224697  0.00088684  -0.0119162  -0.0155577  0.013278  0.00941765  -0.0148336  0.0236239  -0.02491  0.161831  0.0248024  -0.0614097 
1704465701.254057000  0  0  11.4021  0.0440545  -0.15502  0.0175508  nan  nan  nan  nan  nan  nan  -2.49999  -0.299993  1.00001  0.0138011  -0.0242724  -0.000323074  0.0004577  0.0004577  0.0004577  0  0  0  0.021125  0.021125  0.021125  0.0224728  0.000938107  -0.0118827  -0.0170494  0.0151628  0.00950532  -0.0164416  0.0227798  -0.0242274  0.0695237  0.0776357  0.0374943 
1704465701.259049000  0  0  11.2347  0.0313114  -0.115449  0.017306  nan  nan  nan  nan  nan  nan  -2.49999  -0.29999  1.00001  0.0121402  -0.0240968  -0.000276527  0.0005717  0.0005717  0.0005717  0  0  0  0.0245  0.0245  0.0245  0.022517  0.000929824  -0.0117509  -0.0173457  0.0135706  0.02181  -0.0144863  0.0222285  -0.0239819  0.0751459  0.00945635  0.0378051 
1704465701.264058000  0  0  11.3974  0.0219788  -0.136172  0.0257242  nan  nan  nan  nan  nan  nan  -2.49999  -0.299987  1.00001  0.0117442  -0.0245075  -0.000266706  0.0007031  0.0007031  0.0007031  0  0  0  0.028125  0.028125  0.028125  0.0224456  0.00100523  -0.0117678  -0.0160042  0.0135686  0.0102269  -0.0136056  0.0229853  -0.0247862  0.0843284  0.0408605  -0.04188 
1704465701.269056000  0  0  11.3766  0.0680494  -0.130061  0.0163749  nan  nan  nan  nan  nan  nan  -2.49998  -0.299983  1.00002  0.0124936  -0.0232786  -0.000263522  0.0008533  0.0008533  0.0008533  0  0  0  0.032  0.032  0.032  0.0224768  0.00101708  -0.0117349  -0.0170138  0.0147394  0.0119978  -0.0147369  0.021992  -0.0239942  0.00944645  0.0386751  0.0475329 
1704465701.273045000  0  0  11.2855  0.076122  -0.112221  0.016108  nan  nan  nan  nan  nan  nan  -2.49998  -0.299978  1.00002  0.0118158  -0.0228234  -0.000234867  0.0010235  0.0010235  0.0010235  0  0  0  0.036125  0.036125  0.036125  0.0224144  0.00107124  -0.0116234  -0.0171287  0.014247  0.018804  -0.0142769  0.0213767  -0.0237822  -0.00972269  0.0113082  0.0483752 
1704465701.279049000  0  0  11.3789  0.069558  -0.121718  0.0244801  nan  nan  nan  nan  nan  nan  -2.49997  -0.299973  1.00003  0.01133  -0.0219878  -0.000205412  0.001215  0.001215  0.001215  0  0  0  0.0405  0.0405  0.0405  0.0224563  0.00108558  -0.0116373  -0.0174382  0.0142719  0.0123436  -0.0136916  0.0209447  -0.0245322  -0.00295099  0.0328561  -0.0313231 
1704465701.283047000  0  0  11.3724  0.0971003  -0.10005  0.0207095  nan  nan  nan  nan  nan  nan  -2.49997  -0.299966  1.00003  0.0118494  -0.0207928  -0.000192076  0.001429  0.001429  0.001429  0  0  0  0.045125  0.045125  0.045125  0.0223883  0.00114868  -0.011572  -0.0180964  0.0151895  0.0130805  -0.0146411  0.0195695  -0.0242782  -0.0452076  0.00538474  0.00532804 
1704465701.289042000  0  0  11.3976  0.106144  -0.119313  0.0194166  nan  nan  nan  nan  nan  nan  -2.49996  -0.299958  1.00004  0.0110202  -0.0220005  -0.00017574  0.0016667  0.0016667  0.0016667  0  0  0  0.05  0.05  0.05  0.0224556  0.00115196  -0.01156  -0.0163654  0.0148457  0.011603  -0.0143907  0.0210635  -0.02403  -0.0642474  0.0273125  0.0164413 
1704465701.294059000  0  0  11.4008  0.107534  -0.09828  0.0219993  nan  nan  nan  nan  nan  nan  -2.49995  -0.299949  1.00005  0.0106931  -0.0196739  -0.00012937  0.0019294  0.0019294  0.0019294  0  0  0  0.055125  0.055125  0.055125  0.0225389  0.00115363  -0.0115997  -0.0184724  0.0150456  0.0118742  -0.01434  0.0187657  -0.0242758  -0.0672867  0.0094937  -0.00801467 
1704465701.298047000  0  0  11.4025  0.106124  -0.0799999  0.0218091  nan  nan  nan  nan  nan  nan  -2.49994  -0.299939  1.00006  0.0102858  -0.0191497  -9.93647e-05  0.0022183  0.0022183  0.0022183  0  0  0  0.0605  0.0605  0.0605  0.0224701  0.00121076  -0.0115501  -0.0183163  0.0150724  0.0121008  -0.014177  0.0179766  -0.0243085  -0.0661744  -0.0170927  -0.00575617 
1704465701.304062000  0  0  11.5274  0.108961  -0.129845  0.020123  nan  nan  nan  nan  nan  nan  -2.49993  -0.299927  1.00007  0.0101958  -0.0203796  -9.12786e-05  0.0025348  0.0025348  0.0025348  0  0  0  0.066125  0.066125  0.066125  0.0225443  0.00123376  -0.0116124  -0.0163043  0.015653  0.00352811  -0.014523  0.0199709  -0.0241718  -0.0682468  0.0568468  0.0104243 
1704465701.309066000  0  0  11.4376  0.115974  -0.0984948  0.0198778  nan  nan  nan  nan  nan  nan  -2.49991  -0.299914  1.00009  0.00937403  -0.0170238  -2.14786e-05  0.00288  0.00288  0.00288  0  0  0  0.0719878  0.072  0.072  0.0225906  0.001237  -0.0115905  -0.0195513  0.0153077  0.0105517  -0.0141696  0.0166896  -0.0241275  -0.0844759  0.0289667  0.0125571 
1704465701.314052000  0  0  11.5296  0.0841154  -0.0987071  0.0241367  nan  nan  nan  nan  nan  nan  -2.4999  -0.299898  1.0001  0.0082299  -0.0180846  1.34702e-05  0.0032544  0.0032552  0.0032552  0  0  0  0.0777521  0.078125  0.078125  0.0225235  0.00130866  -0.0115904  -0.0175005  0.0146615  0.00432515  -0.0129344  0.0177337  -0.0245616  -0.0368539  0.0197658  -0.0275098 
1704465701.319067000  0  0  11.6473  0.0970216  -0.158732  0.0217673  nan  nan  nan  nan  nan  nan  -2.49988  -0.299881  1.00012  0.00847047  -0.0181528  3.56423e-05  0.0036571  0.0036617  0.0036617  0  0  0  0.0832665  0.0845  0.0845  0.0226016  0.00132902  -0.0117025  -0.0167915  0.0156595  -0.00357223  -0.0135532  0.0190425  -0.0245232  -0.0550578  0.118847  -0.00338463 
1704465701.324077000  0  0  11.511  0.0995755  -0.120229  0.0174378  nan  nan  nan  nan  nan  nan  -2.49986  -0.299862  1.00014  0.00741412  -0.0141135  0.000114963  0.0040867  0.0041006  0.0041006  0  0  0  0.0885309  0.091125  0.091125  0.0224813  0.00140508  -0.0116059  -0.0205897  0.0149652  0.00678196  -0.0128838  0.0152507  -0.0241005  -0.065935  0.0824183  0.0375153 
1704465701.329022000  0  0  11.5986  0.0441315  -0.12686  0.0244963  nan  nan  nan  nan  nan  nan  -2.49984  -0.29984  1.00016  0.00543875  -0.0166528  0.000162333  0.004542  0.0045733  0.0045733  0  0  0  0.0935453  0.098  0.098  0.0225997  0.00139257  -0.0117141  -0.0174053  0.013636  0.00115435  -0.0103732  0.0180337  -0.0247152  0.0136236  0.0691199  -0.0298379 
1704465701.334073000  0  0  11.6958  0.0673986  -0.181647  0.0208228  nan  nan  nan  nan  nan  nan  -2.49982  -0.299816  1.00018  0.00541581  -0.0168095  0.000198466  0.0050217  0.005081  0.005081  0  0  0  0.0983097  0.105125  0.105125  0.0226855  0.0014064  -0.0118453  -0.0167425  0.0143977  -0.0051397  -0.0107066  0.0195994  -0.0245618  -0.0263806  0.156145  0.00671814 
1704465701.339068000  0  0  11.5876  0.0629702  -0.143324  0.0157046  nan  nan  nan  nan  nan  nan  -2.49979  -0.299789  1.00021  0.00432567  -0.0131801  0.000272589  0.0055247  0.005625  0.005625  0  0  0  0.102824  0.1125  0.112498  0.0225667  0.00147752  -0.0117823  -0.0201445  0.0138023  0.00329095  -0.00975784  0.0163548  -0.0239999  -0.026901  0.115022  0.0545084 
1704465701.344080000  0  0  11.6256  0.0125088  -0.137656  0.0252748  nan  nan  nan  nan  nan  nan  -2.49976  -0.299759  1.00024  0.0025331  -0.0147846  0.00033575  0.0060496  0.0062065  0.0062059  0  0  0  0.107088  0.120125  0.119832  0.0226797  0.00146307  -0.0118829  -0.0181139  0.012707  0.00131823  -0.0073139  0.0182131  -0.0248286  0.0440479  0.0874565  -0.0368545 
1704465701.349073000  0  0  11.6873  0.0447463  -0.174237  0.0213934  nan  nan  nan  nan  nan  nan  -2.49973  -0.299727  1.00027  0.00241631  -0.0144863  0.000385398  0.0065951  0.0068267  0.0068229  0  0  0  0.111103  0.128  0.126915  0.0225948  0.00153884  -0.0119103  -0.0177536  0.0132859  -0.00257874  -0.00759506  0.0190545  -0.0246971  -0.0130406  0.147436  0.00204783 
1704465701.354071000  0  0  11.6106  0.0555609  -0.149591  0.015399  nan  nan  nan  nan  nan  nan  -2.49969  -0.299691  1.00031  0.00123809  -0.0126457  0.000455644  0.0071602  0.0074865  0.0074747  0  0  0  0.114867  0.135908  0.133749  0.0226635  0.00152303  -0.0119568  -0.0196021  0.0128625  0.00370291  -0.00680799  0.0176718  -0.0240421  -0.0402902  0.114522  0.0580455 
1704465701.359064000  0  0  11.6157  0.0255155  -0.1373  0.0238834  nan  nan  nan  nan  nan  nan  -2.49966  -0.299652  1.00035  -0.000456802  -0.0129966  0.000531937  0.0077434  0.0081853  0.00816  0  0  0  0.118382  0.143566  0.140332  0.0227674  0.00151145  -0.012052  -0.0190445  0.011858  0.00407123  -0.00490018  0.0183182  -0.0247398  -0.0022054  0.0858307  -0.0232852 
1704465701.364081000  0  0  11.6806  0.0501847  -0.157823  0.0216331  nan  nan  nan  nan  nan  nan  -2.49962  -0.299609  1.00039  -0.0007768  -0.0133805  0.000594894  0.0083436  0.0089218  0.0088776  0  0  0  0.121646  0.150975  0.146665  0.0226839  0.00157741  -0.0120734  -0.0180244  0.0121666  -0.000129401  -0.00506649  0.0194438  -0.0247174  -0.04634  0.113478  -0.000245277 
1704465701.369050000  0  0  11.6384  0.0796031  -0.155978  0.016185  nan  nan  nan  nan  nan  nan  -2.49957  -0.299563  1.00044  -0.00112753  -0.0118209  0.000660328  0.0089594  0.0096947  0.0096262  0  0  0  0.12466  0.158134  0.152749  0.0227483  0.00156564  -0.0121498  -0.0195906  0.0125773  0.00361212  -0.00551091  0.0185747  -0.0241382  -0.0967102  0.118049  0.0507949 
1704465701.374050000  0  0  11.5963  0.0626512  -0.11969  0.0229169  nan  nan  nan  nan  nan  nan  -2.49953  -0.299512  1.00049  -0.00255686  -0.0105151  0.000740285  0.0095898  0.0105027  0.0104046  0  0  0  0.127425  0.165042  0.158582  0.022654  0.00162202  -0.0121063  -0.0205733  0.0116505  0.00711538  -0.0043358  0.0172628  -0.0246831  -0.0761294  0.062932  -0.0138154 
1704465701.379051000  0  0  11.7129  0.067206  -0.145313  0.0249867  nan  nan  nan  nan  nan  nan  -2.49948  -0.299458  1.00054  -0.00324174  -0.0128421  0.00082553  0.0102333  0.0113447  0.0112116  0  0  0  0.129939  0.171701  0.164166  0.0227658  0.00161539  -0.0122561  -0.0178499  0.0115989  -0.000690712  -0.0041777  0.0201486  -0.0250667  -0.086013  0.0838462  -0.0317294 
1704465701.383051000  0  0  11.7039  0.112351  -0.161193  0.0181774  nan  nan  nan  nan  nan  nan  -2.49943  -0.299399  1.0006  -0.00302327  -0.0104931  0.000890023  0.0108887  0.0122193  0.0120459  0  0  0  0.132204  0.17811  0.169499  0.0226652  0.00166229  -0.012254  -0.0199999  0.0124336  0.00040494  -0.00548336  0.0186094  -0.0245493  -0.15758  0.127382  0.0339294 
1704465701.389051000  0  0  11.6283  0.0904962  -0.104468  0.021794  nan  nan  nan  nan  nan  nan  -2.49937  -0.299335  1.00066  -0.00470643  -0.00902299  0.000979266  0.0115549  0.0131253  0.0129062  0  0  0  0.134218  0.184269  0.174583  0.0227142  0.00166571  -0.0122879  -0.021563  0.0112681  0.00646468  -0.0044311  0.016923  -0.0247508  -0.126795  0.0378793  -0.00160614 
1704465701.394064000  0  0  11.7554  0.0901991  -0.148274  0.0262557  nan  nan  nan  nan  nan  nan  -2.49931  -0.299267  1.00073  -0.00512664  -0.0119548  0.00108069  0.0122305  0.0140616  0.0137913  0  0  0  0.135982  0.190177  0.179416  0.0228241  0.00166735  -0.0124612  -0.0182456  0.0113821  -0.00214149  -0.00465746  0.0205528  -0.0253676  -0.124165  0.0856119  -0.0421191 
1704465701.398051000  0  0  11.7743  0.13905  -0.160257  0.0171042  nan  nan  nan  nan  nan  nan  -2.49925  -0.299195  1.0008  -0.00479736  -0.00920682  0.00115017  0.0129143  0.0150267  0.0146999  0  0  0  0.137497  0.195836  0.184  0.0227133  0.00171331  -0.0124806  -0.0208806  0.0122493  -0.00310789  -0.00625595  0.0185984  -0.0246675  -0.199902  0.125751  0.04608 
1704465701.404072000  0  0  11.6733  0.104244  -0.102476  0.0202309  nan  nan  nan  nan  nan  nan  -2.49918  -0.299117  1.00088  -0.00616484  -0.00818353  0.00124705  0.013605  0.0160195  0.0156309  0  0  0  0.138761  0.201245  0.188333  0.0227619  0.00172427  -0.0125196  -0.0220516  0.0113518  0.00475821  -0.00549693  0.0172449  -0.0247444  -0.14245  0.0312341  0.0144816 
1704465701.409063000  0  0  11.798  0.0951188  -0.157675  0.0264563  nan  nan  nan  nan  nan  nan  -2.49911  -0.299034  1.00096  -0.00695351  -0.0105964  0.00136488  0.0143015  0.0170387  0.0165828  0  0  0  0.139775  0.206403  0.192416  0.0228523  0.00172916  -0.0126953  -0.0193502  0.0109524  -0.00372937  -0.00529756  0.0205944  -0.0254893  -0.12739  0.102631  -0.0430913 
1704465701.414048000  0  0  11.7778  0.140087  -0.152136  0.0159922  nan  nan  nan  nan  nan  nan  -2.49904  -0.298947  1.00104  -0.00636548  -0.00778982  0.00143949  0.0150024  0.0180831  0.0175546  0  0  0  0.14054  0.211312  0.19625  0.0227294  0.00180131  -0.0126835  -0.0221488  0.0119944  -0.00195325  -0.00724995  0.0184415  -0.0246424  -0.192687  0.112161  0.0573396 
1704465701.419060000  0  0  11.7073  0.103848  -0.12652  0.0213536  nan  nan  nan  nan  nan  nan  -2.49896  -0.298854  1.00113  -0.00771627  -0.00830157  0.00155646  0.0157065  0.0191514  0.0185449  0  0  0  0.141054  0.215971  0.199833  0.0228057  0.00178687  -0.0127591  -0.0217331  0.0110803  0.00367186  -0.00626127  0.0189319  -0.0249789  -0.134693  0.0602383  0.00500285 
1704465701.424064000  0  0  11.8116  0.0947706  -0.169378  0.0266077  nan  nan  nan  nan  nan  nan  -2.49888  -0.298755  1.00123  -0.00844096  -0.00863701  0.00167181  0.0164125  0.0202424  0.0195525  0  0  0  0.141319  0.22038  0.203167  0.0227036  0.00184364  -0.0128204  -0.021042  0.0105598  -0.00359197  -0.00604451  0.0203046  -0.0256824  -0.119882  0.126956  -0.0429124 
1704465701.429069000  0  0  11.8132  0.120314  -0.156158  0.0186568  nan  nan  nan  nan  nan  nan  -2.4988  -0.298651  1.00133  -0.00834894  -0.00811856  0.00177698  0.0171192  0.0213548  0.0205762  0  0  0  0.141333  0.224538  0.20625  0.0227678  0.00184847  -0.0129384  -0.0217437  0.0110969  -0.00323358  -0.0071853  0.0202133  -0.025108  -0.156682  0.103325  0.0340229 
1704465701.434062000  0  0  11.76  0.0945881  -0.158002  0.0222843  nan  nan  nan  nan  nan  nan  -2.49871  -0.298542  1.00143  -0.00948647  -0.00885562  0.00190721  0.0178254  0.0224874  0.0216146  0  0  0  0.141097  0.228447  0.209084  0.0228501  0.00183288  -0.0130325  -0.0211572  0.0103341  0.00108298  -0.00640795  0.0214163  -0.0253913  -0.116205  0.0956859  -0.000885977 
1704465701.439054000  0  0  11.8141  0.0786759  -0.166703  0.0242215  nan  nan  nan  nan  nan  nan  -2.49862  -0.298426  1.00154  -0.0105668  -0.00826834  0.00202827  0.0185298  0.0236389  0.0226666  0  0  0  0.140612  0.232106  0.211667  0.022744  0.00187768  -0.013067  -0.0215987  0.00938776  -0.00259296  -0.00563804  0.0215257  -0.0257383  -0.0938259  0.110785  -0.0177612 
1704465701.444056000  0  0  11.871  0.0853276  -0.163724  0.0202495  nan  nan  nan  nan  nan  nan  -2.49852  -0.298305  1.00166  -0.0104948  -0.00945117  0.00216139  0.0192311  0.024808  0.0237309  0  0  0  0.139876  0.235514  0.214  0.0228208  0.00186496  -0.0132325  -0.0204663  0.0098067  -0.00626693  -0.00629177  0.0230475  -0.0254688  -0.100132  0.0912888  0.0208295 
1704465701.448040000  0  0  11.8086  0.0840546  -0.173592  0.0200398  nan  nan  nan  nan  nan  nan  -2.49843  -0.298178  1.00178  -0.0112453  -0.00876947  0.00228562  0.0199281  0.0259936  0.0248062  0  0  0  0.13889  0.238673  0.216084  0.0227239  0.00187708  -0.0132313  -0.0211858  0.00934877  -0.00152152  -0.00592971  0.0229675  -0.0254753  -0.101102  0.110289  0.0230538 
1704465701.454053000  0  0  11.8413  0.0579074  -0.153771  0.0225206  nan  nan  nan  nan  nan  nan  -2.49832  -0.298045  1.00191  -0.0129222  -0.00969031  0.00244032  0.0206196  0.0271943  0.0258913  0  0  0  0.137655  0.241582  0.217917  0.022979  0.00186984  -0.0136993  -0.0207743  0.00777767  -0.00284488  -0.00446336  0.0241521  -0.0257142  -0.0661765  0.0627162  -0.000411568 
1704465701.459056000  0  0  11.9623  0.0609337  -0.177129  0.0232741  nan  nan  nan  nan  nan  nan  -2.49822  -0.297906  1.00204  -0.0127731  -0.0128364  0.00261036  0.0213043  0.028409  0.0269849  0  0  0  0.136169  0.244241  0.219501  0.0231923  0.00183741  -0.0141269  -0.0177114  0.00815891  -0.0108101  -0.00498555  0.0277318  -0.0259212  -0.0669803  0.0730604  -0.00632446 
1704465701.464063000  0  0  11.8479  0.0843755  -0.17911  0.0188199  nan  nan  nan  nan  nan  nan  -2.49811  -0.297761  1.00218  -0.0130208  -0.0105145  0.00271781  0.0219809  0.0296363  0.0280859  0  0  0  0.134434  0.246649  0.220834  0.0230771  0.00188268  -0.0140977  -0.0203886  0.0081821  -0.00235304  -0.00549016  0.0260772  -0.0255897  -0.105735  0.0919307  0.0366875 
1704465701.469012000  0  0  11.832  0.0526238  -0.134454  0.023406  nan  nan  nan  nan  nan  nan  -2.498  -0.29761  1.00232  -0.0145604  -0.0112174  0.00288174  0.0226482  0.0308751  0.0291929  0  0  0  0.132448  0.248808  0.221918  0.023207  0.00185324  -0.0144064  -0.0200903  0.0067837  -0.000474946  -0.00398761  0.0263342  -0.0259962  -0.0607679  0.00691069  -0.00700968 
1704465701.473052000  0  0  11.9674  0.0554936  -0.162422  0.0273667  nan  nan  nan  nan  nan  nan  -2.49789  -0.297452  1.00247  -0.0144942  -0.0129092  0.00304572  0.0233049  0.032124  0.0303046  0  0  0  0.130212  0.250717  0.222751  0.0231277  0.00185823  -0.0145292  -0.0181199  0.00687498  -0.0101197  -0.00437591  0.0283634  -0.0265794  -0.0625121  0.0400338  -0.042651 
1704465701.479057000  0  0  11.8653  0.101755  -0.172894  0.018001  nan  nan  nan  nan  nan  nan  -2.49777  -0.297289  1.00262  -0.0141603  -0.011382  0.00316268  0.0239499  0.0333818  0.03142  0  0  0  0.127727  0.252376  0.223335  0.0232076  0.00186863  -0.0146748  -0.0203754  0.0075397  -0.00231413  -0.00594275  0.0275345  -0.0258464  -0.133747  0.0670342  0.0474629 
1704465701.484062000  0  0  11.7942  0.0657969  -0.130879  0.0241515  nan  nan  nan  nan  nan  nan  -2.49765  -0.297118  1.00278  -0.0162179  -0.0133186  0.00336291  0.0245818  0.0346473  0.0325376  0  0  0  0.124991  0.253784  0.223668  0.0235018  0.00172122  -0.0149122  -0.0191806  0.00580992  0.00340893  -0.0040271  0.0288782  -0.0263203  -0.0847885  -0.0230823  -0.0117821 
1704465701.489062000  0  0  11.9783  0.0805691  -0.17102  0.0265344  nan  nan  nan  nan  nan  nan  -2.49752  -0.296942  1.00295  -0.0153454  -0.0145475  0.00351785  0.0251994  0.0359193  0.0336562  0  0  0  0.122006  0.254943  0.223751  0.023414  0.00176307  -0.0150371  -0.0177073  0.00655878  -0.00988236  -0.00550557  0.0305793  -0.0268316  -0.0985474  0.0355905  -0.0317776 
1704465701.494053000  0  0  11.8677  0.122316  -0.151833  0.0180562  nan  nan  nan  nan  nan  nan  -2.49739  -0.296759  1.00312  -0.0155793  -0.0135176  0.00365491  0.0258014  0.0371964  0.0347747  0  0  0  0.11877  0.255852  0.223585  0.0234903  0.00170074  -0.0152374  -0.0195066  0.0066786  -0.00138832  -0.00647191  0.0295391  -0.026126  -0.166942  0.00963128  0.0494181 
1704465701.498068000  0  0  11.784  0.0972083  -0.116005  0.0223537  nan  nan  nan  nan  nan  nan  -2.49726  -0.29657  1.0033  -0.0164066  -0.0132173  0.00381286  0.0263867  0.0384774  0.0358917  0  0  0  0.115284  0.25651  0.223168  0.0233847  0.00168791  -0.0152376  -0.0201016  0.00598217  0.00474695  -0.00588204  0.028642  -0.0265037  -0.125888  -0.0484435  0.00844195 
1704465701.504073000  0  0  11.914  0.108919  -0.150266  0.0256694  nan  nan  nan  nan  nan  nan  -2.49713  -0.296374  1.00348  -0.0159824  -0.015225  0.00399274  0.0269539  0.039761  0.0370059  0  0  0  0.111549  0.256919  0.222502  0.0234131  0.00173186  -0.0153914  -0.0181454  0.00622299  -0.00458556  -0.00721849  0.0307945  -0.0270275  -0.135285  -0.00480323  -0.021075 
1704465701.509061000  0  0  11.8431  0.142304  -0.141548  0.0175602  nan  nan  nan  nan  nan  nan  -2.49699  -0.296172  1.00367  -0.0152304  -0.0143632  0.00412317  0.0275017  0.0410461  0.0381163  0  0  0  0.107563  0.257078  0.221585  0.0233829  0.00172638  -0.0154888  -0.0195749  0.00719333  0.000717164  -0.00914039  0.0298065  -0.0263313  -0.179421  -0.0118622  0.0563944 
1704465701.513203000  0  0  11.7711  0.12529  -0.114523  0.022718  nan  nan  nan  nan  nan  nan  -2.49686  -0.295964  1.00386  -0.0159649  -0.0136634  0.00427885  0.0280291  0.0423314  0.0392214  0  0  0  0.103327  0.256987  0.220419  0.0232801  0.0017163  -0.0154779  -0.0206886  0.00649335  0.00590392  -0.00885228  0.0286493  -0.0267364  -0.150576  -0.0512532  0.00678041 
1704465701.519063000  0  0  11.8548  0.118729  -0.138401  0.025021  nan  nan  nan  nan  nan  nan  -2.49671  -0.295749  1.00406  -0.0159055  -0.0157649  0.00446896  0.0285346  0.0436156  0.04032  0  0  0  0.0988418  0.256645  0.219002  0.0232495  0.00176352  -0.0155111  -0.0186531  0.0063146  -0.00031347  -0.00964226  0.0306907  -0.0271124  -0.131172  -0.0258131  -0.0136109 
1704465701.524062000  0  0  11.8354  0.145476  -0.155408  0.0185004  nan  nan  nan  nan  nan  nan  -2.49657  -0.295528  1.00426  -0.0144632  -0.0149776  0.00459343  0.0290171  0.0448974  0.041411  0  0  0  0.0941062  0.256054  0.217335  0.023147  0.00181108  -0.0154963  -0.0198641  0.00778752  0.000903344  -0.0120402  0.0301608  -0.0266126  -0.158649  0.010537  0.0492238 
1704465701.529065000  0  0  11.7086  0.131707  -0.124297  0.0213215  nan  nan  nan  nan  nan  nan  -2.49642  -0.2953  1.00447  -0.0153177  -0.0140082  0.00475088  0.0294752  0.0461757  0.042493  0  0  0  0.0891206  0.255213  0.215419  0.0230781  0.00181342  -0.0154512  -0.0215004  0.00692163  0.00998653  -0.0117683  0.0287635  -0.0267851  -0.13566  -0.0342112  0.0216442 
1704465701.534062000  0  0  11.8267  0.10317  -0.145726  0.0261465  nan  nan  nan  nan  nan  nan  -2.49628  -0.295066  1.00469  -0.0155942  -0.0166704  0.00495647  0.0299079  0.0474491  0.0435648  0  0  0  0.083885  0.254121  0.213252  0.0230596  0.00182029  -0.0155257  -0.0189014  0.00633034  0.00126801  -0.011665  0.0313625  -0.0273623  -0.083788  -0.0184269  -0.0229799 
1704465701.539067000  0  0  11.8243  0.139424  -0.177754  0.0203847  nan  nan  nan  nan  nan  nan  -2.49612  -0.294826  1.00491  -0.0138378  -0.015805  0.00507621  0.0303137  0.0487165  0.0446251  0  0  0  0.0783994  0.25278  0.210836  0.0229401  0.00187292  -0.0155153  -0.0202217  0.00803392  0.00116409  -0.0143159  0.0310786  -0.0270354  -0.126537  0.0434662  0.0335789 
1704465701.544013000  0  0  11.7118  0.110706  -0.150418  0.0201384  nan  nan  nan  nan  nan  nan  -2.49597  -0.294579  1.00513  -0.016727  -0.0178713  0.00531794  0.0306914  0.0499765  0.0456727  0  0  0  0.0726638  0.251189  0.208169  0.0234682  0.00150332  -0.0156157  -0.0197749  0.00558837  0.00944137  -0.011953  0.0324103  -0.0267108  -0.0950906  -0.0193695  0.033193 
1704465701.549134000  0  0  11.8222  0.0670632  -0.178367  0.02753  nan  nan  nan  nan  nan  nan  -2.49582  -0.294326  1.00536  -0.0168244  -0.0209564  0.00553349  0.03104  0.051228  0.0467064  0  0  0  0.0667883  0.249348  0.205253  0.023404  0.00153636  -0.0156497  -0.0166525  0.00506446  0.00112913  -0.0115259  0.0355601  -0.0275387  -0.0182322  0.00342372  -0.0356759 
1704465701.554058000  0  0  11.8341  0.0995151  -0.207695  0.0196493  nan  nan  nan  nan  nan  nan  -2.49566  -0.294067  1.0056  -0.0163065  -0.020784  0.00568212  0.0313597  0.0524696  0.0477248  0  0  0  0.0611345  0.247256  0.202086  0.0235735  0.00141945  -0.0157445  -0.017769  0.00563574  0.000150579  -0.0128908  0.0355775  -0.0268065  -0.0657592  0.0575514  0.0391081 
1704465701.559050000  0  0  11.7489  0.0791197  -0.15819  0.0192364  nan  nan  nan  nan  nan  nan  -2.4955  -0.293801  1.00584  -0.0169069  -0.0204369  0.00585133  0.0316518  0.0537001  0.0487268  0  0  0  0.0557307  0.244915  0.19867  0.0235246  0.00141403  -0.0157944  -0.0187951  0.00486452  0.00625335  -0.0123421  0.0344954  -0.0265824  -0.033049  -0.0241409  0.0413496 
1704465701.564047000  0  0  11.814  0.0500991  -0.186742  0.0258783  nan  nan  nan  nan  nan  nan  -2.49535  -0.29353  1.00609  -0.0168378  -0.0228063  0.00605261  0.0319175  0.0549183  0.0497111  0  0  0  0.050577  0.242324  0.195003  0.023461  0.00143787  -0.0158213  -0.0164563  0.00453141  0.00119703  -0.0120334  0.0370096  -0.0273001  0.017832  0.00560873  -0.020771 
1704465701.569051000  0  0  11.8123  0.0711545  -0.18682  0.0172307  nan  nan  nan  nan  nan  nan  -2.49519  -0.293252  1.00634  -0.0165481  -0.0221674  0.00619843  0.032158  0.0561229  0.0506764  0  0  0  0.0456732  0.239482  0.191086  0.0234363  0.00140095  -0.0158978  -0.0176454  0.00462511  0.00113739  -0.0125404  0.0363013  -0.0265784  -0.0164834  0.0122603  0.0620287 
1704465701.573051000  0  0  11.7367  0.0602378  -0.154303  0.0181257  nan  nan  nan  nan  nan  nan  -2.49502  -0.292969  1.00659  -0.0164504  -0.0220381  0.00635714  0.0323746  0.0573127  0.0516215  0  0  0  0.0410194  0.236391  0.18692  0.0233201  0.00136514  -0.0158926  -0.0182095  0.00459395  0.00634322  -0.0125134  0.035615  -0.0265682  0.00347492  -0.0416222  0.052693 
1704465701.579050000  0  0  11.7529  0.0500458  -0.163986  0.0238068  nan  nan  nan  nan  nan  nan  -2.49486  -0.292679  1.00686  -0.0161637  -0.022936  0.00652853  0.0325686  0.0584864  0.0525452  0  0  0  0.0366157  0.23305  0.182503  0.0232822  0.00142059  -0.0159333  -0.0175775  0.00442604  0.00485424  -0.0124009  0.0363944  -0.0271204  0.0213071  -0.0308603  -0.000997957 
1704465701.584064000  0  0  11.7332  0.0646682  -0.145343  0.0181936  nan  nan  nan  nan  nan  nan  -2.4947  -0.292384  1.00712  -0.015855  -0.0234975  0.00669345  0.0327412  0.0596428  0.0534461  0  0  0  0.0324619  0.229459  0.177837  0.023228  0.00140495  -0.0159685  -0.0173359  0.00445101  0.00597727  -0.0127693  0.0364449  -0.0266334  -0.00237405  -0.0658333  0.0525796 
1704465701.589059000  0  0  11.7263  0.0746238  -0.147833  0.0196192  nan  nan  nan  nan  nan  nan  -2.49453  -0.292083  1.00739  -0.0146068  -0.0232914  0.00682431  0.0328936  0.0607806  0.0543231  0  0  0  0.0285581  0.225617  0.17292  0.0231311  0.00143388  -0.0159451  -0.0178085  0.00536937  0.00600859  -0.0140992  0.0359601  -0.0266577  -0.00858243  -0.0567697  0.0380756 
1704465701.594042000  0  0  11.66  0.0792371  -0.123141  0.0213398  nan  nan  nan  nan  nan  nan  -2.49437  -0.291776  1.00766  -0.0147617  -0.0226867  0.00698219  0.0330272  0.0618986  0.0551749  0  0  0  0.0249044  0.221526  0.167754  0.0230739  0.00141647  -0.0159506  -0.0188914  0.00488606  0.0104749  -0.0140034  0.0347325  -0.0267971  -0.0180021  -0.0911958  0.0215633 
1704465701.598049000  0  0  11.6653  0.0747769  -0.115042  0.0212599  nan  nan  nan  nan  nan  nan  -2.4942  -0.291464  1.00794  -0.0145813  -0.0241462  0.00716248  0.0331431  0.0629954  0.0560003  0  0  0  0.0215006  0.217185  0.162337  0.0229752  0.00137301  -0.0159821  -0.0174425  0.00471413  0.00969169  -0.0141855  0.035554  -0.0268498  -0.00807272  -0.113735  0.0228642 
1704465701.604017000  0  0  11.6907  0.111853  -0.138089  0.0201121  nan  nan  nan  nan  nan  nan  -2.49404  -0.291146  1.00822  -0.0126102  -0.024147  0.00727808  0.0332426  0.06407  0.0567979  0  0  0  0.0183468  0.212593  0.156671  0.0229434  0.00143033  -0.0159504  -0.0176705  0.00624183  0.00724896  -0.0166849  0.0353529  -0.0267119  -0.0537361  -0.0692267  0.0334734 
1704465701.609063000  0  0  11.5865  0.104738  -0.089419  0.0210109  nan  nan  nan  nan  nan  nan  -2.49387  -0.290823  1.00851  -0.0129099  -0.023223  0.0074366  0.033327  0.065121  0.0575666  0  0  0  0.0154431  0.207752  0.150754  0.0228948  0.00140731  -0.0159171  -0.0191255  0.00556192  0.0143704  -0.0164743  0.0332423  -0.0267381  -0.0425001  -0.139923  0.024428 
1704465701.613053000  0  0  11.673  0.106026  -0.107947  0.0258215  nan  nan  nan  nan  nan  nan  -2.4937  -0.290495  1.0088  -0.0118599  -0.0253476  0.0076006  0.0333974  0.0661471  0.058305  0  0  0  0.0127893  0.202661  0.144587  0.0228036  0.00136835  -0.0159841  -0.0167084  0.0061647  0.00761375  -0.0176481  0.0349242  -0.027271  -0.0341008  -0.121081  -0.0204467 
1704465701.619048000  0  0  11.6606  0.162489  -0.140927  0.0188236  nan  nan  nan  nan  nan  nan  -2.49354  -0.290162  1.00909  -0.00916346  -0.0237239  0.00768048  0.0334553  0.0671472  0.059012  0  0  0  0.0103855  0.19732  0.138171  0.0227487  0.00145786  -0.0159  -0.0186859  0.0083709  0.00774602  -0.021393  0.0334133  -0.0267198  -0.104203  -0.0461514  0.0468544 
1704465701.623046000  0  0  11.5501  0.140341  -0.0874149  0.0197533  nan  nan  nan  nan  nan  nan  -2.49337  -0.289823  1.00939  -0.00940145  -0.0227076  0.00783977  0.0335017  0.0681199  0.0596863  0  0  0  0.0082318  0.191728  0.131504  0.0226257  0.00141404  -0.015862  -0.0200183  0.00769047  0.0152593  -0.0212037  0.0313334  -0.0267247  -0.0649477  -0.126093  0.0372954 
1704465701.629056000  0  0  11.6373  0.13092  -0.116021  0.025903  nan  nan  nan  nan  nan  nan  -2.4932  -0.28948  1.00969  -0.0078568  -0.0254887  0.00798974  0.033538  0.069064  0.0603266  0  0  0  0.006328  0.185887  0.124588  0.0226013  0.00150601  -0.0158288  -0.0169516  0.00852085  0.0081809  -0.0227524  0.0335434  -0.0273907  -0.0332788  -0.0934493  -0.020208 
1704465701.634069000  0  0  11.5561  0.166229  -0.121113  0.013842  nan  nan  nan  nan  nan  nan  -2.49303  -0.289133  1.00999  -0.00656391  -0.0232431  0.00810525  0.0335654  0.0699783  0.0609318  0  0  0  0.0046742  0.179796  0.117421  0.0225073  0.00152774  -0.0158028  -0.019586  0.00927135  0.0134564  -0.0246789  0.0312086  -0.0263581  -0.0809359  -0.0625716  0.0950402 
1704465701.639062000  0  0  11.4712  0.125271  -0.080779  0.0188253  nan  nan  nan  nan  nan  nan  -2.49287  -0.288781  1.0103  -0.00621584  -0.0226949  0.00825686  0.0335852  0.0708616  0.0615004  0  0  0  0.0032705  0.173454  0.11002  0.0224128  0.00156761  -0.0157032  -0.0203265  0.00893646  0.0188959  -0.024533  0.0295662  -0.0266188  -0.00646289  -0.122138  0.0459243 
1704465701.644067000  0  0  11.6124  0.111497  -0.129616  0.0252496  nan  nan  nan  nan  nan  nan  -2.4927  -0.288424  1.01061  -0.00530455  -0.0254383  0.00841393  0.0335985  0.0717125  0.0620322  0  0  0  0.0021167  0.166863  0.102728  0.0223828  0.00158587  -0.0157873  -0.0170962  0.0091366  0.00806269  -0.0251641  0.032342  -0.02731  0.0248307  -0.0572452  -0.014188 
1704465701.648015000  0  0  11.6393  0.130625  -0.146114  0.0192077  nan  nan  nan  nan  nan  nan  -2.49253  -0.288064  1.01092  -0.00413581  -0.025359  0.00854707  0.0336068  0.0725298  0.0625281  0  0  0  0.0012129  0.160022  0.0956864  0.0222749  0.00155244  -0.0158306  -0.0170068  0.00974004  0.00555048  -0.026505  0.0323907  -0.0268376  0.00174617  -0.0271551  0.0439503 
1704465701.654066000  0  0  11.4867  0.0915965  -0.115162  0.0227384  nan  nan  nan  nan  nan  nan  -2.49236  -0.287699  1.01123  -0.00331412  -0.0238093  0.0086843  0.0336111  0.0733123  0.0629895  0  0  0  0.0005592  0.152931  0.0888945  0.0222006  0.00165122  -0.015702  -0.0189746  0.0097139  0.0159479  -0.0264437  0.0301652  -0.0269854  0.0734252  -0.0640002  0.0088186 
1704465701.659058000  0  0  11.5655  0.0717452  -0.140157  0.0259082  nan  nan  nan  nan  nan  nan  -2.49219  -0.287331  1.01155  -0.00275448  -0.0255946  0.00883899  0.0336128  0.0740587  0.0634175  0  0  0  0.0001554  0.145589  0.0823526  0.0221504  0.00167641  -0.0157131  -0.0168016  0.00948251  0.00964049  -0.0262727  0.0319096  -0.0274797  0.108599  -0.0337625  -0.019458 
1704465701.664073000  0  0  11.5976  0.0957755  -0.167203  0.0172564  nan  nan  nan  nan  nan  nan  -2.49203  -0.286958  1.01187  -0.000723805  -0.025729  0.00895032  0.033613  0.0747677  0.0638134  0  0  0  1.7e-06  0.137998  0.0760607  0.0220749  0.00173617  -0.0156901  -0.0164595  0.0107602  0.00666257  -0.0280756  0.0323822  -0.0267856  0.0806837  0.0119588  0.0636347 
1704465701.669067000  0  0  11.4647  0.0830291  -0.140326  0.0182485  nan  nan  nan  nan  nan  nan  -2.49186  -0.286583  1.01219  -0.000330473  -0.0235014  0.00910267  0.033613  0.0754382  0.0641785  0  0  0  -0  0.130157  0.0700189  0.0219915  0.00175533  -0.0155843  -0.019021  0.0102933  0.0157191  -0.0278153  0.029912  -0.0267292  0.101886  -0.0150928  0.0528791 
1704465701.674065000  0  0  11.5088  0.0527383  -0.136025  0.024195  nan  nan  nan  nan  nan  nan  -2.49169  -0.286204  1.01251  0.000285226  -0.025521  0.00925082  0.033613  0.0760691  0.064514  0  0  0  -0  0.122225  0.064227  0.0219181  0.00180367  -0.015552  -0.0165946  0.0100352  0.0119499  -0.0273719  0.0314996  -0.0272813  0.153881  -0.0376418  -0.00355492 
1704465701.679056000  0  0  11.5937  0.0857838  -0.188361  0.0190181  nan  nan  nan  nan  nan  nan  -2.49152  -0.285822  1.01283  0.00237273  -0.0266894  0.00935788  0.033613  0.0766609  0.0648212  0  0  0  -0  0.114532  0.0586851  0.0218879  0.00182903  -0.0155834  -0.015074  0.0114552  0.00525265  -0.0292071  0.0333367  -0.0269035  0.109575  0.0423521  0.0465034 
1704465701.684063000  0  0  11.4159  0.0800054  -0.148952  0.0171437  nan  nan  nan  nan  nan  nan  -2.49135  -0.285438  1.01316  0.00270918  -0.0238522  0.00951979  0.033613  0.0772148  0.0651013  0  0  0  -0  0.10709  0.0533932  0.0218214  0.00183091  -0.0154774  -0.0184394  0.010946  0.0176756  -0.0289127  0.0302536  -0.0266042  0.117566  -0.00226562  0.0631607 
1704465701.689065000  0  0  11.4896  0.0399252  -0.136635  0.0281262  nan  nan  nan  nan  nan  nan  -2.49119  -0.28505  1.01348  0.00323785  -0.0260086  0.0096634  0.033613  0.0777322  0.0653556  0  0  0  -0  0.0998972  0.0483514  0.0217622  0.00188493  -0.0154523  -0.0158297  0.0106837  0.0118284  -0.0281636  0.0318143  -0.0276566  0.184872  -0.0394042  -0.0407686 
1704465701.693044000  0  0  11.5679  0.0723231  -0.186051  0.0239905  nan  nan  nan  nan  nan  nan  -2.49102  -0.28466  1.01381  0.00526811  -0.0268275  0.00976949  0.033613  0.0782142  0.0655852  0  0  0  -0  0.0929548  0.0435595  0.0216696  0.00186533  -0.0155258  -0.0145797  0.0122263  0.00576817  -0.0299535  0.0332715  -0.027569  0.141349  0.0386766  0.00115567 
1704465701.699046000  0  0  11.4065  0.0938187  -0.143262  0.0136615  nan  nan  nan  nan  nan  nan  -2.49085  -0.284268  1.01414  0.00585164  -0.0243782  0.00993126  0.033613  0.0786622  0.0657916  0  0  0  -0  0.0862624  0.0390176  0.0217197  0.0018861  -0.0155007  -0.0177249  0.0119868  0.0171921  -0.0302407  0.0305515  -0.0263882  0.104199  -0.0155359  0.0971753 
1704465701.704044000  0  0  11.4605  0.0446861  -0.135321  0.0266348  nan  nan  nan  nan  nan  nan  -2.49068  -0.283874  1.01447  0.00486061  -0.0275836  0.010103  0.033613  0.0790773  0.0659758  0  0  0  -0  0.0798199  0.0347257  0.0218467  0.00174727  -0.015592  -0.014392  0.0105778  0.0130997  -0.0280202  0.0331071  -0.0274562  0.174742  -0.0537164  -0.0271751 
1704465701.709041000  0  0  11.5574  0.0866101  -0.179175  0.0208278  nan  nan  nan  nan  nan  nan  -2.49051  -0.283477  1.0148  0.00735918  -0.0282416  0.0101925  0.033613  0.0794608  0.0661392  0  0  0  -0  0.0736275  0.0306839  0.0218205  0.00177754  -0.0157434  -0.0133983  0.0126272  0.00588847  -0.0302326  0.0343183  -0.0271276  0.117468  0.0163287  0.0298354 
1704465701.714042000  0  0  11.3979  0.0951968  -0.135352  0.0157257  nan  nan  nan  nan  nan  nan  -2.49035  -0.283079  1.01513  0.00839472  -0.0264869  0.0103412  0.033613  0.079814  0.0662831  0  0  0  -0  0.0676851  0.026892  0.0217382  0.001841  -0.0156045  -0.0155508  0.0128421  0.0170133  -0.0308535  0.0319711  -0.0265326  0.107279  -0.043221  0.0771595 
1704465701.719043000  0  0  11.4625  0.0534685  -0.133519  0.0269128  nan  nan  nan  nan  nan  nan  -2.49018  -0.282679  1.01546  0.0082826  -0.0278408  0.010496  0.033613  0.0801381  0.0664086  0  0  0  -0  0.0619926  0.0233501  0.0217588  0.0018238  -0.0156677  -0.0139728  0.0122176  0.0121442  -0.0294693  0.0329145  -0.0275268  0.1718  -0.0552815  -0.0294094 
1704465701.724054000  0  0  11.4931  0.0879521  -0.14549  0.0212219  nan  nan  nan  nan  nan  nan  -2.49001  -0.282278  1.01579  0.0105031  -0.0276922  0.010599  0.033613  0.0804343  0.066517  0  0  0  -0  0.0565502  0.0200582  0.0216863  0.00190058  -0.0156289  -0.0139327  0.0139068  0.00952264  -0.0313198  0.0327459  -0.0272556  0.124973  -0.0315736  0.0269204 
1704465701.729043000  0  0  11.441  0.104859  -0.127479  0.0139933  nan  nan  nan  nan  nan  nan  -2.48984  -0.281875  1.01613  0.0111165  -0.0276855  0.0107453  0.033613  0.080704  0.0666096  0  0  0  -0  0.0513578  0.0170163  0.0216748  0.00189857  -0.0156679  -0.0140612  0.0139654  0.0131771  -0.0316095  0.0322355  -0.0264474  0.0963406  -0.0602231  0.0942833 
1704465701.734042000  0  0  11.4835  0.0855824  -0.132368  0.0221588  nan  nan  nan  nan  nan  nan  -2.48967  -0.281471  1.01646  0.0112669  -0.027284  0.0109088  0.033613  0.0809483  0.0666876  0  0  0  -0  0.0464153  0.0142245  0.0217056  0.0018749  -0.0157108  -0.0144517  0.0136908  0.00993435  -0.030912  0.0316734  -0.0270589  0.125613  -0.0460083  0.0154682 
1704465701.739058000  0  0  11.456  0.093131  -0.121668  0.0203367  nan  nan  nan  nan  nan  nan  -2.48951  -0.281066  1.01679  0.0127601  -0.0277339  0.0110254  0.033613  0.0811685  0.0667522  0  0  0  -0  0.0417229  0.0116826  0.0216482  0.00194954  -0.0156397  -0.0139405  0.0146255  0.0116042  -0.031824  0.0316434  -0.026952  0.12002  -0.0655397  0.0333229 
1704465701.744044000  0  0  11.5022  0.103143  -0.143277  0.0170514  nan  nan  nan  nan  nan  nan  -2.48934  -0.280659  1.01713  0.0141031  -0.0287271  0.0111374  0.033613  0.0813659  0.0668048  0  0  0  -0  0.0372805  0.0093907  0.0216438  0.00197093  -0.0156565  -0.0127537  0.0156323  0.00804761  -0.0327033  0.0325852  -0.0265442  0.109566  -0.0341945  0.0635723 
1704465701.749042000  0  0  11.4504  0.104265  -0.126841  0.0202201  nan  nan  nan  nan  nan  nan  -2.48917  -0.280252  1.01746  0.0149632  -0.0259199  0.0113179  0.033613  0.0815418  0.0668466  0  0  0  -0  0.033088  0.0073488  0.0215497  0.0020448  -0.0155766  -0.0157423  0.0158599  0.0115353  -0.0329614  0.0296017  -0.0267804  0.109862  -0.0372035  0.0329772 
1704465701.754040000  0  0  11.4613  0.0791415  -0.111407  0.0243104  nan  nan  nan  nan  nan  nan  -2.489  -0.279844  1.0178  0.0148561  -0.0277887  0.0114561  0.033613  0.0816972  0.0668787  0  0  0  -0  0.0291456  0.005557  0.021614  0.0020157  -0.0156557  -0.013832  0.0154229  0.0107773  -0.0319192  0.0307726  -0.0271785  0.146789  -0.0765309  -0.00567437 
1704465701.758042000  0  0  11.5406  0.090481  -0.14833  0.0243178  nan  nan  nan  nan  nan  nan  -2.48883  -0.279435  1.01813  0.0163801  -0.0293436  0.0115514  0.033613  0.0818336  0.0669025  0  0  0  -0  0.0254532  0.0040151  0.0215398  0.00200687  -0.0157265  -0.0118074  0.0168365  0.00495528  -0.0330129  0.0325181  -0.0273453  0.135849  -0.0242237  -0.00424437 
1704465701.764049000  0  0  11.459  0.110885  -0.134641  0.0185629  nan  nan  nan  nan  nan  nan  -2.48867  -0.279026  1.01846  0.0168452  -0.0259315  0.0117584  0.033613  0.0819522  0.0669193  0  0  0  -0  0.0220107  0.0027232  0.0215574  0.00209829  -0.015694  -0.0157565  0.0166173  0.0107759  -0.0330488  0.0291715  -0.0268908  0.0984108  -0.0188134  0.0510901 
1704465701.769042000  0  0  11.5152  0.0559426  -0.112248  0.0256486  nan  nan  nan  nan  nan  nan  -2.4885  -0.278616  1.0188  0.0164389  -0.0275115  0.0119062  0.033613  0.0820542  0.0669302  0  0  0  -0  0.0188183  0.0016813  0.0215681  0.00211919  -0.0158524  -0.0139294  0.0159072  0.00693247  -0.0312379  0.0300496  -0.0275092  0.183471  -0.0683309  -0.0165102 
1704465701.773054000  0  0  11.5859  0.0711522  -0.163881  0.0257585  nan  nan  nan  nan  nan  nan  -2.48833  -0.278205  1.01913  0.0183043  -0.029114  0.0119887  0.033613  0.0821408  0.0669365  0  0  0  -0  0.0158759  0.0008894  0.0214946  0.00211967  -0.0159282  -0.0118772  0.0177608  0.00180851  -0.0325814  0.0321263  -0.0277738  0.167662  0.00816152  -0.0152561 
1704465701.779051000  0  0  11.4835  0.104442  -0.15329  0.0147623  nan  nan  nan  nan  nan  nan  -2.48816  -0.277794  1.01947  0.0189942  -0.0260075  0.0121907  0.033613  0.0822133  0.0669395  0  0  0  -1e-07  0.0131834  0.0003476  0.0214792  0.00224335  -0.0159381  -0.0154951  0.0177519  0.00929317  -0.032927  0.0293116  -0.0267935  0.109219  0.0144196  0.0894662 
1704465701.784054000  0  0  11.5138  0.034724  -0.125726  0.0241719  nan  nan  nan  nan  nan  nan  -2.48799  -0.277383  1.0198  0.0178649  -0.0275563  0.0123556  0.0336128  0.082273  0.0669404  0  0  0  -0.0001317  0.010741  5.57e-05  0.0215239  0.00223888  -0.0160741  -0.0138383  0.0163549  0.00737849  -0.0301007  0.0302102  -0.0275196  0.212297  -0.0448586  -0.00116389 
1704465701.789059000  0  0  11.5859  0.0611438  -0.172056  0.0227018  nan  nan  nan  nan  nan  nan  -2.48782  -0.276971  1.02014  0.02035  -0.0286406  0.0124283  0.0336113  0.0823212  0.0669405  0  0  0  -0.0005134  0.0085486  0  0.0214652  0.00234519  -0.0160934  -0.0124277  0.0187562  0.00210726  -0.031872  0.0317912  -0.0275979  0.17967  0.0263719  0.0147271 
1704465701.794057000  0  0  11.5042  0.0882088  -0.160585  0.0108557  nan  nan  nan  nan  nan  nan  -2.48766  -0.27656  1.02047  0.0197384  -0.0271268  0.0126388  0.0336073  0.0823589  0.0669405  0  0  0  -0.001145  0.0066061  0  0.0215018  0.00230417  -0.016239  -0.0144229  0.017794  0.0083878  -0.0309016  0.0304918  -0.0264024  0.120656  0.0170789  0.126284 
1704465701.798046000  0  0  11.5085  0.0395641  -0.129891  0.0189367  nan  nan  nan  nan  nan  nan  -2.48749  -0.276148  1.02081  0.0190917  -0.0268863  0.0128241  0.0335994  0.0823876  0.0669405  0  0  0  -0.0020266  0.0049137  0  0.021409  0.00228526  -0.0162887  -0.0145765  0.0169589  0.0082198  -0.0290049  0.0297502  -0.0269166  0.19327  -0.0329224  0.0474628 
1704465701.804072000  0  0  11.5816  0.0432383  -0.165611  0.0244548  nan  nan  nan  nan  nan  nan  -2.48732  -0.275736  1.02114  0.0195748  -0.0303452  0.0129066  0.0335866  0.0824085  0.0669405  0  0  0  -0.0031583  0.0034713  0  0.0216542  0.00227802  -0.0165191  -0.0112485  0.017532  0.00331372  -0.0283394  0.0334935  -0.0274726  0.180354  -0.00119887  -0.00451105 
1704465701.809063000  0  0  11.5456  0.072275  -0.170328  0.015238  nan  nan  nan  nan  nan  nan  -2.48715  -0.275324  1.02148  0.0194516  -0.0295793  0.0130884  0.0335675  0.0824228  0.0669405  0  0  0  -0.0045399  0.0022788  0  0.0216838  0.00224871  -0.0166548  -0.0123931  0.0172561  0.00622363  -0.0278624  0.032969  -0.026643  0.122224  0.0123508  0.0831934 
1704465701.814065000  0  0  11.5127  0.0332882  -0.12836  0.025159  nan  nan  nan  nan  nan  nan  -2.48699  -0.274912  1.02181  0.0193559  -0.0283175  0.0132788  0.0335408  0.0824317  0.0669405  0  0  0  -0.0061715  0.0013364  0  0.021619  0.00232933  -0.0166052  -0.0138998  0.016813  0.00859302  -0.0264878  0.0310615  -0.0274679  0.181759  -0.0478055  -0.0118267 
1704465701.819059000  0  0  11.5555  0.0405257  -0.147094  0.0284168  nan  nan  nan  nan  nan  nan  -2.48682  -0.274499  1.02215  0.0196656  -0.0317438  0.0133659  0.0335053  0.0824365  0.0669405  0  0  0  -0.0080532  0.000644  0  0.0217814  0.00227406  -0.0167154  -0.0105972  0.0173208  0.00568032  -0.0261939  0.0341897  -0.0280065  0.165662  -0.0418702  -0.0406111 
1704465701.824072000  0  0  11.5375  0.0871268  -0.168576  0.0167392  nan  nan  nan  nan  nan  nan  -2.48665  -0.274087  1.02248  0.0205694  -0.0307497  0.0135208  0.0334598  0.0824386  0.0669405  0  0  0  -0.0101848  0.0002015  0  0.021712  0.0023655  -0.0166718  -0.0118348  0.0180265  0.00690402  -0.0271389  0.033516  -0.0270648  0.0880857  0.00408261  0.0714974 
1704465701.829066000  0  0  11.4827  0.049848  -0.113093  0.0230178  nan  nan  nan  nan  nan  nan  -2.48648  -0.273675  1.02282  0.0195464  -0.0292419  0.0137449  0.0334031  0.082439  0.0669405  0  0  0  -0.0125664  9.1e-06  0  0.021778  0.00230975  -0.0166698  -0.0140015  0.0168873  0.0109696  -0.0251299  0.0310484  -0.0275265  0.13863  -0.0759436  0.0108175 
1704465701.834065000  0  0  11.5343  0.0367212  -0.129235  0.0293849  nan  nan  nan  nan  nan  nan  -2.48632  -0.273263  1.02315  0.0198026  -0.0327816  0.0138305  0.0333337  0.0824391  0.0669405  0  0  0  -0.0151981  6.67e-05  0  0.0218624  0.00232767  -0.0166978  -0.0104783  0.0172897  0.00726889  -0.0245833  0.0340731  -0.0283369  0.157906  -0.0738559  -0.0476271 
1704465701.839058000  0  0  11.5533  0.0948025  -0.167065  0.0170092  nan  nan  nan  nan  nan  nan  -2.48615  -0.272851  1.02348  0.0212061  -0.031294  0.0139792  0.0332507  0.0824401  0.0669405  0  0  0  -0.0180797  0.0003742  0  0.0217862  0.00242539  -0.0166709  -0.0122164  0.01867  0.00579605  -0.0262145  0.0331034  -0.0274075  0.0653844  0.00507721  0.0718029 
1704465701.844070000  0  0  11.4568  0.0604022  -0.10269  0.0192652  nan  nan  nan  nan  nan  nan  -2.48598  -0.272439  1.02382  0.0202335  -0.0293461  0.0142122  0.0331525  0.0824432  0.0669405  0  0  0  -0.0212113  0.0009318  0  0.0217774  0.00243651  -0.0166459  -0.0149082  0.0174376  0.0128709  -0.0244215  0.0301562  -0.0274144  0.112585  -0.0870032  0.0485645 
1704465701.849049000  0  0  11.5179  0.0393888  -0.122383  0.0282787  nan  nan  nan  nan  nan  nan  -2.48582  -0.272026  1.02415  0.0206432  -0.0326797  0.0142946  0.0330381  0.0824498  0.0669405  0  0  0  -0.024593  0.0017394  0  0.0217433  0.00252751  -0.0166313  -0.0114315  0.0179591  0.00839277  -0.0239422  0.0330239  -0.0283487  0.147077  -0.0768996  -0.0360947 
1704465701.854050000  0  0  11.5608  0.10347  -0.172132  0.0148177  nan  nan  nan  nan  nan  nan  -2.48565  -0.271614  1.02449  0.0211843  -0.0323996  0.014446  0.0329062  0.082461  0.0669405  0  0  0  -0.0282246  0.0027969  0  0.0218252  0.00252056  -0.0167544  -0.0121711  0.018762  0.00545606  -0.0249397  0.0334717  -0.0272132  0.0376292  0.0110711  0.092684 
1704465701.859058000  0  0  11.4559  0.0635748  -0.108045  0.0170474  nan  nan  nan  nan  nan  nan  -2.48549  -0.271202  1.02482  0.0199168  -0.031711  0.0146639  0.0327555  0.0824782  0.0669405  0  0  0  -0.0321062  0.0041045  0  0.0218888  0.00249536  -0.0167846  -0.0137619  0.0173678  0.0132551  -0.0228713  0.0317348  -0.0270882  0.092469  -0.0915945  0.0685252 
1704465701.864070000  0  0  11.5161  0.0483699  -0.135995  0.0283031  nan  nan  nan  nan  nan  nan  -2.48533  -0.270789  1.02516  0.0202655  -0.0343972  0.0147617  0.0325847  0.0825025  0.0669405  0  0  0  -0.0362379  0.0056621  0  0.0218501  0.00258978  -0.0167754  -0.0110468  0.0178854  0.00884611  -0.0225206  0.034167  -0.0281801  0.117391  -0.062207  -0.0378696 
1704465701.869066000  0  0  11.5409  0.104916  -0.163256  0.0165991  nan  nan  nan  nan  nan  nan  -2.48516  -0.270377  1.02549  0.0205154  -0.0342706  0.0149189  0.0323927  0.0825352  0.0669405  0  0  0  -0.0406195  0.0074696  0  0.0219184  0.00259237  -0.0168442  -0.0117194  0.018398  0.00714509  -0.0232836  0.0342961  -0.0272512  0.019735  -0.0129322  0.0746275 
1704465701.874067000  0  0  11.4537  0.0768272  -0.124199  0.0189005  nan  nan  nan  nan  nan  nan  -2.485  -0.269964  1.02583  0.0203632  -0.0336953  0.0150989  0.0321781  0.0825776  0.0669405  0  0  0  -0.0452511  0.0095272  0  0.0218498  0.00268071  -0.0167563  -0.012979  0.0181  0.013391  -0.0225745  0.0329564  -0.027236  0.065212  -0.0729176  0.0507206 
1704465701.879060000  0  0  11.4835  0.0643091  -0.14114  0.028234  nan  nan  nan  nan  nan  nan  -2.48484  -0.269551  1.02616  0.0203892  -0.0349663  0.0152353  0.0319397  0.0826309  0.0669405  0  0  0  -0.0501328  0.0118348  0  0.0218356  0.00274944  -0.0167414  -0.0120112  0.0183218  0.0111949  -0.0221042  0.0340165  -0.0282112  0.0840616  -0.0513005  -0.0368748 
1704465701.884069000  0  0  11.5215  0.103275  -0.150989  0.0181867  nan  nan  nan  nan  nan  nan  -2.48468  -0.269138  1.0265  0.0206529  -0.0356308  0.0153756  0.0316764  0.0826964  0.0669405  0  0  0  -0.0552644  0.0143923  0  0.0218024  0.00282801  -0.0167477  -0.011658  0.0188151  0.0084243  -0.0227344  0.0345844  -0.0274501  0.0177271  -0.038287  0.0600263 
1704465701.889065000  0  0  11.4945  0.083709  -0.142616  0.0195997  nan  nan  nan  nan  nan  nan  -2.48452  -0.268724  1.02683  0.0207557  -0.035209  0.0155439  0.0313867  0.0827752  0.0669405  0  0  0  -0.060646  0.0171999  0  0.0217317  0.00292114  -0.0166813  -0.0126449  0.0189842  0.0102917  -0.0223777  0.0338515  -0.0274228  0.0506654  -0.047053  0.0451854 
1704465701.894066000  0  0  11.4503  0.0712829  -0.13273  0.0245966  nan  nan  nan  nan  nan  nan  -2.48437  -0.26831  1.02717  0.0203159  -0.0353313  0.01572  0.0310695  0.0828688  0.0669405  0  0  0  -0.0662777  0.0202575  0  0.021707  0.00299494  -0.0166383  -0.0132097  0.0186092  0.0134649  -0.0215324  0.0335496  -0.0279487  0.0658993  -0.0625776  -0.00167537 
1704465701.898065000  0  0  11.54  0.0757379  -0.132954  0.0208554  nan  nan  nan  nan  nan  nan  -2.48421  -0.267895  1.0275  0.0198589  -0.0368521  0.0158691  0.0307235  0.0829782  0.0669405  0  0  0  -0.0721593  0.023565  0  0.0216316  0.00298691  -0.0167085  -0.0117377  0.0186927  0.00704458  -0.020993  0.0347136  -0.0277208  0.052697  -0.0728582  0.0349073 
1704465701.904070000  0  0  11.5112  0.0879819  -0.147512  0.0181934  nan  nan  nan  nan  nan  nan  -2.48406  -0.26748  1.02784  0.0206338  -0.0361628  0.016018  0.0303475  0.0831049  0.0669405  0  0  0  -0.0782909  0.0271226  0  0.0216172  0.00316467  -0.0166072  -0.0132286  0.0194929  0.00895565  -0.0216698  0.0339709  -0.027316  0.0362519  -0.039087  0.0587453 
1704465701.909064000  0  0  11.4192  0.0591877  -0.108659  0.0218393  nan  nan  nan  nan  nan  nan  -2.48391  -0.267064  1.02817  0.0192377  -0.0359858  0.0162351  0.0299402  0.0832499  0.0669405  0  0  0  -0.0846726  0.0309302  0  0.0215898  0.00322504  -0.0165281  -0.0143403  0.0181002  0.0155797  -0.0197215  0.0328976  -0.0276022  0.0716492  -0.101142  0.023674 
1704465701.914063000  0  0  11.5812  0.0570645  -0.135399  0.0228599  nan  nan  nan  nan  nan  nan  -2.48376  -0.266647  1.02851  0.0192979  -0.0386267  0.0163451  0.0295003  0.0834146  0.0669405  0  0  0  -0.0913042  0.0349877  0  0.0215442  0.00332515  -0.0165728  -0.011542  0.018754  0.00381422  -0.0194711  0.035281  -0.0277641  0.0732784  -0.0735449  0.014595 
