    ts      x      y      z   roll  pitch    yaw     vx     vy     vz     wx     wy     wz     ax     ay     az    dwx    dwy    dwz
 0.0050000  -2.5000000  -0.3000000   1.0000000   0.0000000   0.0000000   0.0000000   0.0000002   0.0000002   0.0000002   0.0000000   0.0000000   0.0000000   0.0001250   0.0001250   0.0001250   0.0000000   0.0000000   0.0000000
 0.0100000  -2.5000000  -0.3000000   1.0000000   0.0000000   0.0000000   0.0000000   0.0000017   0.0000017   0.0000017   0.0000000   0.0000000   0.0000000   0.0005000   0.0005000   0.0005000   0.0000000   0.0000000   0.0000000
 0.0150000  -2.5000000  -0.3000000   1.0000000   0.0000000   0.0000000   0.0000000   0.0000056   0.0000056   0.0000056   0.0000000   0.0000000   0.0000000   0.0011250   0.0011250   0.0011250   0.0000000   0.0000000   0.0000000
 0.0200000  -2.5000000  -0.3000000   1.0000000   0.0000000   0.0000000   0.0000001   0.0000133   0.0000133   0.0000133   0.0000000   0.0000000   0.0000000   0.0020000   0.0020000   0.0020000   0.0000000   0.0000000   0.0000000
 0.0250000  -2.5000000  -0.3000000   1.0000000   0.0000000   0.0000000   0.0000003   0.0000260   0.0000260   0.0000260   0.0000000   0.0000000   0.0000000   0.0031250   0.0031250   0.0031250   0.0000000   0.0000000   0.0000000
 0.0300000  -2.5000000  -0.3000000   1.0000000   0.0000000   0.0000000   0.0000005   0.0000450   0.0000450   0.0000450   0.0000000   0.0000000   0.0000000   0.0045000   0.0045000   0.0045000   0.0000000   0.0000000   0.0000000
 0.0350000  -2.5000000  -0.2999990   1.0000000   0.0000000   0.0000000   0.0000010   0.0000715   0.0000715   0.0000715   0.0000000   0.0000000   0.0000000   0.0061250   0.0061250   0.0061250   0.0000000   0.0000000   0.0000000
 0.0400000  -2.5000000  -0.2999990   1.0000000   0.0000000   0.0000000   0.0000017   0.0001067   0.0001067   0.0001067   0.0000000   0.0000000   0.0000000   0.0080000   0.0080000   0.0080000   0.0000000   0.0000000   0.0000000
 0.0450000  -2.5000000  -0.2999980   1.0000000   0.0000000   0.0000000   0.0000027   0.0001519   0.0001519   0.0001519   0.0000000   0.0000000   0.0000000   0.0101250   0.0101250   0.0101250   0.0000000   0.0000000   0.0000000
 0.0500000  -2.5000000  -0.2999970   1.0000000   0.0000000   0.0000000   0.0000042   0.0002083   0.0002083   0.0002083   0.0000000   0.0000000   0.0000000   0.0125000   0.0125000   0.0125000   0.0000000   0.0000000   0.0000000
 0.0550000  -2.5000000  -0.2999960   1.0000000   0.0000000   0.0000000   0.0000061   0.0002773   0.0002773   0.0002773   0.0000000   0.0000000   0.0000000   0.0151250   0.0151250   0.0151250   0.0000000   0.0000000   0.0000000
 0.0600000  -2.4999900  -0.2999950   1.0000100   0.0000000   0.0000000   0.0000086   0.0003600   0.0003600   0.0003600   0.0000000   0.0000000   0.0000000   0.0180000   0.0180000   0.0180000   0.0000000   0.0000000   0.0000000
 0.0650000  -2.4999900  -0.2999930   1.0000100   0.0000000   0.0000000   0.0000119   0.0004577   0.0004577   0.0004577   0.0000000   0.0000000   0.0000000   0.0211250   0.0211250   0.0211250   0.0000000   0.0000000   0.0000000
 0.0700000  -2.4999900  -0.2999900   1.0000100   0.0000000   0.0000000   0.0000160   0.0005717   0.0005717   0.0005717   0.0000000   0.0000000   0.0000000   0.0245000   0.0245000   0.0245000   0.0000000   0.0000000   0.0000000
 0.0750000  -2.4999900  -0.2999870   1.0000100   0.0000000   0.0000000   0.0000211   0.0007031   0.0007031   0.0007031   0.0000000   0.0000000   0.0000000   0.0281250   0.0281250   0.0281250   0.0000000   0.0000000   0.0000000
 0.0800000  -2.4999800  -0.2999830   1.0000200   0.0000000   0.0000000   0.0000273   0.0008533   0.0008533   0.0008533   0.0000000   0.0000000   0.0000000   0.0320000   0.0320000   0.0320000   0.0000000   0.0000000   0.0000000
 0.0850000  -2.4999800  -0.2999780   1.0000200   0.0000000   0.0000000   0.0000348   0.0010235   0.0010235   0.0010235   0.0000000   0.0000000   0.0000000   0.0361250   0.0361250   0.0361250   0.0000000   0.0000000   0.0000000
 0.0900000  -2.4999700  -0.2999730   1.0000300   0.0000000   0.0000000   0.0000437   0.0012150   0.0012150   0.0012150   0.0000000   0.0000000   0.0000000   0.0405000   0.0405000   0.0405000   0.0000000   0.0000000   0.0000000
 0.0950000  -2.4999700  -0.2999660   1.0000300   0.0000000   0.0000000   0.0000543   0.0014290   0.0014290   0.0014290   0.0000000   0.0000000   0.0000000   0.0451250   0.0451250   0.0451250   0.0000000   0.0000000   0.0000000
 0.1000000  -2.4999600  -0.2999580   1.0000400   0.0000000   0.0000000   0.0000667   0.0016667   0.0016667   0.0016667   0.0000000   0.0000000   0.0000000   0.0500000   0.0500000   0.0500000   0.0000000   0.0000000   0.0000000
 0.1050000  -2.4999500  -0.2999490   1.0000500   0.0000000   0.0000000   0.0000810   0.0019294   0.0019294   0.0019294   0.0000000   0.0000000   0.0000000   0.0551250   0.0551250   0.0551250   0.0000000   0.0000000   0.0000000
 0.1100000  -2.4999400  -0.2999390   1.0000600   0.0000000   0.0000000   0.0000976   0.0022183   0.0022183   0.0022183   0.0000000   0.0000000   0.0000000   0.0605000   0.0605000   0.0605000   0.0000000   0.0000000   0.0000000
 0.1150000  -2.4999300  -0.2999270   1.0000700   0.0000000   0.0000000   0.0001165   0.0025348   0.0025348   0.0025348   0.0000000   0.0000000   0.0000000   0.0661250   0.0661250   0.0661250   0.0000000   0.0000000   0.0000000
 0.1200000  -2.4999100  -0.2999140   1.0000900   0.0000000   0.0000000   0.0001381   0.0028800   0.0028800   0.0028800   0.0000000   0.0000000   0.0000000   0.0719878   0.0720000   0.0720000   0.0000000   0.0000000   0.0000000
 0.1250000  -2.4999000  -0.2998980   1.0001000   0.0000000   0.0000000   0.0001623   0.0032544   0.0032552   0.0032552   0.0000000   0.0000000   0.0000000   0.0777521   0.0781250   0.0781250   0.0000000   0.0000000   0.0000000
 0.1300000  -2.4998800  -0.2998810   1.0001200   0.0000000   0.0000000   0.0001894   0.0036571   0.0036617   0.0036617   0.0000000   0.0000000   0.0000000   0.0832665   0.0845000   0.0845000   0.0000000   0.0000000   0.0000000
 0.1350000  -2.4998600  -0.2998620   1.0001400   0.0000000   0.0000000   0.0002196   0.0040867   0.0041006   0.0041006   0.0000000   0.0000000   0.0000000   0.0885309   0.0911250   0.0911250   0.0000000   0.0000000   0.0000000
 0.1400000  -2.4998400  -0.2998400   1.0001600   0.0000000   0.0000000   0.0002529   0.0045420   0.0045733   0.0045733   0.0000000   0.0000000   0.0000000   0.0935453   0.0980000   0.0980000   0.0000000   0.0000000   0.0000000
 0.1450000  -2.4998200  -0.2998160   1.0001800   0.0000000   0.0000000   0.0002895   0.0050217   0.0050810   0.0050810   0.0000000   0.0000000   0.0000000   0.0983097   0.1051250   0.1051250   0.0000000   0.0000000   0.0000000
 0.1500000  -2.4997900  -0.2997890   1.0002100   0.0000000   0.0000000   0.0003296   0.0055247   0.0056250   0.0056250   0.0000000   0.0000000   0.0000000   0.1028240   0.1125000   0.1124980   0.0000000   0.0000000   0.0000000
 0.1550000  -2.4997600  -0.2997590   1.0002400   0.0000000   0.0000000   0.0003732   0.0060496   0.0062065   0.0062059   0.0000000   0.0000000   0.0000000   0.1070880   0.1201250   0.1198320   0.0000000   0.0000000   0.0000000
 0.1600000  -2.4997300  -0.2997270   1.0002700   0.0000000   0.0000000   0.0004204   0.0065951   0.0068267   0.0068229   0.0000000   0.0000000   0.0000000   0.1111030   0.1280000   0.1269150   0.0000000   0.0000000   0.0000000
 0.1650000  -2.4996900  -0.2996910   1.0003100   0.0000000   0.0000000   0.0004713   0.0071602   0.0074865   0.0074747   0.0000000   0.0000000   0.0000000   0.1148670   0.1359080   0.1337490   0.0000000   0.0000000   0.0000000
 0.1700000  -2.4996600  -0.2996520   1.0003500   0.0000000   0.0000000   0.0005260   0.0077434   0.0081853   0.0081600   0.0000000   0.0000000   0.0000000   0.1183820   0.1435660   0.1403320   0.0000000   0.0000000   0.0000000
 0.1750000  -2.4996200  -0.2996090   1.0003900   0.0000000   0.0000000   0.0005845   0.0083436   0.0089218   0.0088776   0.0000000   0.0000000   0.0000000   0.1216460   0.1509750   0.1466650   0.0000000   0.0000000   0.0000000
 0.1800000  -2.4995700  -0.2995630   1.0004400   0.0000000   0.0000000   0.0006470   0.0089594   0.0096947   0.0096262   0.0000000   0.0000000   0.0000000   0.1246600   0.1581340   0.1527490   0.0000000   0.0000000   0.0000000
 0.1850000  -2.4995300  -0.2995120   1.0004900   0.0000000   0.0000000   0.0007134   0.0095898   0.0105027   0.0104046   0.0000000   0.0000000   0.0000000   0.1274250   0.1650420   0.1585820   0.0000000   0.0000000   0.0000000
 0.1900000  -2.4994800  -0.2994580   1.0005400   0.0000000   0.0000000   0.0007839   0.0102333   0.0113447   0.0112116   0.0000000   0.0000000   0.0000000   0.1299390   0.1717010   0.1641660   0.0000000   0.0000000   0.0000000
 0.1950000  -2.4994300  -0.2993990   1.0006000   0.0000000   0.0000000   0.0008583   0.0108887   0.0122193   0.0120459   0.0000000   0.0000000   0.0000000   0.1322040   0.1781100   0.1694990   0.0000000   0.0000000   0.0000000
 0.2000000  -2.4993700  -0.2993350   1.0006600   0.0000000   0.0000000   0.0009368   0.0115549   0.0131253   0.0129062   0.0000000   0.0000000   0.0000000   0.1342180   0.1842690   0.1745830   0.0000000   0.0000000   0.0000000
 0.2050000  -2.4993100  -0.2992670   1.0007300   0.0000000   0.0000000   0.0010194   0.0122305   0.0140616   0.0137913   0.0000000   0.0000000   0.0000000   0.1359820   0.1901770   0.1794160   0.0000000   0.0000000   0.0000000
 0.2100000  -2.4992500  -0.2991950   1.0008000   0.0000000   0.0000000   0.0011060   0.0129143   0.0150267   0.0146999   0.0000000   0.0000000   0.0000000   0.1374970   0.1958360   0.1840000   0.0000000   0.0000000   0.0000000
 0.2150000  -2.4991800  -0.2991170   1.0008800   0.0000000   0.0000000   0.0011966   0.0136050   0.0160195   0.0156309   0.0000000   0.0000000   0.0000000   0.1387610   0.2012450   0.1883330   0.0000000   0.0000000   0.0000000
 0.2200000  -2.4991100  -0.2990340   1.0009600   0.0000000   0.0000000   0.0012912   0.0143015   0.0170387   0.0165828   0.0000000   0.0000000   0.0000000   0.1397750   0.2064030   0.1924160   0.0000000   0.0000000   0.0000000
 0.2250000  -2.4990400  -0.2989470   1.0010400   0.0000000   0.0000000   0.0013899   0.0150024   0.0180831   0.0175546   0.0000000   0.0000000   0.0000000   0.1405400   0.2113120   0.1962500   0.0000000   0.0000000   0.0000000
 0.2300000  -2.4989600  -0.2988540   1.0011300   0.0000000   0.0000000   0.0014924   0.0157065   0.0191514   0.0185449   0.0000000   0.0000000   0.0000000   0.1410540   0.2159710   0.1998330   0.0000000   0.0000000   0.0000000
 0.2350000  -2.4988800  -0.2987550   1.0012300   0.0000000   0.0000000   0.0015989   0.0164125   0.0202424   0.0195525   0.0000000   0.0000000   0.0000000   0.1413190   0.2203800   0.2031670   0.0000000   0.0000000   0.0000000
 0.2400000  -2.4988000  -0.2986510   1.0013300   0.0000000   0.0000000   0.0017092   0.0171192   0.0213548   0.0205762   0.0000000   0.0000000   0.0000000   0.1413330   0.2245380   0.2062500   0.0000000   0.0000000   0.0000000
 0.2450000  -2.4987100  -0.2985420   1.0014300   0.0000000   0.0000000   0.0018232   0.0178254   0.0224874   0.0216146   0.0000000   0.0000000   0.0000000   0.1410970   0.2284470   0.2090840   0.0000000   0.0000000   0.0000000
 0.2500000  -2.4986200  -0.2984260   1.0015400   0.0000000   0.0000000   0.0019409   0.0185298   0.0236389   0.0226666   0.0000000   0.0000000   0.0000000   0.1406120   0.2321060   0.2116670   0.0000000   0.0000000   0.0000000
 0.2550000  -2.4985200  -0.2983050   1.0016600   0.0000000   0.0000000   0.0020622   0.0192311   0.0248080   0.0237309   0.0000000   0.0000000   0.0000000   0.1398760   0.2355140   0.2140000   0.0000000   0.0000000   0.0000000
 0.2600000  -2.4984300  -0.2981780   1.0017800   0.0000000   0.0000000   0.0021870   0.0199281   0.0259936   0.0248062   0.0000000   0.0000000   0.0000000   0.1388900   0.2386730   0.2160840   0.0000000   0.0000000   0.0000000
 0.2650000  -2.4983200  -0.2980450   1.0019100   0.0000000   0.0000000   0.0023151   0.0206196   0.0271943   0.0258913   0.0000000   0.0000000   0.0000000   0.1376550   0.2415820   0.2179170   0.0000000   0.0000000   0.0000000
 0.2700000  -2.4982200  -0.2979060   1.0020400   0.0000000   0.0000000   0.0024464   0.0213043   0.0284090   0.0269849   0.0000000   0.0000000   0.0000000   0.1361690   0.2442410   0.2195010   0.0000000   0.0000000   0.0000000
 0.2750000  -2.4981100  -0.2977610   1.0021800   0.0000000   0.0000000   0.0025809   0.0219809   0.0296363   0.0280859   0.0000000   0.0000000   0.0000000   0.1344340   0.2466490   0.2208340   0.0000000   0.0000000   0.0000000
 0.2800000  -2.4980000  -0.2976100   1.0023200   0.0000000   0.0000000   0.0027184   0.0226482   0.0308751   0.0291929   0.0000000   0.0000000   0.0000000   0.1324480   0.2488080   0.2219180   0.0000000   0.0000000   0.0000000
 0.2850000  -2.4978900  -0.2974520   1.0024700   0.0000000   0.0000000   0.0028586   0.0233049   0.0321240   0.0303046   0.0000000   0.0000000   0.0000000   0.1302120   0.2507170   0.2227510   0.0000000   0.0000000   0.0000000
 0.2900000  -2.4977700  -0.2972890   1.0026200   0.0000000   0.0000000   0.0030015   0.0239499   0.0333818   0.0314200   0.0000000   0.0000000   0.0000000   0.1277270   0.2523760   0.2233350   0.0000000   0.0000000   0.0000000
 0.2950000  -2.4976500  -0.2971180   1.0027800   0.0000000   0.0000000   0.0031469   0.0245818   0.0346473   0.0325376   0.0000000   0.0000000   0.0000000   0.1249910   0.2537840   0.2236680   0.0000000   0.0000000   0.0000000
 0.3000000  -2.4975200  -0.2969420   1.0029500   0.0000000   0.0000000   0.0032946   0.0251994   0.0359193   0.0336562   0.0000000   0.0000000   0.0000000   0.1220060   0.2549430   0.2237510   0.0000000   0.0000000   0.0000000
 0.3050000  -2.4973900  -0.2967590   1.0031200   0.0000000   0.0000000   0.0034443   0.0258014   0.0371964   0.0347747   0.0000000   0.0000000   0.0000000   0.1187700   0.2558520   0.2235850   0.0000000   0.0000000   0.0000000
 0.3100000  -2.4972600  -0.2965700   1.0033000   0.0000000   0.0000000   0.0035960   0.0263867   0.0384774   0.0358917   0.0000000   0.0000000   0.0000000   0.1152840   0.2565100   0.2231680   0.0000000   0.0000000   0.0000000
 0.3150000  -2.4971300  -0.2963740   1.0034800   0.0000000   0.0000000   0.0037494   0.0269539   0.0397610   0.0370059   0.0000000   0.0000000   0.0000000   0.1115490   0.2569190   0.2225020   0.0000000   0.0000000   0.0000000
 0.3200000  -2.4969900  -0.2961720   1.0036700   0.0000000   0.0000000   0.0039044   0.0275017   0.0410461   0.0381163   0.0000000   0.0000000   0.0000000   0.1075630   0.2570780   0.2215850   0.0000000   0.0000000   0.0000000
 0.3250000  -2.4968600  -0.2959640   1.0038600   0.0000000   0.0000000   0.0040607   0.0280291   0.0423314   0.0392214   0.0000000   0.0000000   0.0000000   0.1033270   0.2569870   0.2204190   0.0000000   0.0000000   0.0000000
 0.3300000  -2.4967100  -0.2957490   1.0040600   0.0000000   0.0000000   0.0042182   0.0285346   0.0436156   0.0403200   0.0000000   0.0000000   0.0000000   0.0988418   0.2566450   0.2190020   0.0000000   0.0000000   0.0000000
 0.3350000  -2.4965700  -0.2955280   1.0042600   0.0000000   0.0000000   0.0043768   0.0290171   0.0448974   0.0414110   0.0000000   0.0000000   0.0000000   0.0941062   0.2560540   0.2173350   0.0000000   0.0000000   0.0000000
 0.3400000  -2.4964200  -0.2953000   1.0044700   0.0000000   0.0000000   0.0045363   0.0294752   0.0461757   0.0424930   0.0000000   0.0000000   0.0000000   0.0891206   0.2552130   0.2154190   0.0000000   0.0000000   0.0000000
 0.3450000  -2.4962800  -0.2950660   1.0046900   0.0000000   0.0000000   0.0046965   0.0299079   0.0474491   0.0435648   0.0000000   0.0000000   0.0000000   0.0838850   0.2541210   0.2132520   0.0000000   0.0000000   0.0000000
 0.3500000  -2.4961200  -0.2948260   1.0049100   0.0000000   0.0000000   0.0048575   0.0303137   0.0487165   0.0446251   0.0000000   0.0000000   0.0000000   0.0783994   0.2527800   0.2108360   0.0000000   0.0000000   0.0000000
 0.3550000  -2.4959700  -0.2945790   1.0051300   0.0000000   0.0000000   0.0050190   0.0306914   0.0499765   0.0456727   0.0000000   0.0000000   0.0000000   0.0726638   0.2511890   0.2081690   0.0000000   0.0000000   0.0000000
 0.3600000  -2.4958200  -0.2943260   1.0053600   0.0000000   0.0000000   0.0051809   0.0310400   0.0512280   0.0467064   0.0000000   0.0000000   0.0000000   0.0667883   0.2493480   0.2052530   0.0000000   0.0000000   0.0000000
 0.3650000  -2.4956600  -0.2940670   1.0056000   0.0000000   0.0000000   0.0053432   0.0313597   0.0524696   0.0477248   0.0000000   0.0000000   0.0000000   0.0611345   0.2472560   0.2020860   0.0000000   0.0000000   0.0000000
 0.3700000  -2.4955000  -0.2938010   1.0058400   0.0000000   0.0000000   0.0055058   0.0316518   0.0537001   0.0487268   0.0000000   0.0000000   0.0000000   0.0557307   0.2449150   0.1986700   0.0000000   0.0000000   0.0000000
 0.3750000  -2.4953500  -0.2935300   1.0060900   0.0000000   0.0000000   0.0056686   0.0319175   0.0549183   0.0497111   0.0000000   0.0000000   0.0000000   0.0505770   0.2423240   0.1950030   0.0000000   0.0000000   0.0000000
 0.3800000  -2.4951900  -0.2932520   1.0063400   0.0000000   0.0000000   0.0058316   0.0321580   0.0561229   0.0506764   0.0000000   0.0000000   0.0000000   0.0456732   0.2394820   0.1910860   0.0000000   0.0000000   0.0000000
 0.3850000  -2.4950200  -0.2929690   1.0065900   0.0000000   0.0000000   0.0059946   0.0323746   0.0573127   0.0516215   0.0000000   0.0000000   0.0000000   0.0410194   0.2363910   0.1869200   0.0000000   0.0000000   0.0000000
 0.3900000  -2.4948600  -0.2926790   1.0068600   0.0000000   0.0000000   0.0061578   0.0325686   0.0584864   0.0525452   0.0000000   0.0000000   0.0000000   0.0366157   0.2330500   0.1825030   0.0000000   0.0000000   0.0000000
 0.3950000  -2.4947000  -0.2923840   1.0071200   0.0000000   0.0000000   0.0063209   0.0327412   0.0596428   0.0534461   0.0000000   0.0000000   0.0000000   0.0324619   0.2294590   0.1778370   0.0000000   0.0000000   0.0000000
 0.4000000  -2.4945300  -0.2920830   1.0073900   0.0000000   0.0000000   0.0064841   0.0328936   0.0607806   0.0543231   0.0000000   0.0000000   0.0000000   0.0285581   0.2256170   0.1729200   0.0000000   0.0000000   0.0000000
 0.4050000  -2.4943700  -0.2917760   1.0076600   0.0000000   0.0000000   0.0066473   0.0330272   0.0618986   0.0551749   0.0000000   0.0000000   0.0000000   0.0249044   0.2215260   0.1677540   0.0000000   0.0000000   0.0000000
 0.4100000  -2.4942000  -0.2914640   1.0079400   0.0000000   0.0000000   0.0068104   0.0331431   0.0629954   0.0560003   0.0000000   0.0000000   0.0000000   0.0215006   0.2171850   0.1623370   0.0000000   0.0000000   0.0000000
 0.4150000  -2.4940400  -0.2911460   1.0082200   0.0000000   0.0000000   0.0069736   0.0332426   0.0640700   0.0567979   0.0000000   0.0000000   0.0000000   0.0183468   0.2125930   0.1566710   0.0000000   0.0000000   0.0000000
 0.4200000  -2.4938700  -0.2908230   1.0085100   0.0000000   0.0000000   0.0071368   0.0333270   0.0651210   0.0575666   0.0000000   0.0000000   0.0000000   0.0154431   0.2077520   0.1507540   0.0000000   0.0000000   0.0000000
 0.4250000  -2.4937000  -0.2904950   1.0088000   0.0000000   0.0000000   0.0073000   0.0333974   0.0661471   0.0583050   0.0000000   0.0000000   0.0000000   0.0127893   0.2026610   0.1445870   0.0000000   0.0000000   0.0000000
 0.4300000  -2.4935400  -0.2901620   1.0090900   0.0000000   0.0000000   0.0074631   0.0334553   0.0671472   0.0590120   0.0000000   0.0000000   0.0000000   0.0103855   0.1973200   0.1381710   0.0000000   0.0000000   0.0000000
 0.4350000  -2.4933700  -0.2898230   1.0093900   0.0000000   0.0000000   0.0076263   0.0335017   0.0681199   0.0596863   0.0000000   0.0000000   0.0000000   0.0082318   0.1917280   0.1315040   0.0000000   0.0000000   0.0000000
 0.4400000  -2.4932000  -0.2894800   1.0096900   0.0000000   0.0000000   0.0077895   0.0335380   0.0690640   0.0603266   0.0000000   0.0000000   0.0000000   0.0063280   0.1858870   0.1245880   0.0000000   0.0000000   0.0000000
 0.4450000  -2.4930300  -0.2891330   1.0099900   0.0000000   0.0000000   0.0079527   0.0335654   0.0699783   0.0609318   0.0000000   0.0000000   0.0000000   0.0046742   0.1797960   0.1174210   0.0000000   0.0000000   0.0000000
 0.4500000  -2.4928700  -0.2887810   1.0103000   0.0000000   0.0000000   0.0081158   0.0335852   0.0708616   0.0615004   0.0000000   0.0000000   0.0000000   0.0032705   0.1734540   0.1100200   0.0000000   0.0000000   0.0000000
 0.4550000  -2.4927000  -0.2884240   1.0106100   0.0000000   0.0000000   0.0082790   0.0335985   0.0717125   0.0620322   0.0000000   0.0000000   0.0000000   0.0021167   0.1668630   0.1027280   0.0000000   0.0000000   0.0000000
 0.4600000  -2.4925300  -0.2880640   1.0109200   0.0000000   0.0000000   0.0084422   0.0336068   0.0725298   0.0625281   0.0000000   0.0000000   0.0000000   0.0012129   0.1600220   0.0956864   0.0000000   0.0000000   0.0000000
 0.4650000  -2.4923600  -0.2876990   1.0112300   0.0000000   0.0000000   0.0086054   0.0336111   0.0733123   0.0629895   0.0000000   0.0000000   0.0000000   0.0005592   0.1529310   0.0888945   0.0000000   0.0000000   0.0000000
 0.4700000  -2.4921900  -0.2873310   1.0115500   0.0000000   0.0000000   0.0087685   0.0336128   0.0740587   0.0634175   0.0000000   0.0000000   0.0000000   0.0001554   0.1455890   0.0823526   0.0000000   0.0000000   0.0000000
 0.4750000  -2.4920300  -0.2869580   1.0118700   0.0000000   0.0000000   0.0089317   0.0336130   0.0747677   0.0638134   0.0000000   0.0000000   0.0000000   0.0000017   0.1379980   0.0760607   0.0000000   0.0000000   0.0000000
 0.4800000  -2.4918600  -0.2865830   1.0121900   0.0000000   0.0000000   0.0090949   0.0336130   0.0754382   0.0641785   0.0000000   0.0000000   0.0000000  -0.0000000   0.1301570   0.0700189   0.0000000   0.0000000   0.0000000
 0.4850000  -2.4916900  -0.2862040   1.0125100   0.0000000   0.0000000   0.0092581   0.0336130   0.0760691   0.0645140   0.0000000   0.0000000   0.0000000  -0.0000000   0.1222250   0.0642270   0.0000000   0.0000000   0.0000000
 0.4900000  -2.4915200  -0.2858220   1.0128300   0.0000000   0.0000000   0.0094212   0.0336130   0.0766609   0.0648212   0.0000000   0.0000000   0.0000000  -0.0000000   0.1145320   0.0586851   0.0000000   0.0000000   0.0000000
 0.4950000  -2.4913500  -0.2854380   1.0131600   0.0000000   0.0000000   0.0095844   0.0336130   0.0772148   0.0651013   0.0000000   0.0000000   0.0000000  -0.0000000   0.1070900   0.0533932   0.0000000   0.0000000   0.0000000
 0.5000000  -2.4911900  -0.2850500   1.0134800   0.0000000   0.0000000   0.0097476   0.0336130   0.0777322   0.0653556   0.0000000   0.0000000   0.0000000  -0.0000000   0.0998972   0.0483514   0.0000000   0.0000000   0.0000000
 0.5050000  -2.4910200  -0.2846600   1.0138100   0.0000000   0.0000000   0.0099108   0.0336130   0.0782142   0.0655852   0.0000000   0.0000000   0.0000000  -0.0000000   0.0929548   0.0435595   0.0000000   0.0000000   0.0000000
 0.5100000  -2.4908500  -0.2842680   1.0141400   0.0000000   0.0000000   0.0100739   0.0336130   0.0786622   0.0657916   0.0000000   0.0000000   0.0000000  -0.0000000   0.0862624   0.0390176   0.0000000   0.0000000   0.0000000
 0.5150000  -2.4906800  -0.2838740   1.0144700   0.0000000   0.0000000   0.0102371   0.0336130   0.0790773   0.0659758   0.0000000   0.0000000   0.0000000  -0.0000000   0.0798199   0.0347257   0.0000000   0.0000000   0.0000000
 0.5200000  -2.4905100  -0.2834770   1.0148000   0.0000000   0.0000000   0.0104003   0.0336130   0.0794608   0.0661392   0.0000000   0.0000000   0.0000000  -0.0000000   0.0736275   0.0306839   0.0000000   0.0000000   0.0000000
 0.5250000  -2.4903500  -0.2830790   1.0151300   0.0000000   0.0000000   0.0105635   0.0336130   0.0798140   0.0662831   0.0000000   0.0000000   0.0000000  -0.0000000   0.0676851   0.0268920   0.0000000   0.0000000   0.0000000
 0.5300000  -2.4901800  -0.2826790   1.0154600   0.0000000   0.0000000   0.0107266   0.0336130   0.0801381   0.0664086   0.0000000   0.0000000   0.0000000  -0.0000000   0.0619926   0.0233501   0.0000000   0.0000000   0.0000000
 0.5350000  -2.4900100  -0.2822780   1.0157900   0.0000000   0.0000000   0.0108898   0.0336130   0.0804343   0.0665170   0.0000000   0.0000000   0.0000000  -0.0000000   0.0565502   0.0200582   0.0000000   0.0000000   0.0000000
 0.5400000  -2.4898400  -0.2818750   1.0161300   0.0000000   0.0000000   0.0110530   0.0336130   0.0807040   0.0666096   0.0000000   0.0000000   0.0000000  -0.0000000   0.0513578   0.0170163   0.0000000   0.0000000   0.0000000
 0.5450000  -2.4896700  -0.2814710   1.0164600   0.0000000   0.0000000   0.0112162   0.0336130   0.0809483   0.0666876   0.0000000   0.0000000   0.0000000  -0.0000000   0.0464153   0.0142245   0.0000000   0.0000000   0.0000000
 0.5500000  -2.4895100  -0.2810660   1.0167900   0.0000000   0.0000000   0.0113793   0.0336130   0.0811685   0.0667522   0.0000000   0.0000000   0.0000000  -0.0000000   0.0417229   0.0116826   0.0000000   0.0000000   0.0000000
 0.5550000  -2.4893400  -0.2806590   1.0171300   0.0000000   0.0000000   0.0115425   0.0336130   0.0813659   0.0668048   0.0000000   0.0000000   0.0000000  -0.0000000   0.0372805   0.0093907   0.0000000   0.0000000   0.0000000
 0.5600000  -2.4891700  -0.2802520   1.0174600   0.0000000   0.0000000   0.0117057   0.0336130   0.0815418   0.0668466   0.0000000   0.0000000   0.0000000  -0.0000000   0.0330880   0.0073488   0.0000000   0.0000000   0.0000000
 0.5650000  -2.4890000  -0.2798440   1.0178000   0.0000000   0.0000000   0.0118689   0.0336130   0.0816972   0.0668787   0.0000000   0.0000000   0.0000000  -0.0000000   0.0291456   0.0055570   0.0000000   0.0000000   0.0000000
 0.5700000  -2.4888300  -0.2794350   1.0181300   0.0000000   0.0000000   0.0120320   0.0336130   0.0818336   0.0669025   0.0000000   0.0000000   0.0000000  -0.0000000   0.0254532   0.0040151   0.0000000   0.0000000   0.0000000
 0.5750000  -2.4886700  -0.2790260   1.0184600   0.0000000   0.0000000   0.0121952   0.0336130   0.0819522   0.0669193   0.0000000   0.0000000   0.0000000  -0.0000000   0.0220107   0.0027232   0.0000000   0.0000000   0.0000000
 0.5800000  -2.4885000  -0.2786160   1.0188000   0.0000000   0.0000000   0.0123584   0.0336130   0.0820542   0.0669302   0.0000000   0.0000000   0.0000000  -0.0000000   0.0188183   0.0016813   0.0000000   0.0000000   0.0000000
 0.5850000  -2.4883300  -0.2782050   1.0191300   0.0000000   0.0000000   0.0125216   0.0336130   0.0821408   0.0669365   0.0000000   0.0000000   0.0000000  -0.0000000   0.0158759   0.0008894   0.0000000   0.0000000   0.0000000
 0.5900000  -2.4881600  -0.2777940   1.0194700   0.0000000   0.0000000   0.0126847   0.0336130   0.0822133   0.0669395   0.0000000   0.0000000   0.0000000  -0.0000001   0.0131834   0.0003476   0.0000000   0.0000000   0.0000000
 0.5950000  -2.4879900  -0.2773830   1.0198000   0.0000000   0.0000000   0.0128479   0.0336128   0.0822730   0.0669404   0.0000000   0.0000000   0.0000000  -0.0001317   0.0107410   0.0000557   0.0000000   0.0000000   0.0000000
 0.6000000  -2.4878200  -0.2769710   1.0201400   0.0000000   0.0000000   0.0130111   0.0336113   0.0823212   0.0669405   0.0000000   0.0000000   0.0000000  -0.0005134   0.0085486   0.0000000   0.0000000   0.0000000   0.0000000
 0.6050000  -2.4876600  -0.2765600   1.0204700   0.0000000   0.0000000   0.0131742   0.0336073   0.0823589   0.0669405   0.0000000   0.0000000   0.0000000  -0.0011450   0.0066061   0.0000000   0.0000000   0.0000000   0.0000000
 0.6100000  -2.4874900  -0.2761480   1.0208100   0.0000000   0.0000000   0.0133374   0.0335994   0.0823876   0.0669405   0.0000000   0.0000000   0.0000000  -0.0020266   0.0049137   0.0000000   0.0000000   0.0000000   0.0000000
 0.6150000  -2.4873200  -0.2757360   1.0211400   0.0000000   0.0000000   0.0135006   0.0335866   0.0824085   0.0669405   0.0000000   0.0000000   0.0000000  -0.0031583   0.0034713   0.0000000   0.0000000   0.0000000   0.0000000
 0.6200000  -2.4871500  -0.2753240   1.0214800   0.0000000   0.0000000   0.0136638   0.0335675   0.0824228   0.0669405   0.0000000   0.0000000   0.0000000  -0.0045399   0.0022788   0.0000000   0.0000000   0.0000000   0.0000000
 0.6250000  -2.4869900  -0.2749120   1.0218100   0.0000000   0.0000000   0.0138269   0.0335408   0.0824317   0.0669405   0.0000000   0.0000000   0.0000000  -0.0061715   0.0013364   0.0000000   0.0000000   0.0000000   0.0000000
 0.6300000  -2.4868200  -0.2744990   1.0221500   0.0000000   0.0000000   0.0139901   0.0335053   0.0824365   0.0669405   0.0000000   0.0000000   0.0000000  -0.0080532   0.0006440   0.0000000   0.0000000   0.0000000   0.0000000
 0.6350000  -2.4866500  -0.2740870   1.0224800   0.0000000   0.0000000   0.0141533   0.0334598   0.0824386   0.0669405   0.0000000   0.0000000   0.0000000  -0.0101848   0.0002015   0.0000000   0.0000000   0.0000000   0.0000000
 0.6400000  -2.4864800  -0.2736750   1.0228200   0.0000000   0.0000000   0.0143165   0.0334031   0.0824390   0.0669405   0.0000000   0.0000000   0.0000000  -0.0125664   0.0000091   0.0000000   0.0000000   0.0000000   0.0000000
 0.6450000  -2.4863200  -0.2732630   1.0231500   0.0000000   0.0000000   0.0144796   0.0333337   0.0824391   0.0669405   0.0000000   0.0000000   0.0000000  -0.0151981   0.0000667   0.0000000   0.0000000   0.0000000   0.0000000
 0.6500000  -2.4861500  -0.2728510   1.0234800   0.0000000   0.0000000   0.0146428   0.0332507   0.0824401   0.0669405   0.0000000   0.0000000   0.0000000  -0.0180797   0.0003742   0.0000000   0.0000000   0.0000000   0.0000000
 0.6550000  -2.4859800  -0.2724390   1.0238200   0.0000000   0.0000000   0.0148060   0.0331525   0.0824432   0.0669405   0.0000000   0.0000000   0.0000000  -0.0212113   0.0009318   0.0000000   0.0000000   0.0000000   0.0000000
 0.6600000  -2.4858200  -0.2720260   1.0241500   0.0000000   0.0000000   0.0149692   0.0330381   0.0824498   0.0669405   0.0000000   0.0000000   0.0000000  -0.0245930   0.0017394   0.0000000   0.0000000   0.0000000   0.0000000
 0.6650000  -2.4856500  -0.2716140   1.0244900   0.0000000   0.0000000   0.0151323   0.0329062   0.0824610   0.0669405   0.0000000   0.0000000   0.0000000  -0.0282246   0.0027969   0.0000000   0.0000000   0.0000000   0.0000000
 0.6700000  -2.4854900  -0.2712020   1.0248200   0.0000000   0.0000000   0.0152955   0.0327555   0.0824782   0.0669405   0.0000000   0.0000000   0.0000000  -0.0321062   0.0041045   0.0000000   0.0000000   0.0000000   0.0000000
 0.6750000  -2.4853300  -0.2707890   1.0251600   0.0000000   0.0000000   0.0154587   0.0325847   0.0825025   0.0669405   0.0000000   0.0000000   0.0000000  -0.0362379   0.0056621   0.0000000   0.0000000   0.0000000   0.0000000
 0.6800000  -2.4851600  -0.2703770   1.0254900   0.0000000   0.0000000   0.0156219   0.0323927   0.0825352   0.0669405   0.0000000   0.0000000   0.0000000  -0.0406195   0.0074696   0.0000000   0.0000000   0.0000000   0.0000000
 0.6850000  -2.4850000  -0.2699640   1.0258300   0.0000000   0.0000000   0.0157850   0.0321781   0.0825776   0.0669405   0.0000000   0.0000000   0.0000000  -0.0452511   0.0095272   0.0000000   0.0000000   0.0000000   0.0000000
 0.6900000  -2.4848400  -0.2695510   1.0261600   0.0000000   0.0000000   0.0159482   0.0319397   0.0826309   0.0669405   0.0000000   0.0000000   0.0000000  -0.0501328   0.0118348   0.0000000   0.0000000   0.0000000   0.0000000
 0.6950000  -2.4846800  -0.2691380   1.0265000   0.0000000   0.0000000   0.0161114   0.0316764   0.0826964   0.0669405   0.0000000   0.0000000   0.0000000  -0.0552644   0.0143923   0.0000000   0.0000000   0.0000000   0.0000000
 0.7000000  -2.4845200  -0.2687240   1.0268300   0.0000000   0.0000000   0.0162746   0.0313867   0.0827752   0.0669405   0.0000000   0.0000000   0.0000000  -0.0606460   0.0171999   0.0000000   0.0000000   0.0000000   0.0000000
 0.7050000  -2.4843700  -0.2683100   1.0271700   0.0000000   0.0000000   0.0164377   0.0310695   0.0828688   0.0669405   0.0000000   0.0000000   0.0000000  -0.0662777   0.0202575   0.0000000   0.0000000   0.0000000   0.0000000
 0.7100000  -2.4842100  -0.2678950   1.0275000   0.0000000   0.0000000   0.0166009   0.0307235   0.0829782   0.0669405   0.0000000   0.0000000   0.0000000  -0.0721593   0.0235650   0.0000000   0.0000000   0.0000000   0.0000000
 0.7150000  -2.4840600  -0.2674800   1.0278400   0.0000000   0.0000000   0.0167641   0.0303475   0.0831049   0.0669405   0.0000000   0.0000000   0.0000000  -0.0782909   0.0271226   0.0000000   0.0000000   0.0000000   0.0000000
 0.7200000  -2.4839100  -0.2670640   1.0281700   0.0000000   0.0000000   0.0169273   0.0299402   0.0832499   0.0669405   0.0000000   0.0000000   0.0000000  -0.0846726   0.0309302   0.0000000   0.0000000   0.0000000   0.0000000
 0.7250000  -2.4837600  -0.2666470   1.0285100   0.0000000   0.0000000   0.0170904   0.0295003   0.0834146   0.0669405   0.0000000   0.0000000   0.0000000  -0.0913042   0.0349877   0.0000000   0.0000000   0.0000000   0.0000000
 0.7300000  -2.4836200  -0.2662300   1.0288400   0.0000000   0.0000000   0.0172536   0.0290267   0.0836002   0.0669405   0.0000000   0.0000000   0.0000000  -0.0981858   0.0392953   0.0000000   0.0000000   0.0000000   0.0000000
 0.7350000  -2.4834700  -0.2658110   1.0291700   0.0000000   0.0000000   0.0174168   0.0285180   0.0838079   0.0669405   0.0000000   0.0000000   0.0000000  -0.1053170   0.0438529   0.0000000   0.0000000   0.0000000   0.0000000
 0.7400000  -2.4833300  -0.2653920   1.0295100   0.0000000   0.0000000   0.0175800   0.0279731   0.0840391   0.0669405   0.0000000   0.0000000   0.0000000  -0.1126990   0.0486604   0.0000000   0.0000000   0.0000000   0.0000000
 0.7450000  -2.4831900  -0.2649710   1.0298400   0.0000000   0.0000000   0.0177431   0.0273906   0.0842950   0.0669405   0.0000000   0.0000000   0.0000000  -0.1203310   0.0537180   0.0000000   0.0000000   0.0000000   0.0000000
 0.7500000  -2.4830600  -0.2645490   1.0301800   0.0000000   0.0000000   0.0179063   0.0267694   0.0845767   0.0669405   0.0000000   0.0000000   0.0000000  -0.1282120   0.0590256   0.0000000   0.0000000   0.0000000   0.0000000
 0.7550000  -2.4829200  -0.2641250   1.0305100   0.0000000   0.0000000   0.0180695   0.0261081   0.0848856   0.0669405   0.0000000   0.0000000   0.0000000  -0.1363440   0.0645831   0.0000000   0.0000000   0.0000000   0.0000000
 0.7600000  -2.4828000  -0.2637000   1.0308500   0.0000000   0.0000000   0.0182327   0.0254055   0.0852230   0.0669405   0.0000000   0.0000000   0.0000000  -0.1447260   0.0703907   0.0000000   0.0000000   0.0000000   0.0000000
 0.7650000  -2.4826700  -0.2632730   1.0311800   0.0000000   0.0000000   0.0183958   0.0246604   0.0855900   0.0669405   0.0000000   0.0000000   0.0000000  -0.1533570   0.0764482   0.0000000   0.0000000   0.0000000   0.0000000
 0.7700000  -2.4825500  -0.2628440   1.0315200   0.0000000   0.0000000   0.0185590   0.0238715   0.0859879   0.0669405   0.0000000   0.0000000   0.0000000  -0.1622390   0.0827558   0.0000000   0.0000000   0.0000000   0.0000000
 0.7750000  -2.4824300  -0.2624130   1.0318500   0.0000000   0.0000000   0.0187222   0.0230376   0.0864179   0.0669405   0.0000000   0.0000000   0.0000000  -0.1713710   0.0893134   0.0000000   0.0000000   0.0000000   0.0000000
 0.7800000  -2.4823200  -0.2619800   1.0321900   0.0000000   0.0000000   0.0188854   0.0221574   0.0868814   0.0669405   0.0000000   0.0000000   0.0000000  -0.1807520   0.0961209   0.0000000   0.0000000   0.0000000   0.0000000
 0.7850000  -2.4822100  -0.2615440   1.0325200   0.0000000   0.0000000   0.0190485   0.0212297   0.0873796   0.0669405   0.0000000   0.0000000   0.0000000  -0.1903840   0.1031790   0.0000000   0.0000000   0.0000000   0.0000000
 0.7900000  -2.4821100  -0.2611060   1.0328600   0.0000000   0.0000000   0.0192117   0.0202532   0.0879136   0.0669405   0.0000000   0.0000000   0.0000000  -0.2002650   0.1104860   0.0000000   0.0000000   0.0000000   0.0000000
 0.7950000  -2.4820100  -0.2606650   1.0331900   0.0000000   0.0000000   0.0193749   0.0192266   0.0884848   0.0669405   0.0000000   0.0000000   0.0000000  -0.2103970   0.1180440   0.0000000   0.0000000   0.0000000   0.0000000
 0.8000000  -2.4819100  -0.2602210   1.0335300   0.0000000   0.0000000   0.0195381   0.0181488   0.0890945   0.0669405   0.0000000   0.0000000   0.0000000  -0.2207790   0.1258510   0.0000000   0.0000000   0.0000000   0.0000000
 0.8050000  -2.4818300  -0.2597740   1.0338600   0.0000000   0.0000000   0.0197012   0.0170184   0.0897438   0.0669405   0.0000000   0.0000000   0.0000000  -0.2314100   0.1339090   0.0000000   0.0000000   0.0000000   0.0000000
 0.8100000  -2.4817400  -0.2593230   1.0342000   0.0000000   0.0000000   0.0198644   0.0158343   0.0904340   0.0669405   0.0000000   0.0000000   0.0000000  -0.2422920   0.1422160   0.0000000   0.0000000   0.0000000   0.0000000
 0.8150000  -2.4816700  -0.2588690   1.0345300   0.0000000   0.0000000   0.0200276   0.0145951   0.0911663   0.0669405   0.0000000   0.0000000   0.0000000  -0.2534240   0.1507740   0.0000000   0.0000000   0.0000000   0.0000000
 0.8200000  -2.4816000  -0.2584120   1.0348600   0.0000000   0.0000000   0.0201908   0.0132997   0.0919421   0.0669405   0.0000000   0.0000000   0.0000000  -0.2647120   0.1595810   0.0000000   0.0000000   0.0000000   0.0000000
 0.8250000  -2.4815400  -0.2579500   1.0352000   0.0000000   0.0000000   0.0203539   0.0119483   0.0927626   0.0669405   0.0000000   0.0000000   0.0000000  -0.2757870   0.1686390   0.0000000   0.0000000   0.0000000   0.0000000
 0.8300000  -2.4814800  -0.2574840   1.0355300   0.0000000   0.0000000   0.0205171   0.0105422   0.0936289   0.0669405   0.0000000   0.0000000   0.0000000  -0.2866120   0.1779470   0.0000000   0.0000000   0.0000000   0.0000000
 0.8350000  -2.4814300  -0.2570140   1.0358700   0.0000000   0.0000000   0.0206803   0.0090826   0.0945425   0.0669405   0.0000000   0.0000000   0.0000000  -0.2971880   0.1875040   0.0000000   0.0000000   0.0000000   0.0000000
 0.8400000  -2.4813900  -0.2565380   1.0362000   0.0000000   0.0000000   0.0208434   0.0075708   0.0955044   0.0669405   0.0000000   0.0000000   0.0000000  -0.3075130   0.1973120   0.0000000   0.0000000   0.0000000   0.0000000
 0.8450000  -2.4813500  -0.2560580   1.0365400   0.0000000   0.0000000   0.0210066   0.0060079   0.0965160   0.0669405   0.0000000   0.0000000   0.0000000  -0.3175890   0.2073690   0.0000000   0.0000000   0.0000000   0.0000000
 0.8500000  -2.4813300  -0.2555730   1.0368700   0.0000000   0.0000000   0.0211698   0.0043953   0.0975785   0.0669405   0.0000000   0.0000000   0.0000000  -0.3274140   0.2176770   0.0000000   0.0000000   0.0000000   0.0000000
 0.8550000  -2.4813100  -0.2550830   1.0372100   0.0000000   0.0000000   0.0213330   0.0027342   0.0986932   0.0669404   0.0000000   0.0000000   0.0000000  -0.3369900   0.2282340  -0.0000421   0.0000000   0.0000000   0.0000000
 0.8600000  -2.4813000  -0.2545860   1.0375400   0.0000000   0.0000000   0.0214961   0.0010258   0.0998613   0.0669397   0.0000000   0.0000000   0.0000000  -0.3463150   0.2390420  -0.0003123   0.0000000   0.0000000   0.0000000
 0.8650000  -2.4813000  -0.2540840   1.0378800   0.0000000   0.0000000   0.0216593  -0.0007285   0.1010840   0.0669369   0.0000000   0.0000000   0.0000000  -0.3553910   0.2501000  -0.0008325   0.0000000   0.0000000   0.0000000
 0.8700000  -2.4813100  -0.2535750   1.0382100   0.0000000   0.0000000   0.0218223  -0.0025277   0.1023630   0.0669309   0.0000000   0.0000000   0.0000000  -0.3642160   0.2614070  -0.0016026   0.0000000   0.0000000   0.0000000
 0.8750000  -2.4813300  -0.2530600   1.0385500   0.0000000   0.0000000   0.0219853  -0.0043703   0.1036990   0.0669204   0.0000000   0.0000000   0.0000000  -0.3727920   0.2729650  -0.0026228   0.0000000   0.0000000   0.0000000
 0.8800000  -2.4813500  -0.2525380   1.0388800   0.0000000   0.0000000   0.0221481  -0.0062552   0.1050930   0.0669043   0.0000000   0.0000000   0.0000000  -0.3811170   0.2847720  -0.0038930   0.0000000   0.0000000   0.0000000
 0.8850000  -2.4813900  -0.2520090   1.0392200   0.0000000   0.0000000   0.0223107  -0.0081811   0.1065470   0.0668811   0.0000000   0.0000000   0.0000000  -0.3891930   0.2968300  -0.0054131   0.0000000   0.0000000   0.0000000
 0.8900000  -2.4814300  -0.2514730   1.0395500   0.0000000   0.0000000   0.0224731  -0.0101467   0.1080610   0.0668497   0.0000000   0.0000000   0.0000000  -0.3970180   0.3091370  -0.0071833   0.0000000   0.0000000   0.0000000
 0.8950000  -2.4814900  -0.2509280   1.0398800   0.0000000   0.0000000   0.0226351  -0.0121508   0.1096380   0.0668089   0.0000000   0.0000000   0.0000000  -0.4045940   0.3216950  -0.0092035   0.0000000   0.0000000   0.0000000
 0.9000000  -2.4815600  -0.2503760   1.0402200   0.0000000   0.0000000   0.0227966  -0.0141922   0.1112790   0.0667573   0.0000000   0.0000000   0.0000000  -0.4119190   0.3345030  -0.0114736   0.0000000   0.0000000   0.0000000
 0.9050000  -2.4816300  -0.2498150   1.0405500   0.0000000   0.0000000   0.0229576  -0.0162696   0.1129840   0.0666937   0.0000000   0.0000000   0.0000000  -0.4189950   0.3475600  -0.0139938   0.0000000   0.0000000   0.0000000
 0.9100000  -2.4817200  -0.2492460   1.0408800   0.0000000   0.0000000   0.0231179  -0.0183817   0.1147550   0.0666169   0.0000000   0.0000000   0.0000000  -0.4258200   0.3608680  -0.0167639   0.0000000   0.0000000   0.0000000
 0.9150000  -2.4818200  -0.2486680   1.0412200   0.0000000   0.0000000   0.0232775  -0.0205274   0.1165930   0.0665256   0.0000000   0.0000000   0.0000000  -0.4323960   0.3744250  -0.0197841   0.0000000   0.0000000   0.0000000
 0.9200000  -2.4819200  -0.2480800   1.0415500   0.0000000   0.0000000   0.0234361  -0.0227053   0.1185000   0.0664187   0.0000000   0.0000000   0.0000000  -0.4387210   0.3882330  -0.0230543   0.0000000   0.0000000   0.0000000
 0.9250000  -2.4820400  -0.2474830   1.0418800   0.0000000   0.0000000   0.0235937  -0.0249142   0.1204760   0.0662947   0.0000000   0.0000000   0.0000000  -0.4447970   0.4022900  -0.0265744   0.0000000   0.0000000   0.0000000
 0.9300000  -2.4821700  -0.2468750   1.0422100   0.0000000   0.0000000   0.0237501  -0.0271528   0.1225230   0.0661525   0.0000000   0.0000000   0.0000000  -0.4506220   0.4165980  -0.0303446   0.0000000   0.0000000   0.0000000
 0.9350000  -2.4823100  -0.2462570   1.0425400   0.0000000   0.0000000   0.0239052  -0.0294200   0.1246420   0.0659908   0.0000000   0.0000000   0.0000000  -0.4561980   0.4311550  -0.0343648   0.0000000   0.0000000   0.0000000
 0.9400000  -2.4824700  -0.2456290   1.0428700   0.0000000   0.0000000   0.0240588  -0.0317144   0.1268350   0.0658084   0.0000000   0.0000000   0.0000000  -0.4615230   0.4459630  -0.0386349   0.0000000   0.0000000   0.0000000
 0.9450000  -2.4826300  -0.2449890   1.0432000   0.0000000   0.0000000   0.0242106  -0.0340348   0.1291020   0.0656041   0.0000000   0.0000000   0.0000000  -0.4665990   0.4610210  -0.0431551   0.0000000   0.0000000   0.0000000
 0.9500000  -2.4828100  -0.2443380   1.0435300   0.0000000   0.0000000   0.0243605  -0.0363800   0.1314450   0.0653765   0.0000000   0.0000000   0.0000000  -0.4714240   0.4763280  -0.0479252   0.0000000   0.0000000   0.0000000
 0.9550000  -2.4830000  -0.2436740   1.0438500   0.0000000   0.0000000   0.0245084  -0.0387486   0.1338660   0.0651244   0.0000000   0.0000000   0.0000000  -0.4760000   0.4918860  -0.0529454   0.0000000   0.0000000   0.0000000
 0.9600000  -2.4832000  -0.2429990   1.0441800   0.0000000   0.0000000   0.0246540  -0.0411395   0.1363650   0.0648466   0.0000000   0.0000000   0.0000000  -0.4803250   0.5076930  -0.0582156   0.0000000   0.0000000   0.0000000
 0.9650000  -2.4834100  -0.2423110   1.0445000   0.0000000   0.0000000   0.0247970  -0.0435515   0.1389430   0.0645418   0.0000000   0.0000000   0.0000000  -0.4844010   0.5237510  -0.0637357   0.0000000   0.0000000   0.0000000
 0.9700000  -2.4836300  -0.2416090   1.0448300   0.0000000   0.0000000   0.0249373  -0.0459831   0.1416030   0.0642088   0.0000000   0.0000000   0.0000000  -0.4882260   0.5400580  -0.0695059   0.0000000   0.0000000   0.0000000
 0.9750000  -2.4838700  -0.2408940   1.0451500   0.0000000   0.0000000   0.0250746  -0.0484333   0.1443440   0.0638465   0.0000000   0.0000000   0.0000000  -0.4918020   0.5566160  -0.0753966   0.0000000   0.0000000   0.0000000
 0.9800000  -2.4841200  -0.2401660   1.0454600   0.0000000   0.0000000   0.0252087  -0.0509007   0.1471690   0.0634553   0.0000000   0.0000000   0.0000000  -0.4951270   0.5734240  -0.0810570   0.0000000   0.0000000   0.0000000
 0.9850000  -2.4843800  -0.2394230   1.0457800   0.0000000   0.0000000   0.0253393  -0.0533842   0.1500790   0.0630363   0.0000000   0.0000000   0.0000000  -0.4982030   0.5904810  -0.0864673   0.0000000   0.0000000   0.0000000
 0.9900000  -2.4846500  -0.2386650   1.0460900   0.0000000   0.0000000   0.0254662  -0.0558823   0.1530740   0.0625910   0.0000000   0.0000000   0.0000000  -0.5010280   0.6077890  -0.0916277   0.0000000   0.0000000   0.0000000
 0.9950000  -2.4849300  -0.2378920   1.0464100   0.0000000   0.0000000   0.0255892  -0.0583940   0.1561570   0.0621205   0.0000000   0.0000000   0.0000000  -0.5036040   0.6253460  -0.0965380   0.0000000   0.0000000   0.0000000
 1.0000000  -2.4852300  -0.2371030   1.0467200   0.0000000   0.0000000   0.0257080  -0.0609180   0.1593280   0.0616260   0.0000000   0.0000000   0.0000000  -0.5059290   0.6429140  -0.1011980   0.0000000   0.0000000   0.0000000
 1.0050000  -2.4855400  -0.2362980   1.0470200   0.0000000   0.0000000   0.0258225  -0.0634529   0.1625860   0.0611089   0.0000000   0.0000000   0.0000000  -0.5080050   0.6602310  -0.1056090   0.0000000   0.0000000   0.0000000
 1.0100000  -2.4858700  -0.2354770   1.0473300   0.0000000   0.0000000   0.0259325  -0.0659976   0.1659300   0.0605704   0.0000000   0.0000000   0.0000000  -0.5098300   0.6772990  -0.1097690   0.0000000   0.0000000   0.0000000
 1.0150000  -2.4862000  -0.2346390   1.0476300   0.0000000   0.0000000   0.0260377  -0.0685508   0.1693580   0.0600116   0.0000000   0.0000000   0.0000000  -0.5114060   0.6941170  -0.1136790   0.0000000   0.0000000   0.0000000
 1.0200000  -2.4865500  -0.2337830   1.0479300   0.0000000   0.0000000   0.0261381  -0.0711112   0.1728710   0.0594340   0.0000000   0.0000000   0.0000000  -0.5127310   0.7106840  -0.1173400   0.0000000   0.0000000   0.0000000
 1.0250000  -2.4869200  -0.2329100   1.0482200   0.0000000   0.0000000   0.0262335  -0.0736777   0.1764650   0.0588387   0.0000000   0.0000000   0.0000000  -0.5138070   0.7270020  -0.1207500   0.0000000   0.0000000   0.0000000
 1.0300000  -2.4872900  -0.2320180   1.0485100   0.0000000   0.0000000   0.0263236  -0.0762489   0.1801400   0.0582269   0.0000000   0.0000000   0.0000000  -0.5146320   0.7430700  -0.1239100   0.0000000   0.0000000   0.0000000
 1.0350000  -2.4876800  -0.2311080   1.0488000   0.0000000   0.0000000   0.0264084  -0.0788236   0.1838950   0.0576000   0.0000000   0.0000000   0.0000000  -0.5152080   0.7588870  -0.1268210   0.0000000   0.0000000   0.0000000
 1.0400000  -2.4880800  -0.2301790   1.0490900   0.0000000   0.0000000   0.0264878  -0.0814005   0.1877290   0.0569591   0.0000000   0.0000000   0.0000000  -0.5155330   0.7744550  -0.1294810   0.0000000   0.0000000   0.0000000
 1.0450000  -2.4884900  -0.2292310   1.0493700   0.0000000   0.0000000   0.0265616  -0.0839785   0.1916390   0.0563056   0.0000000   0.0000000   0.0000000  -0.5156090   0.7897730  -0.1318920   0.0000000   0.0000000   0.0000000
 1.0500000  -2.4889200  -0.2282630   1.0496500   0.0000000   0.0000000   0.0266297  -0.0865562   0.1956260   0.0556406   0.0000000   0.0000000   0.0000000  -0.5154340   0.8048400  -0.1340520   0.0000000   0.0000000   0.0000000
 1.0550000  -2.4893600  -0.2272750   1.0499300   0.0000000   0.0000000   0.0266920  -0.0891324   0.1996870   0.0549655   0.0000000   0.0000000   0.0000000  -0.5150100   0.8196580  -0.1359620   0.0000000   0.0000000   0.0000000
 1.0600000  -2.4898100  -0.2262660   1.0502000   0.0000000   0.0000000   0.0267484  -0.0917059   0.2038220   0.0542814   0.0000000   0.0000000   0.0000000  -0.5143350   0.8342250  -0.1376230   0.0000000   0.0000000   0.0000000
 1.0650000  -2.4902700  -0.2252360   1.0504700   0.0000000   0.0000000   0.0267989  -0.0942753   0.2080290   0.0535897   0.0000000   0.0000000   0.0000000  -0.5134100   0.8485430  -0.1390330   0.0000000   0.0000000   0.0000000
 1.0700000  -2.4907500  -0.2241850   1.0507400   0.0000000   0.0000000   0.0268433  -0.0968396   0.2123070   0.0528915   0.0000000   0.0000000   0.0000000  -0.5122360   0.8626110  -0.1401930   0.0000000   0.0000000   0.0000000
 1.0750000  -2.4912400  -0.2231130   1.0510000   0.0000000   0.0000000   0.0268816  -0.0993973   0.2166550   0.0521881   0.0000000   0.0000000   0.0000000  -0.5108110   0.8764280  -0.1411040   0.0000000   0.0000000   0.0000000
 1.0800000  -2.4917500  -0.2220190   1.0512600   0.0000000   0.0000000   0.0269138  -0.1019470   0.2210710   0.0514809   0.0000000   0.0000000   0.0000000  -0.5091370   0.8899960  -0.1417640   0.0000000   0.0000000   0.0000000
 1.0850000  -2.4922600  -0.2209020   1.0515200   0.0000000   0.0000000   0.0269398  -0.1044880   0.2255540   0.0507709   0.0000000   0.0000000   0.0000000  -0.5072120   0.9033140  -0.1421740   0.0000000   0.0000000   0.0000000
 1.0900000  -2.4927900  -0.2197630   1.0517700   0.0000000   0.0000000   0.0269596  -0.1070190   0.2301040   0.0500595   0.0000000   0.0000000   0.0000000  -0.5050380   0.9163810  -0.1423350   0.0000000   0.0000000   0.0000000
 1.0950000  -2.4933300  -0.2186010   1.0520200   0.0000000   0.0000000   0.0269731  -0.1095380   0.2347180   0.0493480   0.0000000   0.0000000   0.0000000  -0.5026130   0.9291990  -0.1422450   0.0000000   0.0000000   0.0000000
 1.1000000  -2.4938900  -0.2174160   1.0522600   0.0000000   0.0000000   0.0269804  -0.1120450   0.2393950   0.0486375   0.0000000   0.0000000   0.0000000  -0.4999390   0.9417670  -0.1419050   0.0000000   0.0000000   0.0000000
 1.1050000  -2.4944500  -0.2162070   1.0525000   0.0000000   0.0000000   0.0269815  -0.1145370   0.2441350   0.0479294   0.0000000   0.0000000   0.0000000  -0.4970140   0.9540840  -0.1413160   0.0000000   0.0000000   0.0000000
 1.1100000  -2.4950300  -0.2149740   1.0527400   0.0000000   0.0000000   0.0269763  -0.1170140   0.2489360   0.0472248   0.0000000   0.0000000   0.0000000  -0.4938400   0.9661520  -0.1404760   0.0000000   0.0000000   0.0000000
 1.1150000  -2.4956200  -0.2137180   1.0529800   0.0000000   0.0000000   0.0269648  -0.1194750   0.2537960   0.0465250   0.0000000   0.0000000   0.0000000  -0.4904150   0.9779690  -0.1393860   0.0000000   0.0000000   0.0000000
 1.1200000  -2.4962300  -0.2124360   1.0532100   0.0000000   0.0000000   0.0269472  -0.1219180   0.2587150   0.0458313   0.0000000   0.0000000   0.0000000  -0.4867410   0.9895370  -0.1380470   0.0000000   0.0000000   0.0000000
 1.1250000  -2.4968400  -0.2111300   1.0534300   0.0000000   0.0000000   0.0269233  -0.1243420   0.2636910   0.0451450   0.0000000   0.0000000   0.0000000  -0.4828160   1.0008500  -0.1364570   0.0000000   0.0000000   0.0000000
 1.1300000  -2.4974700  -0.2097990   1.0536600   0.0000000   0.0000000   0.0268933  -0.1267460   0.2687230   0.0444672   0.0000000   0.0000000   0.0000000  -0.4786420   1.0119200  -0.1346180   0.0000000   0.0000000   0.0000000
 1.1350000  -2.4981100  -0.2084430   1.0538800   0.0000000   0.0000000   0.0268572  -0.1291280   0.2738100   0.0437992   0.0000000   0.0000000   0.0000000  -0.4742170   1.0227400  -0.1325280   0.0000000   0.0000000   0.0000000
 1.1400000  -2.4987600  -0.2070610   1.0541000   0.0000000   0.0000000   0.0268150  -0.1314880   0.2789500   0.0431423   0.0000000   0.0000000   0.0000000  -0.4695430   1.0333100  -0.1301880   0.0000000   0.0000000   0.0000000
 1.1450000  -2.4994200  -0.2056530   1.0543100   0.0000000   0.0000000   0.0267669  -0.1338230   0.2841430   0.0424977   0.0000000   0.0000000   0.0000000  -0.4646180   1.0436300  -0.1275990   0.0000000   0.0000000   0.0000000
 1.1500000  -2.5001000  -0.2042200   1.0545200   0.0000000   0.0000000   0.0267129  -0.1361330   0.2893860   0.0418667   0.0000000   0.0000000   0.0000000  -0.4594440   1.0536900  -0.1247590   0.0000000   0.0000000   0.0000000
 1.1550000  -2.5007900  -0.2027590   1.0547300   0.0000000   0.0000000   0.0266530  -0.1384170   0.2946790   0.0412506   0.0000000   0.0000000   0.0000000  -0.4540190   1.0635100  -0.1216690   0.0000000   0.0000000   0.0000000
 1.1600000  -2.5014800  -0.2012730   1.0549300   0.0000000   0.0000000   0.0265875  -0.1406730   0.3000210   0.0406505   0.0000000   0.0000000   0.0000000  -0.4483450   1.0730800  -0.1183300   0.0000000   0.0000000   0.0000000
 1.1650000  -2.5021900  -0.1997590   1.0551400   0.0000000   0.0000000   0.0265163  -0.1429000   0.3054090   0.0400677   0.0000000   0.0000000   0.0000000  -0.4424200   1.0824000  -0.1147400   0.0000000   0.0000000   0.0000000
 1.1700000  -2.5029100  -0.1982190   1.0553300   0.0000000   0.0000000   0.0264397  -0.1450970   0.3108440   0.0395035   0.0000000   0.0000000   0.0000000  -0.4362460   1.0914600  -0.1109000   0.0000000   0.0000000   0.0000000
 1.1750000  -2.5036400  -0.1966510   1.0555300   0.0000000   0.0000000   0.0263577  -0.1472620   0.3163240   0.0389591   0.0000000   0.0000000   0.0000000  -0.4298210   1.1002800  -0.1068110   0.0000000   0.0000000   0.0000000
 1.1800000  -2.5043800  -0.1950550   1.0557200   0.0000000   0.0000000   0.0262706  -0.1493950   0.3218470   0.0384358   0.0000000   0.0000000   0.0000000  -0.4231470   1.1088500  -0.1024710   0.0000000   0.0000000   0.0000000
 1.1850000  -2.5051400  -0.1934320   1.0559200   0.0000000   0.0000000   0.0261783  -0.1514930   0.3274120   0.0379348   0.0000000   0.0000000   0.0000000  -0.4162220   1.1171700  -0.0978814   0.0000000   0.0000000   0.0000000
 1.1900000  -2.5059000  -0.1917810   1.0561000   0.0000000   0.0000000   0.0260811  -0.1535570   0.3330180   0.0374574   0.0000000   0.0000000   0.0000000  -0.4090480   1.1252300  -0.0930417   0.0000000   0.0000000   0.0000000
 1.1950000  -2.5066700  -0.1901020   1.0562900   0.0000000   0.0000000   0.0259792  -0.1555830   0.3386640   0.0370048   0.0000000   0.0000000   0.0000000  -0.4016230   1.1330500  -0.0879521   0.0000000   0.0000000   0.0000000
 1.2000000  -2.5074600  -0.1883940   1.0564700   0.0000000   0.0000000   0.0258728  -0.1575720   0.3443480   0.0365783   0.0000000   0.0000000   0.0000000  -0.3939490   1.1406200  -0.0826124   0.0000000   0.0000000   0.0000000
 1.2050000  -2.5082500  -0.1866580   1.0566600   0.0000000   0.0000000   0.0257620  -0.1595220   0.3500690   0.0361791   0.0000000   0.0000000   0.0000000  -0.3860240   1.1479400  -0.0770228   0.0000000   0.0000000   0.0000000
 1.2100000  -2.5090500  -0.1848940   1.0568400   0.0000000   0.0000000   0.0256470  -0.1614320   0.3558270   0.0358085   0.0000000   0.0000000   0.0000000  -0.3778500   1.1550000  -0.0711831   0.0000000   0.0000000   0.0000000
 1.2150000  -2.5098600  -0.1831000   1.0570100   0.0000000   0.0000000   0.0255280  -0.1633010   0.3616190   0.0354677   0.0000000   0.0000000   0.0000000  -0.3694250   1.1618200  -0.0650935   0.0000000   0.0000000   0.0000000
 1.2200000  -2.5106800  -0.1812770   1.0571900   0.0000000   0.0000000   0.0254053  -0.1651260   0.3674450   0.0351580   0.0000000   0.0000000   0.0000000  -0.3607550   1.1683900  -0.0587538   0.0000000   0.0000000   0.0000000
 1.2250000  -2.5115100  -0.1794260   1.0573700   0.0000000   0.0000000   0.0252791  -0.1669080   0.3733020   0.0348806   0.0000000   0.0000000   0.0000000  -0.3521430   1.1747100  -0.0521642   0.0000000   0.0000000   0.0000000
 1.2300000  -2.5123500  -0.1775440   1.0575400   0.0000000   0.0000000   0.0251497  -0.1686480   0.3791910   0.0346367   0.0000000   0.0000000   0.0000000  -0.3437810   1.1807800  -0.0453245   0.0000000   0.0000000   0.0000000
 1.2350000  -2.5132000  -0.1756340   1.0577100   0.0000000   0.0000000   0.0250172  -0.1703460   0.3851100   0.0344277   0.0000000   0.0000000   0.0000000  -0.3356700   1.1865900  -0.0382349   0.0000000   0.0000000   0.0000000
 1.2400000  -2.5140600  -0.1736930   1.0578800   0.0000000   0.0000000   0.0248819  -0.1720050   0.3910570   0.0342548   0.0000000   0.0000000   0.0000000  -0.3278080   1.1921600  -0.0308952   0.0000000   0.0000000   0.0000000
 1.2450000  -2.5149200  -0.1717230   1.0580500   0.0000000   0.0000000   0.0247441  -0.1736250   0.3970310   0.0341192   0.0000000   0.0000000   0.0000000  -0.3201960   1.1974800  -0.0233597   0.0000000   0.0000000   0.0000000
 1.2500000  -2.5157900  -0.1697230   1.0582200   0.0000000   0.0000000   0.0246042  -0.1752070   0.4030310   0.0340209   0.0000000   0.0000000   0.0000000  -0.3128350   1.2025500  -0.0160027   0.0000000   0.0000000   0.0000000
 1.2550000  -2.5166700  -0.1676930   1.0583900   0.0000000   0.0000000   0.0244622  -0.1767540   0.4090560   0.0339587   0.0000000   0.0000000   0.0000000  -0.3057230   1.2073600  -0.0088957   0.0000000   0.0000000   0.0000000
 1.2600000  -2.5175600  -0.1656320   1.0585600   0.0000000   0.0000000   0.0243187  -0.1782650   0.4151040   0.0339315   0.0000000   0.0000000   0.0000000  -0.2988620   1.2119300  -0.0020387   0.0000000   0.0000000   0.0000000
 1.2650000  -2.5184500  -0.1635420   1.0587300   0.0000000   0.0000000   0.0241738  -0.1797430   0.4211750   0.0339379   0.0000000   0.0000000   0.0000000  -0.2922500   1.2162500   0.0045683   0.0000000   0.0000000   0.0000000
 1.2700000  -2.5193600  -0.1614200   1.0589000   0.0000000   0.0000000   0.0240277  -0.1811880   0.4272660   0.0339767   0.0000000   0.0000000   0.0000000  -0.2858880   1.2203200   0.0109253   0.0000000   0.0000000   0.0000000
 1.2750000  -2.5202700  -0.1592690   1.0590700   0.0000000   0.0000000   0.0238808  -0.1826020   0.4333780   0.0340467   0.0000000   0.0000000   0.0000000  -0.2797770   1.2241300   0.0170323   0.0000000   0.0000000   0.0000000
 1.2800000  -2.5211800  -0.1570870   1.0592400   0.0000000   0.0000000   0.0237333  -0.1839860   0.4395070   0.0341467   0.0000000   0.0000000   0.0000000  -0.2739150   1.2277000   0.0228893   0.0000000   0.0000000   0.0000000
 1.2850000  -2.5221100  -0.1548740   1.0594200   0.0000000   0.0000000   0.0235855  -0.1853420   0.4456540   0.0342752   0.0000000   0.0000000   0.0000000  -0.2683030   1.2310200   0.0284963   0.0000000   0.0000000   0.0000000
 1.2900000  -2.5230400  -0.1526300   1.0595900   0.0000000   0.0000000   0.0234374  -0.1866700   0.4518170   0.0344312   0.0000000   0.0000000   0.0000000  -0.2629420   1.2340900   0.0338533   0.0000000   0.0000000   0.0000000
 1.2950000  -2.5239700  -0.1503560   1.0597600   0.0000000   0.0000000   0.0232895  -0.1879710   0.4579950   0.0346133   0.0000000   0.0000000   0.0000000  -0.2578300   1.2369000   0.0389603   0.0000000   0.0000000   0.0000000
 1.3000000  -2.5249200  -0.1480500   1.0599300   0.0000000   0.0000000   0.0231418  -0.1892480   0.4641860   0.0348204   0.0000000   0.0000000   0.0000000  -0.2529680   1.2394700   0.0438173   0.0000000   0.0000000   0.0000000
 1.3050000  -2.5258700  -0.1457140   1.0601100   0.0000000   0.0000000   0.0229946  -0.1905020   0.4703890   0.0350511   0.0000000   0.0000000   0.0000000  -0.2483570   1.2417900   0.0484243   0.0000000   0.0000000   0.0000000
 1.3100000  -2.5268200  -0.1433460   1.0602800   0.0000000   0.0000000   0.0228480  -0.1917320   0.4766030   0.0353042   0.0000000   0.0000000   0.0000000  -0.2439950   1.2438600   0.0527813   0.0000000   0.0000000   0.0000000
 1.3150000  -2.5277800  -0.1409480   1.0604600   0.0000000   0.0000000   0.0227023  -0.1929420   0.4828270   0.0355785   0.0000000   0.0000000   0.0000000  -0.2398840   1.2456700   0.0568883   0.0000000   0.0000000   0.0000000
