ts x y z roll pitch yaw vx vy vz wx wy wz ax ay az dwx dwy dwz jx jy jz ddwx ddwy ddwz
1704717262.245448000  -2.5  -0.3  1  0  0  0  -2e-07  -2e-07  2e-07  0  0  0  -0.000125  -0.000125  0.000125  0  0  0  0  0  0  0  0  0 
1704717262.250448000  -2.5  -0.3  1  0  0  0  -1.7e-06  -1.7e-06  1.7e-06  0  0  0  -0.0005  -0.0005  0.0005  0  0  0  0  0  0  0  0  0 
1704717262.255428000  -2.5  -0.3  1  0  0  0  -5.6e-06  -5.6e-06  5.6e-06  0  0  0  -0.001125  -0.001125  0.001125  0  0  0  0  0  0  0  0  0 
1704717262.260423000  -2.5  -0.3  1  0  0  1e-07  -1.33e-05  -1.33e-05  1.33e-05  0  0  0  -0.002  -0.002  0.002  0  0  0  0  0  0  0  0  0 
1704717262.265421000  -2.5  -0.3  1  0  0  3e-07  -2.6e-05  -2.6e-05  2.6e-05  0  0  0  -0.003125  -0.003125  0.003125  0  0  0  0  0  0  0  0  0 
1704717262.270442000  -2.5  -0.3  1  0  0  5e-07  -4.5e-05  -4.5e-05  4.5e-05  0  0  0  -0.0045  -0.0045  0.0045  0  0  0  0  0  0  0  0  0 
1704717262.275429000  -2.5  -0.300001  1  0  0  1e-06  -7.15e-05  -7.15e-05  7.15e-05  0  0  0  -0.006125  -0.006125  0.006125  0  0  0  0  0  0  0  0  0 
1704717262.280436000  -2.5  -0.300001  1  0  0  1.7e-06  -0.0001067  -0.0001067  0.0001067  0  0  0  -0.008  -0.008  0.008  0  0  0  0  0  0  0  0  0 
1704717262.285436000  -2.5  -0.300002  1  0  0  2.7e-06  -0.0001519  -0.0001519  0.0001519  0  0  0  -0.010125  -0.010125  0.010125  0  0  0  0  0  0  0  0  0 
1704717262.290434000  -2.5  -0.300003  1  0  0  4.1e-06  -0.0002083  -0.0002083  0.0002083  0  0  0  -0.0125  -0.0125  0.0125  0  0  0  0  0  0  0  0  0 
1704717262.295432000  -2.5  -0.300004  1  0  0  5.9e-06  -0.0002773  -0.0002773  0.0002773  0  0  0  -0.015125  -0.015125  0.015125  0  0  0  0  0  0  0  0  0 
1704717262.300429000  -2.50001  -0.300005  1.00001  0  0  8.1e-06  -0.00036  -0.00036  0.00036  0  0  0  -0.018  -0.018  0.018  0  0  0  0  0  0  0  0  0 
1704717262.305430000  -2.50001  -0.300007  1.00001  0  0  1.08e-05  -0.0004577  -0.0004577  0.0004577  0  0  0  -0.021125  -0.021125  0.021125  0  0  0  0  0  0  0  0  0 
1704717262.310434000  -2.50001  -0.30001  1.00001  0  0  1.4e-05  -0.0005717  -0.0005717  0.0005717  0  0  0  -0.0245  -0.0245  0.0245  0  0  0  0  0  0  0  0  0 
1704717262.315429000  -2.50001  -0.300013  1.00001  0  0  1.77e-05  -0.0007031  -0.0007031  0.0007031  0  0  0  -0.028125  -0.028125  0.028125  0  0  0  0  0  0  0  0  0 
1704717262.320438000  -2.50002  -0.300017  1.00002  0  0  2.18e-05  -0.0008533  -0.0008533  0.0008533  0  0  0  -0.032  -0.032  0.032  0  0  0  0  0  0  0  0  0 
1704717262.325432000  -2.50002  -0.300022  1.00002  0  0  2.64e-05  -0.0010235  -0.0010235  0.0010235  0  0  0  -0.036125  -0.036125  0.036125  0  0  0  0  0  0  0  0  0 
1704717262.330437000  -2.50003  -0.300027  1.00003  0  0  3.15e-05  -0.001215  -0.001215  0.001215  0  0  0  -0.0405  -0.0405  0.0405  0  0  0  0  0  0  0  0  0 
1704717262.335431000  -2.50003  -0.300034  1.00003  0  0  3.69e-05  -0.001429  -0.001429  0.001429  0  0  0  -0.045125  -0.045125  0.045125  0  0  0  0  0  0  0  0  0 
1704717262.340431000  -2.50004  -0.300042  1.00004  0  0  4.28e-05  -0.0016667  -0.0016667  0.0016667  0  0  0  -0.05  -0.05  0.05  0  0  0  0  0  0  0  0  0 
1704717262.345430000  -2.50005  -0.300051  1.00005  0  0  4.89e-05  -0.0019294  -0.0019294  0.0019294  0  0  0  -0.055125  -0.055125  0.055125  0  0  0  0  0  0  0  0  0 
1704717262.350434000  -2.50006  -0.300061  1.00006  0  0  5.53e-05  -0.0022183  -0.0022183  0.0022182  0  0  0  -0.0605  -0.0605  0.0604034  0  0  0  0  0  0  0  0  0 
1704717262.355431000  -2.50007  -0.300073  1.00007  0  0  6.18e-05  -0.0025348  -0.0025348  0.002533  0  0  0  -0.066125  -0.066125  0.0654675  0  0  0  0  0  0  0  0  0 
1704717262.360432000  -2.50009  -0.300086  1.00009  0  0  6.85e-05  -0.00288  -0.00288  0.0028725  0  0  0  -0.072  -0.072  0.0702817  0  0  0  0  0  0  0  0  0 
1704717262.365427000  -2.5001  -0.300102  1.0001  0  0  7.53e-05  -0.0032552  -0.0032552  0.0032354  0  0  0  -0.078125  -0.078125  0.0748458  0  0  0  0  0  0  0  0  0 
1704717262.370433000  -2.50012  -0.300119  1.00012  0  0  8.21e-05  -0.0036616  -0.0036617  0.0036205  0  0  0  -0.0844577  -0.0845  0.0791599  0  0  0  0  0  0  0  0  0 
1704717262.375432000  -2.50014  -0.300138  1.00014  0  0  8.89e-05  -0.0040995  -0.0041006  0.0040266  0  0  0  -0.0906271  -0.091125  0.0832241  0  0  0  0  0  0  0  0  0 
1704717262.380433000  -2.50016  -0.30016  1.00016  0  0  9.57e-05  -0.0045675  -0.0045733  0.0044524  0  0  0  -0.0965465  -0.098  0.0870382  0  0  0  0  0  0  0  0  0 
1704717262.385431000  -2.50018  -0.300184  1.00018  0  0  0.0001025  -0.0050645  -0.005081  0.0048966  0  0  0  -0.102216  -0.105125  0.0906024  0  0  0  0  0  0  0  0  0 
1704717262.390434000  -2.50021  -0.300211  1.00021  0  0  0.0001094  -0.0055892  -0.005625  0.005358  0  0  0  -0.107635  -0.1125  0.0939165  0  0  0  0  0  0  0  0  0 
1704717262.395420000  -2.50024  -0.300241  1.00024  0  0  0.0001162  -0.0061404  -0.0062065  0.0058353  0  0  0  -0.112805  -0.120125  0.0969807  0  0  0  0  0  0  0  0  0 
1704717262.400434000  -2.50027  -0.300273  1.00027  0  0  0.000123  -0.0067169  -0.0068267  0.0063273  0  0  0  -0.117724  -0.128  0.0997948  0  0  0  0  0  0  0  0  0 
1704717262.405430000  -2.50031  -0.300309  1.0003  0  0  0.0001298  -0.0073173  -0.0074869  0.0068328  0  0  0  -0.122393  -0.136125  0.102359  0  0  0  0  0  0  0  0  0 
1704717262.410432000  -2.50035  -0.300348  1.00033  0  0  0.0001366  -0.0079404  -0.0081883  0.0073505  0  0  0  -0.126813  -0.1445  0.104673  0  0  0  0  0  0  0  0  0 
1704717262.415431000  -2.50039  -0.300391  1.00037  0  0  0.0001435  -0.008585  -0.0089323  0.0078792  0  0  0  -0.130982  -0.153125  0.106737  0  0  0  0  0  0  0  0  0 
1704717262.420431000  -2.50043  -0.300437  1.00041  0  0  0.0001503  -0.0092498  -0.00972  0.0084175  0  0  0  -0.134902  -0.162  0.108551  0  0  0  0  0  0  0  0  0 
1704717262.425430000  -2.50048  -0.300488  1.00046  0  0  0.0001571  -0.0099336  -0.0105527  0.0089642  0  0  0  -0.138571  -0.171125  0.110116  0  0  0  0  0  0  0  0  0 
1704717262.430433000  -2.50053  -0.300543  1.0005  0  0  0.0001639  -0.0106351  -0.0114317  0.0095182  0  0  0  -0.14199  -0.1805  0.11143  0  0  0  0  0  0  0  0  0 
1704717262.435433000  -2.50059  -0.300602  1.00055  0  0  0.0001708  -0.0113531  -0.0123581  0.0100781  0  0  0  -0.14516  -0.190125  0.112494  0  0  0  0  0  0  0  0  0 
1704717262.440432000  -2.50064  -0.300667  1.0006  0  0  0.0001776  -0.0120863  -0.0133333  0.0106427  0  0  0  -0.148079  -0.2  0.113308  0  0  0  0  0  0  0  0  0 
1704717262.445430000  -2.50071  -0.300736  1.00066  0  0  0.0001844  -0.0128334  -0.0143585  0.0112108  0  0  0  -0.150748  -0.210125  0.113872  0  0  0  0  0  0  0  0  0 
1704717262.450431000  -2.50077  -0.30081  1.00072  0  0  0.0001912  -0.0135933  -0.015435  0.011781  0  0  0  -0.153168  -0.2205  0.114186  0  0  0  0  0  0  0  0  0 
1704717262.455428000  -2.50084  -0.30089  1.00078  0  0  0.0001981  -0.0143647  -0.016564  0.0123522  0  0  0  -0.155337  -0.231125  0.11425  0  0  0  0  0  0  0  0  0 
1704717262.460429000  -2.50092  -0.300976  1.00084  0  0  0.0002049  -0.0151463  -0.0177467  0.0129231  0  0  0  -0.157257  -0.242  0.114065  0  0  0  0  0  0  0  0  0 
1704717262.465428000  -2.50099  -0.301068  1.00091  0  0  0.0002117  -0.0159368  -0.0189844  0.0134925  0  0  0  -0.158926  -0.253125  0.113629  0  0  0  0  0  0  0  0  0 
1704717262.470432000  -2.50108  -0.301166  1.00097  0  0  0.0002185  -0.0167351  -0.0202781  0.014059  0  0  0  -0.160345  -0.264342  0.112943  0  0  0  0  0  0  0  0  0 
1704717262.475434000  -2.50116  -0.301271  1.00105  0  0  0.0002254  -0.0175399  -0.0216274  0.0146215  0  0  0  -0.161515  -0.275319  0.112007  0  0  0  0  0  0  0  0  0 
1704717262.480433000  -2.50125  -0.301382  1.00112  0  0  0.0002322  -0.0183499  -0.0230309  0.0151787  0  0  0  -0.162434  -0.286046  0.110821  0  0  0  0  0  0  0  0  0 
1704717262.485431000  -2.50134  -0.301501  1.0012  0  0  0.000239  -0.0191638  -0.0244874  0.0157293  0  0  0  -0.163104  -0.296524  0.109385  0  0  0  0  0  0  0  0  0 
1704717262.490434000  -2.50144  -0.301627  1.00128  0  0  0.0002458  -0.0199805  -0.0259957  0.0162721  0  0  0  -0.163523  -0.306751  0.107699  0  0  0  0  0  0  0  0  0 
1704717262.495432000  -2.50154  -0.301761  1.00136  0  0  0.0002527  -0.0207986  -0.0275545  0.0168059  0  0  0  -0.163692  -0.316728  0.105764  0  0  0  0  0  0  0  0  0 
1704717262.500430000  -2.50165  -0.301903  1.00145  0  0  0.0002595  -0.021617  -0.0291626  0.0173293  0  0  0  -0.163612  -0.326456  0.103578  0  0  0  0  0  0  0  0  0 
1704717262.505429000  -2.50176  -0.302053  1.00153  0  0  0.0002663  -0.0224343  -0.0308187  0.0178412  0  0  0  -0.163281  -0.335933  0.101142  0  0  0  0  0  0  0  0  0 
1704717262.510432000  -2.50187  -0.302211  1.00162  0  0  0.0002731  -0.0232494  -0.0325215  0.0183403  0  0  0  -0.162701  -0.34516  0.098456  0  0  0  0  0  0  0  0  0 
1704717262.515428000  -2.50199  -0.302378  1.00172  0  0  0.0002799  -0.0240609  -0.0342698  0.0188254  0  0  0  -0.16187  -0.354138  0.0955201  0  0  0  0  0  0  0  0  0 
1704717262.520431000  -2.50212  -0.302554  1.00181  0  0  0.0002868  -0.0248677  -0.0360625  0.0192951  0  0  0  -0.160789  -0.362865  0.0923343  0  0  0  0  0  0  0  0  0 
1704717262.525433000  -2.50224  -0.302739  1.00191  0  0  0.0002936  -0.0256684  -0.0378981  0.0197483  0  0  0  -0.159459  -0.371342  0.0888984  0  0  0  0  0  0  0  0  0 
1704717262.530439000  -2.50237  -0.302933  1.00201  0  0  0.0003004  -0.0264618  -0.0397755  0.0201837  0  0  0  -0.157878  -0.37957  0.0852126  0  0  0  0  0  0  0  0  0 
1704717262.535431000  -2.50251  -0.303137  1.00211  0  0  0.0003072  -0.0272468  -0.0416934  0.0206  0  0  0  -0.156047  -0.387547  0.0812767  0  0  0  0  0  0  0  0  0 
1704717262.540427000  -2.50264  -0.30335  1.00222  0  0  0.0003141  -0.0280219  -0.0436505  0.020996  0  0  0  -0.153967  -0.395274  0.0770909  0  0  0  0  0  0  0  0  0 
1704717262.545429000  -2.50279  -0.303573  1.00232  0  0  0.0003209  -0.028786  -0.0456457  0.0213705  0  0  0  -0.151636  -0.402751  0.072655  0  0  0  0  0  0  0  0  0 
1704717262.550429000  -2.50293  -0.303807  1.00243  0  0  0.0003277  -0.0295378  -0.0476776  0.0217222  0  0  0  -0.149056  -0.409979  0.0679692  0  0  0  0  0  0  0  0  0 
1704717262.555431000  -2.50308  -0.30405  1.00254  0  0  0.0003345  -0.0302761  -0.0497451  0.0220498  0  0  0  -0.146225  -0.416956  0.0630333  0  0  0  0  0  0  0  0  0 
1704717262.560429000  -2.50324  -0.304304  1.00265  0  0  0.0003414  -0.0309997  -0.0518468  0.0223521  0  0  0  -0.143144  -0.423683  0.0578474  0  0  0  0  0  0  0  0  0 
1704717262.565429000  -2.50339  -0.304569  1.00276  0  0  0.0003482  -0.0317072  -0.0539815  0.0226281  0  0  0  -0.139814  -0.430161  0.0525987  0  0  0  0  0  0  0  0  0 
1704717262.570430000  -2.50355  -0.304844  1.00288  0  0  0.000355  -0.0323974  -0.0561479  0.0228785  0  0  0  -0.136233  -0.436388  0.0475954  0  0  0  0  0  0  0  0  0 
1704717262.575429000  -2.50372  -0.30513  1.00299  0  0  0.0003618  -0.0330691  -0.0583449  0.0231045  0  0  0  -0.132403  -0.442365  0.0428421  0  0  0  0  0  0  0  0  0 
1704717262.580428000  -2.50388  -0.305427  1.00311  0  0  0.0003687  -0.033721  -0.0605712  0.0233073  0  0  0  -0.128322  -0.448093  0.0383388  0  0  0  0  0  0  0  0  0 
1704717262.585432000  -2.50405  -0.305736  1.00322  0  0  0.0003755  -0.0343519  -0.0628254  0.0234883  0  0  0  -0.123991  -0.45357  0.0340855  0  0  0  0  0  0  0  0  0 
1704717262.590437000  -2.50423  -0.306056  1.00334  0  0  0.0003823  -0.0349605  -0.0651065  0.0236486  0  0  0  -0.119411  -0.458797  0.0300823  0  0  0  0  0  0  0  0  0 
1704717262.595428000  -2.5044  -0.306387  1.00346  0  0  0.0003891  -0.0355456  -0.067413  0.0237895  0  0  0  -0.11458  -0.463775  0.026329  0  0  0  0  0  0  0  0  0 
1704717262.600430000  -2.50458  -0.30673  1.00358  0  0  0.000396  -0.0361059  -0.0697438  0.0239123  0  0  0  -0.109499  -0.468502  0.0228257  0  0  0  0  0  0  0  0  0 
1704717262.605430000  -2.50476  -0.307084  1.0037  0  0  0.0004028  -0.0366402  -0.0720976  0.0240182  0  0  0  -0.104169  -0.472979  0.0195724  0  0  0  0  0  0  0  0  0 
1704717262.610438000  -2.50495  -0.307451  1.00382  0  0  0.0004096  -0.0371471  -0.0744732  0.0241084  0  0  0  -0.0985882  -0.477206  0.0165691  0  0  0  0  0  0  0  0  0 
1704717262.615437000  -2.50514  -0.307829  1.00394  0  0  0.0004164  -0.0376256  -0.0768692  0.0241843  0  0  0  -0.0927576  -0.481184  0.0138158  0  0  0  0  0  0  0  0  0 
1704717262.620431000  -2.50532  -0.30822  1.00406  0  0  0.0004233  -0.0380743  -0.0792846  0.024247  0  0  0  -0.086677  -0.484911  0.0113125  0  0  0  0  0  0  0  0  0 
1704717262.625430000  -2.50552  -0.308622  1.00418  0  0  0.0004301  -0.038492  -0.0817179  0.0242978  0  0  0  -0.08036  -0.488388  0.0090592  0  0  0  0  0  0  0  0  0 
1704717262.630433000  -2.50571  -0.309037  1.00431  0  0  0.0004369  -0.0388781  -0.0841681  0.024338  0  0  0  -0.0741462  -0.491616  0.0070559  0  0  0  0  0  0  0  0  0 
1704717262.635434000  -2.5059  -0.309464  1.00443  0  0  0.0004437  -0.0392339  -0.0866337  0.0243688  0  0  0  -0.0681825  -0.494593  0.0053026  0  0  0  0  0  0  0  0  0 
1704717262.640427000  -2.5061  -0.309903  1.00455  0  0  0.0004505  -0.0395604  -0.0891136  0.0243915  0  0  0  -0.0624687  -0.49732  0.0037994  0  0  0  0  0  0  0  0  0 
1704717262.645431000  -2.5063  -0.310355  1.00467  0  0  0.0004574  -0.039859  -0.0916065  0.0244072  0  0  0  -0.0570049  -0.499798  0.0025461  0  0  0  0  0  0  0  0  0 
1704717262.650434000  -2.5065  -0.310819  1.00479  0  0  0.0004642  -0.0401308  -0.0941111  0.0244173  0  0  0  -0.0517912  -0.502025  0.0015428  0  0  0  0  0  0  0  0  0 
1704717262.655432000  -2.5067  -0.311296  1.00492  0  0  0.000471  -0.0403773  -0.0966263  0.0244231  0  0  0  -0.0468274  -0.504002  0.0007895  0  0  0  0  0  0  0  0  0 
1704717262.660430000  -2.5069  -0.311786  1.00504  0  0  0.0004778  -0.0405995  -0.0991507  0.0244256  0  0  0  -0.0421136  -0.505729  0.0002862  0  0  0  0  0  0  0  0  0 
1704717262.665428000  -2.50711  -0.312288  1.00516  0  0  0.0004847  -0.0407988  -0.101683  0.0244263  0  0  0  -0.0376499  -0.507207  3.29e-05  0  0  0  0  0  0  0  0  0 
1704717262.670430000  -2.50731  -0.312802  1.00528  0  0  0.0004915  -0.0409765  -0.104222  0.0244264  0  0  0  -0.0334361  -0.508434  -0  0  0  0  0  0  0  0  0  0 
1704717262.675432000  -2.50752  -0.31333  1.0054  0  0  0.0004983  -0.0411336  -0.106767  0.0244264  0  0  0  -0.0294723  -0.509411  -0  0  0  0  0  0  0  0  0  0 
1704717262.680431000  -2.50772  -0.31387  1.00553  0  0  0.0005051  -0.0412716  -0.109316  0.0244264  0  0  0  -0.0257585  -0.510139  -0  0  0  0  0  0  0  0  0  0 
1704717262.685430000  -2.50793  -0.314423  1.00565  0  0  0.000512  -0.0413916  -0.111868  0.0244264  0  0  0  -0.0222948  -0.510616  -0  0  0  0  0  0  0  0  0  0 
1704717262.690429000  -2.50814  -0.314989  1.00577  0  0  0.0005188  -0.041495  -0.114422  0.0244264  0  0  0  -0.019081  -0.510843  -0  0  0  0  0  0  0  0  0  0 
1704717262.695431000  -2.50834  -0.315567  1.00589  0  0  0.0005256  -0.0415828  -0.116976  0.0244264  0  0  0  -0.0161172  -0.510821  -0  0  0  0  0  0  0  0  0  0 
1704717262.700429000  -2.50855  -0.316159  1.00601  0  0  0.0005324  -0.0416565  -0.11953  0.0244264  0  0  0  -0.0134035  -0.510548  -0  0  0  0  0  0  0  0  0  0 
1704717262.705432000  -2.50876  -0.316763  1.00614  0  0  0.0005393  -0.0417173  -0.122081  0.0244264  0  0  0  -0.0109397  -0.510025  -0  0  0  0  0  0  0  0  0  0 
1704717262.710434000  -2.50897  -0.317379  1.00626  0  0  0.0005461  -0.0417664  -0.124629  0.0244264  0  0  0  -0.0087259  -0.509253  -0  0  0  0  0  0  0  0  0  0 
1704717262.715431000  -2.50918  -0.318009  1.00638  0  0  0.0005529  -0.041805  -0.127173  0.0244264  0  0  0  -0.0067621  -0.50823  -0  0  0  0  0  0  0  0  0  0 
1704717262.720432000  -2.50939  -0.318651  1.0065  0  0  0.0005597  -0.0418344  -0.129711  0.0244264  0  0  0  -0.0050484  -0.506957  -0  0  0  0  0  0  0  0  0  0 
1704717262.725432000  -2.5096  -0.319306  1.00662  0  0  0.0005666  -0.0418559  -0.132242  0.0244264  0  0  0  -0.0035846  -0.505434  -0  0  0  0  0  0  0  0  0  0 
1704717262.730429000  -2.50981  -0.319973  1.00675  0  0  0.0005734  -0.0418707  -0.134765  0.0244264  0  0  0  -0.0023708  -0.503662  -0  0  0  0  0  0  0  0  0  0 
1704717262.735431000  -2.51002  -0.320654  1.00687  0  0  0.0005802  -0.04188  -0.137279  0.0244264  0  0  0  -0.0014071  -0.501639  -0  0  0  0  0  0  0  0  0  0 
1704717262.740429000  -2.51023  -0.321346  1.00699  0  0  0.000587  -0.0418851  -0.139781  0.0244264  0  0  0  -0.0006933  -0.499366  -0  0  0  0  0  0  0  0  0  0 
1704717262.745431000  -2.51043  -0.322051  1.00711  0  0  0.0005939  -0.0418873  -0.142272  0.0244264  0  0  0  -0.0002295  -0.496844  -0  0  0  0  0  0  0  0  0  0 
1704717262.750432000  -2.51064  -0.322769  1.00724  0  0  0.0006007  -0.0418879  -0.144749  0.0244264  0  0  0  -1.58e-05  -0.494071  -0  0  0  0  0  0  0  0  0  0 
1704717262.755431000  -2.51085  -0.323499  1.00736  0  0  0.0006075  -0.0418879  -0.147212  0.0244264  0  0  0  0  -0.491048  -0  0  0  0  0  0  0  0  0  0 
1704717262.760430000  -2.51106  -0.324241  1.00748  0  0  0.0006143  -0.0418879  -0.149659  0.0244264  0  0  0  0  -0.487776  -0  0  0  0  0  0  0  0  0  0 
1704717262.765428000  -2.51127  -0.324995  1.0076  0  0  0.0006211  -0.0418879  -0.152089  0.0244264  0  0  0  0  -0.484253  -0  0  0  0  0  0  0  0  0  0 
1704717262.770436000  -2.51148  -0.325762  1.00772  0  0  0.000628  -0.0418879  -0.154501  0.0244264  0  0  0  0  -0.48048  -0  0  0  0  0  0  0  0  0  0 
1704717262.775433000  -2.51169  -0.32654  1.00785  0  0  0.0006348  -0.0418879  -0.156894  0.0244264  0  0  0  0  -0.476458  -0  0  0  0  0  0  0  0  0  0 
1704717262.780434000  -2.5119  -0.327331  1.00797  0  0  0.0006416  -0.0418879  -0.159266  0.0244264  0  0  0  0  -0.472185  -0  0  0  0  0  0  0  0  0  0 
1704717262.785437000  -2.51211  -0.328133  1.00809  0  0  0.0006484  -0.0418879  -0.161615  0.0244264  0  0  0  0  -0.467662  -0  0  0  0  0  0  0  0  0  0 
1704717262.790437000  -2.51232  -0.328947  1.00821  0  0  0.0006553  -0.0418879  -0.163942  0.0244264  0  0  0  0  -0.462889  -0  0  0  0  0  0  0  0  0  0 
1704717262.795434000  -2.51253  -0.329772  1.00833  0  0  0.0006621  -0.0418879  -0.166244  0.0244264  0  0  0  0  -0.457867  -0  0  0  0  0  0  0  0  0  0 
1704717262.800433000  -2.51274  -0.330609  1.00846  0  0  0.0006689  -0.0418879  -0.16852  0.0244264  0  0  0  0  -0.452594  -0  0  0  0  0  0  0  0  0  0 
1704717262.805433000  -2.51295  -0.331458  1.00858  0  0  0.0006757  -0.0418879  -0.170769  0.0244264  0  0  0  0  -0.447071  -0  0  0  0  0  0  0  0  0  0 
1704717262.810433000  -2.51316  -0.332317  1.0087  0  0  0.0006826  -0.0418879  -0.17299  0.0244264  0  0  0  0  -0.441299  -0  0  0  0  0  0  0  0  0  0 
1704717262.815434000  -2.51337  -0.333187  1.00882  0  0  0.0006894  -0.0418879  -0.175182  0.0244264  0  0  0  0  -0.435276  -0  0  0  0  0  0  0  0  0  0 
1704717262.820434000  -2.51358  -0.334069  1.00895  0  0  0.0006962  -0.0418879  -0.177343  0.0244264  0  0  0  0  -0.429003  -0  0  0  0  0  0  0  0  0  0 
1704717262.825435000  -2.51379  -0.334961  1.00907  0  0  0.000703  -0.0418879  -0.179472  0.0244264  0  0  0  0  -0.422481  -0  0  0  0  0  0  0  0  0  0 
1704717262.830452000  -2.514  -0.335863  1.00919  0  0  0.0007099  -0.0418879  -0.181567  0.0244264  0  0  0  0  -0.415708  -0  0  0  0  0  0  0  0  0  0 
1704717262.835436000  -2.5142  -0.336776  1.00931  0  0  0.0007167  -0.0418879  -0.183628  0.0244264  0  0  0  0  -0.408685  -0  0  0  0  0  0  0  0  0  0 
1704717262.840432000  -2.51441  -0.3377  1.00943  0  0  0.0007235  -0.0418879  -0.185654  0.0244264  0  0  0  0  -0.401413  -0  0  0  0  0  0  0  0  0  0 
1704717262.845437000  -2.51462  -0.338633  1.00956  0  0  0.0007303  -0.0418879  -0.187642  0.0244264  0  0  0  0  -0.39389  -0  0  0  0  0  0  0  0  0  0 
1704717262.850435000  -2.51483  -0.339576  1.00968  0  0  0.0007372  -0.0418879  -0.189592  0.0244264  0  0  0  0  -0.386117  -0  0  0  0  0  0  0  0  0  0 
1704717262.855434000  -2.51504  -0.340529  1.0098  0  0  0.000744  -0.0418879  -0.191503  0.0244264  0  0  0  0  -0.378094  -0  0  0  0  0  0  0  0  0  0 
1704717262.860432000  -2.51525  -0.341491  1.00992  0  0  0.0007508  -0.0418879  -0.193373  0.0244264  0  0  0  0  -0.369822  -0  0  0  0  0  0  0  0  0  0 
1704717262.865432000  -2.51546  -0.342462  1.01004  0  0  0.0007576  -0.0418879  -0.1952  0.0244264  0  0  0  0  -0.361299  -0  0  0  0  0  0  0  0  0  0 
1704717262.870435000  -2.51567  -0.343443  1.01017  0  0  0.0007644  -0.0418879  -0.196985  0.0244264  0  0  0  0  -0.352526  -0  0  0  0  0  0  0  0  0  0 
1704717262.875437000  -2.51588  -0.344432  1.01029  0  0  0.0007713  -0.0418879  -0.198725  0.0244264  0  0  0  0  -0.343504  -0  0  0  0  0  0  0  0  0  0 
1704717262.880436000  -2.51609  -0.34543  1.01041  0  0  0.0007781  -0.0418879  -0.20042  0.0244264  0  0  0  0  -0.334231  -0  0  0  0  0  0  0  0  0  0 
1704717262.885434000  -2.5163  -0.346436  1.01053  0  0  0.0007849  -0.0418879  -0.202067  0.0244264  0  0  0  0  -0.324708  -0  0  0  0  0  0  0  0  0  0 
1704717262.890433000  -2.51651  -0.347451  1.01066  0  0  0.0007917  -0.0418879  -0.203666  0.0244264  0  0  0  0  -0.314936  -0  0  0  0  0  0  0  0  0  0 
1704717262.895435000  -2.51672  -0.348473  1.01078  0  0  0.0007986  -0.0418879  -0.205216  0.0244264  0  0  0  0  -0.304913  -0  0  0  0  0  0  0  0  0  0 
1704717262.900433000  -2.51693  -0.349503  1.0109  0  0  0.0008054  -0.0418879  -0.206715  0.0244264  0  0  0  0  -0.29464  -0  0  0  0  0  0  0  0  0  0 
1704717262.905432000  -2.51714  -0.35054  1.01102  0  0  0.0008122  -0.0418879  -0.208162  0.0244264  0  0  0  0  -0.284118  -0  0  0  0  0  0  0  0  0  0 
1704717262.910434000  -2.51735  -0.351584  1.01114  0  0  0.000819  -0.0418879  -0.209556  0.0244264  0  0  0  0  -0.273345  -0  0  0  0  0  0  0  0  0  0 
1704717262.915416000  -2.51756  -0.352635  1.01127  0  0  0.0008259  -0.0418879  -0.210895  0.0244264  0  0  0  0  -0.262322  -0  0  0  0  0  0  0  0  0  0 
1704717262.920431000  -2.51777  -0.353693  1.01139  0  0  0.0008327  -0.0418879  -0.212179  0.0244264  0  0  0  0  -0.251087  -0  0  0  0  0  0  0  0  0  0 
1704717262.925435000  -2.51797  -0.354757  1.01151  0  0  0.0008395  -0.0418879  -0.213406  0.0244264  0  0  0  0  -0.240007  -0  0  0  0  0  0  0  0  0  0 
1704717262.930433000  -2.51818  -0.355827  1.01163  0  0  0.0008463  -0.0418879  -0.214579  0.0244264  0  0  0  0  -0.229177  -0  0  0  0  0  0  0  0  0  0 
1704717262.935436000  -2.51839  -0.356903  1.01175  0  0  0.0008532  -0.0418879  -0.215699  0.0244264  0  0  0  0  -0.218598  -0  0  0  0  0  0  0  0  0  0 
1704717262.940428000  -2.5186  -0.357984  1.01188  0  0  0.00086  -0.0418879  -0.216766  0.0244264  0  0  0  0  -0.208268  -0  0  0  0  0  0  0  0  0  0 
1704717262.945435000  -2.51881  -0.35907  1.012  0  0  0.0008668  -0.0418879  -0.217782  0.0244264  0  0  0  0  -0.198189  -0  0  0  0  0  0  0  0  0  0 
1704717262.950487000  -2.51902  -0.360162  1.01212  0  0  0.0008736  -0.0418879  -0.218748  0.0244264  0  0  0  0  -0.188359  -0  0  0  0  0  0  0  0  0  0 
1704717262.955436000  -2.51923  -0.361258  1.01224  0  0  0.0008805  -0.0418879  -0.219666  0.0244264  0  0  0  0  -0.178779  -0  0  0  0  0  0  0  0  0  0 
1704717262.960433000  -2.51944  -0.362358  1.01237  0  0  0.0008873  -0.0418879  -0.220536  0.0244264  0  0  0  0  -0.16945  -0  0  0  0  0  0  0  0  0  0 
1704717262.965433000  -2.51965  -0.363463  1.01249  0  0  0.0008941  -0.0418879  -0.221361  0.0244264  0  0  0  0  -0.16037  -0  0  0  0  0  0  0  0  0  0 
1704717262.970439000  -2.51986  -0.364572  1.01261  0  0  0.0009009  -0.0418879  -0.22214  0.0244264  0  0  0  0  -0.151541  -0  0  0  0  0  0  0  0  0  0 
1704717262.975433000  -2.52007  -0.365684  1.01273  0  0  0.0009078  -0.0418879  -0.222876  0.0244264  0  0  0  0  -0.142961  -0  0  0  0  0  0  0  0  0  0 
1704717262.980430000  -2.52028  -0.3668  1.01285  0  0  0.0009146  -0.0418879  -0.22357  0.0244264  0  0  0  0  -0.134631  -0  0  0  0  0  0  0  0  0  0 
1704717262.985434000  -2.52049  -0.36792  1.01298  0  0  0.0009214  -0.0418879  -0.224223  0.0244264  0  0  0  0  -0.126552  -0  0  0  0  0  0  0  0  0  0 
1704717262.990438000  -2.5207  -0.369043  1.0131  0  0  0.0009282  -0.0418879  -0.224836  0.0244264  0  0  0  0  -0.118722  -0  0  0  0  0  0  0  0  0  0 
1704717262.995436000  -2.52091  -0.370168  1.01322  0  0  0.000935  -0.0418879  -0.225411  0.0244264  0  0  0  0  -0.111143  -0  0  0  0  0  0  0  0  0  0 
1704717263.000432000  -2.52112  -0.371297  1.01334  0  0  0.0009419  -0.0418879  -0.225948  0.0244264  0  0  0  0  -0.103813  -0  0  0  0  0  0  0  0  0  0 
1704717263.005435000  -2.52133  -0.372428  1.01346  0  0  0.0009487  -0.0418879  -0.226449  0.0244264  0  0  0  0  -0.0967333  -0  0  0  0  0  0  0  0  0  0 
1704717263.010434000  -2.52154  -0.373561  1.01359  0  0  0.0009555  -0.0418879  -0.226916  0.0244264  0  0  0  0  -0.0899037  -0  0  0  0  0  0  0  0  0  0 
1704717263.015430000  -2.52174  -0.374697  1.01371  0  0  0.0009623  -0.0418879  -0.227349  0.0244264  0  0  0  0  -0.0833241  -0  0  0  0  0  0  0  0  0  0 
1704717263.020430000  -2.52195  -0.375835  1.01383  0  0  0.0009692  -0.0418879  -0.227749  0.0244264  0  0  0  0  -0.0769944  -0  0  0  0  0  0  0  0  0  0 
1704717263.025434000  -2.52216  -0.376974  1.01395  0  0  0.000976  -0.0418879  -0.228119  0.0244264  0  0  0  0  -0.0709148  -0  0  0  0  0  0  0  0  0  0 
1704717263.030430000  -2.52237  -0.378116  1.01407  0  0  0.0009828  -0.0418879  -0.228459  0.0244264  0  0  0  0  -0.0650852  -0  0  0  0  0  0  0  0  0  0 
1704717263.035435000  -2.52258  -0.379259  1.0142  0  0  0.0009896  -0.0418879  -0.22877  0.0244264  0  0  0  0  -0.0595056  -0  0  0  0  0  0  0  0  0  0 
1704717263.040431000  -2.52279  -0.380403  1.01432  0  0  0.0009965  -0.0418879  -0.229054  0.0244264  0  0  0  0  -0.054176  -0  0  0  0  0  0  0  0  0  0 
1704717263.045414000  -2.523  -0.381549  1.01444  0  0  0.0010033  -0.0418879  -0.229313  0.0244264  0  0  0  0  -0.0490964  -0  0  0  0  0  0  0  0  0  0 
1704717263.050433000  -2.52321  -0.382696  1.01456  0  0  0.0010101  -0.0418879  -0.229546  0.0244264  0  0  0  0  -0.0442668  -0  0  0  0  0  0  0  0  0  0 
1704717263.055433000  -2.52342  -0.383845  1.01469  0  0  0.0010169  -0.0418879  -0.229756  0.0244264  0  0  0  0  -0.0396872  -0  0  0  0  0  0  0  0  0  0 
1704717263.060431000  -2.52363  -0.384994  1.01481  0  0  0.0010238  -0.0418879  -0.229943  0.0244264  0  0  0  0  -0.0353575  -0  0  0  0  0  0  0  0  0  0 
1704717263.065433000  -2.52384  -0.386144  1.01493  0  0  0.0010306  -0.0418879  -0.23011  0.0244264  0  0  0  0  -0.0312779  -0  0  0  0  0  0  0  0  0  0 
1704717263.070434000  -2.52405  -0.387295  1.01505  0  0  0.0010374  -0.0418879  -0.230256  0.0244264  0  0  0  0  -0.0274483  -0  0  0  0  0  0  0  0  0  0 
1704717263.075433000  -2.52426  -0.388447  1.01517  0  0  0.0010442  -0.0418879  -0.230384  0.0244264  0  0  0  0  -0.0238687  -0  0  0  0  0  0  0  0  0  0 
1704717263.080435000  -2.52447  -0.389599  1.0153  0  0  0.001051  -0.0418879  -0.230495  0.0244264  0  0  0  0  -0.0205391  -0  0  0  0  0  0  0  0  0  0 
1704717263.085434000  -2.52468  -0.390752  1.01542  0  0  0.0010579  -0.0418879  -0.23059  0.0244264  0  0  0  0  -0.0174595  -0  0  0  0  0  0  0  0  0  0 
1704717263.090439000  -2.52489  -0.391905  1.01554  0  0  0.0010647  -0.0418879  -0.23067  0.0244264  0  0  0  0  -0.0146299  -0  0  0  0  0  0  0  0  0  0 
1704717263.095439000  -2.5251  -0.393058  1.01566  0  0  0.0010715  -0.0418879  -0.230737  0.0244264  0  0  0  0  -0.0120502  -0  0  0  0  0  0  0  0  0  0 
1704717263.100439000  -2.5253  -0.394212  1.01578  0  0  0.0010784  -0.0418879  -0.230791  0.0244264  0  0  0  0  -0.0097206  -0  0  0  0  0  0  0  0  0  0 
1704717263.105442000  -2.52551  -0.395366  1.01591  0  0  0.0010852  -0.0418879  -0.230835  0.0244264  0  0  0  0  -0.007641  -0  0  0  0  0  0  0  0  0  0 
1704717263.110446000  -2.52572  -0.39652  1.01603  0  0  0.001092  -0.0418879  -0.230868  0.0244264  0  0  0  0  -0.0058114  -0  0  0  0  0  0  0  0  0  0 
1704717263.115439000  -2.52593  -0.397675  1.01615  0  0  0.0010988  -0.0418879  -0.230893  0.0244264  0  0  0  0  -0.0042318  -0  0  0  0  0  0  0  0  0  0 
1704717263.120440000  -2.52614  -0.398829  1.01627  0  0  0.0011056  -0.0418879  -0.230911  0.0244264  0  0  0  0  -0.0029022  -0  0  0  0  0  0  0  0  0  0 
1704717263.125442000  -2.52635  -0.399984  1.0164  0  0  0.0011125  -0.0418879  -0.230923  0.0244264  0  0  0  0  -0.0018226  -0  0  0  0  0  0  0  0  0  0 
1704717263.130445000  -2.52656  -0.401139  1.01652  0  0  0.0011193  -0.0418879  -0.23093  0.0244264  0  0  0  0  -0.000993  -0  0  0  0  0  0  0  0  0  0 
1704717263.135424000  -2.52677  -0.402293  1.01664  0  0  0.0011261  -0.0418879  -0.230933  0.0244264  0  0  0  0  -0.0004133  -0  0  0  0  0  0  0  0  0  0 
1704717263.140440000  -2.52698  -0.403448  1.01676  0  0  0.0011329  -0.0418879  -0.230934  0.0244264  0  0  0  0  -8.37e-05  -0  0  0  0  0  0  0  0  0  0 
1704717263.145441000  -2.52719  -0.404603  1.01688  0  0  0.0011398  -0.0418879  -0.230934  0.0244264  0  0  0  0  1.3e-06  -0  0  0  0  0  0  0  0  0  0 
1704717263.150444000  -2.5274  -0.405757  1.01701  0  0  0.0011466  -0.0418879  -0.230934  0.0244264  0  0  0  0  0.0001523  -0  0  0  0  0  0  0  0  0  0 
1704717263.155442000  -2.52761  -0.406912  1.01713  0  0  0.0011534  -0.0418879  -0.230932  0.0244264  0  0  0  0  0.0005533  -0  0  0  0  0  0  0  0  0  0 
1704717263.160438000  -2.52782  -0.408067  1.01725  0  0  0.0011602  -0.0418879  -0.230928  0.0244264  0  0  0  0  0.0012042  -0  0  0  0  0  0  0  0  0  0 
1704717263.165428000  -2.52803  -0.409221  1.01737  0  0  0.0011671  -0.0418879  -0.23092  0.0244264  0  0  0  0  0.0021052  -0  0  0  0  0  0  0  0  0  0 
1704717263.170460000  -2.52824  -0.410376  1.01749  0  0  0.0011739  -0.0418879  -0.230907  0.0244264  0  0  0  0  0.0032562  -0  0  0  0  0  0  0  0  0  0 
1704717263.175425000  -2.52845  -0.41153  1.01762  0  0  0.0011807  -0.0418879  -0.230887  0.0244264  0  0  0  0  0.0046571  -0  0  0  0  0  0  0  0  0  0 
1704717263.180425000  -2.52866  -0.412685  1.01774  0  0  0.0011875  -0.0418879  -0.23086  0.0244264  0  0  0  0  0.0063081  -0  0  0  0  0  0  0  0  0  0 
1704717263.185440000  -2.52887  -0.413839  1.01786  0  0  0.0011944  -0.0418879  -0.230823  0.0244264  0  0  0  0  0.008209  -0  0  0  0  0  0  0  0  0  0 
1704717263.190440000  -2.52907  -0.414993  1.01798  0  0  0.0012012  -0.0418879  -0.230777  0.0244264  0  0  0  0  0.01036  -0  0  0  0  0  0  0  0  0  0 
1704717263.195443000  -2.52928  -0.416147  1.01811  0  0  0.001208  -0.0418879  -0.230719  0.0244264  0  0  0  0  0.012761  -0  0  0  0  0  0  0  0  0  0 
1704717263.200447000  -2.52949  -0.4173  1.01823  0  0  0.0012148  -0.0418879  -0.230649  0.0244264  0  0  0  0  0.0154119  -0  0  0  0  0  0  0  0  0  0 
1704717263.205439000  -2.5297  -0.418453  1.01835  0  0  0.0012216  -0.0418879  -0.230565  0.0244264  0  0  0  0  0.0183129  -0  0  0  0  0  0  0  0  0  0 
1704717263.210442000  -2.52991  -0.419606  1.01847  0  0  0.0012285  -0.0418879  -0.230465  0.0244264  0  0  0  0  0.0214638  -0  0  0  0  0  0  0  0  0  0 
1704717263.215438000  -2.53012  -0.420758  1.01859  0  0  0.0012353  -0.0418879  -0.23035  0.0244264  0  0  0  0  0.0248648  -0  0  0  0  0  0  0  0  0  0 
1704717263.220441000  -2.53033  -0.421909  1.01872  0  0  0.0012421  -0.0418879  -0.230216  0.0244264  0  0  0  0  0.0285158  -0  0  0  0  0  0  0  0  0  0 
1704717263.225443000  -2.53054  -0.42306  1.01884  0  0  0.0012489  -0.0418879  -0.230064  0.0244264  0  0  0  0  0.0324167  -0  0  0  0  0  0  0  0  0  0 
1704717263.230441000  -2.53075  -0.42421  1.01896  0  0  0.0012558  -0.0418879  -0.229892  0.0244264  0  0  0  0  0.0365677  -0  0  0  0  0  0  0  0  0  0 
1704717263.235424000  -2.53096  -0.425359  1.01908  0  0  0.0012626  -0.0418879  -0.229698  0.0244264  0  0  0  0  0.0409687  -0  0  0  0  0  0  0  0  0  0 
1704717263.240439000  -2.53117  -0.426507  1.0192  0  0  0.0012694  -0.0418879  -0.229482  0.0244264  0  0  0  0  0.0456196  -0  0  0  0  0  0  0  0  0  0 
1704717263.245441000  -2.53138  -0.427653  1.01933  0  0  0.0012762  -0.0418879  -0.229241  0.0244264  0  0  0  0  0.0505206  -0  0  0  0  0  0  0  0  0  0 
1704717263.250443000  -2.53159  -0.428799  1.01945  0  0  0.0012831  -0.0418879  -0.228976  0.0244264  0  0  0  0  0.0556715  -0  0  0  0  0  0  0  0  0  0 
1704717263.255444000  -2.5318  -0.429943  1.01957  0  0  0.0012899  -0.0418879  -0.228684  0.0244264  0  0  0  0  0.0610725  -0  0  0  0  0  0  0  0  0  0 
1704717263.260440000  -2.53201  -0.431086  1.01969  0  0  0.0012967  -0.0418879  -0.228365  0.0244264  0  0  0  0  0.0667235  -0  0  0  0  0  0  0  0  0  0 
1704717263.265439000  -2.53222  -0.432227  1.01982  0  0  0.0013035  -0.0418879  -0.228017  0.0244264  0  0  0  0  0.0726244  -0  0  0  0  0  0  0  0  0  0 
1704717263.270441000  -2.53243  -0.433366  1.01994  0  0  0.0013104  -0.0418879  -0.227638  0.0244264  0  0  0  0  0.0787754  -0  0  0  0  0  0  0  0  0  0 
1704717263.275437000  -2.53264  -0.434503  1.02006  0  0  0.0013172  -0.0418879  -0.227228  0.0244264  0  0  0  0  0.0851763  -0  0  0  0  0  0  0  0  0  0 
1704717263.280423000  -2.53284  -0.435638  1.02018  0  0  0.001324  -0.0418879  -0.226786  0.0244264  0  0  0  0  0.0918273  -0  0  0  0  0  0  0  0  0  0 
1704717263.285422000  -2.53305  -0.436771  1.0203  0  0  0.0013308  -0.0418879  -0.22631  0.0244264  0  0  0  0  0.0987283  -0  0  0  0  0  0  0  0  0  0 
1704717263.290430000  -2.53326  -0.437901  1.02043  0  0  0.0013376  -0.0418879  -0.225798  0.0244264  0  0  0  0  0.105879  -0  0  0  0  0  0  0  0  0  0 
1704717263.295420000  -2.53347  -0.439029  1.02055  0  0  0.0013444  -0.0418879  -0.225251  0.0244264  0  0  0  0  0.11328  -0  0  0  0  0  0  0  0  0  0 
1704717263.300420000  -2.53368  -0.440154  1.02067  0  0  0.0013511  -0.0418879  -0.224665  0.0244264  0  0  0  0  0.120931  -0  0  0  0  0  0  0  0  0  0 
1704717263.305420000  -2.53389  -0.441275  1.02079  0  0  0.0013577  -0.0418879  -0.224041  0.0244264  0  0  0  0  0.128832  -0  0  0  0  0  0  0  0  0  0 
1704717263.310426000  -2.5341  -0.442394  1.02091  0  0  0.0013642  -0.0418879  -0.223376  0.0244264  0  0  0  0  0.136983  -0  0  0  0  0  0  0  0  0  0 
1704717263.315419000  -2.53431  -0.443509  1.02104  0  0  0.0013704  -0.0418879  -0.222671  0.0244264  0  0  0  0  0.145384  -0  0  0  0  0  0  0  0  0  0 
1704717263.320424000  -2.53452  -0.444621  1.02116  0  0  0.0013764  -0.0418879  -0.221922  0.0244264  0  0  0  0  0.154035  -0  0  0  0  0  0  0  0  0  0 
1704717263.325423000  -2.53473  -0.445728  1.02128  0  0  0.001382  -0.0418879  -0.22113  0.0244264  0  0  0  0  0.162936  -0  0  0  0  0  0  0  0  0  0 
1704717263.330435000  -2.53494  -0.446832  1.0214  0  0  0.0013871  -0.0418879  -0.220292  0.0244264  0  0  0  0  0.172087  -0  0  0  0  0  0  0  0  0  0 
1704717263.335421000  -2.53515  -0.447931  1.02152  0  0  0.0013917  -0.0418879  -0.219409  0.0244264  0  0  0  0  0.181488  -0  0  0  0  0  0  0  0  0  0 
1704717263.340418000  -2.53536  -0.449026  1.02165  0  0  0.0013956  -0.0418879  -0.218477  0.0244264  0  0  0  0  0.191139  -0  0  0  0  0  0  0  0  0  0 
1704717263.345418000  -2.53557  -0.450116  1.02177  0  0  0.0013987  -0.0418879  -0.217497  0.0244264  0  0  0  0  0.20104  -0  0  0  0  0  0  0  0  0  0 
1704717263.350424000  -2.53578  -0.451201  1.02189  0  0  0.0014009  -0.0418879  -0.216466  0.0244264  0  0  0  0  0.211191  -0  0  0  0  0  0  0  0  0  0 
1704717263.355420000  -2.53599  -0.45228  1.02201  0  0  0.0014021  -0.0418879  -0.215384  0.0244264  0  0  0  0  0.221592  -0  0  0  0  0  0  0  0  0  0 
1704717263.360422000  -2.5362  -0.453354  1.02214  0  0  0.001402  -0.0418879  -0.21425  0.0244264  0  0  0  0  0.232243  -0  0  0  0  0  0  0  0  0  0 
1704717263.365418000  -2.53641  -0.454423  1.02226  0  0  0.0014006  -0.0418879  -0.213062  0.0244264  0  0  0  0  0.243144  -0  0  0  0  0  0  0  0  0  0 
1704717263.370425000  -2.53661  -0.455485  1.02238  0  0  0.0013976  -0.0418879  -0.211818  0.0244264  0  0  0  0  0.254295  -0  0  0  0  0  0  0  0  0  0 
1704717263.375423000  -2.53682  -0.456541  1.0225  0  0  0.0013929  -0.0418879  -0.210518  0.0244264  0  0  0  0  0.265696  -0  0  0  0  0  0  0  0  0  0 
1704717263.380423000  -2.53703  -0.45759  1.02262  0  0  0.0013863  -0.0418879  -0.209161  0.0244264  0  0  0  0  0.277347  -0  0  0  0  0  0  0  0  0  0 
1704717263.385419000  -2.53724  -0.458632  1.02275  0  0  0.0013776  -0.0418879  -0.207744  0.0244264  0  0  0  0  0.289247  -0  0  0  0  0  0  0  0  0  0 
1704717263.390435000  -2.53745  -0.459667  1.02287  0  0  0.0013666  -0.0418879  -0.206268  0.0244264  0  0  0  0  0.301398  -0  0  0  0  0  0  0  0  0  0 
1704717263.395419000  -2.53766  -0.460695  1.02299  0  0  0.001353  -0.0418879  -0.20473  0.0244264  0  0  0  0  0.313799  -0  0  0  0  0  0  0  0  0  0 
1704717263.400421000  -2.53787  -0.461715  1.02311  0  0  0.0013366  -0.0418879  -0.203129  0.0244264  0  0  0  0  0.32645  -0  0  0  0  0  0  0  0  0  0 
1704717263.405420000  -2.53808  -0.462726  1.02323  0  0  0.0013173  -0.0418879  -0.201465  0.0244264  0  0  0  0  0.339351  -0  0  0  0  0  0  0  0  0  0 
1704717263.410426000  -2.53829  -0.463729  1.02336  0  0  0.0012947  -0.0418879  -0.199735  0.0244264  0  0  0  0  0.352502  -0  0  0  0  0  0  0  0  0  0 
1704717263.415420000  -2.5385  -0.464723  1.02348  0  0  0.0012685  -0.0418879  -0.19794  0.0244264  0  0  0  0  0.365903  -0  0  0  0  0  0  0  0  0  0 
1704717263.420422000  -2.53871  -0.465708  1.0236  0  0  0.0012387  -0.0418879  -0.196076  0.0244264  0  0  0  0  0.379554  -0  0  0  0  0  0  0  0  0  0 
1704717263.425423000  -2.53892  -0.466684  1.02372  0  0  0.0012049  -0.0418879  -0.194144  0.0244264  0  0  0  0  0.393455  -0  0  0  0  0  0  0  0  0  0 
1704717263.430436000  -2.53913  -0.46765  1.02385  0  0  0.001167  -0.0418879  -0.192141  0.0244264  0  0  0  0  0.407606  -0  0  0  0  0  0  0  0  0  0 
1704717263.435421000  -2.53934  -0.468605  1.02397  0  0  0.0011247  -0.0418879  -0.190067  0.0244264  0  0  0  0  0.422007  -0  0  0  0  0  0  0  0  0  0 
1704717263.440417000  -2.53955  -0.46955  1.02409  0  0  0.0010778  -0.0418879  -0.187921  0.0244264  0  0  0  0  0.436658  -0  0  0  0  0  0  0  0  0  0 
1704717263.445420000  -2.53976  -0.470484  1.02421  0  0  0.0010262  -0.0418879  -0.1857  0.0244264  0  0  0  0  0.451559  -0  0  0  0  0  0  0  0  0  0 
1704717263.450426000  -2.53997  -0.471407  1.02433  0  0  0.0009698  -0.0418879  -0.183405  0.0244264  0  0  0  0  0.46671  -0  0  0  0  0  0  0  0  0  0 
1704717263.455421000  -2.54018  -0.472318  1.02446  0  0  0.0009082  -0.0418879  -0.181033  0.0244264  0  0  0  0  0.482111  -0  0  0  0  0  0  0  0  0  0 
1704717263.460419000  -2.54038  -0.473217  1.02458  0  0  0.0008415  -0.0418879  -0.178583  0.0244264  0  0  0  0  0.497762  -0  0  0  0  0  0  0  0  0  0 
1704717263.465418000  -2.54059  -0.474104  1.0247  0  0  0.0007694  -0.0418879  -0.176055  0.0244264  0  0  0  0  0.513663  -0  0  0  0  0  0  0  0  0  0 
1704717263.470426000  -2.5408  -0.474978  1.02482  0  0  0.0006919  -0.0418879  -0.173446  0.0244264  0  0  0  0  0.529814  -0  0  0  0  0  0  0  0  0  0 
1704717263.475419000  -2.54101  -0.475838  1.02494  0  0  0.0006088  -0.0418879  -0.170756  0.0244264  0  0  0  0  0.546215  -0  0  0  0  0  0  0  0  0  0 
1704717263.480419000  -2.54122  -0.476685  1.02507  0  0  0.0005199  -0.0418879  -0.167983  0.0244264  0  0  0  0  0.562866  -0  0  0  0  0  0  0  0  0  0 
1704717263.485421000  -2.54143  -0.477518  1.02519  0  0  0.0004253  -0.0418879  -0.165127  0.0244264  0  0  0  0  0.579767  -0  0  0  0  0  0  0  0  0  0 
1704717263.490425000  -2.54164  -0.478336  1.02531  0  0  0.0003248  -0.0418879  -0.162185  0.0244264  0  0  0  0  0.596918  -0  0  0  0  0  0  0  0  0  0 
1704717263.495429000  -2.54185  -0.47914  1.02543  0  0  0.0002183  -0.0418879  -0.159157  0.0244264  0  0  0  0  0.614319  -0  0  0  0  0  0  0  0  0  0 
1704717263.500424000  -2.54206  -0.479928  1.02556  0  0  0.0001057  -0.0418879  -0.156042  0.0244264  0  0  0  0  0.63197  -0  0  0  0  0  0  0  0  0  0 
1704717263.505481000  -2.54227  -0.4807  1.02568  0  0  -1.29e-05  -0.0418879  -0.152837  0.0244264  0  0  0  0  0.649871  -0  0  0  0  0  0  0  0  0  0 
1704717263.510426000  -2.54248  -0.481456  1.0258  0  0  -0.0001377  -0.0418879  -0.149543  0.0244264  0  0  0  0  0.668022  -0  0  0  0  0  0  0  0  0  0 
1704717263.515416000  -2.54269  -0.482195  1.02592  0  0  -0.0002687  -0.0418879  -0.146157  0.0244264  0  0  0  0  0.686422  -0  0  0  0  0  0  0  0  0  0 
1704717263.520419000  -2.5429  -0.482917  1.02604  0  0  -0.0004059  -0.0418879  -0.142678  0.0244264  0  0  0  0  0.705073  -0  0  0  0  0  0  0  0  0  0 
1704717263.525427000  -2.54311  -0.483622  1.02617  0  0  -0.0005494  -0.0418879  -0.139105  0.0244264  0  0  0  0  0.723974  -0  0  0  0  0  0  0  0  0  0 
1704717263.530424000  -2.54332  -0.484308  1.02629  0  0  -0.000699  -0.0418879  -0.135438  0.0244264  0  0  0  0  0.743125  -0  0  0  0  0  0  0  0  0  0 
1704717263.535423000  -2.54353  -0.484976  1.02641  0  0  -0.000855  -0.0418879  -0.131674  0.0244264  0  0  0  0  0.762423  -0  0  0  0  0  0  0  0  0  0 
1704717263.540418000  -2.54374  -0.485625  1.02653  0  0  -0.0010172  -0.0418879  -0.127814  0.0244264  0  0  0  0  0.781501  -0  0  0  0  0  0  0  0  0  0 
1704717263.545422000  -2.54395  -0.486254  1.02665  0  0  -0.0011856  -0.0418879  -0.123859  0.0244264  0  0  0  0  0.80033  -0  0  0  0  0  0  0  0  0  0 
1704717263.550424000  -2.54415  -0.486863  1.02678  0  0  -0.0013603  -0.0418879  -0.119811  0.0244264  0  0  0  0  0.818909  -0  0  0  0  0  0  0  0  0  0 
1704717263.555435000  -2.54436  -0.487452  1.0269  0  0  -0.0015412  -0.0418879  -0.115671  0.0244264  0  0  0  0  0.837238  -0  0  0  0  0  0  0  0  0  0 
1704717263.560418000  -2.54457  -0.48802  1.02702  0  0  -0.0017284  -0.0418879  -0.111439  0.0244264  0  0  0  0  0.855317  -0  0  0  0  0  0  0  0  0  0 
1704717263.565424000  -2.54478  -0.488566  1.02714  0  0  -0.0019219  -0.0418879  -0.107118  0.0244264  0  0  0  0  0.873146  -0  0  0  0  0  0  0  0  0  0 
1704717263.570427000  -2.54499  -0.489091  1.02727  0  0  -0.0021215  -0.0418879  -0.102708  0.0244264  0  0  0  0  0.890725  -0  0  0  0  0  0  0  0  0  0 
1704717263.575424000  -2.5452  -0.489593  1.02739  0  0  -0.0023275  -0.0418879  -0.0982111  0.0244264  0  0  0  0  0.908054  -0  0  0  0  0  0  0  0  0  0 
1704717263.580419000  -2.54541  -0.490073  1.02751  0  0  -0.0025397  -0.0418879  -0.093628  0.0244264  0  0  0  0  0.925132  -0  0  0  0  0  0  0  0  0  0 
1704717263.585422000  -2.54562  -0.490529  1.02763  0  0  -0.0027581  -0.0418879  -0.0889602  0.0244264  0  0  0  0  0.941961  -0  0  0  0  0  0  0  0  0  0 
1704717263.590426000  -2.54583  -0.490962  1.02775  0  0  -0.0029828  -0.0418879  -0.0842088  0.0244264  0  0  0  0  0.95854  -0  0  0  0  0  0  0  0  0  0 
1704717263.595420000  -2.54604  -0.491371  1.02788  0  0  -0.0032137  -0.0418879  -0.0793752  0.0244264  0  0  0  0  0.974869  -0  0  0  0  0  0  0  0  0  0 
1704717263.600420000  -2.54625  -0.491756  1.028  0  0  -0.0034509  -0.0418879  -0.0744605  0.0244264  0  0  0  0  0.990948  -0  0  0  0  0  0  0  0  0  0 
1704717263.605424000  -2.54646  -0.492116  1.02812  0  0  -0.0036944  -0.0418879  -0.0694661  0.0244264  0  0  0  0  1.00678  -0  0  0  0  0  0  0  0  0  0 
1704717263.610427000  -2.54667  -0.49245  1.02824  0  0  -0.0039441  -0.0418879  -0.0643932  0.0244264  0  0  0  0  1.02236  -0  0  0  0  0  0  0  0  0  0 
1704717263.615423000  -2.54688  -0.49276  1.02836  0  0  -0.0042  -0.0418879  -0.059243  0.0244264  0  0  0  0  1.03768  -0  0  0  0  0  0  0  0  0  0 
1704717263.620420000  -2.54709  -0.493043  1.02849  0  0  -0.0044622  -0.0418879  -0.0540167  0.0244264  0  0  0  0  1.05276  -0  0  0  0  0  0  0  0  0  0 
1704717263.625421000  -2.5473  -0.4933  1.02861  0  0  -0.0047306  -0.0418879  -0.0487158  0.0244264  0  0  0  0  1.06759  -0  0  0  0  0  0  0  0  0  0 
1704717263.630479000  -2.54751  -0.49353  1.02873  0  0  -0.0050053  -0.0418879  -0.0433412  0.0244264  0  0  0  0  1.08217  -0  0  0  0  0  0  0  0  0  0 
1704717263.635420000  -2.54771  -0.493733  1.02885  0  0  -0.0052863  -0.0418879  -0.0378945  0.0244264  0  0  0  0  1.0965  -0  0  0  0  0  0  0  0  0  0 
1704717263.640419000  -2.54792  -0.493909  1.02897  0  0  -0.0055734  -0.0418879  -0.0323767  0.0244264  0  0  0  0  1.11058  -0  0  0  0  0  0  0  0  0  0 
1704717263.645424000  -2.54813  -0.494057  1.0291  0  0  -0.0058669  -0.0418879  -0.0267891  0.0244264  0  0  0  0  1.12441  -0  0  0  0  0  0  0  0  0  0 
1704717263.650429000  -2.54834  -0.494176  1.02922  0  0  -0.0061666  -0.0418879  -0.021133  0.0244264  0  0  0  0  1.13799  -0  0  0  0  0  0  0  0  0  0 
1704717263.655421000  -2.54855  -0.494268  1.02934  0  0  -0.0064725  -0.0418879  -0.0154096  0.0244264  0  0  0  0  1.15132  -0  0  0  0  0  0  0  0  0  0 
1704717263.660420000  -2.54876  -0.49433  1.02946  0  0  -0.0067847  -0.0418879  -0.0096203  0.0244264  0  0  0  0  1.16439  -0  0  0  0  0  0  0  0  0  0 
1704717263.665423000  -2.54897  -0.494364  1.02959  0  0  -0.0071031  -0.0418879  -0.0037661  0.0244264  0  0  0  0  1.17722  -0  0  0  0  0  0  0  0  0  0 
1704717263.670427000  -2.54918  -0.494368  1.02971  0  0  -0.0074278  -0.0418879  0.0021516  0.0244264  0  0  0  0  1.1898  -0  0  0  0  0  0  0  0  0  0 
1704717263.675424000  -2.54939  -0.494342  1.02983  0  0  -0.0077588  -0.0418879  0.0081315  0.0244264  0  0  0  0  1.20213  -0  0  0  0  0  0  0  0  0  0 
1704717263.680418000  -2.5496  -0.494287  1.02995  0  0  -0.0080959  -0.0418879  0.0141725  0.0244264  0  0  0  0  1.21421  -0  0  0  0  0  0  0  0  0  0 
1704717263.685420000  -2.54981  -0.4942  1.03007  0  0  -0.0084394  -0.0418879  0.0202732  0.0244264  0  0  0  0  1.22604  -0  0  0  0  0  0  0  0  0  0 
1704717263.690425000  -2.55002  -0.494084  1.0302  0  0  -0.0087891  -0.0418879  0.0264324  0.0244264  0  0  0  0  1.23762  -0  0  0  0  0  0  0  0  0  0 
1704717263.695419000  -2.55023  -0.493936  1.03032  0  0  -0.009145  -0.0418879  0.0326489  0.0244264  0  0  0  0  1.24895  -0  0  0  0  0  0  0  0  0  0 
1704717263.700419000  -2.55044  -0.493757  1.03044  0  0  -0.0095072  -0.0418879  0.0389215  0.0244264  0  0  0  0  1.26003  -0  0  0  0  0  0  0  0  0  0 
1704717263.705423000  -2.55065  -0.493547  1.03056  0  0  -0.0098756  -0.0418878  0.0452488  0.0244264  0  0  0  6.9e-05  1.27085  -0  0  0  0  0  0  0  0  0  0 
1704717263.710424000  -2.55086  -0.493305  1.03068  0  0  -0.0102503  -0.0418868  0.0516296  0.0244264  0  0  0  0.0003797  1.28143  -0  0  0  0  0  0  0  0  0  0 
1704717263.715430000  -2.55107  -0.49303  1.03081  0  0  -0.0106313  -0.0418836  0.0580627  0.0244264  0  0  0  0.0009405  1.29176  -0  0  0  0  0  0  0  0  0  0 
1704717263.720420000  -2.55128  -0.492724  1.03093  0  0  -0.0110185  -0.0418769  0.0645468  0.0244264  0  0  0  0.0017512  1.30184  -0  0  0  0  0  0  0  0  0  0 
1704717263.725423000  -2.55148  -0.492385  1.03105  0  0  -0.0114119  -0.0418656  0.0710807  0.0244264  0  0  0  0.0028119  1.31167  -0  0  0  0  0  0  0  0  0  0 
1704717263.730425000  -2.55169  -0.492013  1.03117  0  0  -0.0118116  -0.0418484  0.0776631  0.0244264  0  0  0  0.0041227  1.32125  -0  0  0  0  0  0  0  0  0  0 
1704717263.735425000  -2.5519  -0.491608  1.0313  0  0  -0.0122175  -0.041824  0.0842928  0.0244264  0  0  0  0.0056834  1.33058  -0  0  0  0  0  0  0  0  0  0 
1704717263.740433000  -2.55211  -0.49117  1.03142  0  0  -0.0126297  -0.0417912  0.0909684  0.0244264  0  0  0  0.0074941  1.33966  -0  0  0  0  0  0  0  0  0  0 
1704717263.745422000  -2.55232  -0.490698  1.03154  0  0  -0.0130481  -0.0417486  0.0976889  0.0244264  0  0  0  0.0095549  1.34849  -0  0  0  0  0  0  0  0  0  0 
1704717263.750426000  -2.55253  -0.490193  1.03166  0  0  -0.0134728  -0.0416952  0.104453  0.0244264  0  0  0  0.0118656  1.35706  -0  0  0  0  0  0  0  0  0  0 
1704717263.755435000  -2.55274  -0.489654  1.03178  0  0  -0.0139038  -0.0416296  0.111259  0.0244264  0  0  0  0.0144263  1.36539  -0  0  0  0  0  0  0  0  0  0 
1704717263.760420000  -2.55295  -0.48908  1.03191  0  0  -0.014341  -0.0415505  0.118106  0.0244264  0  0  0  0.0172371  1.37347  -0  0  0  0  0  0  0  0  0  0 
1704717263.765419000  -2.55315  -0.488473  1.03203  0  0  -0.0147844  -0.0414568  0.124993  0.0244264  0  0  0  0.0202978  1.3813  -0  0  0  0  0  0  0  0  0  0 
1704717263.770435000  -2.55336  -0.48783  1.03215  0  0  -0.0152341  -0.0413471  0.131919  0.0244264  0  0  0  0.0236085  1.38888  -0  0  0  0  0  0  0  0  0  0 
1704717263.775418000  -2.55357  -0.487153  1.03227  0  0  -0.01569  -0.0412203  0.138882  0.0244264  0  0  0  0.0271693  1.39621  -0  0  0  0  0  0  0  0  0  0 
1704717263.780419000  -2.55377  -0.486441  1.03239  0  0  -0.0161522  -0.041075  0.145881  0.0244264  0  0  0  0.03098  1.40329  -0  0  0  0  0  0  0  0  0  0 
1704717263.785419000  -2.55398  -0.485694  1.03252  0  0  -0.0166207  -0.0409101  0.152914  0.0244264  0  0  0  0.0350407  1.41012  -0  0  0  0  0  0  0  0  0  0 
1704717263.790430000  -2.55418  -0.484912  1.03264  0  0  -0.0170953  -0.0407242  0.159981  0.0244264  0  0  0  0.0393515  1.4167  -0  0  0  0  0  0  0  0  0  0 
1704717263.795421000  -2.55438  -0.484095  1.03276  0  0  -0.0175763  -0.0405161  0.167081  0.0244264  0  0  0  0.0439122  1.42302  -0  0  0  0  0  0  0  0  0  0 
1704717263.800421000  -2.55459  -0.483241  1.03288  0  0  -0.0180635  -0.0402846  0.174211  0.0244264  0  0  0  0.0487229  1.4291  -0  0  0  0  0  0  0  0  0  0 
1704717263.805422000  -2.55479  -0.482352  1.03301  0  0  -0.0185569  -0.0400285  0.181371  0.0244264  0  0  0  0.0537837  1.43493  -0  0  0  0  0  0  0  0  0  0 
1704717263.810427000  -2.55499  -0.481428  1.03313  0  0  -0.0190566  -0.0397464  0.18856  0.0244264  0  0  0  0.0590944  1.44051  -0  0  0  0  0  0  0  0  0  0 
1704717263.815419000  -2.55519  -0.480467  1.03325  0  0  -0.0195625  -0.0394371  0.195776  0.0244264  0  0  0  0.0646551  1.44584  -0  0  0  0  0  0  0  0  0  0 
1704717263.820420000  -2.55538  -0.47947  1.03337  0  0  -0.0200747  -0.0390994  0.203018  0.0244264  0  0  0  0.0704659  1.45092  -0  0  0  0  0  0  0  0  0  0 
1704717263.825419000  -2.55558  -0.478437  1.03349  0  0  -0.0205932  -0.038732  0.210285  0.0244264  0  0  0  0.0765266  1.45575  -0  0  0  0  0  0  0  0  0  0 
1704717263.830441000  -2.55577  -0.477367  1.03362  0  0  -0.0211179  -0.0383337  0.217575  0.0244264  0  0  0  0.0828373  1.46033  -0  0  0  0  0  0  0  0  0  0 
1704717263.835424000  -2.55596  -0.476261  1.03374  0  0  -0.0216488  -0.0379033  0.224888  0.0244264  0  0  0  0.0893981  1.46465  -0  0  0  0  0  0  0  0  0  0 
1704717263.840425000  -2.55615  -0.475118  1.03386  0  0  -0.022186  -0.0374393  0.232221  0.0244264  0  0  0  0.0962088  1.46873  -0  0  0  0  0  0  0  0  0  0 
1704717263.845416000  -2.55633  -0.473939  1.03398  0  0  -0.0227294  -0.0369408  0.239575  0.0244264  0  0  0  0.10327  1.47256  -0  0  0  0  0  0  0  0  0  0 
1704717263.850436000  -2.55652  -0.472722  1.0341  0  0  -0.0232791  -0.0364062  0.246946  0.0244264  0  0  0  0.11058  1.47614  -0  0  0  0  0  0  0  0  0  0 
1704717263.855415000  -2.5567  -0.471469  1.03423  0  0  -0.023835  -0.0358345  0.254336  0.0244264  0  0  0  0.118141  1.47947  -0  0  0  0  0  0  0  0  0  0 
1704717263.860415000  -2.55688  -0.470179  1.03435  0  0  -0.0243972  -0.0352244  0.261741  0.0244264  0  0  0  0.125952  1.48255  -0  0  0  0  0  0  0  0  0  0 
1704717263.865414000  -2.55705  -0.468852  1.03447  0  0  -0.0249657  -0.0345746  0.269161  0.0244264  0  0  0  0.134012  1.48538  -0  0  0  0  0  0  0  0  0  0 
1704717263.870422000  -2.55722  -0.467487  1.03459  0  0  -0.0255404  -0.0338839  0.276594  0.0244264  0  0  0  0.142323  1.48796  -0  0  0  0  0  0  0  0  0  0 
1704717263.875413000  -2.55739  -0.466086  1.03472  0  0  -0.0261213  -0.033151  0.28404  0.0244264  0  0  0  0.150884  1.49029  -0  0  0  0  0  0  0  0  0  0 
1704717263.880417000  -2.55755  -0.464647  1.03484  0  0  -0.0267085  -0.0323746  0.291497  0.0244264  0  0  0  0.159695  1.49236  -0  0  0  0  0  0  0  0  0  0 
1704717263.885417000  -2.55771  -0.463171  1.03496  0  0  -0.0273019  -0.0315536  0.298963  0.0244264  0  0  0  0.168755  1.49419  -0  0  0  0  0  0  0  0  0  0 
1704717263.890419000  -2.55787  -0.461657  1.03508  0  0  -0.0279016  -0.0306866  0.306438  0.0244264  0  0  0  0.178066  1.49577  -0  0  0  0  0  0  0  0  0  0 
1704717263.895426000  -2.55802  -0.460106  1.0352  0  0  -0.0285076  -0.0297725  0.31392  0.0244264  0  0  0  0.187627  1.4971  -0  0  0  0  0  0  0  0  0  0 
1704717263.900409000  -2.55817  -0.458518  1.03533  0  0  -0.0291197  -0.02881  0.321409  0.0244264  0  0  0  0.197438  1.49818  -0  0  0  0  0  0  0  0  0  0 
1704717263.905416000  -2.55831  -0.456892  1.03545  0  0  -0.0297382  -0.0277977  0.328902  0.0244264  0  0  0  0.207498  1.49901  -0  0  0  0  0  0  0  0  0  0 
1704717263.910429000  -2.55844  -0.455229  1.03557  0  0  -0.0303629  -0.0267346  0.336398  0.0244264  0  0  0  0.217809  1.49959  -0  0  0  0  0  0  0  0  0  0 
1704717263.915421000  -2.55857  -0.453528  1.03569  0  0  -0.0309938  -0.0256192  0.343897  0.0244264  0  0  0  0.22837  1.49992  -0  0  0  0  0  0  0  0  0  0 
1704717263.920423000  -2.5587  -0.45179  1.03581  0  0  -0.031631  -0.0244504  0.351397  0.0244264  0  0  0  0.239181  1.5  -0  0  0  0  0  0  0  0  0  0 
1704717263.925422000  -2.55882  -0.450014  1.03594  0  0  -0.0322744  -0.023227  0.358897  0.0244264  0  0  0  0.250241  1.5  -0  0  0  0  0  0  0  0  0  0 
1704717263.930416000  -2.55893  -0.448201  1.03606  0  0  -0.0329241  -0.0219476  0.366397  0.0244264  0  0  0  0.261552  1.5  -0  0  0  0  0  0  0  0  0  0 
1704717263.935424000  -2.55904  -0.44635  1.03618  0  0  -0.0335801  -0.0206111  0.373897  0.0244264  0  0  0  0.273113  1.5  -0  0  0  0  0  0  0  0  0  0 
1704717263.940421000  -2.55914  -0.444462  1.0363  0  0  -0.0342422  -0.0192161  0.381397  0.0244264  0  0  0  0.284923  1.5  -0  0  0  0  0  0  0  0  0  0 
1704717263.945423000  -2.55923  -0.442536  1.03643  0  0  -0.0349107  -0.0177614  0.388897  0.0244264  0  0  0  0.296984  1.5  -0  0  0  0  0  0  0  0  0  0 
1704717263.950422000  -2.55932  -0.440573  1.03655  0  0  -0.0355854  -0.0162458  0.396397  0.0244264  0  0  0  0.309295  1.5  -0  0  0  0  0  0  0  0  0  0 
1704717263.955424000  -2.55939  -0.438572  1.03667  0  0  -0.0362663  -0.014668  0.403897  0.0244264  0  0  0  0.321856  1.5  -0  0  0  0  0  0  0  0  0  0 
1704717263.960424000  -2.55946  -0.436534  1.03679  0  0  -0.0369535  -0.0130268  0.411397  0.0244264  0  0  0  0.334666  1.5  -0  0  0  0  0  0  0  0  0  0 
1704717263.965427000  -2.55952  -0.434458  1.03691  0  0  -0.0376469  -0.011321  0.418897  0.0244264  0  0  0  0.347727  1.5  -0  0  0  0  0  0  0  0  0  0 
1704717263.970418000  -2.55957  -0.432345  1.03704  0  0  -0.0383466  -0.0095491  0.426397  0.0244264  0  0  0  0.361038  1.5  -0  0  0  0  0  0  0  0  0  0 
1704717263.975422000  -2.55962  -0.430194  1.03716  0  0  -0.0390526  -0.0077102  0.433897  0.0244264  0  0  0  0.374599  1.5  -0  0  0  0  0  0  0  0  0  0 
1704717263.980423000  -2.55965  -0.428006  1.03728  0  0  -0.0397648  -0.0058027  0.441397  0.0244264  0  0  0  0.388409  1.5  -0  0  0  0  0  0  0  0  0  0 
1704717263.985414000  -2.55968  -0.42578  1.0374  0  0  -0.0404832  -0.0038256  0.448897  0.0244264  0  0  0  0.40247  1.5  -0  0  0  0  0  0  0  0  0  0 
1704717263.990417000  -2.55969  -0.423517  1.03752  0  0  -0.0412079  -0.0017778  0.456397  0.0244264  0  0  0  0.416657  1.5  -0  0  0  0  0  0  0  0  0  0 
1704717263.995424000  -2.55969  -0.421216  1.03765  0  0  -0.0419388  0.0003405  0.463897  0.0244264  0  0  0  0.430616  1.5  -0  0  0  0  0  0  0  0  0  0 
1704717264.000419000  -2.55969  -0.418878  1.03777  0  0  -0.042676  0.002528  0.471397  0.0244264  0  0  0  0.444325  1.5  -0  0  0  0  0  0  0  0  0  0 
1704717264.005419000  -2.55967  -0.416502  1.03789  0  0  -0.0434195  0.0047833  0.478897  0.0244264  0  0  0  0.457784  1.5  -0  0  0  0  0  0  0  0  0  0 
1704717264.010419000  -2.55964  -0.414089  1.03801  0  0  -0.0441691  0.0071054  0.486397  0.0244264  0  0  0  0.470993  1.5  -0  0  0  0  0  0  0  0  0  0 
1704717264.015416000  -2.5596  -0.411638  1.03813  0  0  -0.0449251  0.0094929  0.493897  0.0244264  0  0  0  0.483952  1.5  -0  0  0  0  0  0  0  0  0  0 
1704717264.020415000  -2.55954  -0.40915  1.03826  0  0  -0.0456873  0.0119445  0.501397  0.0244264  0  0  0  0.496661  1.5  -0  0  0  0  0  0  0  0  0  0 
1704717264.025414000  -2.55948  -0.406625  1.03838  0  0  -0.0464557  0.0144591  0.508897  0.0244264  0  0  0  0.50912  1.5  -0  0  0  0  0  0  0  0  0  0 
1704717264.030427000  -2.5594  -0.404061  1.0385  0  0  -0.0472304  0.0170353  0.516397  0.0244264  0  0  0  0.52133  1.5  -0  0  0  0  0  0  0  0  0  0 
1704717264.035417000  -2.55931  -0.401461  1.03862  0  0  -0.0480113  0.0196719  0.523897  0.0244264  0  0  0  0.533289  1.5  -0  0  0  0  0  0  0  0  0  0 
1704717264.040412000  -2.5592  -0.398822  1.03875  0  0  -0.0487985  0.0223678  0.531397  0.0244264  0  0  0  0.544998  1.4999  -0  0  0  0  0  0  0  0  0  0 
1704717264.045414000  -2.55908  -0.396147  1.03887  0  0  -0.049592  0.0251215  0.538896  0.0244264  0  0  0  0.556457  1.49956  -0  0  0  0  0  0  0  0  0  0 
1704717264.050421000  -2.55895  -0.393433  1.03899  0  0  -0.0503916  0.0279319  0.546392  0.0244264  0  0  0  0.567666  1.49896  -0  0  0  0  0  0  0  0  0  0 
1704717264.055416000  -2.5588  -0.390683  1.03911  0  0  -0.0511976  0.0307977  0.553885  0.0244264  0  0  0  0.578625  1.49811  -0  0  0  0  0  0  0  0  0  0 
1704717264.060416000  -2.55864  -0.387895  1.03923  0  0  -0.0520098  0.0337177  0.561373  0.0244264  0  0  0  0.589334  1.49702  -0  0  0  0  0  0  0  0  0  0 
1704717264.065411000  -2.55847  -0.385069  1.03936  0  0  -0.0528282  0.0366907  0.568855  0.0244264  0  0  0  0.599793  1.49567  -0  0  0  0  0  0  0  0  0  0 
1704717264.070418000  -2.55828  -0.382206  1.03948  0  0  -0.0536529  0.0397153  0.576329  0.0244264  0  0  0  0.610002  1.49407  -0  0  0  0  0  0  0  0  0  0 
1704717264.075414000  -2.55807  -0.379306  1.0396  0  0  -0.0544838  0.0427903  0.583795  0.0244264  0  0  0  0.619961  1.49223  -0  0  0  0  0  0  0  0  0  0 
1704717264.080419000  -2.55785  -0.376368  1.03972  0  0  -0.055321  0.0459144  0.591251  0.0244264  0  0  0  0.62967  1.49013  -0  0  0  0  0  0  0  0  0  0 
1704717264.085425000  -2.55761  -0.373393  1.03984  0  0  -0.0561645  0.0490866  0.598696  0.0244264  0  0  0  0.639129  1.48779  -0  0  0  0  0  0  0  0  0  0 
1704717264.090420000  -2.55736  -0.370381  1.03997  0  0  -0.0570142  0.0523053  0.606128  0.0244264  0  0  0  0.648338  1.48519  -0  0  0  0  0  0  0  0  0  0 
1704717264.095415000  -2.55709  -0.367332  1.04009  0  0  -0.0578701  0.0555695  0.613547  0.0244264  0  0  0  0.657297  1.48234  -0  0  0  0  0  0  0  0  0  0 
1704717264.100410000  -2.5568  -0.364246  1.04021  0  0  -0.0587323  0.0588779  0.620951  0.0244264  0  0  0  0.666006  1.47925  -0  0  0  0  0  0  0  0  0  0 
1704717264.105418000  -2.5565  -0.361122  1.04033  0  0  -0.0596007  0.0622292  0.628339  0.0244264  0  0  0  0.674465  1.4759  -0  0  0  0  0  0  0  0  0  0 
1704717264.110443000  -2.55618  -0.357962  1.04046  0  0  -0.0604754  0.0656221  0.63571  0.0244264  0  0  0  0.682674  1.4723  -0  0  0  0  0  0  0  0  0  0 
