ts fx fy fz tx ty tz exfx exfy exfz extx exty extz xd yd zd rolld pitchd yawd vxd vyd vzd wxd wyd wzd axd ayd azd e_x e_y e_z e_vx e_vy e_vz e_rx e_ry e_rz e_wx e_wy e_wz
1704717262.186443000  0  0  11.3801  0.0546215  -0.131037  0.0238138  nan  nan  nan  nan  nan  nan  -2.5  -0.3  1  0.00652369  -0.0337648  -0.000220232  0  0  0  0  0  0  0  0  0  0.0315418  -0.00367738  -0.00921841  -0.0273887  0.0164148  0.00380623  -0.0126218  0.0254279  -0.0299434  0.00687769  0.028137  0.00176163 
1704717262.190390000  0  0  11.434  0.0766116  -0.143357  0.0210784  nan  nan  nan  nan  nan  nan  -2.5  -0.3  1  0.00746877  -0.0322207  -0.000240612  0  0  0  0  0  0  0  0  0  0.0314217  -0.00360479  -0.00923628  -0.028881  0.0174931  -0.000680716  -0.013879  0.0243797  -0.0295563  -0.0255361  0.0624213  0.0320836 
1704717262.195353000  0  0  11.2709  0.0730261  -0.118508  0.0226388  nan  nan  nan  nan  nan  nan  -2.5  -0.3  1  0.0071861  -0.0306769  -0.000220417  0  0  0  0  0  0  0  0  0  0.0314124  -0.00364605  -0.00921573  -0.0313794  0.0170963  0.012862  -0.0135983  0.0227617  -0.0296753  -0.0209483  0.0276093  0.0137683 
1704717262.200341000  0  0  11.3434  0.0576236  -0.123134  0.0263342  nan  nan  nan  nan  nan  nan  -2.5  -0.3  1  0.00613398  -0.0340231  -0.000208659  0  0  0  0  0  0  0  0  0  0.0315167  -0.0037228  -0.00935768  -0.0271449  0.0159982  0.0071559  -0.0124466  0.0259609  -0.0302056  -0.000738399  0.00742793  -0.0271217 
1704717262.205343000  0  0  11.4945  0.097341  -0.166997  0.022895  nan  nan  nan  nan  nan  nan  -2.5  -0.3  1  0.00804924  -0.0330394  -0.0002659  0  0  0  0  0  0  0  0  0  0.0313759  -0.00362293  -0.00943447  -0.0275144  0.0183245  -0.0053337  -0.015051  0.0260582  -0.0298274  -0.0562126  0.0942583  0.0120861 
1704717262.209811000  0  0  11.3473  0.0986893  -0.145188  0.0204138  nan  nan  nan  nan  nan  nan  -2.5  -0.3  1  0.00770702  -0.0310947  -0.000239614  0  0  0  0  0  0  0  0  0  0.0313892  -0.00367899  -0.00944139  -0.0305385  0.0178871  0.00693061  -0.0149309  0.0242396  -0.029474  -0.0600143  0.0673723  0.0395674 
1704717262.214294000  0  0  11.2732  0.09935  -0.125579  0.0219042  nan  nan  nan  nan  nan  nan  -2.5  -0.3  1  0.00806296  -0.0300316  -0.000242112  0  0  0  0  0  0  0  0  0  0.0312493  -0.0036017  -0.00936293  -0.0318159  0.0180979  0.0129322  -0.0154746  0.0230316  -0.0295673  -0.0563334  0.0392673  0.0218705 
1704717262.220362000  0  0  11.5904  0.142257  -0.193911  0.021433  nan  nan  nan  nan  nan  nan  -2.5  -0.3  1  0.00945811  -0.0321133  -0.000303688  0  0  0  0  0  0  0  0  0  0.0313901  -0.00368351  -0.00961487  -0.0283833  0.0203595  -0.0130262  -0.0178378  0.0268106  -0.0295608  -0.120407  0.141165  0.0276953 
1704717262.225348000  0  0  11.296  0.133873  -0.135014  0.0187918  nan  nan  nan  nan  nan  nan  -2.5  -0.3  1  0.00901045  -0.0290208  -0.00026146  0  0  0  0  0  0  0  0  0  0.0312466  -0.00363966  -0.00942268  -0.033001  0.0193923  0.0111031  -0.0176436  0.0231083  -0.0290365  -0.105426  0.0574309  0.0554672 
1704717262.230397000  0  0  11.291  0.0922272  -0.107188  0.0269696  nan  nan  nan  nan  nan  nan  -2.5  -0.3  1  0.00860064  -0.030095  -0.000258804  0  0  0  0  0  0  0  0  0  0.0311062  -0.00355316  -0.00938214  -0.0313575  0.0186805  0.0114652  -0.0167765  0.0235406  -0.0300388  -0.0301107  -0.00219806  -0.0367329 
1704717262.235300000  0  0  11.3914  0.11724  -0.136772  0.0250497  nan  nan  nan  nan  nan  nan  -2.5  -0.3  1  0.0097249  -0.0298684  -0.000290433  0  0  0  0  0  0  0  0  0  0.0310172  -0.00349192  -0.00942452  -0.031109  0.0200631  0.00315756  -0.0183709  0.0239321  -0.0300037  -0.0654674  0.0533677  -0.0130847 
1704717262.239359000  0  0  11.3218  0.129703  -0.122103  0.0201839  nan  nan  nan  nan  nan  nan  -2.5  -0.3  1  0.0102888  -0.027678  -0.000284747  0  0  0  0  0  0  0  0  0  0.0308691  -0.00341061  -0.00935471  -0.0337676  0.0205175  0.00878605  -0.0193611  0.0218373  -0.029351  -0.0812827  0.0433029  0.0412118 
1704717262.245391000  0  0  11.2319  0.0775381  -0.0907424  0.0280388  nan  nan  nan  nan  nan  nan  -2.5  -0.3  1  0.00848236  -0.0286303  -0.000242825  0  0  0  0  0  0  0  0  0  0.031008  -0.00355444  -0.0093475  -0.0331664  0.0184799  0.016309  -0.0166963  0.0221549  -0.0303797  -0.00146988  -0.02234  -0.0466885 
1704717262.250310000  0  0  11.3531  0.083581  -0.103605  0.0283766  nan  nan  nan  nan  nan  nan  -2.5  -0.3  1  0.00888417  -0.0293983  -0.000261149  -2e-07  -2e-07  2e-07  0  0  0  -0.000125  -0.000125  0.000125  0.030928  -0.00350662  -0.00940017  -0.0316485  0.0189784  0.00632503  -0.0171336  0.0229741  -0.0306935  -0.00953321  -0.00415079  -0.0477727 
1704717262.255356000  0  0  11.3427  0.0962717  -0.100789  0.0199333  nan  nan  nan  nan  nan  nan  -2.5  -0.3  1  0.00945979  -0.0273161  -0.00025838  -1.7e-06  -1.7e-06  1.7e-06  0  0  0  -0.0005  -0.0005  0.0005  0.0307494  -0.00340991  -0.00935711  -0.0339587  0.0194318  0.00712039  -0.0179469  0.0210519  -0.0296539  -0.0274321  0.00790124  0.0473728 
1704717262.259307000  0  0  11.2295  0.071641  -0.0676169  0.0235402  nan  nan  nan  nan  nan  nan  -2.5  -0.3  1  0.0099758  -0.0255981  -0.000255342  -5.6e-06  -5.6e-06  5.6e-06  0  0  0  -0.001125  -0.001125  0.001125  0.030599  -0.00333289  -0.00924171  -0.0361922  0.0197067  0.0163714  -0.0179144  0.0187648  -0.0299731  0.0215303  -0.0374019  0.0054785 
1704717262.264301000  0  0  11.2832  0.0613737  -0.0657939  0.0265765  nan  nan  nan  nan  nan  nan  -2.5  -0.3  1  0.0102801  -0.026461  -0.000271899  -1.33e-05  -1.33e-05  1.33e-05  0  0  0  -0.002  -0.002  0.002  0.0304736  -0.00320667  -0.00939828  -0.0347893  0.0197556  0.0123241  -0.0179957  0.0193175  -0.0303734  0.0428132  -0.046133  -0.0284728 
1704717262.270397000  0  0  11.4441  0.0832459  -0.10996  0.0175705  nan  nan  nan  nan  nan  nan  -2.5  -0.3  1  0.0118008  -0.025634  -0.000302183  -2.6e-05  -2.6e-05  2.6e-05  0  0  0  -0.003125  -0.003125  0.003125  0.0303059  -0.00296314  -0.00990744  -0.0351361  0.0211896  4.56236e-05  -0.0194054  0.0194591  -0.0291448  0.0120375  0.0408974  0.0718172 
1704717262.275353000  0  0  11.2524  0.0569819  -0.0630787  0.0217767  nan  nan  nan  nan  nan  nan  -2.5  -0.3  1  0.0118546  -0.0235452  -0.000278606  -4.5e-05  -4.5e-05  4.5e-05  0  0  0  -0.0045  -0.0045  0.0045  0.0302067  -0.00295007  -0.00975651  -0.0382503  0.0208027  0.0158547  -0.0186538  0.0166411  -0.0294379  0.0576513  -0.0269407  0.0221699 
1704717262.280302000  0  0  11.3145  0.045898  -0.0749937  0.0260979  nan  nan  nan  nan  nan  nan  -2.5  -0.300001  1  0.0115475  -0.0252751  -0.000290847  -7.15e-05  -7.15e-05  7.15e-05  0  0  0  -0.006125  -0.006125  0.006125  0.030048  -0.0028536  -0.00974817  -0.0357659  0.0200771  0.0108427  -0.0179145  0.0182656  -0.0300201  0.0730172  -0.0180563  -0.0260232 
1704717262.285354000  0  0  11.3894  0.0770658  -0.120836  0.0202844  nan  nan  nan  nan  nan  nan  -2.5  -0.300001  1  0.0128429  -0.0241095  -0.000307924  -0.0001067  -0.0001067  0.0001067  0  0  0  -0.008  -0.008  0.008  0.0299614  -0.00283262  -0.00979939  -0.0370744  0.021529  0.00484384  -0.0193401  0.0181637  -0.0293616  0.0237974  0.0745667  0.0400615 
1704717262.289353000  0  0  11.1823  0.0714691  -0.0781836  0.0217626  nan  nan  nan  nan  nan  nan  -2.5  -0.300002  1  0.013452  -0.021767  -0.000290104  -0.0001519  -0.0001519  0.0001519  0  0  0  -0.010125  -0.010125  0.010125  0.0297848  -0.00274755  -0.00962249  -0.0404185  0.0215326  0.0219379  -0.0196502  0.01534  -0.0294133  0.0378436  0.0152397  0.0221001 
1704717262.295365000  0  0  11.3526  0.0529314  -0.109149  0.0291534  nan  nan  nan  nan  nan  nan  -2.5  -0.300003  1  0.0140123  -0.0240181  -0.000332438  -0.0002083  -0.0002083  0.0002083  0  0  0  -0.0125  -0.0125  0.0125  0.0296693  -0.002527  -0.0101183  -0.0372093  0.0217015  0.00901716  -0.0193837  0.0180337  -0.0304181  0.0724669  0.0523875  -0.0602366 
1704717262.299354000  0  0  11.4526  0.0806578  -0.152652  0.0244094  nan  nan  nan  nan  nan  nan  -2.5  -0.300004  1  0.0159461  -0.0237408  -0.000372671  -0.0002773  -0.0002773  0.0002773  0  0  0  -0.015125  -0.015125  0.015125  0.0295185  -0.00242035  -0.0101499  -0.0372902  0.0237489  0.000963152  -0.0214871  0.0189397  -0.0299804  0.0363658  0.131059  -0.0053132 
1704717262.305365000  0  0  11.306  0.0815183  -0.118302  0.0227341  nan  nan  nan  nan  nan  nan  -2.50001  -0.300005  1.00001  0.0162334  -0.0222189  -0.000352591  -0.00036  -0.00036  0.00036  0  0  0  -0.018  -0.018  0.018  0.0293336  -0.00234326  -0.0101142  -0.0395439  0.0233152  0.0133746  -0.0217029  0.0174073  -0.0296451  0.0366304  0.0764562  0.0122745 
1704717262.310344000  0  0  11.4205  0.068265  -0.140933  0.0291698  nan  nan  nan  nan  nan  nan  -2.50001  -0.300007  1.00001  0.0160995  -0.0238853  -0.000373737  -0.0004577  -0.0004577  0.0004577  0  0  0  -0.021125  -0.021125  0.021125  0.0292268  -0.00229806  -0.0102516  -0.0373041  0.0228543  0.00442374  -0.021222  0.019687  -0.030531  0.0587121  0.100745  -0.0593134 
1704717262.314355000  0  0  11.4519  0.0924272  -0.156191  0.0251073  nan  nan  nan  nan  nan  nan  -2.50001  -0.30001  1.00001  0.0177179  -0.0236154  -0.000404419  -0.0005717  -0.0005717  0.0005717  0  0  0  -0.0245  -0.0245  0.0245  0.0290704  -0.00219196  -0.0102448  -0.0376423  0.0243069  0.00208861  -0.0230046  0.0201384  -0.0301881  0.0267881  0.127108  -0.0119601 
1704717262.320316000  0  0  11.4591  0.10606  -0.146195  0.0219002  nan  nan  nan  nan  nan  nan  -2.50001  -0.300013  1.00001  0.0186637  -0.0241895  -0.000433775  -0.0007031  -0.0007031  0.0007031  0  0  0  -0.028125  -0.028125  0.028125  0.0289981  -0.00198313  -0.0108487  -0.0371893  0.024602  0.00307721  -0.0238498  0.0211188  -0.029686  0.00729743  0.0980968  0.0231071 
1704717262.325365000  0  0  11.4723  0.0984861  -0.153576  0.0260959  nan  nan  nan  nan  nan  nan  -2.50002  -0.300017  1.00002  0.0190609  -0.0240303  -0.000436252  -0.0008533  -0.0008533  0.0008533  0  0  0  -0.032  -0.032  0.032  0.0289409  -0.00196733  -0.0109072  -0.0377205  0.0246098  0.00245968  -0.0239959  0.0215952  -0.0302105  0.0237901  0.108476  -0.0240934 
1704717262.330357000  0  0  11.4631  0.104673  -0.13651  0.0239021  nan  nan  nan  nan  nan  nan  -2.50002  -0.300022  1.00002  0.0202034  -0.0249766  -0.000478228  -0.0010235  -0.0010235  0.0010235  0  0  0  -0.036125  -0.036125  0.036125  0.0287598  -0.00184243  -0.0108797  -0.0366578  0.0252448  0.00355795  -0.0250617  0.0224888  -0.0299904  0.0212209  0.0661225  0.00112809 
1704717262.335353000  0  0  11.5411  0.0957513  -0.184255  0.0219738  nan  nan  nan  nan  nan  nan  -2.50003  -0.300027  1.00003  0.0168684  -0.0300609  -0.000475551  -0.001215  -0.001215  0.001215  0  0  0  -0.0405  -0.0405  0.0405  0.0293907  -0.00244635  -0.0111721  -0.0318747  0.0219276  -0.0019176  -0.0216443  0.0287998  -0.0297435  0.00762526  0.103552  0.0227629 
1704717262.340303000  0  0  11.476  0.100022  -0.16966  0.0226361  nan  nan  nan  nan  nan  nan  -2.50003  -0.300034  1.00003  0.0182361  -0.0280457  -0.000474535  -0.001429  -0.001429  0.001429  0  0  0  -0.045125  -0.045125  0.045125  0.0291967  -0.00233386  -0.0111139  -0.0348182  0.0227149  0.00381514  -0.0228973  0.0271113  -0.0297448  0.0106121  0.0898958  0.0144974 
1704717262.345352000  0  0  11.4903  0.0708313  -0.141263  0.0261981  nan  nan  nan  nan  nan  nan  -2.50004  -0.300042  1.00004  0.0177501  -0.031026  -0.000507886  -0.0016667  -0.0016667  0.0016667  0  0  0  -0.05  -0.05  0.05  0.0292318  -0.00238473  -0.0110914  -0.031662  0.021616  0.00307436  -0.0216933  0.0294679  -0.0302124  0.0579158  0.0114216  -0.025352 
1704717262.350357000  0  0  11.6279  0.0762638  -0.20532  0.0237991  nan  nan  nan  nan  nan  nan  -2.50005  -0.300051  1.00005  0.0157761  -0.0354925  -0.000510962  -0.0019294  -0.0019294  0.0019294  0  0  0  -0.055125  -0.055125  0.055125  0.0297102  -0.00286009  -0.0113267  -0.0271226  0.0197421  -0.00745124  -0.0196366  0.035364  -0.0300279  0.0281292  0.0852923  0.00278972 
1704717262.355305000  0  0  11.4969  0.0729195  -0.168795  0.0221703  nan  nan  nan  nan  nan  nan  -2.50006  -0.300061  1.00006  0.0169239  -0.033048  -0.000503952  -0.0022183  -0.0022183  0.0022182  0  0  0  -0.0605  -0.0605  0.0604034  0.0295343  -0.00276263  -0.0112455  -0.0310567  0.020082  0.0038129  -0.0204368  0.032755  -0.0297619  0.0421795  0.0362446  0.0204899 
1704717262.360351000  0  0  11.5143  0.0306941  -0.151828  0.0275061  nan  nan  nan  nan  nan  nan  -2.50007  -0.300073  1.00007  0.0148386  -0.0381885  -0.000504769  -0.0025348  -0.0025348  0.002533  0  0  0  -0.066125  -0.066125  0.0654675  0.029917  -0.00310152  -0.0113607  -0.0259747  0.0174838  0.00313001  -0.0173966  0.0373027  -0.0304629  0.0986603  -0.0395295  -0.0391971 
1704717262.364352000  0  0  11.6479  0.0548861  -0.199851  0.0256596  nan  nan  nan  nan  nan  nan  -2.50009  -0.300086  1.00009  0.0166857  -0.0394508  -0.000589653  -0.00288  -0.00288  0.0028725  0  0  0  -0.072  -0.072  0.0702817  0.0298335  -0.0030151  -0.0114583  -0.0243257  0.0191566  -0.00737654  -0.0192697  0.0393154  -0.0303501  0.0675093  0.0380006  -0.0172439 
1704717262.370357000  0  0  11.5424  0.0743964  -0.174452  0.0194687  nan  nan  nan  nan  nan  nan  -2.5001  -0.300102  1.0001  0.0156606  -0.0389306  -0.000534271  -0.0032552  -0.0032552  0.0032354  0  0  0  -0.078125  -0.078125  0.0748458  0.0300728  -0.00330969  -0.0115608  -0.0267671  0.0175258  0.00206813  -0.0184327  0.0386502  -0.029547  0.020788  -0.00667873  0.0521109 
1704717262.375373000  0  0  11.5361  0.0451731  -0.145401  0.026632  nan  nan  nan  nan  nan  nan  -2.50012  -0.300119  1.00012  0.0162742  -0.0410088  -0.000585156  -0.0036616  -0.0036617  0.0036205  0  0  0  -0.0844577  -0.0845  0.0791599  0.0300298  -0.00327531  -0.0115964  -0.0248348  0.017414  0.00312743  -0.0183079  0.0396658  -0.0303276  0.0780862  -0.0741238  -0.0296237 
1704717262.380302000  0  0  11.5934  0.0669719  -0.172904  0.0249974  nan  nan  nan  nan  nan  nan  -2.50014  -0.300138  1.00014  0.017957  -0.0419187  -0.000663695  -0.0040995  -0.0041006  0.0040266  0  0  0  -0.0906271  -0.091125  0.0832241  0.0299167  -0.00318089  -0.0116325  -0.0239266  0.0186342  -0.00119431  -0.0199647  0.0407456  -0.0302568  0.0497318  -0.0290518  -0.00989923 
1704717262.385300000  0  0  11.5344  0.0791727  -0.147358  0.0190592  nan  nan  nan  nan  nan  nan  -2.50016  -0.30016  1.00016  0.0175222  -0.0422108  -0.000643782  -0.0045675  -0.0045733  0.0044524  0  0  0  -0.0965465  -0.098  0.0870382  0.0301448  -0.00343769  -0.0117339  -0.0250865  0.0176581  0.00432597  -0.0196061  0.0404094  -0.0294667  0.0220311  -0.0770517  0.0564273 
1704717262.390357000  0  0  11.4741  0.0633398  -0.113373  0.0280314  nan  nan  nan  nan  nan  nan  -2.50018  -0.300184  1.00018  0.0189936  -0.0427969  -0.000710218  -0.0050645  -0.005081  0.0048966  0  0  0  -0.102216  -0.105125  0.0906024  0.0300178  -0.00334683  -0.0116732  -0.0250578  0.0183089  0.00961777  -0.0204809  0.0396606  -0.0305236  0.0617449  -0.138132  -0.0451562 
1704717262.395374000  0  0  11.5412  0.0797403  -0.151641  0.0256617  nan  nan  nan  nan  nan  nan  -2.50021  -0.300211  1.00021  0.0184374  -0.0470874  -0.000758545  -0.0055892  -0.005625  0.005358  0  0  0  -0.107635  -0.1125  0.0939165  0.0303335  -0.00359859  -0.0117982  -0.0206148  0.0173581  0.00461622  -0.0200682  0.0439862  -0.0304243  0.025147  -0.10139  -0.0165276 
1704717262.400366000  0  0  11.5659  0.105896  -0.148991  0.0190014  nan  nan  nan  nan  nan  nan  -2.50024  -0.300241  1.00024  0.0193262  -0.046837  -0.000788762  -0.0061404  -0.0062065  0.0058353  0  0  0  -0.112805  -0.120125  0.0969807  0.0304609  -0.00374194  -0.0119015  -0.0217453  0.0179022  0.00307227  -0.0213021  0.0432607  -0.0295568  -0.0158123  -0.100016  0.0580504 
1704717262.405369000  0  0  11.4336  0.0999089  -0.10543  0.0239382  nan  nan  nan  nan  nan  nan  -2.50027  -0.300273  1.00027  0.020841  -0.0458007  -0.000831339  -0.0067169  -0.0068267  0.0063273  0  0  0  -0.117724  -0.128  0.0997948  0.0303294  -0.0036552  -0.011782  -0.0240859  0.0183501  0.0141718  -0.0225929  0.0408066  -0.029977  0.00803667  -0.164561  0.000542026 
1704717262.410390000  0  0  11.489  0.102375  -0.120728  0.0258073  nan  nan  nan  nan  nan  nan  -2.50031  -0.300309  1.0003  0.0219604  -0.0490051  -0.000946114  -0.0073173  -0.0074869  0.0068328  0  0  0  -0.122393  -0.136125  0.102359  0.030303  -0.00360123  -0.0118051  -0.020237  0.0187513  0.00989878  -0.0237334  0.0431402  -0.0302665  0.0135971  -0.155435  -0.0199254 
1704717262.415369000  0  0  11.565  0.149763  -0.139756  0.0193916  nan  nan  nan  nan  nan  nan  -2.50035  -0.300348  1.00033  0.0248693  -0.0471675  -0.00103623  -0.0079404  -0.0081883  0.0073505  0  0  0  -0.126813  -0.1445  0.104673  0.0301774  -0.00348765  -0.0118193  -0.0224615  0.0213611  0.00378344  -0.0273175  0.0412131  -0.0293678  -0.0482048  -0.0996483  0.0512835 
1704717262.420353000  0  0  11.4173  0.130632  -0.0926822  0.0215569  nan  nan  nan  nan  nan  nan  -2.50039  -0.300391  1.00037  0.0249453  -0.0472629  -0.00103529  -0.008585  -0.0089323  0.0078792  0  0  0  -0.130982  -0.153125  0.106737  0.0303354  -0.00366963  -0.0118089  -0.0239992  0.0203584  0.0163351  -0.0271812  0.0397711  -0.0294438  -0.0111976  -0.18053  0.0249763 
1704717262.425353000  0  0  11.5121  0.111634  -0.118538  0.0277887  nan  nan  nan  nan  nan  nan  -2.50043  -0.300437  1.00041  0.0249824  -0.0520637  -0.00115006  -0.0092498  -0.00972  0.0084175  0  0  0  -0.134902  -0.162  0.108551  0.030557  -0.00381422  -0.0119537  -0.018337  0.0198559  0.00897894  -0.0269722  0.0437791  -0.0302704  0.0248775  -0.165692  -0.0446544 
1704717262.430392000  0  0  11.6308  0.156875  -0.143867  0.0206528  nan  nan  nan  nan  nan  nan  -2.50048  -0.300488  1.00046  0.0277766  -0.0501735  -0.00123632  -0.0099336  -0.0105527  0.0089642  0  0  0  -0.138571  -0.171125  0.110116  0.0304415  -0.00369576  -0.0120078  -0.0202965  0.0223774  -0.000687722  -0.0303425  0.0419202  -0.0294146  -0.0345999  -0.0979318  0.0359862 
1704717262.435373000  0  0  11.4837  0.128772  -0.0915993  0.0216375  nan  nan  nan  nan  nan  nan  -2.50053  -0.300543  1.0005  0.028227  -0.0501449  -0.00125132  -0.0106351  -0.0114317  0.0095182  0  0  0  -0.14199  -0.1805  0.11143  0.0305056  -0.00377224  -0.0119623  -0.021734  0.0214769  0.0116773  -0.0302968  0.0402102  -0.0293594  0.0211877  -0.186735  0.023126 
1704717262.440362000  0  0  11.577  0.10639  -0.118555  0.0285716  nan  nan  nan  nan  nan  nan  -2.50059  -0.300602  1.00055  0.0293935  -0.0519881  -0.00135706  -0.0113531  -0.0123581  0.0100781  0  0  0  -0.14516  -0.190125  0.112494  0.0304309  -0.00366725  -0.0119877  -0.0190716  0.02181  0.00411814  -0.0307794  0.0414981  -0.0302709  0.0703917  -0.144672  -0.0544357 
1704717262.445374000  0  0  11.6919  0.132453  -0.140156  0.0203752  nan  nan  nan  nan  nan  nan  -2.50064  -0.300667  1.0006  0.030991  -0.0516036  -0.00142144  -0.0120863  -0.0133333  0.0106427  0  0  0  -0.148079  -0.2  0.113308  0.0305117  -0.00371061  -0.0121472  -0.0194514  0.023104  -0.00504768  -0.032514  0.041068  -0.0293453  0.0342228  -0.0975134  0.038763 
1704717262.450415000  0  0  11.5446  0.103777  -0.114372  0.0197448  nan  nan  nan  nan  nan  nan  -2.50071  -0.300736  1.00066  0.0320521  -0.052292  -0.00149148  -0.0128334  -0.0143585  0.0112108  0  0  0  -0.150748  -0.210125  0.113872  0.030591  -0.00376804  -0.0121266  -0.0199271  0.0227975  0.00730727  -0.0326993  0.0405926  -0.0290212  0.0932807  -0.144707  0.043402 
1704717262.455377000  0  0  11.5854  0.0867112  -0.132353  0.0243934  nan  nan  nan  nan  nan  nan  -2.50077  -0.30081  1.00072  0.03286  -0.0528835  -0.00154637  -0.0135933  -0.015435  0.011781  0  0  0  -0.153168  -0.2205  0.114186  0.0304977  -0.00366441  -0.0121342  -0.0190259  0.0224331  0.0040071  -0.0326313  0.0408236  -0.0295421  0.126786  -0.110871  -0.00949617 
1704717262.460375000  0  0  11.6968  0.0881513  -0.131789  0.0202084  nan  nan  nan  nan  nan  nan  -2.50084  -0.30089  1.00078  0.0342491  -0.0535238  -0.00163488  -0.0143647  -0.016564  0.0123522  0  0  0  -0.155337  -0.231125  0.11425  0.0305711  -0.00369792  -0.0122725  -0.0179713  0.0233673  -0.00492523  -0.033334  0.0408877  -0.0289779  0.13037  -0.112588  0.0371741 
1704717262.464376000  0  0  11.6208  0.0884011  -0.131601  0.0190492  nan  nan  nan  nan  nan  nan  -2.50092  -0.300976  1.00084  0.0366416  -0.0537403  -0.00176416  -0.0151463  -0.0177467  0.0129231  0  0  0  -0.157257  -0.242  0.114065  0.0305165  -0.00358388  -0.0122296  -0.0182582  0.0245307  0.0013447  -0.0350077  0.0406181  -0.0286045  0.145269  -0.110485  0.0479302 
1704717262.470354000  0  0  11.5779  0.0644892  -0.12689  0.0234554  nan  nan  nan  nan  nan  nan  -2.50099  -0.301068  1.00091  0.0366928  -0.0535373  -0.00175267  -0.0159368  -0.0189844  0.0134925  0  0  0  -0.158926  -0.253125  0.113629  0.0305753  -0.00366069  -0.0122489  -0.0191246  0.0231796  0.00499039  -0.0337147  0.0397456  -0.0290919  0.181197  -0.11188  -0.00227307 
1704717262.475380000  0  0  11.6826  0.0511578  -0.122023  0.0243874  nan  nan  nan  nan  nan  nan  -2.50108  -0.301166  1.00097  0.0377547  -0.0554347  -0.00187434  -0.0167351  -0.0202781  0.014059  0  0  0  -0.160345  -0.264342  0.112943  0.0306667  -0.00369221  -0.0123401  -0.0164144  0.0236221  -0.00350279  -0.0335621  0.0407498  -0.0292572  0.206455  -0.130853  -0.0122713 
1704717262.480372000  0  0  11.6301  0.0760194  -0.144974  0.0225468  nan  nan  nan  nan  nan  nan  -2.50116  -0.301271  1.00105  0.0404777  -0.0550309  -0.00200221  -0.0175399  -0.0216274  0.0146215  0  0  0  -0.161515  -0.275319  0.112007  0.0305722  -0.00356488  -0.0123178  -0.0171881  0.0252434  0.00075951  -0.0356271  0.040298  -0.0289962  0.175731  -0.0807942  0.00812748 
1704717262.485354000  0  0  11.5335  0.058328  -0.102853  0.0236005  nan  nan  nan  nan  nan  nan  -2.50125  -0.301382  1.00112  0.0408588  -0.0539523  -0.00197238  -0.0183499  -0.0230309  0.0151787  0  0  0  -0.162434  -0.286046  0.110821  0.0306124  -0.00360707  -0.0122729  -0.0193768  0.0240306  0.00867223  -0.0347459  0.0380246  -0.0291435  0.203006  -0.144121  -0.00357111 
1704717262.490393000  0  0  11.6828  0.0407375  -0.105449  0.0278486  nan  nan  nan  nan  nan  nan  -2.50134  -0.301501  1.0012  0.0426508  -0.0557916  -0.00214076  -0.0191638  -0.0244874  0.0157293  0  0  0  -0.163104  -0.296524  0.109385  0.030548  -0.00347771  -0.0123624  -0.0160251  0.0254045  -0.00358416  -0.0350928  0.038931  -0.0297367  0.241379  -0.147266  -0.0507408 
1704717262.495347000  0  0  11.6561  0.0872902  -0.134982  0.0224323  nan  nan  nan  nan  nan  nan  -2.50144  -0.301627  1.00128  0.0449803  -0.0552183  -0.00223835  -0.0199805  -0.0259957  0.0162721  0  0  0  -0.163523  -0.306751  0.107699  0.0305913  -0.00348  -0.012378  -0.0170735  0.0270025  -0.00146847  -0.0371217  0.0384421  -0.0292136  0.166939  -0.0837039  0.0117317 
1704717262.500370000  0  0  11.5242  0.0732801  -0.0808877  0.0219643  nan  nan  nan  nan  nan  nan  -2.50154  -0.301761  1.00136  0.0451814  -0.0545012  -0.0022102  -0.0207986  -0.0275545  0.0168059  0  0  0  -0.163692  -0.316728  0.105764  0.0306215  -0.00350037  -0.01229  -0.0188998  0.0253797  0.00922522  -0.0362191  0.0362097  -0.0290952  0.186655  -0.171354  0.0163976 
1704717262.505369000  0  0  11.6876  0.0450556  -0.0947368  0.0287222  nan  nan  nan  nan  nan  nan  -2.50165  -0.301903  1.00145  0.0468881  -0.0563441  -0.0023829  -0.021617  -0.0291626  0.0173293  0  0  0  -0.163612  -0.326456  0.103578  0.0305691  -0.00336229  -0.0123914  -0.015379  0.02686  -0.00423675  -0.0363122  0.0372485  -0.029979  0.243961  -0.153213  -0.0592374 
1704717262.510391000  0  0  11.6669  0.101012  -0.131932  0.0214752  nan  nan  nan  nan  nan  nan  -2.50176  -0.302053  1.00153  0.0493939  -0.0554146  -0.00247167  -0.0224343  -0.0308187  0.0178412  0  0  0  -0.163281  -0.335933  0.101142  0.0305976  -0.00336003  -0.0123862  -0.0167244  0.0287953  -0.00275035  -0.0386499  0.0365958  -0.0292375  0.153555  -0.0728166  0.0239346 
1704717262.514399000  0  0  11.526  0.103941  -0.0945454  0.0181251  nan  nan  nan  nan  nan  nan  -2.50187  -0.302211  1.00162  0.0510394  -0.0538209  -0.00247494  -0.0232494  -0.0325215  0.0183403  0  0  0  -0.162701  -0.34516  0.098456  0.0305242  -0.00322418  -0.0123046  -0.0193989  0.0286612  0.00859077  -0.0396318  0.0340498  -0.0286229  0.156731  -0.124167  0.0596643 
1704717262.520370000  0  0  11.6167  0.0708785  -0.10431  0.0281402  nan  nan  nan  nan  nan  nan  -2.50199  -0.302378  1.00172  0.0516525  -0.0556895  -0.00259767  -0.0240609  -0.0342698  0.0188254  0  0  0  -0.16187  -0.354138  0.0955201  0.0305825  -0.00324399  -0.0123424  -0.0164641  0.0288563  0.000983059  -0.0385442  0.0351149  -0.0298418  0.21285  -0.114438  -0.0533335 
1704717262.524846000  0  0  11.6416  0.110066  -0.133119  0.0223193  nan  nan  nan  nan  nan  nan  -2.50212  -0.302554  1.00181  0.0533633  -0.0559476  -0.00270002  -0.0248677  -0.0360625  0.0192951  0  0  0  -0.160789  -0.362865  0.0923343  0.0306393  -0.00323426  -0.0123286  -0.0159539  0.0300807  -0.00139166  -0.0400236  0.035615  -0.0292219  0.148086  -0.0614194  0.0132273 
1704717262.530313000  0  0  11.53  0.115634  -0.106165  0.0182077  nan  nan  nan  nan  nan  nan  -2.50224  -0.302739  1.00191  0.0550286  -0.0541258  -0.00268641  -0.0256684  -0.0378981  0.0197483  0  0  0  -0.159459  -0.371342  0.0888984  0.0305095  -0.00309532  -0.0122367  -0.0185274  0.0301737  0.00741485  -0.0409151  0.0330219  -0.028427  0.145151  -0.0914707  0.0566734 
1704717262.535370000  0  0  11.5512  0.0959273  -0.114016  0.0278864  nan  nan  nan  nan  nan  nan  -2.50237  -0.302933  1.00201  0.0560337  -0.0551175  -0.0027897  -0.0264618  -0.0397755  0.0201837  0  0  0  -0.157878  -0.37957  0.0852126  0.0306083  -0.00312251  -0.0121855  -0.0171399  0.0306006  0.00528556  -0.0406309  0.0337016  -0.0295742  0.18195  -0.0820228  -0.052837 
1704717262.539360000  0  0  11.5632  0.117275  -0.125703  0.0243579  nan  nan  nan  nan  nan  nan  -2.50251  -0.303137  1.00211  0.0578803  -0.0557014  -0.00291874  -0.0272468  -0.0416934  0.0206  0  0  0  -0.156047  -0.387547  0.0812767  0.030584  -0.00295887  -0.0121963  -0.0160173  0.0316665  0.00399464  -0.0421133  0.0341647  -0.0292334  0.152892  -0.062909  -0.0121398 
1704717262.545353000  0  0  11.5332  0.115648  -0.121746  0.0221488  nan  nan  nan  nan  nan  nan  -2.50264  -0.30335  1.00222  0.0591732  -0.0543431  -0.00290372  -0.0280219  -0.0436505  0.020996  0  0  0  -0.153967  -0.395274  0.0770909  0.0305422  -0.00295099  -0.0120948  -0.0175893  0.0321357  0.00592866  -0.0423442  0.0325482  -0.0289024  0.158272  -0.0559523  0.0121642 
1704717262.550394000  0  0  11.4782  0.0939798  -0.101633  0.0288106  nan  nan  nan  nan  nan  nan  -2.50279  -0.303573  1.00232  0.0597698  -0.0543827  -0.0029318  -0.028786  -0.0456457  0.0213705  0  0  0  -0.151636  -0.402751  0.072655  0.0306089  -0.0029535  -0.0119799  -0.0177257  0.0315873  0.00992255  -0.0416227  0.0319035  -0.0298074  0.194969  -0.090246  -0.0620593 
1704717262.555368000  0  0  11.5367  0.090566  -0.122489  0.0260129  nan  nan  nan  nan  nan  nan  -2.50293  -0.303807  1.00243  0.0608207  -0.0556012  -0.00305642  -0.0295378  -0.0476776  0.0217222  0  0  0  -0.149056  -0.409979  0.0679692  0.0305426  -0.00279692  -0.0119898  -0.0153266  0.0320465  0.00472374  -0.0416332  0.0330211  -0.0296702  0.201893  -0.0588156  -0.0284596 
1704717262.560369000  0  0  11.5708  0.10719  -0.136079  0.0222628  nan  nan  nan  nan  nan  nan  -2.50308  -0.30405  1.00254  0.0634702  -0.0531922  -0.00304455  -0.0302761  -0.0497451  0.0220498  0  0  0  -0.146225  -0.416956  0.0630333  0.0304727  -0.0026454  -0.0120041  -0.0176937  0.0344707  0.00147358  -0.0434546  0.0308615  -0.02923  0.185403  -0.011767  0.0140155 
1704717262.564372000  0  0  11.443  0.09694  -0.100324  0.0232504  nan  nan  nan  nan  nan  nan  -2.50324  -0.304304  1.00265  0.0651953  -0.0517458  -0.00303545  -0.0309997  -0.0518468  0.0223521  0  0  0  -0.143144  -0.423683  0.0578474  0.0304209  -0.00246679  -0.0119194  -0.0197845  0.0345163  0.0115022  -0.0440761  0.0286669  -0.0292822  0.21162  -0.0630877  0.002192 
1704717262.570392000  0  0  11.5318  0.0723387  -0.11599  0.0254543  nan  nan  nan  nan  nan  nan  -2.50339  -0.304569  1.00276  0.0655445  -0.0530264  -0.00313073  -0.0317072  -0.0539815  0.0226281  0  0  0  -0.139814  -0.430161  0.0525987  0.0303166  -0.00233724  -0.0119536  -0.0169751  0.0344829  0.00379901  -0.0427643  0.0296854  -0.0296192  0.248755  -0.041126  -0.0219874 
1704717262.575371000  0  0  11.5465  0.0940041  -0.122481  0.021133  nan  nan  nan  nan  nan  nan  -2.50355  -0.304844  1.00288  0.0680706  -0.0506128  -0.00309409  -0.0323974  -0.0561479  0.0228785  0  0  0  -0.136233  -0.436388  0.0475954  0.030249  -0.00218293  -0.0119642  -0.0193778  0.0367079  0.0021612  -0.0443934  0.0274714  -0.0291045  0.220412  -0.0077752  0.0268835 
1704717262.580369000  0  0  11.4046  0.0736881  -0.0843428  0.0222069  nan  nan  nan  nan  nan  nan  -2.50372  -0.30513  1.00299  0.0692432  -0.0487222  -0.00301594  -0.0330691  -0.0583449  0.0231045  0  0  0  -0.132403  -0.442365  0.0428421  0.0301383  -0.00201358  -0.0118352  -0.0218496  0.0359914  0.0133104  -0.0439718  0.0248136  -0.0291162  0.257165  -0.0595994  0.0135754 
1704717262.585369000  0  0  11.4891  0.0547014  -0.0971254  0.0260201  nan  nan  nan  nan  nan  nan  -2.50388  -0.305427  1.00311  0.0698802  -0.0496529  -0.00310527  -0.033721  -0.0605712  0.0233073  0  0  0  -0.128322  -0.448093  0.0383388  0.0301346  -0.00187701  -0.0119625  -0.0196738  0.0364116  0.00623075  -0.0429861  0.0254538  -0.0296179  0.286069  -0.0399241  -0.0290733 
1704717262.590319000  0  0  11.513  0.0759856  -0.103021  0.0221028  nan  nan  nan  nan  nan  nan  -2.50405  -0.305736  1.00322  0.0716898  -0.0484557  -0.00310287  -0.0343519  -0.0628254  0.0234883  0  0  0  -0.123991  -0.45357  0.0340855  0.0300914  -0.00173183  -0.0119563  -0.0204249  0.037897  0.00388947  -0.0437976  0.0243218  -0.0292013  0.250967  -0.0177184  0.0157278 
1704717262.595362000  0  0  11.4216  0.0650895  -0.0856605  0.0220072  nan  nan  nan  nan  nan  nan  -2.50423  -0.306056  1.00334  0.0730357  -0.0461516  -0.00299321  -0.0349605  -0.0651065  0.0236486  0  0  0  -0.119411  -0.458797  0.0300823  0.0299727  -0.00155045  -0.0118654  -0.0230057  0.0378193  0.0109717  -0.0435899  0.0217526  -0.0291021  0.270848  -0.0288031  0.015931 
1704717262.600379000  0  0  11.4317  0.0455063  -0.0710899  0.0263898  nan  nan  nan  nan  nan  nan  -2.5044  -0.306387  1.00346  0.0740902  -0.0455975  -0.00299424  -0.0355456  -0.067413  0.0237895  0  0  0  -0.11458  -0.463775  0.026329  0.0299004  -0.00139341  -0.0118316  -0.022886  0.0382555  0.00980544  -0.042883  0.020683  -0.0296944  0.303511  -0.0481036  -0.0329281 
1704717262.605364000  0  0  11.4997  0.0657006  -0.0925093  0.0238127  nan  nan  nan  nan  nan  nan  -2.50458  -0.30673  1.00358  0.0754016  -0.0453893  -0.00303174  -0.0361059  -0.0697438  0.0239123  0  0  0  -0.109499  -0.468502  0.0228257  0.0298026  -0.00119479  -0.0118442  -0.0219407  0.0394463  0.00392032  -0.0431409  0.0207301  -0.0294737  0.265495  -0.00569872  -0.00292176 
1704717262.610404000  0  0  11.447  0.0567342  -0.0964819  0.0219994  nan  nan  nan  nan  nan  nan  -2.50476  -0.307084  1.0037  0.074963  -0.0444206  -0.00293224  -0.0366402  -0.0720976  0.0240182  0  0  0  -0.104169  -0.472979  0.0195724  0.0300403  -0.00137279  -0.0116566  -0.023303  0.0382775  0.00761148  -0.0412239  0.020101  -0.029319  0.265791  0.00803418  0.0181972 
1704717262.615320000  0  0  11.3599  0.0305447  -0.0724799  0.0256296  nan  nan  nan  nan  nan  nan  -2.50495  -0.307451  1.00382  0.0741276  -0.0459752  -0.00300347  -0.0371471  -0.0744732  0.0241084  0  0  0  -0.0985882  -0.477206  0.0165691  0.0303466  -0.00153008  -0.01144  -0.0217483  0.036296  0.0142038  -0.0386628  0.0210695  -0.0298252  0.294608  -0.04888  -0.0221181 
1704717262.620369000  0  0  11.5226  0.0372281  -0.118626  0.0249915  nan  nan  nan  nan  nan  nan  -2.50514  -0.307829  1.00394  0.0744661  -0.0470279  -0.00309077  -0.0376256  -0.0768692  0.0241843  0  0  0  -0.0927576  -0.481184  0.0138158  0.0302706  -0.00134519  -0.0115016  -0.0186542  0.0371426  0.000613343  -0.0378005  0.0227793  -0.0298806  0.273309  0.0276829  -0.0135884 
1704717262.624369000  0  0  11.5266  0.0566994  -0.133092  0.0201871  nan  nan  nan  nan  nan  nan  -2.50532  -0.30822  1.00406  0.0768295  -0.0440545  -0.00296695  -0.0380743  -0.0792846  0.024247  0  0  0  -0.086677  -0.484911  0.0113125  0.0301942  -0.00110448  -0.0115105  -0.0215026  0.0392089  9.62728e-05  -0.0393156  0.0205017  -0.0292606  0.248304  0.0775695  0.0402676 
1704717262.630394000  0  0  11.3225  0.0272376  -0.0781044  0.0250111  nan  nan  nan  nan  nan  nan  -2.50552  -0.308622  1.00418  0.0763022  -0.0430279  -0.00285838  -0.038492  -0.0817179  0.0242978  0  0  0  -0.08036  -0.488388  0.0090592  0.0302764  -0.00121309  -0.0112134  -0.0231915  0.0366051  0.0162644  -0.0367574  0.0187152  -0.0298198  0.283693  -0.0159713  -0.0144405 
1704717262.635369000  0  0  11.5255  0.0222404  -0.14217  0.0268082  nan  nan  nan  nan  nan  nan  -2.50571  -0.309037  1.00431  0.0749907  -0.0468948  -0.00308507  -0.0388781  -0.0841681  0.024338  0  0  0  -0.0741462  -0.491616  0.0070559  0.0305402  -0.0012802  -0.0112043  -0.017056  0.0363609  -0.000755652  -0.0342489  0.0236194  -0.0302813  0.270609  0.0670425  -0.0322895 
1704717262.639374000  0  0  11.5447  0.059288  -0.159937  0.0212214  nan  nan  nan  nan  nan  nan  -2.5059  -0.309464  1.00443  0.0777419  -0.0433786  -0.00293437  -0.0392339  -0.0866337  0.0243688  0  0  0  -0.0681825  -0.494593  0.0053026  0.0304669  -0.00102799  -0.0112263  -0.0205486  0.0391286  -0.00244053  -0.0365058  0.0210569  -0.0296442  0.217278  0.12615  0.0311744 
1704717262.645369000  0  0  11.2989  0.0294952  -0.0889369  0.0257078  nan  nan  nan  nan  nan  nan  -2.5061  -0.309903  1.00455  0.0771742  -0.0432056  -0.00288945  -0.0395604  -0.0891136  0.0243915  0  0  0  -0.0624687  -0.49732  0.0037994  0.0305409  -0.00110785  -0.010907  -0.0214026  0.036123  0.0172192  -0.0341539  0.0199019  -0.0301696  0.255226  -0.00522349  -0.0196519 
1704717262.650347000  0  0  11.5263  0.0259792  -0.166192  0.0298624  nan  nan  nan  nan  nan  nan  -2.5063  -0.310355  1.00467  0.0762816  -0.0466162  -0.00310416  -0.039859  -0.0916065  0.0244072  0  0  0  -0.0570049  -0.499798  0.0025461  0.0307618  -0.00111971  -0.0108877  -0.0157284  0.0366192  -0.00178734  -0.0321682  0.0246783  -0.0310231  0.243989  0.105344  -0.0630493 
1704717262.655367000  0  0  11.4862  0.0781097  -0.158764  0.0205706  nan  nan  nan  nan  nan  nan  -2.5065  -0.310819  1.00479  0.0790254  -0.041982  -0.00285938  -0.0401308  -0.0941111  0.0244173  0  0  0  -0.0517912  -0.502025  0.0015428  0.030625  -0.000914125  -0.010847  -0.0208932  0.0390659  0.00137548  -0.0346744  0.0208613  -0.0299881  0.162785  0.125604  0.0427483 
1704717262.660362000  0  0  11.272  0.0561334  -0.0897725  0.0249776  nan  nan  nan  nan  nan  nan  -2.5067  -0.311296  1.00492  0.0800202  -0.0399682  -0.00273325  -0.0403773  -0.0966263  0.0244231  0  0  0  -0.0468274  -0.504002  0.0007895  0.0304979  -0.000733397  -0.0106736  -0.0235139  0.0377861  0.0187942  -0.0343629  0.017896  -0.0303941  0.203872  0.0149021  -0.00827919 
1704717262.664363000  0  0  11.4174  0.0583333  -0.127929  0.0304884  nan  nan  nan  nan  nan  nan  -2.5069  -0.311786  1.00504  0.0805017  -0.0411324  -0.00283965  -0.0405995  -0.0991507  0.0244256  0  0  0  -0.0421136  -0.505729  0.0002862  0.0304737  -0.000476184  -0.0107559  -0.0207314  0.0388882  0.00690002  -0.0341634  0.0197517  -0.0312167  0.197636  0.0741434  -0.0689379 
1704717262.670356000  0  0  11.4107  0.100517  -0.138737  0.0206234  nan  nan  nan  nan  nan  nan  -2.50711  -0.312288  1.00516  0.0812506  -0.0392784  -0.0027129  -0.0407988  -0.101683  0.0244263  0  0  0  -0.0376499  -0.507207  3.29e-05  0.0305824  -0.000565699  -0.0104866  -0.0227938  0.0398004  0.00685463  -0.0346317  0.0190806  -0.0302439  0.117579  0.101932  0.0446467 
1704717262.675364000  0  0  11.2808  0.0789529  -0.0981769  0.0241547  nan  nan  nan  nan  nan  nan  -2.50731  -0.312802  1.00528  0.0819458  -0.0381012  -0.00263697  -0.0409765  -0.104222  0.0244264  0  0  0  -0.0334361  -0.508434  -0  0.0305412  -0.000410662  -0.0104434  -0.0242176  0.0390018  0.0176041  -0.0342751  0.0173012  -0.0305065  0.157425  0.037183  0.00313032 
1704717262.680362000  0  0  11.4176  0.0773806  -0.127469  0.0288714  nan  nan  nan  nan  nan  nan  -2.50752  -0.31333  1.0054  0.0819235  -0.0379921  -0.00262037  -0.0411336  -0.106767  0.0244264  0  0  0  -0.0294723  -0.509411  -0  0.0304443  -0.000210358  -0.0104797  -0.023059  0.0396482  0.00632127  -0.033511  0.0179835  -0.0312564  0.15354  0.0894905  -0.0483279 
1704717262.685363000  0  0  11.4617  0.108645  -0.114275  0.0212074  nan  nan  nan  nan  nan  nan  -2.50772  -0.31387  1.00553  0.0833929  -0.0361925  -0.00251945  -0.0412716  -0.109316  0.0244264  0  0  0  -0.0257585  -0.510139  -0  0.0303697  -3.39801e-05  -0.010478  -0.0245304  0.0414439  0.00268832  -0.0348378  0.0164576  -0.0303904  0.103218  0.0771394  0.0388124 
1704717262.689367000  0  0  11.3289  0.111632  -0.102561  0.0215286  nan  nan  nan  nan  nan  nan  -2.50793  -0.314423  1.00565  0.0853747  -0.0345766  -0.00244656  -0.0413916  -0.111868  0.0244264  0  0  0  -0.0222948  -0.510616  -0  0.030303  0.000239292  -0.0103785  -0.0265135  0.0420461  0.0135898  -0.0362907  0.0149545  -0.030265  0.110611  0.0675401  0.0335424 
1704717262.695362000  0  0  11.3389  0.096613  -0.0997825  0.0263937  nan  nan  nan  nan  nan  nan  -2.50814  -0.314989  1.00577  0.0844325  -0.0338574  -0.00234612  -0.041495  -0.114422  0.0244264  0  0  0  -0.019081  -0.510843  -0  0.0301908  0.000315007  -0.0102607  -0.0267345  0.0407593  0.0124804  -0.0344808  0.0146282  -0.0309272  0.123997  0.0649859  -0.0206494 
1704717262.700362000  0  0  11.4777  0.100406  -0.105532  0.0232203  nan  nan  nan  nan  nan  nan  -2.50834  -0.315567  1.00589  0.0851664  -0.0337673  -0.00235666  -0.0415828  -0.116976  0.0244264  0  0  0  -0.0161172  -0.510821  -0  0.0301319  0.000491648  -0.0102984  -0.0258174  0.0426044  0.00107474  -0.0346932  0.0149413  -0.0305926  0.118366  0.0736033  0.0156726 
1704717262.705362000  0  0  11.3331  0.108392  -0.108744  0.022029  nan  nan  nan  nan  nan  nan  -2.50855  -0.316159  1.00601  0.0868449  -0.0310875  -0.00217375  -0.0416565  -0.11953  0.0244264  0  0  0  -0.0134035  -0.510548  -0  0.0299784  0.000704043  -0.0101628  -0.0290596  0.0429242  0.0128453  -0.0358061  0.0129162  -0.0303558  0.112632  0.0986597  0.0281954 
1704717262.710356000  0  0  11.3139  0.0782867  -0.097946  0.026516  nan  nan  nan  nan  nan  nan  -2.50876  -0.316763  1.00614  0.084679  -0.0325854  -0.00222612  -0.0417173  -0.122081  0.0244264  0  0  0  -0.0109397  -0.510025  -0  0.0302283  0.000643115  -0.00986284  -0.0274888  0.040211  0.0137637  -0.0326534  0.0147195  -0.0309345  0.143838  0.0604722  -0.0221046 
1704717262.714389000  0  0  11.4719  0.0671005  -0.117726  0.0272989  nan  nan  nan  nan  nan  nan  -2.50897  -0.317379  1.00626  0.0855607  -0.0331778  -0.00229904  -0.0417664  -0.124629  0.0244264  0  0  0  -0.0087259  -0.509253  -0  0.0301808  0.000940906  -0.00994978  -0.0257683  0.0422497  0.000894094  -0.0326962  0.0158635  -0.031133  0.166604  0.0895074  -0.0299058 
1704717262.720370000  0  0  11.3186  0.0854336  -0.132864  0.02263  nan  nan  nan  nan  nan  nan  -2.50918  -0.318009  1.00638  0.0857724  -0.0314886  -0.00215414  -0.041805  -0.127173  0.0244264  0  0  0  -0.0067621  -0.50823  -0  0.030265  0.000878179  -0.00961412  -0.0284065  0.0413375  0.0129077  -0.0324035  0.0153097  -0.0307325  0.127245  0.124879  0.0244492 
1704717262.725362000  0  0  11.3039  0.0469815  -0.104914  0.0255979  nan  nan  nan  nan  nan  nan  -2.50939  -0.318651  1.0065  0.084145  -0.0310697  -0.00206042  -0.0418344  -0.129711  0.0244264  0  0  0  -0.0050484  -0.506957  -0  0.0301851  0.00103411  -0.00953724  -0.0286004  0.0389688  0.0139192  -0.0295496  0.0148452  -0.0310961  0.177893  0.0732523  -0.00901202 
1704717262.730389000  0  0  11.4909  0.037241  -0.13849  0.0277347  nan  nan  nan  nan  nan  nan  -2.5096  -0.319306  1.00662  0.0849806  -0.031471  -0.00211384  -0.0418559  -0.132242  0.0244264  0  0  0  -0.0035846  -0.505434  -0  0.0300636  0.00125685  -0.00961614  -0.0269813  0.0414749  -0.00137999  -0.0292798  0.0162342  -0.0315038  0.194892  0.127624  -0.0316466 
1704717262.735321000  0  0  11.418  0.0619501  -0.153888  0.0231685  nan  nan  nan  nan  nan  nan  -2.50981  -0.319973  1.00675  0.0853826  -0.0310121  -0.00208052  -0.0418707  -0.134765  0.0244264  0  0  0  -0.0023708  -0.503662  -0  0.0302045  0.00129232  -0.0093985  -0.0279796  0.0414459  0.00422483  -0.0293431  0.0168616  -0.0310573  0.146056  0.152649  0.0209669 
1704717262.739372000  0  0  11.3434  0.0320031  -0.12228  0.0242833  nan  nan  nan  nan  nan  nan  -2.51002  -0.320654  1.00687  0.0845331  -0.0299298  -0.00195552  -0.04188  -0.137279  0.0244264  0  0  0  -0.0014071  -0.501639  -0  0.030124  0.00156681  -0.00933817  -0.0293112  0.0393174  0.0102687  -0.027419  0.015753  -0.0311493  0.188248  0.0996336  0.00795101 
1704717262.745368000  0  0  11.4791  0.00906387  -0.146201  0.0293661  nan  nan  nan  nan  nan  nan  -2.51023  -0.321346  1.00699  0.0840234  -0.0313614  -0.00205387  -0.0418851  -0.139781  0.0244264  0  0  0  -0.0006933  -0.499366  -0  0.0302202  0.00152867  -0.00921445  -0.0271522  0.0403063  -0.00124589  -0.0253948  0.0181604  -0.0320196  0.215504  0.125326  -0.0468803 
1704717262.750405000  0  0  11.4001  0.043382  -0.14523  0.0230395  nan  nan  nan  nan  nan  nan  -2.51043  -0.322051  1.00711  0.0843019  -0.0302533  -0.00196218  -0.0418873  -0.142272  0.0244264  0  0  0  -0.0002295  -0.496844  -0  0.0300647  0.00172131  -0.00913895  -0.0284324  0.0398195  0.00514737  -0.0254452  0.0177458  -0.0313492  0.147332  0.127199  0.0254979 
1704717262.755355000  0  0  11.3542  0.0178236  -0.142884  0.0246263  nan  nan  nan  nan  nan  nan  -2.51064  -0.322769  1.00724  0.0823632  -0.0304166  -0.0019098  -0.0418879  -0.144749  0.0244264  0  0  0  -1.58e-05  -0.494071  -0  0.0301949  0.00172705  -0.00892421  -0.0286505  0.0372856  0.00842186  -0.022463  0.0184964  -0.0315263  0.171013  0.115601  0.00743501 
1704717262.760352000  0  0  11.3787  0.0127919  -0.148472  0.0295761  nan  nan  nan  nan  nan  nan  -2.51085  -0.323499  1.00736  0.0824308  -0.0315526  -0.00199888  -0.0418879  -0.147212  0.0244264  0  0  0  0  -0.491048  -0  0.0303742  0.00175118  -0.00872813  -0.0275226  0.03792  0.00599991  -0.0216668  0.0202043  -0.0323  0.173751  0.111064  -0.0467012 
1704717262.764356000  0  0  11.3587  0.0397838  -0.159896  0.0246532  nan  nan  nan  nan  nan  nan  -2.51106  -0.324241  1.00748  0.0828464  -0.0321083  -0.00205139  -0.0418879  -0.149659  0.0244264  0  0  0  0  -0.487776  -0  0.0303173  0.00204745  -0.00870819  -0.0267612  0.038016  0.00764045  -0.0220315  0.0213434  -0.0317983  0.123123  0.123434  0.00981825 
1704717262.770357000  0  0  11.3345  0.040453  -0.155962  0.0233853  nan  nan  nan  nan  nan  nan  -2.51127  -0.324995  1.0076  0.0817554  -0.0295654  -0.00180107  -0.0418879  -0.152089  0.0244264  0  0  0  0  -0.484253  -0  0.0301441  0.00208703  -0.00860985  -0.0296822  0.0367907  0.00935455  -0.0204003  0.019707  -0.0315586  0.106776  0.130619  0.0232699 
1704717262.775305000  0  0  11.2711  0.0320798  -0.135968  0.0274965  nan  nan  nan  nan  nan  nan  -2.51148  -0.325762  1.00772  0.0813048  -0.030523  -0.00185876  -0.0418879  -0.154501  0.0244264  0  0  0  0  -0.48048  -0  0.0303057  0.00210196  -0.00831167  -0.0290483  0.0360945  0.0139839  -0.0192832  0.0208085  -0.0321131  0.113246  0.0804973  -0.0225756 
1704717262.780351000  0  0  11.3458  0.0601664  -0.174129  0.0237136  nan  nan  nan  nan  nan  nan  -2.51169  -0.32654  1.00785  0.0807479  -0.0322253  -0.00197253  -0.0418879  -0.156894  0.0244264  0  0  0  0  -0.476458  -0  0.0301882  0.0022777  -0.00831077  -0.0263807  0.0361839  0.00774216  -0.0189296  0.023536  -0.0317192  0.0538197  0.131727  0.0207721 
1704717262.785355000  0  0  11.313  0.0821041  -0.153995  0.0221032  nan  nan  nan  nan  nan  nan  -2.5119  -0.327331  1.00797  0.0810968  -0.0284895  -0.00167357  -0.0418879  -0.159266  0.0244264  0  0  0  0  -0.472185  -0  0.0300525  0.00244849  -0.00823765  -0.0309099  0.0365039  0.0102857  -0.0194865  0.0203324  -0.0314075  0.0150679  0.120932  0.0377847 
1704717262.789365000  0  0  11.2398  0.0700095  -0.107158  0.0269423  nan  nan  nan  nan  nan  nan  -2.51211  -0.328133  1.00809  0.0816241  -0.0280153  -0.00164312  -0.0418879  -0.161615  0.0244264  0  0  0  0  -0.467662  -0  0.0299715  0.00275003  -0.008165  -0.0315565  0.0364052  0.0162602  -0.0196354  0.0192514  -0.0319387  0.0406268  0.0372019  -0.0173914 
1704717262.795355000  0  0  11.3145  0.0847692  -0.150676  0.0264442  nan  nan  nan  nan  nan  nan  -2.51232  -0.328947  1.00821  0.0806083  -0.0300812  -0.00177439  -0.0418879  -0.163942  0.0244264  0  0  0  0  -0.462889  -0  0.0298405  0.00278028  -0.00809681  -0.028428  0.0363417  0.00985051  -0.0189009  0.02223  -0.0320549  0.00435013  0.0968371  -0.0100037 
1704717262.800355000  0  0  11.2904  0.109472  -0.128471  0.0227182  nan  nan  nan  nan  nan  nan  -2.51253  -0.329772  1.00833  0.0805532  -0.0270488  -0.00152122  -0.0418879  -0.166244  0.0244264  0  0  0  0  -0.457867  -0  0.0297622  0.00293111  -0.0081294  -0.0321537  0.0363694  0.0118776  -0.019375  0.0193546  -0.0315723  -0.0406945  0.0788788  0.0317456 
1704717262.805355000  0  0  11.222  0.0848462  -0.0873531  0.0288544  nan  nan  nan  nan  nan  nan  -2.51274  -0.330609  1.00846  0.080275  -0.02676  -0.00148362  -0.0418879  -0.16852  0.0244264  0  0  0  0  -0.452594  -0  0.0296063  0.00310789  -0.00802723  -0.0323765  0.0356868  0.0173429  -0.0187555  0.0184485  -0.032313  0.00285855  0.00497988  -0.0375504 
1704717262.810391000  0  0  11.2928  0.0998365  -0.127602  0.0271166  nan  nan  nan  nan  nan  nan  -2.51295  -0.331458  1.00858  0.0797436  -0.0274627  -0.00151865  -0.0418879  -0.170769  0.0244264  0  0  0  0  -0.447071  -0  0.0295141  0.00325857  -0.0079902  -0.031077  0.0360183  0.0113372  -0.0186367  0.0199984  -0.0323183  -0.0282155  0.0712195  -0.0157746 
1704717262.814389000  0  0  11.3193  0.117566  -0.115798  0.0217232  nan  nan  nan  nan  nan  nan  -2.51316  -0.332317  1.0087  0.0799335  -0.0257548  -0.00138024  -0.0418879  -0.17299  0.0244264  0  0  0  0  -0.441299  -0  0.0294156  0.00357686  -0.00798364  -0.0329331  0.0365213  0.00911129  -0.0192617  0.018476  -0.0316358  -0.0579247  0.0616162  0.0448183 
1704717262.820341000  0  0  11.2528  0.0844327  -0.101143  0.0272998  nan  nan  nan  nan  nan  nan  -2.51337  -0.333187  1.00882  0.0784124  -0.0263693  -0.00138229  -0.0418879  -0.175182  0.0244264  0  0  0  0  -0.435276  -0  0.0294543  0.00348296  -0.00777761  -0.032443  0.0350034  0.0141324  -0.017552  0.0190306  -0.032236  -0.00738657  0.0272035  -0.0188876 
1704717262.825348000  0  0  11.2627  0.0780246  -0.121223  0.0260406  nan  nan  nan  nan  nan  nan  -2.51358  -0.334069  1.00895  0.0770003  -0.0267747  -0.00136929  -0.0418879  -0.177343  0.0244264  0  0  0  0  -0.429003  -0  0.0293653  0.00361824  -0.00771278  -0.0317103  0.0338216  0.0130813  -0.01622  0.0200309  -0.0322106  -0.00682539  0.058163  -0.003402 
1704717262.830389000  0  0  11.382  0.0758183  -0.117757  0.0234265  nan  nan  nan  nan  nan  nan  -2.51379  -0.334961  1.00907  0.076124  -0.0258528  -0.00126861  -0.0418879  -0.179472  0.0244264  0  0  0  0  -0.422481  -0  0.0292014  0.0037894  -0.00773644  -0.0321632  0.0341843  0.00316036  -0.0154025  0.0193972  -0.0318498  -0.00993376  0.057059  0.0256674 
1704717262.835370000  0  0  11.289  0.0662821  -0.122123  0.0249907  nan  nan  nan  nan  nan  nan  -2.514  -0.335863  1.00919  0.0760775  -0.024145  -0.00113036  -0.0418879  -0.181567  0.0244264  0  0  0  0  -0.415708  -0  0.0290943  0.00392848  -0.0076171  -0.0343424  0.0338945  0.0106176  -0.0151541  0.0182339  -0.0319899  0.006853  0.0764934  0.00751456 
1704717262.839352000  0  0  11.2169  0.0508631  -0.108003  0.0254041  nan  nan  nan  nan  nan  nan  -2.5142  -0.336776  1.00931  0.0750939  -0.0239202  -0.00108277  -0.0418879  -0.183628  0.0244264  0  0  0  0  -0.408685  -0  0.0289927  0.00423455  -0.00754651  -0.0345939  0.0322726  0.0164111  -0.013913  0.0180082  -0.0320476  0.0262734  0.050331  0.00292419 
1704717262.845348000  0  0  11.4692  0.0356728  -0.154681  0.0247127  nan  nan  nan  nan  nan  nan  -2.51441  -0.3377  1.00943  0.0726702  -0.0261359  -0.00117893  -0.0418879  -0.185654  0.0244264  0  0  0  0  -0.401413  -0  0.0290378  0.00412933  -0.00757919  -0.0311948  0.0324478  -0.00464338  -0.0113735  0.0213321  -0.0320186  0.0332904  0.113106  0.0112773 
1704717262.850354000  0  0  11.2925  0.0456759  -0.155952  0.0231118  nan  nan  nan  nan  nan  nan  -2.51462  -0.338633  1.00956  0.0715342  -0.0250028  -0.00106112  -0.0418879  -0.187642  0.0244264  0  0  0  0  -0.39389  -0  0.0292957  0.0040485  -0.00724437  -0.0337099  0.0307369  0.00926491  -0.0104312  0.0209096  -0.0318841  0.00461521  0.119536  0.0299431 
1704717262.855297000  0  0  11.1589  0.0173333  -0.112408  0.0262049  nan  nan  nan  nan  nan  nan  -2.51483  -0.339576  1.00968  0.0693421  -0.0247418  -0.000981024  -0.0418879  -0.189592  0.0244264  0  0  0  0  -0.386117  -0  0.0291335  0.00418946  -0.0071058  -0.0340497  0.0276361  0.0199623  -0.00781543  0.0201816  -0.0322394  0.0372353  0.0391462  -0.0051678 
1704717262.860364000  0  0  11.4412  0.00882781  -0.195423  0.0287136  nan  nan  nan  nan  nan  nan  -2.51504  -0.340529  1.0098  0.0675076  -0.0293854  -0.00124247  -0.0418879  -0.191503  0.0244264  0  0  0  0  -0.378094  -0  0.0295014  0.00408844  -0.0068789  -0.0281731  0.0287189  -0.00409663  -0.00580312  0.026393  -0.0328141  0.0357331  0.148031  -0.0307787 
1704717262.864349000  0  0  11.3546  0.0445534  -0.186459  0.0232672  nan  nan  nan  nan  nan  nan  -2.51525  -0.341491  1.00992  0.0681917  -0.0260979  -0.00103142  -0.0418879  -0.193373  0.0244264  0  0  0  0  -0.369822  -0  0.0293894  0.00440545  -0.00682781  -0.0323657  0.0292825  0.00301011  -0.0070053  0.0237504  -0.0322047  -0.024658  0.154414  0.0312074 
1704717262.870355000  0  0  11.1188  -0.00366279  -0.120496  0.0273788  nan  nan  nan  nan  nan  nan  -2.51546  -0.342462  1.01004  0.0634706  -0.0271736  -0.000969228  -0.0418879  -0.1952  0.0244264  0  0  0  0  -0.361299  -0  0.0294064  0.00418507  -0.00646833  -0.0317629  0.0232457  0.0216166  -0.00191078  0.0240092  -0.0326925  0.0249048  0.0201076  -0.0153105 
1704717262.875298000  0  0  11.3207  -0.00592375  -0.183442  0.0319948  nan  nan  nan  nan  nan  nan  -2.51567  -0.343443  1.01017  0.0621803  -0.0309055  -0.00115949  -0.0418879  -0.196985  0.0244264  0  0  0  0  -0.352526  -0  0.0295559  0.00420911  -0.00642324  -0.0267792  0.0241055  0.00463192  -0.000745207  0.0289501  -0.0335635  0.0187034  0.100543  -0.0642995 
1704717262.880349000  0  0  11.1803  0.0598463  -0.162424  0.0205725  nan  nan  nan  nan  nan  nan  -2.51588  -0.344432  1.01029  0.0622525  -0.0260471  -0.000852107  -0.0418879  -0.198725  0.0244264  0  0  0  0  -0.343504  -0  0.0293537  0.00433309  -0.00628468  -0.032864  0.0241018  0.0160056  -0.00214456  0.0246509  -0.0322558  -0.0999625  0.0980607  0.0654018 
1704717262.885365000  0  0  11.0611  0.00824865  -0.118151  0.0257727  nan  nan  nan  nan  nan  nan  -2.51609  -0.34543  1.01041  0.0583014  -0.0282973  -0.000873323  -0.0418879  -0.20042  0.0244264  0  0  0  0  -0.334231  -0  0.0295712  0.00420682  -0.00599822  -0.0309252  0.0198855  0.0251199  0.00199488  0.0261557  -0.0328015  -0.0348502  -0.0043294  0.00585692 
1704717262.889349000  0  0  11.1941  0.0149127  -0.159559  0.030768  nan  nan  nan  nan  nan  nan  -2.5163  -0.346436  1.01053  0.0584874  -0.0296408  -0.000950435  -0.0418879  -0.202067  0.0244264  0  0  0  0  -0.324708  -0  0.0295137  0.00451343  -0.00604179  -0.0287037  0.0215026  0.0141482  0.00151244  0.0282187  -0.0335115  -0.0437399  0.0595048  -0.0494848 
1704717262.895346000  0  0  11.1811  0.0689616  -0.156878  0.0192603  nan  nan  nan  nan  nan  nan  -2.51651  -0.347451  1.01066  0.0566317  -0.0284187  -0.000819203  -0.0418879  -0.203666  0.0244264  0  0  0  0  -0.314936  -0  0.0296029  0.00426356  -0.00578138  -0.0304689  0.0209145  0.0145739  0.00164405  0.0274859  -0.0322498  -0.153048  0.0608854  0.0817447 
1704717262.900351000  0  0  11.0545  0.0458875  -0.11677  0.0243964  nan  nan  nan  nan  nan  nan  -2.51672  -0.348473  1.01078  0.0548452  -0.0277531  -0.000724857  -0.0418879  -0.205216  0.0244264  0  0  0  0  -0.304913  -0  0.0294476  0.00435422  -0.00560944  -0.0313456  0.0189979  0.0246648  0.00304971  0.0262532  -0.0325742  -0.119832  -0.00799088  0.0207878 
1704717262.905349000  0  0  11.1558  0.0532093  -0.139408  0.030209  nan  nan  nan  nan  nan  nan  -2.51693  -0.349503  1.0109  0.0531329  -0.0294898  -0.000762728  -0.0418879  -0.206715  0.0244264  0  0  0  0  -0.29464  -0  0.0295191  0.00435342  -0.00551481  -0.0290361  0.0188001  0.0159419  0.003806  0.0283851  -0.033431  -0.141434  0.0176744  -0.0433023 
1704717262.910357000  0  0  11.1791  0.0908646  -0.144633  0.020599  nan  nan  nan  nan  nan  nan  -2.51714  -0.35054  1.01102  0.0519828  -0.0288313  -0.000687672  -0.0418879  -0.208162  0.0244264  0  0  0  0  -0.284118  -0  0.0294986  0.00437617  -0.00542458  -0.0297351  0.0187964  0.0137511  0.00336282  0.028052  -0.0323703  -0.212667  0.0311883  0.0662157 
1704717262.914394000  0  0  11.084  0.0918449  -0.119139  0.0218752  nan  nan  nan  nan  nan  nan  -2.51735  -0.351584  1.01114  0.0515081  -0.0270893  -0.000577382  -0.0418879  -0.209556  0.0244264  0  0  0  0  -0.273345  -0  0.0294031  0.00465078  -0.00531707  -0.0319785  0.0184202  0.0214281  0.0030176  0.0260463  -0.0322673  -0.211452  -0.0013481  0.0492334 
1704717262.920349000  0  0  11.0853  0.0747515  -0.114722  0.0303798  nan  nan  nan  nan  nan  nan  -2.51756  -0.352635  1.01127  0.048461  -0.0286168  -0.000561797  -0.0418879  -0.210895  0.0244264  0  0  0  0  -0.262322  -0  0.0293615  0.004475  -0.00514508  -0.0299994  0.0164684  0.0208168  0.00498801  0.0274744  -0.0333759  -0.195393  -0.0233208  -0.0459893 
1704717262.925374000  0  0  11.2436  0.103166  -0.142292  0.0226798  nan  nan  nan  nan  nan  nan  -2.51777  -0.353693  1.01139  0.0478255  -0.0285994  -0.000535939  -0.0418879  -0.212179  0.0244264  0  0  0  0  -0.251087  -0  0.0293298  0.00452752  -0.00516827  -0.0294477  0.0178365  0.0076472  0.00400047  0.0280227  -0.0325037  -0.243137  0.0267749  0.04154 
1704717262.930475000  0  0  11.0921  0.100688  -0.109494  0.0224172  nan  nan  nan  nan  nan  nan  -2.51797  -0.354757  1.01151  0.0463794  -0.0260498  -0.000369404  -0.0418879  -0.213406  0.0244264  0  0  0  0  -0.240007  -0  0.0291365  0.00458785  -0.00498716  -0.0326492  0.016524  0.0198237  0.00426024  0.0251678  -0.0322289  -0.24057  -0.0125564  0.0420746 
1704717262.935319000  0  0  11.0804  0.0734312  -0.100851  0.0278404  nan  nan  nan  nan  nan  nan  -2.51818  -0.355827  1.01163  0.0438508  -0.0274991  -0.000360177  -0.0418879  -0.214579  0.0244264  0  0  0  0  -0.229177  -0  0.0291667  0.00465049  -0.00490827  -0.0309644  0.0145883  0.0205289  0.00600216  0.0263117  -0.0328792  -0.202082  -0.0403662  -0.0192128 
1704717262.939359000  0  0  11.2334  0.0967159  -0.141909  0.0247488  nan  nan  nan  nan  nan  nan  -2.51839  -0.356903  1.01175  0.0440173  -0.0273809  -0.000352661  -0.0418879  -0.215699  0.0244264  0  0  0  0  -0.218598  -0  0.0290891  0.00493637  -0.00496502  -0.0304722  0.0162479  0.00790598  0.00462284  0.0269285  -0.032563  -0.235962  0.0360763  0.01627 
1704717262.945356000  0  0  11.1031  0.0999986  -0.114662  0.0201298  nan  nan  nan  nan  nan  nan  -2.5186  -0.357984  1.01188  0.0416888  -0.025273  -0.000194098  -0.0418879  -0.216766  0.0244264  0  0  0  0  -0.208268  -0  0.0289532  0.00476445  -0.00480252  -0.0331722  0.0144344  0.0183203  0.00531744  0.0247191  -0.0317278  -0.248918  0.00190766  0.0656552 
1704717262.950387000  0  0  11.1255  0.0646781  -0.110138  0.0271235  nan  nan  nan  nan  nan  nan  -2.51881  -0.35907  1.012  0.0391707  -0.0269888  -0.000190784  -0.0418879  -0.217782  0.0244264  0  0  0  0  -0.198189  -0  0.0289601  0.00478933  -0.00477201  -0.0310014  0.0126516  0.0162943  0.00714403  0.0262323  -0.0324746  -0.195081  -0.0210612  -0.0142976 
1704717262.955306000  0  0  11.2498  0.0844074  -0.136298  0.0245108  nan  nan  nan  nan  nan  nan  -2.51902  -0.360162  1.01212  0.0389224  -0.02643  -0.000155517  -0.0418879  -0.218748  0.0244264  0  0  0  0  -0.188359  -0  0.0288127  0.00489008  -0.00478927  -0.0310009  0.0139055  0.00596294  0.00609115  0.0262441  -0.0322172  -0.224853  0.0311504  0.0157873 
1704717262.960368000  0  0  11.1946  0.0819768  -0.120168  0.0215816  nan  nan  nan  nan  nan  nan  -2.51923  -0.361258  1.01224  0.0367134  -0.0260931  -7.77873e-05  -0.0418879  -0.219666  0.0244264  0  0  0  0  -0.178779  -0  0.0287756  0.00489476  -0.00473743  -0.0315004  0.0121268  0.0103658  0.0070673  0.0258222  -0.0317223  -0.228973  0.00277246  0.0474527 
1704717262.964376000  0  0  11.1635  0.0552465  -0.12192  0.0268627  nan  nan  nan  nan  nan  nan  -2.51944  -0.362358  1.01237  0.0355927  -0.0258598  -3.34066e-05  -0.0418879  -0.220536  0.0244264  0  0  0  0  -0.16945  -0  0.0286923  0.00515674  -0.00470359  -0.0316955  0.0112123  0.0128421  0.00783738  0.0256813  -0.0322842  -0.182597  0.00757232  -0.0129422 
1704717262.970313000  0  0  11.2394  0.0550402  -0.127998  0.025782  nan  nan  nan  nan  nan  nan  -2.51965  -0.363463  1.01249  0.0336195  -0.0260185  1.9138e-05  -0.0418879  -0.221361  0.0244264  0  0  0  0  -0.16037  -0  0.028632  0.00497473  -0.00469157  -0.0311447  0.0106071  0.00641767  0.00867266  0.0262411  -0.0322573  -0.189869  0.0145788  0.000297368 
1704717262.975368000  0  0  11.2941  0.0515321  -0.137161  0.0222465  nan  nan  nan  nan  nan  nan  -2.51986  -0.364572  1.01261  0.0317592  -0.0272737  3.45248e-05  -0.0418879  -0.22214  0.0244264  0  0  0  0  -0.151541  -0  0.0286397  0.0049597  -0.0047368  -0.0294262  0.00963261  0.00188143  0.00948433  0.0277135  -0.0317459  -0.19032  0.019358  0.0393776 
1704717262.980440000  0  0  11.2086  0.0461224  -0.143077  0.0241711  nan  nan  nan  nan  nan  nan  -2.52007  -0.365684  1.01273  0.0305887  -0.0250459  0.000141519  -0.0418879  -0.222876  0.0244264  0  0  0  0  -0.142961  -0  0.0284643  0.00499034  -0.00464404  -0.032073  0.00889453  0.00875943  0.00984822  0.0259962  -0.0318453  -0.182848  0.0469886  0.0163147 
1704717262.985378000  0  0  11.2343  0.0406745  -0.119658  0.0251673  nan  nan  nan  nan  nan  nan  -2.52028  -0.3668  1.01285  0.0285198  -0.0257567  0.000179908  -0.0418879  -0.22357  0.0244264  0  0  0  0  -0.134631  -0  0.0284834  0.00499564  -0.00469783  -0.0311553  0.007446  0.006667  0.0109528  0.0264491  -0.0319137  -0.182115  -0.00401644  0.00454522 
1704717262.990315000  0  0  11.3605  0.0480639  -0.151417  0.0243037  nan  nan  nan  nan  nan  nan  -2.52049  -0.36792  1.01298  0.0279712  -0.0269326  0.000167958  -0.0418879  -0.224223  0.0244264  0  0  0  0  -0.126552  -0  0.0283721  0.00511209  -0.00490005  -0.0290609  0.0079202  -0.00344319  0.0105562  0.0281523  -0.0317954  -0.193245  0.0438342  0.0141583 
