    ts      x      y      z   roll  pitch    yaw     vx     vy     vz     wx     wy     wz     ax     ay     az    dwx    dwy    dwz
 0.0050000  -2.5000000  -0.3000000   1.0000000   0.0000000   0.0000000   0.0000000  -0.0000002  -0.0000002   0.0000002   0.0000000   0.0000000   0.0000000  -0.0001250  -0.0001250   0.0001250   0.0000000   0.0000000   0.0000000
 0.0100000  -2.5000000  -0.3000000   1.0000000   0.0000000   0.0000000   0.0000000  -0.0000017  -0.0000017   0.0000017   0.0000000   0.0000000   0.0000000  -0.0005000  -0.0005000   0.0005000   0.0000000   0.0000000   0.0000000
 0.0150000  -2.5000000  -0.3000000   1.0000000   0.0000000   0.0000000   0.0000000  -0.0000056  -0.0000056   0.0000056   0.0000000   0.0000000   0.0000000  -0.0011250  -0.0011250   0.0011250   0.0000000   0.0000000   0.0000000
 0.0200000  -2.5000000  -0.3000000   1.0000000   0.0000000   0.0000000   0.0000001  -0.0000133  -0.0000133   0.0000133   0.0000000   0.0000000   0.0000000  -0.0020000  -0.0020000   0.0020000   0.0000000   0.0000000   0.0000000
 0.0250000  -2.5000000  -0.3000000   1.0000000   0.0000000   0.0000000   0.0000003  -0.0000260  -0.0000260   0.0000260   0.0000000   0.0000000   0.0000000  -0.0031250  -0.0031250   0.0031250   0.0000000   0.0000000   0.0000000
 0.0300000  -2.5000000  -0.3000000   1.0000000   0.0000000   0.0000000   0.0000005  -0.0000450  -0.0000450   0.0000450   0.0000000   0.0000000   0.0000000  -0.0045000  -0.0045000   0.0045000   0.0000000   0.0000000   0.0000000
 0.0350000  -2.5000000  -0.3000010   1.0000000   0.0000000   0.0000000   0.0000010  -0.0000715  -0.0000715   0.0000715   0.0000000   0.0000000   0.0000000  -0.0061250  -0.0061250   0.0061250   0.0000000   0.0000000   0.0000000
 0.0400000  -2.5000000  -0.3000010   1.0000000   0.0000000   0.0000000   0.0000017  -0.0001067  -0.0001067   0.0001067   0.0000000   0.0000000   0.0000000  -0.0080000  -0.0080000   0.0080000   0.0000000   0.0000000   0.0000000
 0.0450000  -2.5000000  -0.3000020   1.0000000   0.0000000   0.0000000   0.0000027  -0.0001519  -0.0001519   0.0001519   0.0000000   0.0000000   0.0000000  -0.0101250  -0.0101250   0.0101250   0.0000000   0.0000000   0.0000000
 0.0500000  -2.5000000  -0.3000030   1.0000000   0.0000000   0.0000000   0.0000041  -0.0002083  -0.0002083   0.0002083   0.0000000   0.0000000   0.0000000  -0.0125000  -0.0125000   0.0125000   0.0000000   0.0000000   0.0000000
 0.0550000  -2.5000000  -0.3000040   1.0000000   0.0000000   0.0000000   0.0000059  -0.0002773  -0.0002773   0.0002773   0.0000000   0.0000000   0.0000000  -0.0151250  -0.0151250   0.0151250   0.0000000   0.0000000   0.0000000
 0.0600000  -2.5000100  -0.3000050   1.0000100   0.0000000   0.0000000   0.0000081  -0.0003600  -0.0003600   0.0003600   0.0000000   0.0000000   0.0000000  -0.0180000  -0.0180000   0.0180000   0.0000000   0.0000000   0.0000000
 0.0650000  -2.5000100  -0.3000070   1.0000100   0.0000000   0.0000000   0.0000108  -0.0004577  -0.0004577   0.0004577   0.0000000   0.0000000   0.0000000  -0.0211250  -0.0211250   0.0211250   0.0000000   0.0000000   0.0000000
 0.0700000  -2.5000100  -0.3000100   1.0000100   0.0000000   0.0000000   0.0000140  -0.0005717  -0.0005717   0.0005717   0.0000000   0.0000000   0.0000000  -0.0245000  -0.0245000   0.0245000   0.0000000   0.0000000   0.0000000
 0.0750000  -2.5000100  -0.3000130   1.0000100   0.0000000   0.0000000   0.0000177  -0.0007031  -0.0007031   0.0007031   0.0000000   0.0000000   0.0000000  -0.0281250  -0.0281250   0.0281250   0.0000000   0.0000000   0.0000000
 0.0800000  -2.5000200  -0.3000170   1.0000200   0.0000000   0.0000000   0.0000218  -0.0008533  -0.0008533   0.0008533   0.0000000   0.0000000   0.0000000  -0.0320000  -0.0320000   0.0320000   0.0000000   0.0000000   0.0000000
 0.0850000  -2.5000200  -0.3000220   1.0000200   0.0000000   0.0000000   0.0000264  -0.0010235  -0.0010235   0.0010235   0.0000000   0.0000000   0.0000000  -0.0361250  -0.0361250   0.0361250   0.0000000   0.0000000   0.0000000
 0.0900000  -2.5000300  -0.3000270   1.0000300   0.0000000   0.0000000   0.0000315  -0.0012150  -0.0012150   0.0012150   0.0000000   0.0000000   0.0000000  -0.0405000  -0.0405000   0.0405000   0.0000000   0.0000000   0.0000000
 0.0950000  -2.5000300  -0.3000340   1.0000300   0.0000000   0.0000000   0.0000369  -0.0014290  -0.0014290   0.0014290   0.0000000   0.0000000   0.0000000  -0.0451250  -0.0451250   0.0451250   0.0000000   0.0000000   0.0000000
 0.1000000  -2.5000400  -0.3000420   1.0000400   0.0000000   0.0000000   0.0000428  -0.0016667  -0.0016667   0.0016667   0.0000000   0.0000000   0.0000000  -0.0500000  -0.0500000   0.0500000   0.0000000   0.0000000   0.0000000
 0.1050000  -2.5000500  -0.3000510   1.0000500   0.0000000   0.0000000   0.0000489  -0.0019294  -0.0019294   0.0019294   0.0000000   0.0000000   0.0000000  -0.0551250  -0.0551250   0.0551250   0.0000000   0.0000000   0.0000000
 0.1100000  -2.5000600  -0.3000610   1.0000600   0.0000000   0.0000000   0.0000553  -0.0022183  -0.0022183   0.0022182   0.0000000   0.0000000   0.0000000  -0.0605000  -0.0605000   0.0604034   0.0000000   0.0000000   0.0000000
 0.1150000  -2.5000700  -0.3000730   1.0000700   0.0000000   0.0000000   0.0000618  -0.0025348  -0.0025348   0.0025330   0.0000000   0.0000000   0.0000000  -0.0661250  -0.0661250   0.0654675   0.0000000   0.0000000   0.0000000
 0.1200000  -2.5000900  -0.3000860   1.0000900   0.0000000   0.0000000   0.0000685  -0.0028800  -0.0028800   0.0028725   0.0000000   0.0000000   0.0000000  -0.0720000  -0.0720000   0.0702817   0.0000000   0.0000000   0.0000000
 0.1250000  -2.5001000  -0.3001020   1.0001000   0.0000000   0.0000000   0.0000753  -0.0032552  -0.0032552   0.0032354   0.0000000   0.0000000   0.0000000  -0.0781250  -0.0781250   0.0748458   0.0000000   0.0000000   0.0000000
 0.1300000  -2.5001200  -0.3001190   1.0001200   0.0000000   0.0000000   0.0000821  -0.0036616  -0.0036617   0.0036205   0.0000000   0.0000000   0.0000000  -0.0844577  -0.0845000   0.0791599   0.0000000   0.0000000   0.0000000
 0.1350000  -2.5001400  -0.3001380   1.0001400   0.0000000   0.0000000   0.0000889  -0.0040995  -0.0041006   0.0040266   0.0000000   0.0000000   0.0000000  -0.0906271  -0.0911250   0.0832241   0.0000000   0.0000000   0.0000000
 0.1400000  -2.5001600  -0.3001600   1.0001600   0.0000000   0.0000000   0.0000957  -0.0045675  -0.0045733   0.0044524   0.0000000   0.0000000   0.0000000  -0.0965465  -0.0980000   0.0870382   0.0000000   0.0000000   0.0000000
 0.1450000  -2.5001800  -0.3001840   1.0001800   0.0000000   0.0000000   0.0001025  -0.0050645  -0.0050810   0.0048966   0.0000000   0.0000000   0.0000000  -0.1022160  -0.1051250   0.0906024   0.0000000   0.0000000   0.0000000
 0.1500000  -2.5002100  -0.3002110   1.0002100   0.0000000   0.0000000   0.0001094  -0.0055892  -0.0056250   0.0053580   0.0000000   0.0000000   0.0000000  -0.1076350  -0.1125000   0.0939165   0.0000000   0.0000000   0.0000000
 0.1550000  -2.5002400  -0.3002410   1.0002400   0.0000000   0.0000000   0.0001162  -0.0061404  -0.0062065   0.0058353   0.0000000   0.0000000   0.0000000  -0.1128050  -0.1201250   0.0969807   0.0000000   0.0000000   0.0000000
 0.1600000  -2.5002700  -0.3002730   1.0002700   0.0000000   0.0000000   0.0001230  -0.0067169  -0.0068267   0.0063273   0.0000000   0.0000000   0.0000000  -0.1177240  -0.1280000   0.0997948   0.0000000   0.0000000   0.0000000
 0.1650000  -2.5003100  -0.3003090   1.0003000   0.0000000   0.0000000   0.0001298  -0.0073173  -0.0074869   0.0068328   0.0000000   0.0000000   0.0000000  -0.1223930  -0.1361250   0.1023590   0.0000000   0.0000000   0.0000000
 0.1700000  -2.5003500  -0.3003480   1.0003300   0.0000000   0.0000000   0.0001366  -0.0079404  -0.0081883   0.0073505   0.0000000   0.0000000   0.0000000  -0.1268130  -0.1445000   0.1046730   0.0000000   0.0000000   0.0000000
 0.1750000  -2.5003900  -0.3003910   1.0003700   0.0000000   0.0000000   0.0001435  -0.0085850  -0.0089323   0.0078792   0.0000000   0.0000000   0.0000000  -0.1309820  -0.1531250   0.1067370   0.0000000   0.0000000   0.0000000
 0.1800000  -2.5004300  -0.3004370   1.0004100   0.0000000   0.0000000   0.0001503  -0.0092498  -0.0097200   0.0084175   0.0000000   0.0000000   0.0000000  -0.1349020  -0.1620000   0.1085510   0.0000000   0.0000000   0.0000000
 0.1850000  -2.5004800  -0.3004880   1.0004600   0.0000000   0.0000000   0.0001571  -0.0099336  -0.0105527   0.0089642   0.0000000   0.0000000   0.0000000  -0.1385710  -0.1711250   0.1101160   0.0000000   0.0000000   0.0000000
 0.1900000  -2.5005300  -0.3005430   1.0005000   0.0000000   0.0000000   0.0001639  -0.0106351  -0.0114317   0.0095182   0.0000000   0.0000000   0.0000000  -0.1419900  -0.1805000   0.1114300   0.0000000   0.0000000   0.0000000
 0.1950000  -2.5005900  -0.3006020   1.0005500   0.0000000   0.0000000   0.0001708  -0.0113531  -0.0123581   0.0100781   0.0000000   0.0000000   0.0000000  -0.1451600  -0.1901250   0.1124940   0.0000000   0.0000000   0.0000000
 0.2000000  -2.5006400  -0.3006670   1.0006000   0.0000000   0.0000000   0.0001776  -0.0120863  -0.0133333   0.0106427   0.0000000   0.0000000   0.0000000  -0.1480790  -0.2000000   0.1133080   0.0000000   0.0000000   0.0000000
 0.2050000  -2.5007100  -0.3007360   1.0006600   0.0000000   0.0000000   0.0001844  -0.0128334  -0.0143585   0.0112108   0.0000000   0.0000000   0.0000000  -0.1507480  -0.2101250   0.1138720   0.0000000   0.0000000   0.0000000
 0.2100000  -2.5007700  -0.3008100   1.0007200   0.0000000   0.0000000   0.0001912  -0.0135933  -0.0154350   0.0117810   0.0000000   0.0000000   0.0000000  -0.1531680  -0.2205000   0.1141860   0.0000000   0.0000000   0.0000000
 0.2150000  -2.5008400  -0.3008900   1.0007800   0.0000000   0.0000000   0.0001981  -0.0143647  -0.0165640   0.0123522   0.0000000   0.0000000   0.0000000  -0.1553370  -0.2311250   0.1142500   0.0000000   0.0000000   0.0000000
 0.2200000  -2.5009200  -0.3009760   1.0008400   0.0000000   0.0000000   0.0002049  -0.0151463  -0.0177467   0.0129231   0.0000000   0.0000000   0.0000000  -0.1572570  -0.2420000   0.1140650   0.0000000   0.0000000   0.0000000
 0.2250000  -2.5009900  -0.3010680   1.0009100   0.0000000   0.0000000   0.0002117  -0.0159368  -0.0189844   0.0134925   0.0000000   0.0000000   0.0000000  -0.1589260  -0.2531250   0.1136290   0.0000000   0.0000000   0.0000000
 0.2300000  -2.5010800  -0.3011660   1.0009700   0.0000000   0.0000000   0.0002185  -0.0167351  -0.0202781   0.0140590   0.0000000   0.0000000   0.0000000  -0.1603450  -0.2643420   0.1129430   0.0000000   0.0000000   0.0000000
 0.2350000  -2.5011600  -0.3012710   1.0010500   0.0000000   0.0000000   0.0002254  -0.0175399  -0.0216274   0.0146215   0.0000000   0.0000000   0.0000000  -0.1615150  -0.2753190   0.1120070   0.0000000   0.0000000   0.0000000
 0.2400000  -2.5012500  -0.3013820   1.0011200   0.0000000   0.0000000   0.0002322  -0.0183499  -0.0230309   0.0151787   0.0000000   0.0000000   0.0000000  -0.1624340  -0.2860460   0.1108210   0.0000000   0.0000000   0.0000000
 0.2450000  -2.5013400  -0.3015010   1.0012000   0.0000000   0.0000000   0.0002390  -0.0191638  -0.0244874   0.0157293   0.0000000   0.0000000   0.0000000  -0.1631040  -0.2965240   0.1093850   0.0000000   0.0000000   0.0000000
 0.2500000  -2.5014400  -0.3016270   1.0012800   0.0000000   0.0000000   0.0002458  -0.0199805  -0.0259957   0.0162721   0.0000000   0.0000000   0.0000000  -0.1635230  -0.3067510   0.1076990   0.0000000   0.0000000   0.0000000
 0.2550000  -2.5015400  -0.3017610   1.0013600   0.0000000   0.0000000   0.0002527  -0.0207986  -0.0275545   0.0168059   0.0000000   0.0000000   0.0000000  -0.1636920  -0.3167280   0.1057640   0.0000000   0.0000000   0.0000000
 0.2600000  -2.5016500  -0.3019030   1.0014500   0.0000000   0.0000000   0.0002595  -0.0216170  -0.0291626   0.0173293   0.0000000   0.0000000   0.0000000  -0.1636120  -0.3264560   0.1035780   0.0000000   0.0000000   0.0000000
 0.2650000  -2.5017600  -0.3020530   1.0015300   0.0000000   0.0000000   0.0002663  -0.0224343  -0.0308187   0.0178412   0.0000000   0.0000000   0.0000000  -0.1632810  -0.3359330   0.1011420   0.0000000   0.0000000   0.0000000
 0.2700000  -2.5018700  -0.3022110   1.0016200   0.0000000   0.0000000   0.0002731  -0.0232494  -0.0325215   0.0183403   0.0000000   0.0000000   0.0000000  -0.1627010  -0.3451600   0.0984560   0.0000000   0.0000000   0.0000000
 0.2750000  -2.5019900  -0.3023780   1.0017200   0.0000000   0.0000000   0.0002799  -0.0240609  -0.0342698   0.0188254   0.0000000   0.0000000   0.0000000  -0.1618700  -0.3541380   0.0955201   0.0000000   0.0000000   0.0000000
 0.2800000  -2.5021200  -0.3025540   1.0018100   0.0000000   0.0000000   0.0002868  -0.0248677  -0.0360625   0.0192951   0.0000000   0.0000000   0.0000000  -0.1607890  -0.3628650   0.0923343   0.0000000   0.0000000   0.0000000
 0.2850000  -2.5022400  -0.3027390   1.0019100   0.0000000   0.0000000   0.0002936  -0.0256684  -0.0378981   0.0197483   0.0000000   0.0000000   0.0000000  -0.1594590  -0.3713420   0.0888984   0.0000000   0.0000000   0.0000000
 0.2900000  -2.5023700  -0.3029330   1.0020100   0.0000000   0.0000000   0.0003004  -0.0264618  -0.0397755   0.0201837   0.0000000   0.0000000   0.0000000  -0.1578780  -0.3795700   0.0852126   0.0000000   0.0000000   0.0000000
 0.2950000  -2.5025100  -0.3031370   1.0021100   0.0000000   0.0000000   0.0003072  -0.0272468  -0.0416934   0.0206000   0.0000000   0.0000000   0.0000000  -0.1560470  -0.3875470   0.0812767   0.0000000   0.0000000   0.0000000
 0.3000000  -2.5026400  -0.3033500   1.0022200   0.0000000   0.0000000   0.0003141  -0.0280219  -0.0436505   0.0209960   0.0000000   0.0000000   0.0000000  -0.1539670  -0.3952740   0.0770909   0.0000000   0.0000000   0.0000000
 0.3050000  -2.5027900  -0.3035730   1.0023200   0.0000000   0.0000000   0.0003209  -0.0287860  -0.0456457   0.0213705   0.0000000   0.0000000   0.0000000  -0.1516360  -0.4027510   0.0726550   0.0000000   0.0000000   0.0000000
 0.3100000  -2.5029300  -0.3038070   1.0024300   0.0000000   0.0000000   0.0003277  -0.0295378  -0.0476776   0.0217222   0.0000000   0.0000000   0.0000000  -0.1490560  -0.4099790   0.0679692   0.0000000   0.0000000   0.0000000
 0.3150000  -2.5030800  -0.3040500   1.0025400   0.0000000   0.0000000   0.0003345  -0.0302761  -0.0497451   0.0220498   0.0000000   0.0000000   0.0000000  -0.1462250  -0.4169560   0.0630333   0.0000000   0.0000000   0.0000000
 0.3200000  -2.5032400  -0.3043040   1.0026500   0.0000000   0.0000000   0.0003414  -0.0309997  -0.0518468   0.0223521   0.0000000   0.0000000   0.0000000  -0.1431440  -0.4236830   0.0578474   0.0000000   0.0000000   0.0000000
 0.3250000  -2.5033900  -0.3045690   1.0027600   0.0000000   0.0000000   0.0003482  -0.0317072  -0.0539815   0.0226281   0.0000000   0.0000000   0.0000000  -0.1398140  -0.4301610   0.0525987   0.0000000   0.0000000   0.0000000
 0.3300000  -2.5035500  -0.3048440   1.0028800   0.0000000   0.0000000   0.0003550  -0.0323974  -0.0561479   0.0228785   0.0000000   0.0000000   0.0000000  -0.1362330  -0.4363880   0.0475954   0.0000000   0.0000000   0.0000000
 0.3350000  -2.5037200  -0.3051300   1.0029900   0.0000000   0.0000000   0.0003618  -0.0330691  -0.0583449   0.0231045   0.0000000   0.0000000   0.0000000  -0.1324030  -0.4423650   0.0428421   0.0000000   0.0000000   0.0000000
 0.3400000  -2.5038800  -0.3054270   1.0031100   0.0000000   0.0000000   0.0003687  -0.0337210  -0.0605712   0.0233073   0.0000000   0.0000000   0.0000000  -0.1283220  -0.4480930   0.0383388   0.0000000   0.0000000   0.0000000
 0.3450000  -2.5040500  -0.3057360   1.0032200   0.0000000   0.0000000   0.0003755  -0.0343519  -0.0628254   0.0234883   0.0000000   0.0000000   0.0000000  -0.1239910  -0.4535700   0.0340855   0.0000000   0.0000000   0.0000000
 0.3500000  -2.5042300  -0.3060560   1.0033400   0.0000000   0.0000000   0.0003823  -0.0349605  -0.0651065   0.0236486   0.0000000   0.0000000   0.0000000  -0.1194110  -0.4587970   0.0300823   0.0000000   0.0000000   0.0000000
 0.3550000  -2.5044000  -0.3063870   1.0034600   0.0000000   0.0000000   0.0003891  -0.0355456  -0.0674130   0.0237895   0.0000000   0.0000000   0.0000000  -0.1145800  -0.4637750   0.0263290   0.0000000   0.0000000   0.0000000
 0.3600000  -2.5045800  -0.3067300   1.0035800   0.0000000   0.0000000   0.0003960  -0.0361059  -0.0697438   0.0239123   0.0000000   0.0000000   0.0000000  -0.1094990  -0.4685020   0.0228257   0.0000000   0.0000000   0.0000000
 0.3650000  -2.5047600  -0.3070840   1.0037000   0.0000000   0.0000000   0.0004028  -0.0366402  -0.0720976   0.0240182   0.0000000   0.0000000   0.0000000  -0.1041690  -0.4729790   0.0195724   0.0000000   0.0000000   0.0000000
 0.3700000  -2.5049500  -0.3074510   1.0038200   0.0000000   0.0000000   0.0004096  -0.0371471  -0.0744732   0.0241084   0.0000000   0.0000000   0.0000000  -0.0985882  -0.4772060   0.0165691   0.0000000   0.0000000   0.0000000
 0.3750000  -2.5051400  -0.3078290   1.0039400   0.0000000   0.0000000   0.0004164  -0.0376256  -0.0768692   0.0241843   0.0000000   0.0000000   0.0000000  -0.0927576  -0.4811840   0.0138158   0.0000000   0.0000000   0.0000000
 0.3800000  -2.5053200  -0.3082200   1.0040600   0.0000000   0.0000000   0.0004233  -0.0380743  -0.0792846   0.0242470   0.0000000   0.0000000   0.0000000  -0.0866770  -0.4849110   0.0113125   0.0000000   0.0000000   0.0000000
 0.3850000  -2.5055200  -0.3086220   1.0041800   0.0000000   0.0000000   0.0004301  -0.0384920  -0.0817179   0.0242978   0.0000000   0.0000000   0.0000000  -0.0803600  -0.4883880   0.0090592   0.0000000   0.0000000   0.0000000
 0.3900000  -2.5057100  -0.3090370   1.0043100   0.0000000   0.0000000   0.0004369  -0.0388781  -0.0841681   0.0243380   0.0000000   0.0000000   0.0000000  -0.0741462  -0.4916160   0.0070559   0.0000000   0.0000000   0.0000000
 0.3950000  -2.5059000  -0.3094640   1.0044300   0.0000000   0.0000000   0.0004437  -0.0392339  -0.0866337   0.0243688   0.0000000   0.0000000   0.0000000  -0.0681825  -0.4945930   0.0053026   0.0000000   0.0000000   0.0000000
 0.4000000  -2.5061000  -0.3099030   1.0045500   0.0000000   0.0000000   0.0004505  -0.0395604  -0.0891136   0.0243915   0.0000000   0.0000000   0.0000000  -0.0624687  -0.4973200   0.0037994   0.0000000   0.0000000   0.0000000
 0.4050000  -2.5063000  -0.3103550   1.0046700   0.0000000   0.0000000   0.0004574  -0.0398590  -0.0916065   0.0244072   0.0000000   0.0000000   0.0000000  -0.0570049  -0.4997980   0.0025461   0.0000000   0.0000000   0.0000000
 0.4100000  -2.5065000  -0.3108190   1.0047900   0.0000000   0.0000000   0.0004642  -0.0401308  -0.0941111   0.0244173   0.0000000   0.0000000   0.0000000  -0.0517912  -0.5020250   0.0015428   0.0000000   0.0000000   0.0000000
 0.4150000  -2.5067000  -0.3112960   1.0049200   0.0000000   0.0000000   0.0004710  -0.0403773  -0.0966263   0.0244231   0.0000000   0.0000000   0.0000000  -0.0468274  -0.5040020   0.0007895   0.0000000   0.0000000   0.0000000
 0.4200000  -2.5069000  -0.3117860   1.0050400   0.0000000   0.0000000   0.0004778  -0.0405995  -0.0991507   0.0244256   0.0000000   0.0000000   0.0000000  -0.0421136  -0.5057290   0.0002862   0.0000000   0.0000000   0.0000000
 0.4250000  -2.5071100  -0.3122880   1.0051600   0.0000000   0.0000000   0.0004847  -0.0407988  -0.1016830   0.0244263   0.0000000   0.0000000   0.0000000  -0.0376499  -0.5072070   0.0000329   0.0000000   0.0000000   0.0000000
 0.4300000  -2.5073100  -0.3128020   1.0052800   0.0000000   0.0000000   0.0004915  -0.0409765  -0.1042220   0.0244264   0.0000000   0.0000000   0.0000000  -0.0334361  -0.5084340  -0.0000000   0.0000000   0.0000000   0.0000000
 0.4350000  -2.5075200  -0.3133300   1.0054000   0.0000000   0.0000000   0.0004983  -0.0411336  -0.1067670   0.0244264   0.0000000   0.0000000   0.0000000  -0.0294723  -0.5094110  -0.0000000   0.0000000   0.0000000   0.0000000
 0.4400000  -2.5077200  -0.3138700   1.0055300   0.0000000   0.0000000   0.0005051  -0.0412716  -0.1093160   0.0244264   0.0000000   0.0000000   0.0000000  -0.0257585  -0.5101390  -0.0000000   0.0000000   0.0000000   0.0000000
 0.4450000  -2.5079300  -0.3144230   1.0056500   0.0000000   0.0000000   0.0005120  -0.0413916  -0.1118680   0.0244264   0.0000000   0.0000000   0.0000000  -0.0222948  -0.5106160  -0.0000000   0.0000000   0.0000000   0.0000000
 0.4500000  -2.5081400  -0.3149890   1.0057700   0.0000000   0.0000000   0.0005188  -0.0414950  -0.1144220   0.0244264   0.0000000   0.0000000   0.0000000  -0.0190810  -0.5108430  -0.0000000   0.0000000   0.0000000   0.0000000
 0.4550000  -2.5083400  -0.3155670   1.0058900   0.0000000   0.0000000   0.0005256  -0.0415828  -0.1169760   0.0244264   0.0000000   0.0000000   0.0000000  -0.0161172  -0.5108210  -0.0000000   0.0000000   0.0000000   0.0000000
 0.4600000  -2.5085500  -0.3161590   1.0060100   0.0000000   0.0000000   0.0005324  -0.0416565  -0.1195300   0.0244264   0.0000000   0.0000000   0.0000000  -0.0134035  -0.5105480  -0.0000000   0.0000000   0.0000000   0.0000000
 0.4650000  -2.5087600  -0.3167630   1.0061400   0.0000000   0.0000000   0.0005393  -0.0417173  -0.1220810   0.0244264   0.0000000   0.0000000   0.0000000  -0.0109397  -0.5100250  -0.0000000   0.0000000   0.0000000   0.0000000
 0.4700000  -2.5089700  -0.3173790   1.0062600   0.0000000   0.0000000   0.0005461  -0.0417664  -0.1246290   0.0244264   0.0000000   0.0000000   0.0000000  -0.0087259  -0.5092530  -0.0000000   0.0000000   0.0000000   0.0000000
 0.4750000  -2.5091800  -0.3180090   1.0063800   0.0000000   0.0000000   0.0005529  -0.0418050  -0.1271730   0.0244264   0.0000000   0.0000000   0.0000000  -0.0067621  -0.5082300  -0.0000000   0.0000000   0.0000000   0.0000000
 0.4800000  -2.5093900  -0.3186510   1.0065000   0.0000000   0.0000000   0.0005597  -0.0418344  -0.1297110   0.0244264   0.0000000   0.0000000   0.0000000  -0.0050484  -0.5069570  -0.0000000   0.0000000   0.0000000   0.0000000
 0.4850000  -2.5096000  -0.3193060   1.0066200   0.0000000   0.0000000   0.0005666  -0.0418559  -0.1322420   0.0244264   0.0000000   0.0000000   0.0000000  -0.0035846  -0.5054340  -0.0000000   0.0000000   0.0000000   0.0000000
 0.4900000  -2.5098100  -0.3199730   1.0067500   0.0000000   0.0000000   0.0005734  -0.0418707  -0.1347650   0.0244264   0.0000000   0.0000000   0.0000000  -0.0023708  -0.5036620  -0.0000000   0.0000000   0.0000000   0.0000000
 0.4950000  -2.5100200  -0.3206540   1.0068700   0.0000000   0.0000000   0.0005802  -0.0418800  -0.1372790   0.0244264   0.0000000   0.0000000   0.0000000  -0.0014071  -0.5016390  -0.0000000   0.0000000   0.0000000   0.0000000
 0.5000000  -2.5102300  -0.3213460   1.0069900   0.0000000   0.0000000   0.0005870  -0.0418851  -0.1397810   0.0244264   0.0000000   0.0000000   0.0000000  -0.0006933  -0.4993660  -0.0000000   0.0000000   0.0000000   0.0000000
 0.5050000  -2.5104300  -0.3220510   1.0071100   0.0000000   0.0000000   0.0005939  -0.0418873  -0.1422720   0.0244264   0.0000000   0.0000000   0.0000000  -0.0002295  -0.4968440  -0.0000000   0.0000000   0.0000000   0.0000000
 0.5100000  -2.5106400  -0.3227690   1.0072400   0.0000000   0.0000000   0.0006007  -0.0418879  -0.1447490   0.0244264   0.0000000   0.0000000   0.0000000  -0.0000158  -0.4940710  -0.0000000   0.0000000   0.0000000   0.0000000
 0.5150000  -2.5108500  -0.3234990   1.0073600   0.0000000   0.0000000   0.0006075  -0.0418879  -0.1472120   0.0244264   0.0000000   0.0000000   0.0000000   0.0000000  -0.4910480  -0.0000000   0.0000000   0.0000000   0.0000000
 0.5200000  -2.5110600  -0.3242410   1.0074800   0.0000000   0.0000000   0.0006143  -0.0418879  -0.1496590   0.0244264   0.0000000   0.0000000   0.0000000   0.0000000  -0.4877760  -0.0000000   0.0000000   0.0000000   0.0000000
 0.5250000  -2.5112700  -0.3249950   1.0076000   0.0000000   0.0000000   0.0006211  -0.0418879  -0.1520890   0.0244264   0.0000000   0.0000000   0.0000000   0.0000000  -0.4842530  -0.0000000   0.0000000   0.0000000   0.0000000
 0.5300000  -2.5114800  -0.3257620   1.0077200   0.0000000   0.0000000   0.0006280  -0.0418879  -0.1545010   0.0244264   0.0000000   0.0000000   0.0000000   0.0000000  -0.4804800  -0.0000000   0.0000000   0.0000000   0.0000000
 0.5350000  -2.5116900  -0.3265400   1.0078500   0.0000000   0.0000000   0.0006348  -0.0418879  -0.1568940   0.0244264   0.0000000   0.0000000   0.0000000   0.0000000  -0.4764580  -0.0000000   0.0000000   0.0000000   0.0000000
 0.5400000  -2.5119000  -0.3273310   1.0079700   0.0000000   0.0000000   0.0006416  -0.0418879  -0.1592660   0.0244264   0.0000000   0.0000000   0.0000000   0.0000000  -0.4721850  -0.0000000   0.0000000   0.0000000   0.0000000
 0.5450000  -2.5121100  -0.3281330   1.0080900   0.0000000   0.0000000   0.0006484  -0.0418879  -0.1616150   0.0244264   0.0000000   0.0000000   0.0000000   0.0000000  -0.4676620  -0.0000000   0.0000000   0.0000000   0.0000000
 0.5500000  -2.5123200  -0.3289470   1.0082100   0.0000000   0.0000000   0.0006553  -0.0418879  -0.1639420   0.0244264   0.0000000   0.0000000   0.0000000   0.0000000  -0.4628890  -0.0000000   0.0000000   0.0000000   0.0000000
 0.5550000  -2.5125300  -0.3297720   1.0083300   0.0000000   0.0000000   0.0006621  -0.0418879  -0.1662440   0.0244264   0.0000000   0.0000000   0.0000000   0.0000000  -0.4578670  -0.0000000   0.0000000   0.0000000   0.0000000
 0.5600000  -2.5127400  -0.3306090   1.0084600   0.0000000   0.0000000   0.0006689  -0.0418879  -0.1685200   0.0244264   0.0000000   0.0000000   0.0000000   0.0000000  -0.4525940  -0.0000000   0.0000000   0.0000000   0.0000000
 0.5650000  -2.5129500  -0.3314580   1.0085800   0.0000000   0.0000000   0.0006757  -0.0418879  -0.1707690   0.0244264   0.0000000   0.0000000   0.0000000   0.0000000  -0.4470710  -0.0000000   0.0000000   0.0000000   0.0000000
 0.5700000  -2.5131600  -0.3323170   1.0087000   0.0000000   0.0000000   0.0006826  -0.0418879  -0.1729900   0.0244264   0.0000000   0.0000000   0.0000000   0.0000000  -0.4412990  -0.0000000   0.0000000   0.0000000   0.0000000
 0.5750000  -2.5133700  -0.3331870   1.0088200   0.0000000   0.0000000   0.0006894  -0.0418879  -0.1751820   0.0244264   0.0000000   0.0000000   0.0000000   0.0000000  -0.4352760  -0.0000000   0.0000000   0.0000000   0.0000000
 0.5800000  -2.5135800  -0.3340690   1.0089500   0.0000000   0.0000000   0.0006962  -0.0418879  -0.1773430   0.0244264   0.0000000   0.0000000   0.0000000   0.0000000  -0.4290030  -0.0000000   0.0000000   0.0000000   0.0000000
 0.5850000  -2.5137900  -0.3349610   1.0090700   0.0000000   0.0000000   0.0007030  -0.0418879  -0.1794720   0.0244264   0.0000000   0.0000000   0.0000000   0.0000000  -0.4224810  -0.0000000   0.0000000   0.0000000   0.0000000
 0.5900000  -2.5140000  -0.3358630   1.0091900   0.0000000   0.0000000   0.0007099  -0.0418879  -0.1815670   0.0244264   0.0000000   0.0000000   0.0000000   0.0000000  -0.4157080  -0.0000000   0.0000000   0.0000000   0.0000000
 0.5950000  -2.5142000  -0.3367760   1.0093100   0.0000000   0.0000000   0.0007167  -0.0418879  -0.1836280   0.0244264   0.0000000   0.0000000   0.0000000   0.0000000  -0.4086850  -0.0000000   0.0000000   0.0000000   0.0000000
 0.6000000  -2.5144100  -0.3377000   1.0094300   0.0000000   0.0000000   0.0007235  -0.0418879  -0.1856540   0.0244264   0.0000000   0.0000000   0.0000000   0.0000000  -0.4014130  -0.0000000   0.0000000   0.0000000   0.0000000
 0.6050000  -2.5146200  -0.3386330   1.0095600   0.0000000   0.0000000   0.0007303  -0.0418879  -0.1876420   0.0244264   0.0000000   0.0000000   0.0000000   0.0000000  -0.3938900  -0.0000000   0.0000000   0.0000000   0.0000000
 0.6100000  -2.5148300  -0.3395760   1.0096800   0.0000000   0.0000000   0.0007372  -0.0418879  -0.1895920   0.0244264   0.0000000   0.0000000   0.0000000   0.0000000  -0.3861170  -0.0000000   0.0000000   0.0000000   0.0000000
 0.6150000  -2.5150400  -0.3405290   1.0098000   0.0000000   0.0000000   0.0007440  -0.0418879  -0.1915030   0.0244264   0.0000000   0.0000000   0.0000000   0.0000000  -0.3780940  -0.0000000   0.0000000   0.0000000   0.0000000
 0.6200000  -2.5152500  -0.3414910   1.0099200   0.0000000   0.0000000   0.0007508  -0.0418879  -0.1933730   0.0244264   0.0000000   0.0000000   0.0000000   0.0000000  -0.3698220  -0.0000000   0.0000000   0.0000000   0.0000000
 0.6250000  -2.5154600  -0.3424620   1.0100400   0.0000000   0.0000000   0.0007576  -0.0418879  -0.1952000   0.0244264   0.0000000   0.0000000   0.0000000   0.0000000  -0.3612990  -0.0000000   0.0000000   0.0000000   0.0000000
 0.6300000  -2.5156700  -0.3434430   1.0101700   0.0000000   0.0000000   0.0007644  -0.0418879  -0.1969850   0.0244264   0.0000000   0.0000000   0.0000000   0.0000000  -0.3525260  -0.0000000   0.0000000   0.0000000   0.0000000
 0.6350000  -2.5158800  -0.3444320   1.0102900   0.0000000   0.0000000   0.0007713  -0.0418879  -0.1987250   0.0244264   0.0000000   0.0000000   0.0000000   0.0000000  -0.3435040  -0.0000000   0.0000000   0.0000000   0.0000000
 0.6400000  -2.5160900  -0.3454300   1.0104100   0.0000000   0.0000000   0.0007781  -0.0418879  -0.2004200   0.0244264   0.0000000   0.0000000   0.0000000   0.0000000  -0.3342310  -0.0000000   0.0000000   0.0000000   0.0000000
 0.6450000  -2.5163000  -0.3464360   1.0105300   0.0000000   0.0000000   0.0007849  -0.0418879  -0.2020670   0.0244264   0.0000000   0.0000000   0.0000000   0.0000000  -0.3247080  -0.0000000   0.0000000   0.0000000   0.0000000
 0.6500000  -2.5165100  -0.3474510   1.0106600   0.0000000   0.0000000   0.0007917  -0.0418879  -0.2036660   0.0244264   0.0000000   0.0000000   0.0000000   0.0000000  -0.3149360  -0.0000000   0.0000000   0.0000000   0.0000000
 0.6550000  -2.5167200  -0.3484730   1.0107800   0.0000000   0.0000000   0.0007986  -0.0418879  -0.2052160   0.0244264   0.0000000   0.0000000   0.0000000   0.0000000  -0.3049130  -0.0000000   0.0000000   0.0000000   0.0000000
 0.6600000  -2.5169300  -0.3495030   1.0109000   0.0000000   0.0000000   0.0008054  -0.0418879  -0.2067150   0.0244264   0.0000000   0.0000000   0.0000000   0.0000000  -0.2946400  -0.0000000   0.0000000   0.0000000   0.0000000
 0.6650000  -2.5171400  -0.3505400   1.0110200   0.0000000   0.0000000   0.0008122  -0.0418879  -0.2081620   0.0244264   0.0000000   0.0000000   0.0000000   0.0000000  -0.2841180  -0.0000000   0.0000000   0.0000000   0.0000000
 0.6700000  -2.5173500  -0.3515840   1.0111400   0.0000000   0.0000000   0.0008190  -0.0418879  -0.2095560   0.0244264   0.0000000   0.0000000   0.0000000   0.0000000  -0.2733450  -0.0000000   0.0000000   0.0000000   0.0000000
 0.6750000  -2.5175600  -0.3526350   1.0112700   0.0000000   0.0000000   0.0008259  -0.0418879  -0.2108950   0.0244264   0.0000000   0.0000000   0.0000000   0.0000000  -0.2623220  -0.0000000   0.0000000   0.0000000   0.0000000
 0.6800000  -2.5177700  -0.3536930   1.0113900   0.0000000   0.0000000   0.0008327  -0.0418879  -0.2121790   0.0244264   0.0000000   0.0000000   0.0000000   0.0000000  -0.2510870  -0.0000000   0.0000000   0.0000000   0.0000000
 0.6850000  -2.5179700  -0.3547570   1.0115100   0.0000000   0.0000000   0.0008395  -0.0418879  -0.2134060   0.0244264   0.0000000   0.0000000   0.0000000   0.0000000  -0.2400070  -0.0000000   0.0000000   0.0000000   0.0000000
 0.6900000  -2.5181800  -0.3558270   1.0116300   0.0000000   0.0000000   0.0008463  -0.0418879  -0.2145790   0.0244264   0.0000000   0.0000000   0.0000000   0.0000000  -0.2291770  -0.0000000   0.0000000   0.0000000   0.0000000
 0.6950000  -2.5183900  -0.3569030   1.0117500   0.0000000   0.0000000   0.0008532  -0.0418879  -0.2156990   0.0244264   0.0000000   0.0000000   0.0000000   0.0000000  -0.2185980  -0.0000000   0.0000000   0.0000000   0.0000000
 0.7000000  -2.5186000  -0.3579840   1.0118800   0.0000000   0.0000000   0.0008600  -0.0418879  -0.2167660   0.0244264   0.0000000   0.0000000   0.0000000   0.0000000  -0.2082680  -0.0000000   0.0000000   0.0000000   0.0000000
 0.7050000  -2.5188100  -0.3590700   1.0120000   0.0000000   0.0000000   0.0008668  -0.0418879  -0.2177820   0.0244264   0.0000000   0.0000000   0.0000000   0.0000000  -0.1981890  -0.0000000   0.0000000   0.0000000   0.0000000
 0.7100000  -2.5190200  -0.3601620   1.0121200   0.0000000   0.0000000   0.0008736  -0.0418879  -0.2187480   0.0244264   0.0000000   0.0000000   0.0000000   0.0000000  -0.1883590  -0.0000000   0.0000000   0.0000000   0.0000000
 0.7150000  -2.5192300  -0.3612580   1.0122400   0.0000000   0.0000000   0.0008805  -0.0418879  -0.2196660   0.0244264   0.0000000   0.0000000   0.0000000   0.0000000  -0.1787790  -0.0000000   0.0000000   0.0000000   0.0000000
 0.7200000  -2.5194400  -0.3623580   1.0123700   0.0000000   0.0000000   0.0008873  -0.0418879  -0.2205360   0.0244264   0.0000000   0.0000000   0.0000000   0.0000000  -0.1694500  -0.0000000   0.0000000   0.0000000   0.0000000
 0.7250000  -2.5196500  -0.3634630   1.0124900   0.0000000   0.0000000   0.0008941  -0.0418879  -0.2213610   0.0244264   0.0000000   0.0000000   0.0000000   0.0000000  -0.1603700  -0.0000000   0.0000000   0.0000000   0.0000000
 0.7300000  -2.5198600  -0.3645720   1.0126100   0.0000000   0.0000000   0.0009009  -0.0418879  -0.2221400   0.0244264   0.0000000   0.0000000   0.0000000   0.0000000  -0.1515410  -0.0000000   0.0000000   0.0000000   0.0000000
 0.7350000  -2.5200700  -0.3656840   1.0127300   0.0000000   0.0000000   0.0009078  -0.0418879  -0.2228760   0.0244264   0.0000000   0.0000000   0.0000000   0.0000000  -0.1429610  -0.0000000   0.0000000   0.0000000   0.0000000
 0.7400000  -2.5202800  -0.3668000   1.0128500   0.0000000   0.0000000   0.0009146  -0.0418879  -0.2235700   0.0244264   0.0000000   0.0000000   0.0000000   0.0000000  -0.1346310  -0.0000000   0.0000000   0.0000000   0.0000000
 0.7450000  -2.5204900  -0.3679200   1.0129800   0.0000000   0.0000000   0.0009214  -0.0418879  -0.2242230   0.0244264   0.0000000   0.0000000   0.0000000   0.0000000  -0.1265520  -0.0000000   0.0000000   0.0000000   0.0000000
 0.7500000  -2.5207000  -0.3690430   1.0131000   0.0000000   0.0000000   0.0009282  -0.0418879  -0.2248360   0.0244264   0.0000000   0.0000000   0.0000000   0.0000000  -0.1187220  -0.0000000   0.0000000   0.0000000   0.0000000
 0.7550000  -2.5209100  -0.3701680   1.0132200   0.0000000   0.0000000   0.0009350  -0.0418879  -0.2254110   0.0244264   0.0000000   0.0000000   0.0000000   0.0000000  -0.1111430  -0.0000000   0.0000000   0.0000000   0.0000000
 0.7600000  -2.5211200  -0.3712970   1.0133400   0.0000000   0.0000000   0.0009419  -0.0418879  -0.2259480   0.0244264   0.0000000   0.0000000   0.0000000   0.0000000  -0.1038130  -0.0000000   0.0000000   0.0000000   0.0000000
 0.7650000  -2.5213300  -0.3724280   1.0134600   0.0000000   0.0000000   0.0009487  -0.0418879  -0.2264490   0.0244264   0.0000000   0.0000000   0.0000000   0.0000000  -0.0967333  -0.0000000   0.0000000   0.0000000   0.0000000
 0.7700000  -2.5215400  -0.3735610   1.0135900   0.0000000   0.0000000   0.0009555  -0.0418879  -0.2269160   0.0244264   0.0000000   0.0000000   0.0000000   0.0000000  -0.0899037  -0.0000000   0.0000000   0.0000000   0.0000000
 0.7750000  -2.5217400  -0.3746970   1.0137100   0.0000000   0.0000000   0.0009623  -0.0418879  -0.2273490   0.0244264   0.0000000   0.0000000   0.0000000   0.0000000  -0.0833241  -0.0000000   0.0000000   0.0000000   0.0000000
 0.7800000  -2.5219500  -0.3758350   1.0138300   0.0000000   0.0000000   0.0009692  -0.0418879  -0.2277490   0.0244264   0.0000000   0.0000000   0.0000000   0.0000000  -0.0769944  -0.0000000   0.0000000   0.0000000   0.0000000
 0.7850000  -2.5221600  -0.3769740   1.0139500   0.0000000   0.0000000   0.0009760  -0.0418879  -0.2281190   0.0244264   0.0000000   0.0000000   0.0000000   0.0000000  -0.0709148  -0.0000000   0.0000000   0.0000000   0.0000000
 0.7900000  -2.5223700  -0.3781160   1.0140700   0.0000000   0.0000000   0.0009828  -0.0418879  -0.2284590   0.0244264   0.0000000   0.0000000   0.0000000   0.0000000  -0.0650852  -0.0000000   0.0000000   0.0000000   0.0000000
 0.7950000  -2.5225800  -0.3792590   1.0142000   0.0000000   0.0000000   0.0009896  -0.0418879  -0.2287700   0.0244264   0.0000000   0.0000000   0.0000000   0.0000000  -0.0595056  -0.0000000   0.0000000   0.0000000   0.0000000
 0.8000000  -2.5227900  -0.3804030   1.0143200   0.0000000   0.0000000   0.0009965  -0.0418879  -0.2290540   0.0244264   0.0000000   0.0000000   0.0000000   0.0000000  -0.0541760  -0.0000000   0.0000000   0.0000000   0.0000000
 0.8050000  -2.5230000  -0.3815490   1.0144400   0.0000000   0.0000000   0.0010033  -0.0418879  -0.2293130   0.0244264   0.0000000   0.0000000   0.0000000   0.0000000  -0.0490964  -0.0000000   0.0000000   0.0000000   0.0000000
 0.8100000  -2.5232100  -0.3826960   1.0145600   0.0000000   0.0000000   0.0010101  -0.0418879  -0.2295460   0.0244264   0.0000000   0.0000000   0.0000000   0.0000000  -0.0442668  -0.0000000   0.0000000   0.0000000   0.0000000
 0.8150000  -2.5234200  -0.3838450   1.0146900   0.0000000   0.0000000   0.0010169  -0.0418879  -0.2297560   0.0244264   0.0000000   0.0000000   0.0000000   0.0000000  -0.0396872  -0.0000000   0.0000000   0.0000000   0.0000000
 0.8200000  -2.5236300  -0.3849940   1.0148100   0.0000000   0.0000000   0.0010238  -0.0418879  -0.2299430   0.0244264   0.0000000   0.0000000   0.0000000   0.0000000  -0.0353575  -0.0000000   0.0000000   0.0000000   0.0000000
 0.8250000  -2.5238400  -0.3861440   1.0149300   0.0000000   0.0000000   0.0010306  -0.0418879  -0.2301100   0.0244264   0.0000000   0.0000000   0.0000000   0.0000000  -0.0312779  -0.0000000   0.0000000   0.0000000   0.0000000
 0.8300000  -2.5240500  -0.3872950   1.0150500   0.0000000   0.0000000   0.0010374  -0.0418879  -0.2302560   0.0244264   0.0000000   0.0000000   0.0000000   0.0000000  -0.0274483  -0.0000000   0.0000000   0.0000000   0.0000000
 0.8350000  -2.5242600  -0.3884470   1.0151700   0.0000000   0.0000000   0.0010442  -0.0418879  -0.2303840   0.0244264   0.0000000   0.0000000   0.0000000   0.0000000  -0.0238687  -0.0000000   0.0000000   0.0000000   0.0000000
 0.8400000  -2.5244700  -0.3895990   1.0153000   0.0000000   0.0000000   0.0010510  -0.0418879  -0.2304950   0.0244264   0.0000000   0.0000000   0.0000000   0.0000000  -0.0205391  -0.0000000   0.0000000   0.0000000   0.0000000
 0.8450000  -2.5246800  -0.3907520   1.0154200   0.0000000   0.0000000   0.0010579  -0.0418879  -0.2305900   0.0244264   0.0000000   0.0000000   0.0000000   0.0000000  -0.0174595  -0.0000000   0.0000000   0.0000000   0.0000000
 0.8500000  -2.5248900  -0.3919050   1.0155400   0.0000000   0.0000000   0.0010647  -0.0418879  -0.2306700   0.0244264   0.0000000   0.0000000   0.0000000   0.0000000  -0.0146299  -0.0000000   0.0000000   0.0000000   0.0000000
 0.8550000  -2.5251000  -0.3930580   1.0156600   0.0000000   0.0000000   0.0010715  -0.0418879  -0.2307370   0.0244264   0.0000000   0.0000000   0.0000000   0.0000000  -0.0120502  -0.0000000   0.0000000   0.0000000   0.0000000
 0.8600000  -2.5253000  -0.3942120   1.0157800   0.0000000   0.0000000   0.0010784  -0.0418879  -0.2307910   0.0244264   0.0000000   0.0000000   0.0000000   0.0000000  -0.0097206  -0.0000000   0.0000000   0.0000000   0.0000000
 0.8650000  -2.5255100  -0.3953660   1.0159100   0.0000000   0.0000000   0.0010852  -0.0418879  -0.2308350   0.0244264   0.0000000   0.0000000   0.0000000   0.0000000  -0.0076410  -0.0000000   0.0000000   0.0000000   0.0000000
 0.8700000  -2.5257200  -0.3965200   1.0160300   0.0000000   0.0000000   0.0010920  -0.0418879  -0.2308680   0.0244264   0.0000000   0.0000000   0.0000000   0.0000000  -0.0058114  -0.0000000   0.0000000   0.0000000   0.0000000
 0.8750000  -2.5259300  -0.3976750   1.0161500   0.0000000   0.0000000   0.0010988  -0.0418879  -0.2308930   0.0244264   0.0000000   0.0000000   0.0000000   0.0000000  -0.0042318  -0.0000000   0.0000000   0.0000000   0.0000000
 0.8800000  -2.5261400  -0.3988290   1.0162700   0.0000000   0.0000000   0.0011056  -0.0418879  -0.2309110   0.0244264   0.0000000   0.0000000   0.0000000   0.0000000  -0.0029022  -0.0000000   0.0000000   0.0000000   0.0000000
 0.8850000  -2.5263500  -0.3999840   1.0164000   0.0000000   0.0000000   0.0011125  -0.0418879  -0.2309230   0.0244264   0.0000000   0.0000000   0.0000000   0.0000000  -0.0018226  -0.0000000   0.0000000   0.0000000   0.0000000
 0.8900000  -2.5265600  -0.4011390   1.0165200   0.0000000   0.0000000   0.0011193  -0.0418879  -0.2309300   0.0244264   0.0000000   0.0000000   0.0000000   0.0000000  -0.0009930  -0.0000000   0.0000000   0.0000000   0.0000000
 0.8950000  -2.5267700  -0.4022930   1.0166400   0.0000000   0.0000000   0.0011261  -0.0418879  -0.2309330   0.0244264   0.0000000   0.0000000   0.0000000   0.0000000  -0.0004133  -0.0000000   0.0000000   0.0000000   0.0000000
 0.9000000  -2.5269800  -0.4034480   1.0167600   0.0000000   0.0000000   0.0011329  -0.0418879  -0.2309340   0.0244264   0.0000000   0.0000000   0.0000000   0.0000000  -0.0000837  -0.0000000   0.0000000   0.0000000   0.0000000
 0.9050000  -2.5271900  -0.4046030   1.0168800   0.0000000   0.0000000   0.0011398  -0.0418879  -0.2309340   0.0244264   0.0000000   0.0000000   0.0000000   0.0000000   0.0000013  -0.0000000   0.0000000   0.0000000   0.0000000
 0.9100000  -2.5274000  -0.4057570   1.0170100   0.0000000   0.0000000   0.0011466  -0.0418879  -0.2309340   0.0244264   0.0000000   0.0000000   0.0000000   0.0000000   0.0001523  -0.0000000   0.0000000   0.0000000   0.0000000
 0.9150000  -2.5276100  -0.4069120   1.0171300   0.0000000   0.0000000   0.0011534  -0.0418879  -0.2309320   0.0244264   0.0000000   0.0000000   0.0000000   0.0000000   0.0005533  -0.0000000   0.0000000   0.0000000   0.0000000
 0.9200000  -2.5278200  -0.4080670   1.0172500   0.0000000   0.0000000   0.0011602  -0.0418879  -0.2309280   0.0244264   0.0000000   0.0000000   0.0000000   0.0000000   0.0012042  -0.0000000   0.0000000   0.0000000   0.0000000
 0.9250000  -2.5280300  -0.4092210   1.0173700   0.0000000   0.0000000   0.0011671  -0.0418879  -0.2309200   0.0244264   0.0000000   0.0000000   0.0000000   0.0000000   0.0021052  -0.0000000   0.0000000   0.0000000   0.0000000
 0.9300000  -2.5282400  -0.4103760   1.0174900   0.0000000   0.0000000   0.0011739  -0.0418879  -0.2309070   0.0244264   0.0000000   0.0000000   0.0000000   0.0000000   0.0032562  -0.0000000   0.0000000   0.0000000   0.0000000
 0.9350000  -2.5284500  -0.4115300   1.0176200   0.0000000   0.0000000   0.0011807  -0.0418879  -0.2308870   0.0244264   0.0000000   0.0000000   0.0000000   0.0000000   0.0046571  -0.0000000   0.0000000   0.0000000   0.0000000
 0.9400000  -2.5286600  -0.4126850   1.0177400   0.0000000   0.0000000   0.0011875  -0.0418879  -0.2308600   0.0244264   0.0000000   0.0000000   0.0000000   0.0000000   0.0063081  -0.0000000   0.0000000   0.0000000   0.0000000
 0.9450000  -2.5288700  -0.4138390   1.0178600   0.0000000   0.0000000   0.0011944  -0.0418879  -0.2308230   0.0244264   0.0000000   0.0000000   0.0000000   0.0000000   0.0082090  -0.0000000   0.0000000   0.0000000   0.0000000
 0.9500000  -2.5290700  -0.4149930   1.0179800   0.0000000   0.0000000   0.0012012  -0.0418879  -0.2307770   0.0244264   0.0000000   0.0000000   0.0000000   0.0000000   0.0103600  -0.0000000   0.0000000   0.0000000   0.0000000
 0.9550000  -2.5292800  -0.4161470   1.0181100   0.0000000   0.0000000   0.0012080  -0.0418879  -0.2307190   0.0244264   0.0000000   0.0000000   0.0000000   0.0000000   0.0127610  -0.0000000   0.0000000   0.0000000   0.0000000
 0.9600000  -2.5294900  -0.4173000   1.0182300   0.0000000   0.0000000   0.0012148  -0.0418879  -0.2306490   0.0244264   0.0000000   0.0000000   0.0000000   0.0000000   0.0154119  -0.0000000   0.0000000   0.0000000   0.0000000
 0.9650000  -2.5297000  -0.4184530   1.0183500   0.0000000   0.0000000   0.0012216  -0.0418879  -0.2305650   0.0244264   0.0000000   0.0000000   0.0000000   0.0000000   0.0183129  -0.0000000   0.0000000   0.0000000   0.0000000
 0.9700000  -2.5299100  -0.4196060   1.0184700   0.0000000   0.0000000   0.0012285  -0.0418879  -0.2304650   0.0244264   0.0000000   0.0000000   0.0000000   0.0000000   0.0214638  -0.0000000   0.0000000   0.0000000   0.0000000
 0.9750000  -2.5301200  -0.4207580   1.0185900   0.0000000   0.0000000   0.0012353  -0.0418879  -0.2303500   0.0244264   0.0000000   0.0000000   0.0000000   0.0000000   0.0248648  -0.0000000   0.0000000   0.0000000   0.0000000
 0.9800000  -2.5303300  -0.4219090   1.0187200   0.0000000   0.0000000   0.0012421  -0.0418879  -0.2302160   0.0244264   0.0000000   0.0000000   0.0000000   0.0000000   0.0285158  -0.0000000   0.0000000   0.0000000   0.0000000
 0.9850000  -2.5305400  -0.4230600   1.0188400   0.0000000   0.0000000   0.0012489  -0.0418879  -0.2300640   0.0244264   0.0000000   0.0000000   0.0000000   0.0000000   0.0324167  -0.0000000   0.0000000   0.0000000   0.0000000
 0.9900000  -2.5307500  -0.4242100   1.0189600   0.0000000   0.0000000   0.0012558  -0.0418879  -0.2298920   0.0244264   0.0000000   0.0000000   0.0000000   0.0000000   0.0365677  -0.0000000   0.0000000   0.0000000   0.0000000
 0.9950000  -2.5309600  -0.4253590   1.0190800   0.0000000   0.0000000   0.0012626  -0.0418879  -0.2296980   0.0244264   0.0000000   0.0000000   0.0000000   0.0000000   0.0409687  -0.0000000   0.0000000   0.0000000   0.0000000
 1.0000000  -2.5311700  -0.4265070   1.0192000   0.0000000   0.0000000   0.0012694  -0.0418879  -0.2294820   0.0244264   0.0000000   0.0000000   0.0000000   0.0000000   0.0456196  -0.0000000   0.0000000   0.0000000   0.0000000
 1.0050000  -2.5313800  -0.4276530   1.0193300   0.0000000   0.0000000   0.0012762  -0.0418879  -0.2292410   0.0244264   0.0000000   0.0000000   0.0000000   0.0000000   0.0505206  -0.0000000   0.0000000   0.0000000   0.0000000
 1.0100000  -2.5315900  -0.4287990   1.0194500   0.0000000   0.0000000   0.0012831  -0.0418879  -0.2289760   0.0244264   0.0000000   0.0000000   0.0000000   0.0000000   0.0556715  -0.0000000   0.0000000   0.0000000   0.0000000
 1.0150000  -2.5318000  -0.4299430   1.0195700   0.0000000   0.0000000   0.0012899  -0.0418879  -0.2286840   0.0244264   0.0000000   0.0000000   0.0000000   0.0000000   0.0610725  -0.0000000   0.0000000   0.0000000   0.0000000
 1.0200000  -2.5320100  -0.4310860   1.0196900   0.0000000   0.0000000   0.0012967  -0.0418879  -0.2283650   0.0244264   0.0000000   0.0000000   0.0000000   0.0000000   0.0667235  -0.0000000   0.0000000   0.0000000   0.0000000
 1.0250000  -2.5322200  -0.4322270   1.0198200   0.0000000   0.0000000   0.0013035  -0.0418879  -0.2280170   0.0244264   0.0000000   0.0000000   0.0000000   0.0000000   0.0726244  -0.0000000   0.0000000   0.0000000   0.0000000
 1.0300000  -2.5324300  -0.4333660   1.0199400   0.0000000   0.0000000   0.0013104  -0.0418879  -0.2276380   0.0244264   0.0000000   0.0000000   0.0000000   0.0000000   0.0787754  -0.0000000   0.0000000   0.0000000   0.0000000
 1.0350000  -2.5326400  -0.4345030   1.0200600   0.0000000   0.0000000   0.0013172  -0.0418879  -0.2272280   0.0244264   0.0000000   0.0000000   0.0000000   0.0000000   0.0851763  -0.0000000   0.0000000   0.0000000   0.0000000
 1.0400000  -2.5328400  -0.4356380   1.0201800   0.0000000   0.0000000   0.0013240  -0.0418879  -0.2267860   0.0244264   0.0000000   0.0000000   0.0000000   0.0000000   0.0918273  -0.0000000   0.0000000   0.0000000   0.0000000
 1.0450000  -2.5330500  -0.4367710   1.0203000   0.0000000   0.0000000   0.0013308  -0.0418879  -0.2263100   0.0244264   0.0000000   0.0000000   0.0000000   0.0000000   0.0987283  -0.0000000   0.0000000   0.0000000   0.0000000
 1.0500000  -2.5332600  -0.4379010   1.0204300   0.0000000   0.0000000   0.0013376  -0.0418879  -0.2257980   0.0244264   0.0000000   0.0000000   0.0000000   0.0000000   0.1058790  -0.0000000   0.0000000   0.0000000   0.0000000
 1.0550000  -2.5334700  -0.4390290   1.0205500   0.0000000   0.0000000   0.0013444  -0.0418879  -0.2252510   0.0244264   0.0000000   0.0000000   0.0000000   0.0000000   0.1132800  -0.0000000   0.0000000   0.0000000   0.0000000
 1.0600000  -2.5336800  -0.4401540   1.0206700   0.0000000   0.0000000   0.0013511  -0.0418879  -0.2246650   0.0244264   0.0000000   0.0000000   0.0000000   0.0000000   0.1209310  -0.0000000   0.0000000   0.0000000   0.0000000
 1.0650000  -2.5338900  -0.4412750   1.0207900   0.0000000   0.0000000   0.0013577  -0.0418879  -0.2240410   0.0244264   0.0000000   0.0000000   0.0000000   0.0000000   0.1288320  -0.0000000   0.0000000   0.0000000   0.0000000
 1.0700000  -2.5341000  -0.4423940   1.0209100   0.0000000   0.0000000   0.0013642  -0.0418879  -0.2233760   0.0244264   0.0000000   0.0000000   0.0000000   0.0000000   0.1369830  -0.0000000   0.0000000   0.0000000   0.0000000
 1.0750000  -2.5343100  -0.4435090   1.0210400   0.0000000   0.0000000   0.0013704  -0.0418879  -0.2226710   0.0244264   0.0000000   0.0000000   0.0000000   0.0000000   0.1453840  -0.0000000   0.0000000   0.0000000   0.0000000
 1.0800000  -2.5345200  -0.4446210   1.0211600   0.0000000   0.0000000   0.0013764  -0.0418879  -0.2219220   0.0244264   0.0000000   0.0000000   0.0000000   0.0000000   0.1540350  -0.0000000   0.0000000   0.0000000   0.0000000
 1.0850000  -2.5347300  -0.4457280   1.0212800   0.0000000   0.0000000   0.0013820  -0.0418879  -0.2211300   0.0244264   0.0000000   0.0000000   0.0000000   0.0000000   0.1629360  -0.0000000   0.0000000   0.0000000   0.0000000
 1.0900000  -2.5349400  -0.4468320   1.0214000   0.0000000   0.0000000   0.0013871  -0.0418879  -0.2202920   0.0244264   0.0000000   0.0000000   0.0000000   0.0000000   0.1720870  -0.0000000   0.0000000   0.0000000   0.0000000
 1.0950000  -2.5351500  -0.4479310   1.0215200   0.0000000   0.0000000   0.0013917  -0.0418879  -0.2194090   0.0244264   0.0000000   0.0000000   0.0000000   0.0000000   0.1814880  -0.0000000   0.0000000   0.0000000   0.0000000
 1.1000000  -2.5353600  -0.4490260   1.0216500   0.0000000   0.0000000   0.0013956  -0.0418879  -0.2184770   0.0244264   0.0000000   0.0000000   0.0000000   0.0000000   0.1911390  -0.0000000   0.0000000   0.0000000   0.0000000
 1.1050000  -2.5355700  -0.4501160   1.0217700   0.0000000   0.0000000   0.0013987  -0.0418879  -0.2174970   0.0244264   0.0000000   0.0000000   0.0000000   0.0000000   0.2010400  -0.0000000   0.0000000   0.0000000   0.0000000
 1.1100000  -2.5357800  -0.4512010   1.0218900   0.0000000   0.0000000   0.0014009  -0.0418879  -0.2164660   0.0244264   0.0000000   0.0000000   0.0000000   0.0000000   0.2111910  -0.0000000   0.0000000   0.0000000   0.0000000
 1.1150000  -2.5359900  -0.4522800   1.0220100   0.0000000   0.0000000   0.0014021  -0.0418879  -0.2153840   0.0244264   0.0000000   0.0000000   0.0000000   0.0000000   0.2215920  -0.0000000   0.0000000   0.0000000   0.0000000
 1.1200000  -2.5362000  -0.4533540   1.0221400   0.0000000   0.0000000   0.0014020  -0.0418879  -0.2142500   0.0244264   0.0000000   0.0000000   0.0000000   0.0000000   0.2322430  -0.0000000   0.0000000   0.0000000   0.0000000
 1.1250000  -2.5364100  -0.4544230   1.0222600   0.0000000   0.0000000   0.0014006  -0.0418879  -0.2130620   0.0244264   0.0000000   0.0000000   0.0000000   0.0000000   0.2431440  -0.0000000   0.0000000   0.0000000   0.0000000
 1.1300000  -2.5366100  -0.4554850   1.0223800   0.0000000   0.0000000   0.0013976  -0.0418879  -0.2118180   0.0244264   0.0000000   0.0000000   0.0000000   0.0000000   0.2542950  -0.0000000   0.0000000   0.0000000   0.0000000
 1.1350000  -2.5368200  -0.4565410   1.0225000   0.0000000   0.0000000   0.0013929  -0.0418879  -0.2105180   0.0244264   0.0000000   0.0000000   0.0000000   0.0000000   0.2656960  -0.0000000   0.0000000   0.0000000   0.0000000
 1.1400000  -2.5370300  -0.4575900   1.0226200   0.0000000   0.0000000   0.0013863  -0.0418879  -0.2091610   0.0244264   0.0000000   0.0000000   0.0000000   0.0000000   0.2773470  -0.0000000   0.0000000   0.0000000   0.0000000
 1.1450000  -2.5372400  -0.4586320   1.0227500   0.0000000   0.0000000   0.0013776  -0.0418879  -0.2077440   0.0244264   0.0000000   0.0000000   0.0000000   0.0000000   0.2892470  -0.0000000   0.0000000   0.0000000   0.0000000
 1.1500000  -2.5374500  -0.4596670   1.0228700   0.0000000   0.0000000   0.0013666  -0.0418879  -0.2062680   0.0244264   0.0000000   0.0000000   0.0000000   0.0000000   0.3013980  -0.0000000   0.0000000   0.0000000   0.0000000
 1.1550000  -2.5376600  -0.4606950   1.0229900   0.0000000   0.0000000   0.0013530  -0.0418879  -0.2047300   0.0244264   0.0000000   0.0000000   0.0000000   0.0000000   0.3137990  -0.0000000   0.0000000   0.0000000   0.0000000
 1.1600000  -2.5378700  -0.4617150   1.0231100   0.0000000   0.0000000   0.0013366  -0.0418879  -0.2031290   0.0244264   0.0000000   0.0000000   0.0000000   0.0000000   0.3264500  -0.0000000   0.0000000   0.0000000   0.0000000
 1.1650000  -2.5380800  -0.4627260   1.0232300   0.0000000   0.0000000   0.0013173  -0.0418879  -0.2014650   0.0244264   0.0000000   0.0000000   0.0000000   0.0000000   0.3393510  -0.0000000   0.0000000   0.0000000   0.0000000
 1.1700000  -2.5382900  -0.4637290   1.0233600   0.0000000   0.0000000   0.0012947  -0.0418879  -0.1997350   0.0244264   0.0000000   0.0000000   0.0000000   0.0000000   0.3525020  -0.0000000   0.0000000   0.0000000   0.0000000
 1.1750000  -2.5385000  -0.4647230   1.0234800   0.0000000   0.0000000   0.0012685  -0.0418879  -0.1979400   0.0244264   0.0000000   0.0000000   0.0000000   0.0000000   0.3659030  -0.0000000   0.0000000   0.0000000   0.0000000
 1.1800000  -2.5387100  -0.4657080   1.0236000   0.0000000   0.0000000   0.0012387  -0.0418879  -0.1960760   0.0244264   0.0000000   0.0000000   0.0000000   0.0000000   0.3795540  -0.0000000   0.0000000   0.0000000   0.0000000
 1.1850000  -2.5389200  -0.4666840   1.0237200   0.0000000   0.0000000   0.0012049  -0.0418879  -0.1941440   0.0244264   0.0000000   0.0000000   0.0000000   0.0000000   0.3934550  -0.0000000   0.0000000   0.0000000   0.0000000
 1.1900000  -2.5391300  -0.4676500   1.0238500   0.0000000   0.0000000   0.0011670  -0.0418879  -0.1921410   0.0244264   0.0000000   0.0000000   0.0000000   0.0000000   0.4076060  -0.0000000   0.0000000   0.0000000   0.0000000
 1.1950000  -2.5393400  -0.4686050   1.0239700   0.0000000   0.0000000   0.0011247  -0.0418879  -0.1900670   0.0244264   0.0000000   0.0000000   0.0000000   0.0000000   0.4220070  -0.0000000   0.0000000   0.0000000   0.0000000
 1.2000000  -2.5395500  -0.4695500   1.0240900   0.0000000   0.0000000   0.0010778  -0.0418879  -0.1879210   0.0244264   0.0000000   0.0000000   0.0000000   0.0000000   0.4366580  -0.0000000   0.0000000   0.0000000   0.0000000
 1.2050000  -2.5397600  -0.4704840   1.0242100   0.0000000   0.0000000   0.0010262  -0.0418879  -0.1857000   0.0244264   0.0000000   0.0000000   0.0000000   0.0000000   0.4515590  -0.0000000   0.0000000   0.0000000   0.0000000
 1.2100000  -2.5399700  -0.4714070   1.0243300   0.0000000   0.0000000   0.0009698  -0.0418879  -0.1834050   0.0244264   0.0000000   0.0000000   0.0000000   0.0000000   0.4667100  -0.0000000   0.0000000   0.0000000   0.0000000
 1.2150000  -2.5401800  -0.4723180   1.0244600   0.0000000   0.0000000   0.0009082  -0.0418879  -0.1810330   0.0244264   0.0000000   0.0000000   0.0000000   0.0000000   0.4821110  -0.0000000   0.0000000   0.0000000   0.0000000
 1.2200000  -2.5403800  -0.4732170   1.0245800   0.0000000   0.0000000   0.0008415  -0.0418879  -0.1785830   0.0244264   0.0000000   0.0000000   0.0000000   0.0000000   0.4977620  -0.0000000   0.0000000   0.0000000   0.0000000
 1.2250000  -2.5405900  -0.4741040   1.0247000   0.0000000   0.0000000   0.0007694  -0.0418879  -0.1760550   0.0244264   0.0000000   0.0000000   0.0000000   0.0000000   0.5136630  -0.0000000   0.0000000   0.0000000   0.0000000
 1.2300000  -2.5408000  -0.4749780   1.0248200   0.0000000   0.0000000   0.0006919  -0.0418879  -0.1734460   0.0244264   0.0000000   0.0000000   0.0000000   0.0000000   0.5298140  -0.0000000   0.0000000   0.0000000   0.0000000
 1.2350000  -2.5410100  -0.4758380   1.0249400   0.0000000   0.0000000   0.0006088  -0.0418879  -0.1707560   0.0244264   0.0000000   0.0000000   0.0000000   0.0000000   0.5462150  -0.0000000   0.0000000   0.0000000   0.0000000
 1.2400000  -2.5412200  -0.4766850   1.0250700   0.0000000   0.0000000   0.0005199  -0.0418879  -0.1679830   0.0244264   0.0000000   0.0000000   0.0000000   0.0000000   0.5628660  -0.0000000   0.0000000   0.0000000   0.0000000
 1.2450000  -2.5414300  -0.4775180   1.0251900   0.0000000   0.0000000   0.0004253  -0.0418879  -0.1651270   0.0244264   0.0000000   0.0000000   0.0000000   0.0000000   0.5797670  -0.0000000   0.0000000   0.0000000   0.0000000
 1.2500000  -2.5416400  -0.4783360   1.0253100   0.0000000   0.0000000   0.0003248  -0.0418879  -0.1621850   0.0244264   0.0000000   0.0000000   0.0000000   0.0000000   0.5969180  -0.0000000   0.0000000   0.0000000   0.0000000
 1.2550000  -2.5418500  -0.4791400   1.0254300   0.0000000   0.0000000   0.0002183  -0.0418879  -0.1591570   0.0244264   0.0000000   0.0000000   0.0000000   0.0000000   0.6143190  -0.0000000   0.0000000   0.0000000   0.0000000
 1.2600000  -2.5420600  -0.4799280   1.0255600   0.0000000   0.0000000   0.0001057  -0.0418879  -0.1560420   0.0244264   0.0000000   0.0000000   0.0000000   0.0000000   0.6319700  -0.0000000   0.0000000   0.0000000   0.0000000
 1.2650000  -2.5422700  -0.4807000   1.0256800   0.0000000   0.0000000  -0.0000129  -0.0418879  -0.1528370   0.0244264   0.0000000   0.0000000   0.0000000   0.0000000   0.6498710  -0.0000000   0.0000000   0.0000000   0.0000000
 1.2700000  -2.5424800  -0.4814560   1.0258000   0.0000000   0.0000000  -0.0001377  -0.0418879  -0.1495430   0.0244264   0.0000000   0.0000000   0.0000000   0.0000000   0.6680220  -0.0000000   0.0000000   0.0000000   0.0000000
 1.2750000  -2.5426900  -0.4821950   1.0259200   0.0000000   0.0000000  -0.0002687  -0.0418879  -0.1461570   0.0244264   0.0000000   0.0000000   0.0000000   0.0000000   0.6864220  -0.0000000   0.0000000   0.0000000   0.0000000
 1.2800000  -2.5429000  -0.4829170   1.0260400   0.0000000   0.0000000  -0.0004059  -0.0418879  -0.1426780   0.0244264   0.0000000   0.0000000   0.0000000   0.0000000   0.7050730  -0.0000000   0.0000000   0.0000000   0.0000000
 1.2850000  -2.5431100  -0.4836220   1.0261700   0.0000000   0.0000000  -0.0005494  -0.0418879  -0.1391050   0.0244264   0.0000000   0.0000000   0.0000000   0.0000000   0.7239740  -0.0000000   0.0000000   0.0000000   0.0000000
 1.2900000  -2.5433200  -0.4843080   1.0262900   0.0000000   0.0000000  -0.0006990  -0.0418879  -0.1354380   0.0244264   0.0000000   0.0000000   0.0000000   0.0000000   0.7431250  -0.0000000   0.0000000   0.0000000   0.0000000
 1.2950000  -2.5435300  -0.4849760   1.0264100   0.0000000   0.0000000  -0.0008550  -0.0418879  -0.1316740   0.0244264   0.0000000   0.0000000   0.0000000   0.0000000   0.7624230  -0.0000000   0.0000000   0.0000000   0.0000000
 1.3000000  -2.5437400  -0.4856250   1.0265300   0.0000000   0.0000000  -0.0010172  -0.0418879  -0.1278140   0.0244264   0.0000000   0.0000000   0.0000000   0.0000000   0.7815010  -0.0000000   0.0000000   0.0000000   0.0000000
 1.3050000  -2.5439500  -0.4862540   1.0266500   0.0000000   0.0000000  -0.0011856  -0.0418879  -0.1238590   0.0244264   0.0000000   0.0000000   0.0000000   0.0000000   0.8003300  -0.0000000   0.0000000   0.0000000   0.0000000
 1.3100000  -2.5441500  -0.4868630   1.0267800   0.0000000   0.0000000  -0.0013603  -0.0418879  -0.1198110   0.0244264   0.0000000   0.0000000   0.0000000   0.0000000   0.8189090  -0.0000000   0.0000000   0.0000000   0.0000000
 1.3150000  -2.5443600  -0.4874520   1.0269000   0.0000000   0.0000000  -0.0015412  -0.0418879  -0.1156710   0.0244264   0.0000000   0.0000000   0.0000000   0.0000000   0.8372380  -0.0000000   0.0000000   0.0000000   0.0000000
