ts fx fy fz tx ty tz exfx exfy exfz extx exty extz xd yd zd rolld pitchd yawd vxd vyd vzd wxd wyd wzd axd ayd azd e_x e_y e_z e_vx e_vy e_vz e_rx e_ry e_rz e_wx e_wy e_wz
1703174150.103594000  0  0  11.4072  0.0291003  -0.159557  0.0189347  nan  nan  nan  nan  nan  nan  -2.5  -0.3  1  0.0300422  -0.0237047  -0.000712289  0  0  0  0  0  0  0  0  0  0.0148298  0.0117461  -0.00277474  -0.0107101  0.00633705  -0.0092606  -0.0113856  0.0296988  -0.0212117  0.0685854  0.000464345  0.0174419 
1703174150.107573000  0  0  11.4441  0.0324669  -0.157833  0.0164744  nan  nan  nan  nan  nan  nan  -2.5  -0.3  1  0.0298115  -0.0218475  -0.000651447  0  0  0  0  0  0  0  0  0  0.0147652  0.0117725  -0.00282167  -0.0128858  0.00608645  -0.0117768  -0.0109843  0.0280306  -0.0208562  0.05675  0.0159604  0.0441134 
1703174150.112587000  0  0  11.2868  0.0154734  -0.129766  0.0198078  nan  nan  nan  nan  nan  nan  -2.5  -0.3  1  0.0296161  -0.022528  -0.00066733  0  0  0  0  0  0  0  0  0  0.0148275  0.0119012  -0.00257544  -0.0125714  0.00492468  -0.00110861  -0.0102665  0.0280641  -0.0210314  0.0849297  -0.044609  0.00428307 
1703174150.117601000  0  0  11.4037  0.0298514  -0.163966  0.0206133  nan  nan  nan  nan  nan  nan  -2.5  -0.3  1  0.0305431  -0.0240458  -0.00073459  0  0  0  0  0  0  0  0  0  0.0149066  0.0120707  -0.00244872  -0.0104872  0.00606481  -0.00966713  -0.0110321  0.0298284  -0.0211345  0.0629077  0.00842852  -0.00460828 
1703174150.122583000  0  0  11.4321  0.0443271  -0.1694  0.0163692  nan  nan  nan  nan  nan  nan  -2.5  -0.3  1  0.0301417  -0.0226998  -0.00068436  0  0  0  0  0  0  0  0  0  0.0148384  0.0120998  -0.00250069  -0.0119955  0.00555413  -0.0115899  -0.0107219  0.0288278  -0.0206099  0.0283  0.0315915  0.0424683 
1703174150.127576000  0  0  11.2817  0.0241134  -0.145668  0.0197962  nan  nan  nan  nan  nan  nan  -2.5  -0.3  1  0.0300781  -0.0234618  -0.000705835  0  0  0  0  0  0  0  0  0  0.01493  0.0122839  -0.00222025  -0.0116558  0.00442479  -0.00147394  -0.0101445  0.0291246  -0.0208211  0.0650002  -0.0227094  0.00189471 
1703174150.132581000  0  0  11.381  0.0393391  -0.169419  0.0200083  nan  nan  nan  nan  nan  nan  -2.5  -0.3  1  0.0302842  -0.0238627  -0.000722817  0  0  0  0  0  0  0  0  0  0.0148809  0.0123167  -0.00229639  -0.0107187  0.00494849  -0.00837932  -0.0103098  0.0298245  -0.0208766  0.0342546  0.0201658  -0.000105202 
1703174150.137568000  0  0  11.3989  0.0481239  -0.180652  0.0174842  nan  nan  nan  nan  nan  nan  -2.5  -0.3  1  0.0291596  -0.0234617  -0.000684265  0  0  0  0  0  0  0  0  0  0.0148237  0.0123316  -0.00233966  -0.0110375  0.00348865  -0.00958401  -0.009395  0.0298388  -0.0205505  0.00489364  0.0440873  0.0277238 
1703174150.142567000  0  0  11.3357  0.0247696  -0.157179  0.0211023  nan  nan  nan  nan  nan  nan  -2.5  -0.3  1  0.0285193  -0.0227507  -0.000648952  0  0  0  0  0  0  0  0  0  0.0147607  0.0123437  -0.00234058  -0.011964  0.00240294  -0.00509074  -0.00828008  0.0289143  -0.0208831  0.0421446  0.00439037  -0.013791 
1703174150.147571000  0  0  11.3449  0.0378213  -0.170702  0.0205565  nan  nan  nan  nan  nan  nan  -2.5  -0.3  1  0.0289284  -0.0232196  -0.000671833  0  0  0  0  0  0  0  0  0  0.014709  0.0123655  -0.00237554  -0.0111774  0.00290776  -0.00567296  -0.00870256  0.0296124  -0.0208993  0.0190187  0.0253578  -0.00672931 
1703174150.152573000  0  0  11.4108  0.0332739  -0.188673  0.0182611  nan  nan  nan  nan  nan  nan  -2.5  -0.3  1  0.0277759  -0.0233468  -0.000648587  0  0  0  0  0  0  0  0  0  0.0146564  0.012371  -0.00244359  -0.0106845  0.00159366  -0.0102445  -0.00753871  0.0302185  -0.0206472  0.0153801  0.0569181  0.0191143 
1703174150.157572000  0  0  11.3638  0.0295922  -0.164416  0.0197221  nan  nan  nan  nan  nan  nan  -2.5  -0.3  1  0.0277096  -0.0215791  -0.000598056  0  0  0  0  0  0  0  0  0  0.0145817  0.012381  -0.0024577  -0.0129241  0.00132841  -0.00686517  -0.007296  0.0284047  -0.0207532  0.0204824  0.0257712  0.00200864 
1703174150.162675000  0  0  11.3326  0.0348418  -0.169021  0.019592  nan  nan  nan  nan  nan  nan  -2.5  -0.3  1  0.0273034  -0.0229265  -0.000626074  0  0  0  0  0  0  0  0  0  0.014532  0.0123864  -0.00247241  -0.0110949  0.000680845  -0.0046326  -0.00694031  0.029762  -0.0207316  0.00513401  0.0200328  0.00338424 
1703174150.169531000  0  0  11.3112  0.0455997  -0.183079  0.0190843  nan  nan  nan  nan  nan  nan  -2.5  -0.3  1  0.0289949  -0.024236  -0.00070285  0  0  0  0  0  0  0  0  0  0.0147285  0.0127407  -0.00205697  -0.00999199  0.00182023  -0.00396478  -0.00874716  0.0314175  -0.020605  0.00285312  0.0311296  0.00824699 
1703174150.174596000  0  0  11.0982  0.0381998  -0.138421  0.0201127  nan  nan  nan  nan  nan  nan  -2.5  -0.3  1  0.0288137  -0.0235501  -0.000678689  0  0  0  0  0  0  0  0  0  0.0146666  0.0127455  -0.00196273  -0.0112955  0.000860136  0.0109929  -0.00839518  0.0299068  -0.0206964  0.014671  -0.047249  -0.00359107 
1703174150.179589000  0  0  11.2705  0.0519575  -0.192877  0.0207376  nan  nan  nan  nan  nan  nan  -2.5  -0.3  1  0.0293784  -0.0289824  -0.000851582  0  0  0  0  0  0  0  0  0  0.0149304  0.0130065  -0.00168623  -0.00448715  0.00142665  -0.00185401  -0.00931598  0.0357652  -0.0207774  -0.00423567  0.00212303  -0.0104779 
1703174150.184585000  0  0  11.3713  0.0771131  -0.210716  0.0159438  nan  nan  nan  nan  nan  nan  -2.5  -0.3  1  0.0307989  -0.0266267  -0.000820236  0  0  0  0  0  0  0  0  0  0.014954  0.0132465  -0.00161461  -0.00731282  0.00295855  -0.00915841  -0.011126  0.0343093  -0.0201483  -0.0373523  0.0571222  0.0422573 
1703174150.189539000  0  0  10.9299  0.0723607  -0.168437  0.00754366  nan  nan  nan  nan  nan  nan  -2.5  -0.3  0.99  0.0313187  -0.0254097  -0.010796  2e-07  2e-07  2e-07  0  0  0  0.000125  0.000125  0.000125  0.0148925  0.0132525  0.0084622  -0.00962705  0.00172112  0.00131288  -0.0114147  0.0327484  -0.0101142  -0.0238414  -0.0155766  0.0269995 
1703174150.194587000  0  0  11.0175  0.0722851  -0.201417  0.0107569  nan  nan  nan  nan  nan  nan  -2.5  -0.3  0.99  0.0320445  -0.0288724  -0.0109254  1.7e-06  1.7e-06  1.7e-06  0  0  0  0.0005  0.0005  0.0005  0.0150123  0.0134588  0.00857799  -0.00523014  0.00237792  -0.00513164  -0.0121087  0.0364798  -0.0104231  -0.0156947  0.012212  -0.00970705 
1703174150.199578000  0  0  11.0798  0.0868495  -0.21069  0.0062024  nan  nan  nan  nan  nan  nan  -2.5  -0.3  0.99  0.0317384  -0.0272208  -0.0108641  5.6e-06  5.6e-06  5.6e-06  0  0  0  0.001125  0.001125  0.001125  0.0149642  0.0134741  0.00852369  -0.00692283  0.0022774  -0.00941123  -0.0122217  0.0353361  -0.00988583  -0.0456249  0.0452549  0.0411226 
1703174150.204583000  0  0  10.9444  0.0661797  -0.163815  0.0100269  nan  nan  nan  nan  nan  nan  -2.5  -0.3  0.99  0.0319827  -0.0268597  -0.0108593  1.33e-05  1.33e-05  1.33e-05  0  0  0  0.002  0.002  0.002  0.0150212  0.0136751  0.00875575  -0.00785496  0.00164414  -0.000173841  -0.0122045  0.0342706  -0.010176  -0.00150172  -0.0429998  -0.00350049 
1703174150.209588000  0  0  11.0174  0.0780492  -0.190333  0.0127147  nan  nan  nan  nan  nan  nan  -2.5  -0.3  0.99  0.0327757  -0.0286311  -0.0109389  2.6e-05  2.6e-05  2.6e-05  0  0  0  0.003125  0.003125  0.003125  0.0150985  0.0138716  0.00884815  -0.00542545  0.00248936  -0.00546668  -0.0131137  0.0362627  -0.0105604  -0.0164927  -0.0090573  -0.0326859 
1703174150.214588000  0  0  11.0548  0.0753985  -0.200722  0.0122032  nan  nan  nan  nan  nan  nan  -2.5  -0.3  0.99  0.0318779  -0.0275979  -0.0108804  4.5e-05  4.5e-05  4.5e-05  0  0  0  0.0045  0.0045  0.0045  0.0150617  0.0138806  0.00880554  -0.00634893  0.00165354  -0.00794373  -0.0123941  0.0355649  -0.0106305  -0.0190876  0.0212475  -0.0254054 
1703174150.219581000  0  0  11.0027  0.0469807  -0.169859  0.0175086  nan  nan  nan  nan  nan  nan  -2.5  -0.299999  0.99  0.0321718  -0.0273258  -0.0108803  7.15e-05  7.15e-05  7.15e-05  0  0  0  0.006125  0.006125  0.006125  0.0151341  0.0140726  0.00898107  -0.00685106  0.00151018  -0.00445041  -0.0121206  0.0348193  -0.0114081  0.0387009  -0.0363539  -0.0827861 
1703174150.224591000  0  0  11.053  0.0518667  -0.181917  0.0172967  nan  nan  nan  nan  nan  nan  -2.5  -0.299999  0.99  0.0315126  -0.0275988  -0.0108716  0.0001067  0.0001067  0.0001067  0  0  0  0.008  0.008  0.008  0.0151106  0.0140823  0.00893028  -0.0060367  0.00106995  -0.00777524  -0.0114463  0.0351558  -0.0117872  0.0204663  -0.0143673  -0.0755496 
1703174150.229590000  0  0  11.0741  0.042233  -0.187488  0.0149156  nan  nan  nan  nan  nan  nan  -2.5  -0.299998  0.99  0.031065  -0.0280433  -0.010874  0.0001519  0.0001519  0.0001519  0  0  0  0.010125  0.010125  0.010125  0.0151906  0.0142603  0.00905977  -0.0053517  0.000343815  -0.00938222  -0.0107518  0.0357364  -0.0118275  0.0331346  -0.00910245  -0.045104 
1703174150.234582000  0  0  11.1184  0.0270002  -0.171548  0.0161693  nan  nan  nan  nan  nan  nan  -2.5  -0.299997  0.99  0.0314597  -0.0269469  -0.0108521  0.0002083  0.0002083  0.0002083  0  0  0  0.0125  0.0125  0.0125  0.0152547  0.0144261  0.00915609  -0.0064803  0.00086644  -0.0125147  -0.0106126  0.0344749  -0.0121937  0.0641959  -0.0287695  -0.0564652 
1703174150.239576000  0  0  11.0792  0.0203671  -0.159918  0.0156902  nan  nan  nan  nan  nan  nan  -2.5  -0.299996  0.99  0.0301382  -0.0268532  -0.0108156  0.0002773  0.0002773  0.0002773  0  0  0  0.015125  0.015125  0.015125  0.0152281  0.014423  0.00913479  -0.00632177  -0.000610506  -0.00948172  -0.00901532  0.0340266  -0.0123933  0.0600431  -0.0485494  -0.0480312 
1703174150.244584000  0  0  11.1437  0.00188342  -0.178129  0.0149344  nan  nan  nan  nan  nan  nan  -2.49999  -0.299995  0.99001  0.0294236  -0.027694  -0.0108236  0.00036  0.00036  0.00036  0  0  0  0.018  0.018  0.018  0.0152985  0.0145752  0.00920343  -0.00486496  -0.00137096  -0.0139934  -0.00769943  0.0350283  -0.0125418  0.0845382  -0.0210228  -0.0367302 
1703174150.249532000  0  0  11.2076  0.000410377  -0.166416  0.0136069  nan  nan  nan  nan  nan  nan  -2.49999  -0.299993  0.99001  0.0289915  -0.0252384  -0.0107437  0.0004577  0.0004577  0.0004577  0  0  0  0.021125  0.021125  0.021125  0.0152547  0.014577  0.00911557  -0.00731332  -0.00127491  -0.018086  -0.00689329  0.0325228  -0.0125479  0.0784226  -0.0173163  -0.0199549 
1703174150.254585000  0  0  11.1125  -0.011874  -0.147685  0.0157882  nan  nan  nan  nan  nan  nan  -2.49999  -0.29999  0.99001  0.0278658  -0.0260479  -0.0107419  0.0005717  0.0005717  0.0005717  0  0  0  0.0245  0.0245  0.0245  0.0153319  0.0146954  0.00925119  -0.00634287  -0.00293766  -0.0113482  -0.00525789  0.0328494  -0.0128804  0.0859494  -0.0612369  -0.0433923 
1703174150.259575000  0  0  11.2171  -0.0280428  -0.177206  0.0173781  nan  nan  nan  nan  nan  nan  -2.49999  -0.299987  0.99001  0.0269865  -0.0271953  -0.0107551  0.0007031  0.0007031  0.0007031  0  0  0  0.028125  0.028125  0.028125  0.015406  0.0148125  0.00927508  -0.00427898  -0.00361207  -0.0185655  -0.00369843  0.0343047  -0.0133099  0.102679  -0.0146786  -0.0582187 
1703174150.264577000  0  0  11.2554  -0.0116125  -0.160162  0.0143459  nan  nan  nan  nan  nan  nan  -2.49998  -0.299983  0.99002  0.0266468  -0.0241323  -0.0106704  0.0008533  0.0008533  0.0008533  0  0  0  0.032  0.032  0.032  0.0153471  0.0148062  0.00917323  -0.00747332  -0.00336506  -0.020748  -0.00328948  0.0311772  -0.0131968  0.0627432  -0.0152454  -0.0214302 
1703174150.269581000  0  0  11.1802  -0.0334824  -0.140293  0.0175527  nan  nan  nan  nan  nan  nan  -2.49998  -0.299978  0.99002  0.0247914  -0.0250092  -0.0106549  0.0010235  0.0010235  0.0010235  0  0  0  0.036125  0.036125  0.036125  0.0154547  0.0148599  0.0093273  -0.00633807  -0.00561131  -0.0154124  -0.000902461  0.0315075  -0.0137023  0.0821767  -0.0616487  -0.0556863 
1703174150.274585000  0  0  11.2683  -0.0391744  -0.165242  0.0189148  nan  nan  nan  nan  nan  nan  -2.49997  -0.299973  0.99003  0.0236095  -0.0254693  -0.0106451  0.001215  0.001215  0.001215  0  0  0  0.0405  0.0405  0.0405  0.0154331  0.0148368  0.0091969  -0.00485908  -0.00626384  -0.0210742  0.000644975  0.0321562  -0.0141608  0.0765796  -0.0156162  -0.0672978 
1703174150.279574000  0  0  11.2519  -0.0118113  -0.156035  0.0152861  nan  nan  nan  nan  nan  nan  -2.49997  -0.299966  0.99003  0.0235671  -0.0233098  -0.0106037  0.001429  0.001429  0.001429  0  0  0  0.045125  0.045125  0.045125  0.0154653  0.0149339  0.00924887  -0.00720014  -0.00599925  -0.0196396  0.000495464  0.0300943  -0.014005  0.0196264  -0.0116373  -0.0235187 
1703174150.284573000  0  0  11.2102  -0.0331518  -0.136743  0.0180943  nan  nan  nan  nan  nan  nan  -2.49996  -0.299958  0.99004  0.0215529  -0.023821  -0.0105801  0.0016667  0.0016667  0.0016667  0  0  0  0.05  0.05  0.05  0.0155404  0.0149475  0.00932938  -0.00624852  -0.00812297  -0.0164714  0.00279409  0.0300776  -0.0144575  0.0389415  -0.0528116  -0.0533982 
1703174150.289532000  0  0  11.2517  -0.0285988  -0.161034  0.0191152  nan  nan  nan  nan  nan  nan  -2.49995  -0.299949  0.99005  0.0204955  -0.0240918  -0.0105748  0.0019294  0.0019294  0.0019294  0  0  0  0.055125  0.055125  0.055125  0.0155205  0.0149123  0.00922511  -0.0050623  -0.00862342  -0.0188206  0.00380303  0.0306108  -0.0148376  0.0175716  -0.00685918  -0.061661 
1703174150.294584000  0  0  11.2216  0.011867  -0.158038  0.0157235  nan  nan  nan  nan  nan  nan  -2.49994  -0.299939  0.99006  0.0201019  -0.0225642  -0.0105512  0.0022183  0.0022183  0.0022183  0  0  0  0.0605  0.0605  0.0605  0.0155891  0.0149781  0.00934806  -0.00661998  -0.00866134  -0.0165053  0.00338934  0.029275  -0.0146493  -0.0644378  0.00208255  -0.0212558 
1703174150.299576000  0  0  11.2653  -0.00380969  -0.147043  0.0193893  nan  nan  nan  nan  nan  nan  -2.49993  -0.299927  0.99007  0.0180795  -0.0221146  -0.0105164  0.0025348  0.0025348  0.0025348  0  0  0  0.066125  0.066125  0.066125  0.0155654  0.0149268  0.00924613  -0.00630939  -0.0103002  -0.0189684  0.00523113  0.0286643  -0.0151884  -0.0520117  -0.0144671  -0.0608816 
1703174150.304576000  0  0  11.2678  0.0198158  -0.16912  0.0184402  nan  nan  nan  nan  nan  nan  -2.49991  -0.299914  0.99009  0.0177662  -0.0223133  -0.0105346  0.00288  0.00288  0.00288  0  0  0  0.072  0.072  0.072  0.0156354  0.0149543  0.00929508  -0.00547112  -0.0100095  -0.0187832  0.004807  0.029248  -0.0153582  -0.0977912  0.0261564  -0.0468935 
1703174150.308592000  0  0  11.2515  0.040523  -0.165832  0.0160298  nan  nan  nan  nan  nan  nan  -2.4999  -0.299898  0.9901  0.0165954  -0.0210234  -0.0105117  0.0032552  0.0032552  0.003255  0  0  0  0.078125  0.078125  0.0779792  0.0156101  0.0149104  0.00924128  -0.00632804  -0.0106153  -0.0170466  0.00507979  0.0281463  -0.0152017  -0.145331  0.03178  -0.018452 
1703174150.314622000  0  0  11.3317  0.0331611  -0.159173  0.0191679  nan  nan  nan  nan  nan  nan  -2.49988  -0.299881  0.99012  0.0156266  -0.0202358  -0.0105066  0.0036617  0.0036617  0.0036594  0  0  0  0.0845  0.0845  0.0837224  0.0156723  0.0149235  0.00924219  -0.00651202  -0.0109184  -0.0222907  0.0053445  0.0274841  -0.0156521  -0.132591  0.0251215  -0.0525062 
1703174150.319609000  0  0  11.2783  0.0421462  -0.173779  0.0191767  nan  nan  nan  nan  nan  nan  -2.49986  -0.299862  0.99014  0.014697  -0.0206367  -0.0105247  0.0041006  0.0041006  0.0040918  0  0  0  0.091125  0.091125  0.0892156  0.0157519  0.0149547  0.00931434  -0.0054786  -0.0114457  -0.0182272  0.00537772  0.0282872  -0.0158629  -0.152239  0.0472015  -0.050077 
1703174150.324580000  0  0  11.3482  0.0501116  -0.176767  0.0180574  nan  nan  nan  nan  nan  nan  -2.49984  -0.29984  0.99016  0.0133768  -0.0195648  -0.0105177  0.0045733  0.0045733  0.0045511  0  0  0  0.098  0.098  0.0944588  0.0157247  0.0148981  0.00919025  -0.00575125  -0.0119789  -0.0225281  0.00570505  0.0276183  -0.0159022  -0.173084  0.0613025  -0.0355197 
1703174150.329522000  0  0  11.411  0.0578405  -0.170108  0.0175264  nan  nan  nan  nan  nan  nan  -2.49982  -0.299816  0.99018  0.0128172  -0.0178046  -0.0105227  0.005081  0.005081  0.005036  0  0  0  0.105125  0.105125  0.099452  0.0157901  0.0149339  0.0091976  -0.00718332  -0.0117597  -0.0266011  0.00529569  0.0262051  -0.0159431  -0.184948  0.0632806  -0.0283457 
1703174150.334583000  0  0  11.35  0.0445306  -0.170679  0.0199675  nan  nan  nan  nan  nan  nan  -2.49979  -0.299789  0.99021  0.0112456  -0.0187881  -0.0105483  0.005625  0.005625  0.0055452  0  0  0  0.1125  0.1125  0.104195  0.0158839  0.0149794  0.0092547  -0.00533338  -0.0130804  -0.0220316  0.00610159  0.0273859  -0.0163292  -0.165679  0.0509213  -0.0544063 
1703174150.339582000  0  0  11.4377  0.0532214  -0.185316  0.0192107  nan  nan  nan  nan  nan  nan  -2.49976  -0.299759  0.99024  0.0103388  -0.0179664  -0.0105694  0.0062065  0.0062065  0.0060775  0  0  0  0.120125  0.120125  0.108688  0.0158581  0.0149212  0.00909999  -0.00516185  -0.0129865  -0.027589  0.00600656  0.0271913  -0.0164376  -0.183221  0.0845462  -0.0435767 
1703174150.344583000  0  0  11.4398  0.0623722  -0.169757  0.0172002  nan  nan  nan  nan  nan  nan  -2.49973  -0.299727  0.99027  0.0099081  -0.01601  -0.0105935  0.0068267  0.0068267  0.0066317  0  0  0  0.128  0.128  0.112932  0.0159219  0.0150472  0.00907607  -0.00689234  -0.0128455  -0.0273465  0.00545391  0.0256561  -0.0163197  -0.196485  0.0688451  -0.0197018 
1703174150.349540000  0  0  11.3798  0.0319415  -0.155513  0.0203745  nan  nan  nan  nan  nan  nan  -2.49969  -0.299691  0.99031  0.00702761  -0.0161137  -0.0106039  0.0074869  0.0074869  0.0072064  0  0  0  0.136125  0.136125  0.116925  0.0158968  0.0149668  0.0089845  -0.00576497  -0.0154041  -0.0226013  0.00777442  0.0257528  -0.0167758  -0.15793  0.0371901  -0.0541436 
1703174150.354586000  0  0  11.5056  0.055898  -0.190273  0.0174659  nan  nan  nan  nan  nan  nan  -2.49965  -0.299652  0.99034  0.00750329  -0.0150034  -0.0106639  0.0081883  0.0081883  0.0078005  0  0  0  0.1445  0.1445  0.120668  0.0159203  0.0150519  0.00874807  -0.00596122  -0.0137944  -0.0307502  0.00621377  0.0258641  -0.0166536  -0.191344  0.110443  -0.0190189 
1703174150.358588000  0  0  11.4918  0.0596917  -0.168519  0.014837  nan  nan  nan  nan  nan  nan  -2.49961  -0.299609  0.99038  0.00588974  -0.011872  -0.0106868  0.0089323  0.0089323  0.0084127  0  0  0  0.153125  0.153125  0.124161  0.0158688  0.0149866  0.00864266  -0.00888447  -0.0145836  -0.0292588  0.00692333  0.0230684  -0.0163077  -0.207642  0.0959612  0.0098886 
1703174150.364579000  0  0  11.4492  0.00119264  -0.147657  0.0203911  nan  nan  nan  nan  nan  nan  -2.49956  -0.299563  0.99043  0.00293405  -0.0132159  -0.0107264  0.00972  0.00972  0.0090417  0  0  0  0.162  0.162  0.127404  0.0159601  0.0149822  0.00864295  -0.00629398  -0.01736  -0.0260067  0.00969749  0.0242279  -0.0169314  -0.11412  0.0378881  -0.0524769 
1703174150.369581000  0  0  11.5554  0.0343064  -0.176646  0.017992  nan  nan  nan  nan  nan  nan  -2.49951  -0.299512  0.99047  0.00348149  -0.0119672  -0.0108053  0.0105527  0.0105527  0.0096863  0  0  0  0.171125  0.171125  0.130398  0.0159683  0.0150627  0.00840729  -0.00661146  -0.0156029  -0.0328145  0.00804214  0.0241174  -0.0168214  -0.166081  0.101319  -0.0236162 
1703174150.374581000  0  0  11.5085  0.0298349  -0.144516  0.0161131  nan  nan  nan  nan  nan  nan  -2.49946  -0.299457  0.99052  0.00101418  -0.00928372  -0.0108544  0.0114317  0.0114317  0.0103453  0  0  0  0.1805  0.1805  0.133141  0.0159213  0.014975  0.00829131  -0.00891243  -0.0173807  -0.0290128  0.00958009  0.0215717  -0.0165714  -0.174186  0.0617113  -0.00298941 
1703174150.379574000  0  0  11.5023  -0.0171101  -0.139921  0.0209345  nan  nan  nan  nan  nan  nan  -2.4994  -0.299398  0.99058  -0.00142541  -0.00976823  -0.010918  0.0123581  0.0123581  0.0110173  0  0  0  0.190125  0.190125  0.135634  0.0160326  0.0149617  0.00829808  -0.00735603  -0.0193256  -0.0284128  0.0119299  0.0221212  -0.0171095  -0.100557  0.0455349  -0.0571675 
1703174150.384578000  0  0  11.5383  0.0144508  -0.158799  0.0178793  nan  nan  nan  nan  nan  nan  -2.49933  -0.299333  0.99063  -0.00108189  -0.00890573  -0.0110149  0.0133333  0.0133333  0.0117012  0  0  0  0.2  0.2  0.137877  0.0161147  0.0150453  0.00827236  -0.00739138  -0.0177972  -0.0307253  0.0105438  0.0219877  -0.0168972  -0.152286  0.0875516  -0.0212848 
1703174150.389531000  0  0  11.5194  0.0132729  -0.146222  0.0161126  nan  nan  nan  nan  nan  nan  -2.49926  -0.299264  0.99069  -0.00325309  -0.00646259  -0.0111018  0.0143585  0.0143585  0.0123957  0  0  0  0.210125  0.210125  0.13987  0.0160644  0.0149517  0.00814282  -0.00921852  -0.0190502  -0.028938  0.0118374  0.0199855  -0.0166419  -0.164642  0.083616  -0.00213264 
1703174150.394580000  0  0  11.4942  -0.02681  -0.149211  0.0209453  nan  nan  nan  nan  nan  nan  -2.49919  -0.29919  0.99076  -0.00559332  -0.00662144  -0.0111899  0.015435  0.015435  0.0130995  0  0  0  0.2205  0.2205  0.141613  0.0162374  0.0149382  0.00816693  -0.00818319  -0.0207464  -0.0270759  0.0138349  0.0204639  -0.0171391  -0.101673  0.0845229  -0.0569471 
1703174150.399581000  0  0  11.499  -0.000945879  -0.158361  0.0195311  nan  nan  nan  nan  nan  nan  -2.49911  -0.29911  0.99083  -0.00637918  -0.00545971  -0.0113022  0.016564  0.016564  0.0138114  0  0  0  0.231125  0.231125  0.143107  0.0162  0.0148488  0.00802743  -0.00822944  -0.0201237  -0.0269986  0.0135786  0.0200044  -0.017118  -0.154184  0.109429  -0.0394067 
1703174150.404579000  0  0  11.5116  0.00821705  -0.164196  0.0179411  nan  nan  nan  nan  nan  nan  -2.49902  -0.299024  0.9909  -0.00810921  -0.00380219  -0.0114223  0.0177467  0.0177467  0.0145301  0  0  0  0.242  0.242  0.14435  0.0162453  0.0148937  0.00798355  -0.00914888  -0.0211036  -0.0276955  0.0142856  0.0192775  -0.016943  -0.181966  0.130302  -0.0215105 
1703174150.409536000  0  0  11.4614  -0.017039  -0.149974  0.0205826  nan  nan  nan  nan  nan  nan  -2.49893  -0.298932  0.99097  -0.0103909  -0.00242057  -0.0115501  0.0189844  0.0189844  0.0152545  0  0  0  0.253125  0.253125  0.145343  0.016299  0.0149132  0.00797256  -0.00972188  -0.0226465  -0.0240228  0.0160936  0.0184315  -0.0172402  -0.14861  0.109539  -0.0511639 
1703174150.414590000  0  0  11.4889  0.00367645  -0.164684  0.0198571  nan  nan  nan  nan  nan  nan  -2.49883  -0.298834  0.99105  -0.0113404  -0.00195543  -0.0116813  0.0202783  0.0202783  0.0159831  0  0  0  0.2645  0.2645  0.146086  0.0162629  0.014813  0.00783305  -0.00874703  -0.0221504  -0.0256203  0.0158802  0.0187865  -0.0172876  -0.190574  0.136997  -0.0414639 
1703174150.419579000  0  0  11.5224  0.0214557  -0.170235  0.0170157  nan  nan  nan  nan  nan  nan  -2.49873  -0.298729  0.99113  -0.0128804  0.000271031  -0.0118415  0.0216298  0.0216298  0.0167149  0  0  0  0.276125  0.276125  0.146579  0.0163019  0.0148261  0.00778349  -0.0103091  -0.0227144  -0.0278313  0.0160746  0.0176587  -0.0169469  -0.230933  0.161876  -0.0098196 
1703174150.424584000  0  0  11.4193  -0.0213596  -0.134844  0.0215966  nan  nan  nan  nan  nan  nan  -2.49862  -0.298618  0.99122  -0.0165057  0.00208416  -0.012013  0.02304  0.02304  0.0174485  0  0  0  0.288  0.288  0.146823  0.0162504  0.0146969  0.0077081  -0.0110457  -0.0253853  -0.0203041  0.0191808  0.016066  -0.0173651  -0.174862  0.104311  -0.0624169 
1703174150.429538000  0  0  11.4494  -0.0123281  -0.149347  0.022622  nan  nan  nan  nan  nan  nan  -2.4985  -0.298499  0.99131  -0.0171949  0.0016969  -0.0121547  0.0245102  0.0245102  0.0181827  0  0  0  0.300125  0.300125  0.146816  0.0162968  0.0147021  0.00764226  -0.00908828  -0.0247768  -0.0223116  0.0188643  0.0172279  -0.0176627  -0.190586  0.122042  -0.0717315 
1703174150.434586000  0  0  11.5142  0.0315374  -0.171546  0.0156542  nan  nan  nan  nan  nan  nan  -2.49837  -0.298372  0.9914  -0.0184152  0.00516588  -0.0123738  0.0260417  0.0260417  0.0189163  0  0  0  0.3125  0.3125  0.146559  0.0163022  0.0147034  0.00758105  -0.0121265  -0.0248426  -0.0267433  0.018204  0.0152982  -0.0168993  -0.277049  0.191842  0.00673648 
1703174150.439580000  0  0  11.402  -0.0142868  -0.126306  0.0221111  nan  nan  nan  nan  nan  nan  -2.49824  -0.298238  0.99149  -0.0222447  0.00716998  -0.0125975  0.0276356  0.0276356  0.0196479  0  0  0  0.325125  0.325125  0.146052  0.0162458  0.0145626  0.00753163  -0.0129414  -0.0275527  -0.0186676  0.0213405  0.0134349  -0.0174567  -0.214873  0.116272  -0.0677861 
1703174150.444581000  0  0  11.4773  0.0163375  -0.161159  0.0224086  nan  nan  nan  nan  nan  nan  -2.4981  -0.298096  0.99159  -0.0221438  0.00699973  -0.0127587  0.0292933  0.0292933  0.0203764  0  0  0  0.338  0.338  0.145295  0.0162916  0.0145677  0.00746047  -0.0112156  -0.0259297  -0.0239227  0.0197286  0.0148449  -0.0176879  -0.261996  0.174784  -0.0687425 
1703174150.449537000  0  0  11.5266  0.0477602  -0.181301  0.0160026  nan  nan  nan  nan  nan  nan  -2.49795  -0.297945  0.9917  -0.0241149  0.0106234  -0.0130317  0.031016  0.031016  0.0211004  0  0  0  0.351125  0.351125  0.144289  0.0162103  0.0144381  0.00731129  -0.0141637  -0.0265168  -0.0271134  0.0196511  0.0128887  -0.0169108  -0.328482  0.240477  0.00249164 
1703174150.454589000  0  0  11.4243  -0.0147041  -0.125945  0.0233414  nan  nan  nan  nan  nan  nan  -2.49779  -0.297786  0.99181  -0.0278673  0.0119332  -0.0132863  0.032805  0.032805  0.0218188  0  0  0  0.3645  0.3645  0.143032  0.0162652  0.0144071  0.00738062  -0.0142284  -0.02931  -0.0200407  0.0228207  0.0116824  -0.0175751  -0.231008  0.135659  -0.081838 
1703174150.459580000  0  0  11.4869  0.0368223  -0.166134  0.022136  nan  nan  nan  nan  nan  nan  -2.49762  -0.297617  0.99192  -0.0273291  0.0124195  -0.0134775  0.0346615  0.0346615  0.0225303  0  0  0  0.378125  0.378125  0.141525  0.0162749  0.0144127  0.00730551  -0.0131906  -0.0270025  -0.0244246  0.0203072  0.0127094  -0.017681  -0.312577  0.21002  -0.0653963 
1703174150.464581000  0  0  11.5014  0.0633304  -0.169291  0.0164543  nan  nan  nan  nan  nan  nan  -2.49744  -0.297439  0.99203  -0.0300101  0.0156947  -0.0137998  0.0365867  0.0365867  0.0232337  0  0  0  0.392  0.392  0.139768  0.0161886  0.014271  0.00718604  -0.0155487  -0.0283137  -0.0252409  0.0206965  0.0108832  -0.0169408  -0.373895  0.237798  -0.00282956 
1703174150.469588000  0  0  11.4646  0.00420728  -0.125591  0.0236299  nan  nan  nan  nan  nan  nan  -2.49725  -0.297251  0.99215  -0.033131  0.0170717  -0.0140913  0.0385819  0.0385819  0.0239276  0  0  0  0.406125  0.406125  0.137761  0.0162435  0.0142666  0.00720588  -0.0156651  -0.030415  -0.0227643  0.0230219  0.00986041  -0.0175739  -0.273873  0.155861  -0.085483 
1703174150.474588000  0  0  11.4549  0.0504561  -0.154683  0.0205502  nan  nan  nan  nan  nan  nan  -2.49705  -0.297053  0.99227  -0.0341483  0.0184084  -0.0143575  0.0406483  0.0406483  0.0246109  0  0  0  0.4205  0.4205  0.135505  0.0161722  0.0141335  0.00709773  -0.0153463  -0.0294195  -0.0219675  0.0218554  0.00994717  -0.017411  -0.359622  0.217242  -0.0486966 
1703174150.479581000  0  0  11.4651  0.0641364  -0.16548  0.0146874  nan  nan  nan  nan  nan  nan  -2.49684  -0.296844  0.99239  -0.0364552  0.0207997  -0.0146965  0.0427873  0.0427873  0.0252822  0  0  0  0.435125  0.435125  0.132998  0.0161823  0.0141402  0.00707891  -0.0166928  -0.0305499  -0.0227477  0.0219647  0.00915307  -0.0165576  -0.390213  0.24953  0.0147829 
1703174150.484580000  0  0  11.4798  0.0183316  -0.134511  0.0213913  nan  nan  nan  nan  nan  nan  -2.49662  -0.296625  0.99252  -0.0387166  0.0232161  -0.0150529  0.045  0.045  0.0259404  0  0  0  0.45  0.45  0.130241  0.016205  0.0141533  0.00704578  -0.018095  -0.0316275  -0.0238423  0.0232276  0.00751711  -0.0170498  -0.306525  0.201946  -0.0636333 
1703174150.489536000  0  0  11.4231  0.0288908  -0.141564  0.0218218  nan  nan  nan  nan  nan  nan  -2.49639  -0.296394  0.99265  -0.040567  0.024511  -0.0153703  0.0472877  0.0472877  0.0265842  0  0  0  0.465125  0.465125  0.127234  0.0161287  0.0140067  0.00696734  -0.0174881  -0.0313719  -0.0198142  0.0233347  0.00742433  -0.0171333  -0.330399  0.218137  -0.0680441 
1703174150.494586000  0  0  11.5036  0.0509352  -0.182823  0.0162777  nan  nan  nan  nan  nan  nan  -2.49615  -0.296152  0.99279  -0.0428477  0.0262762  -0.01573  0.0496517  0.0496517  0.0272124  0  0  0  0.4805  0.4805  0.123977  0.0161518  0.0139742  0.00692746  -0.0181678  -0.0326073  -0.0255962  0.0233773  0.00773701  -0.0164045  -0.378158  0.30301  -0.00707242 
1703174150.498587000  0  0  11.5256  0.0119103  -0.143083  0.0194016  nan  nan  nan  nan  nan  nan  -2.4959  -0.295898  0.99293  -0.0462361  0.0303906  -0.0162439  0.0520931  0.0520931  0.0278236  0  0  0  0.496125  0.496125  0.120471  0.0160141  0.0137873  0.00679356  -0.0213572  -0.0345304  -0.0269829  0.025874  0.00437513  -0.0164389  -0.323201  0.256473  -0.0459633 
1703174150.504579000  0  0  11.419  0.0227529  -0.155338  0.0223773  nan  nan  nan  nan  nan  nan  -2.49563  -0.295631  0.99307  -0.0475447  0.0300337  -0.0165074  0.0546133  0.0546133  0.0284166  0  0  0  0.512  0.512  0.116714  0.0160923  0.0137749  0.00685559  -0.0186737  -0.0335599  -0.0197989  0.0251285  0.00621774  -0.0168295  -0.337874  0.261552  -0.0786954 
1703174150.509537000  0  0  11.5052  0.0391409  -0.194772  0.0179346  nan  nan  nan  nan  nan  nan  -2.49535  -0.295351  0.99321  -0.0495521  0.0317653  -0.0169006  0.0572135  0.0572135  0.0289903  0  0  0  0.528125  0.528125  0.112707  0.016096  0.013712  0.00682135  -0.0192293  -0.0343358  -0.0260482  0.0250411  0.00665332  -0.0162564  -0.372008  0.341098  -0.0297044 
1703174150.514588000  0  0  11.4603  -0.0132221  -0.141724  0.0209039  nan  nan  nan  nan  nan  nan  -2.49506  -0.295059  0.99336  -0.0528532  0.0357665  -0.0174703  0.059895  0.059895  0.0295433  0  0  0  0.5445  0.5445  0.10845  0.0159838  0.0135382  0.00671969  -0.021981  -0.0356836  -0.0227887  0.0273702  0.00357945  -0.0163037  -0.286524  0.262712  -0.0664944 
1703174150.519582000  0  0  11.4043  0.000922311  -0.163578  0.0218781  nan  nan  nan  nan  nan  nan  -2.49475  -0.294752  0.99351  -0.0546473  0.0357281  -0.017792  0.062659  0.062659  0.0300744  0  0  0  0.561125  0.561125  0.103943  0.0160371  0.0135153  0.00675212  -0.0197127  -0.0354366  -0.0191809  0.0273921  0.00515176  -0.016423  -0.317105  0.291485  -0.0773145 
1703174150.524584000  0  0  11.5395  0.0317665  -0.199664  0.015547  nan  nan  nan  nan  nan  nan  -2.49443  -0.294432  0.99366  -0.0566466  0.0391465  -0.018323  0.0655067  0.0655067  0.0305823  0  0  0  0.578  0.578  0.0991865  0.0159177  0.0133399  0.0065716  -0.0223515  -0.0361106  -0.0285713  0.0270861  0.00424231  -0.0155675  -0.379722  0.379323  -0.00796815 
1703174150.529537000  0  0  11.4771  0.0024424  -0.149086  0.0183377  nan  nan  nan  nan  nan  nan  -2.4941  -0.294097  0.99381  -0.0594799  0.0428884  -0.0189287  0.0684394  0.068439  0.0310658  0  0  0  0.595125  0.594911  0.0941797  0.015912  0.0132999  0.00661583  -0.0248479  -0.0369928  -0.0244096  0.0285423  0.00141302  -0.0155259  -0.333597  0.303421  -0.0435821 
1703174150.534586000  0  0  11.4175  0.0173581  -0.176113  0.0208562  nan  nan  nan  nan  nan  nan  -2.49375  -0.293747  0.99397  -0.0602822  0.041595  -0.0191634  0.0714583  0.0714554  0.0315237  0  0  0  0.6125  0.611572  0.0889229  0.0160549  0.013454  0.00669481  -0.0209921  -0.0359031  -0.0207662  0.0274628  0.00439115  -0.0157464  -0.353161  0.327113  -0.0726129 
1703174150.539581000  0  0  11.5003  0.0411423  -0.191794  0.0155812  nan  nan  nan  nan  nan  nan  -2.49338  -0.293382  0.99413  -0.0623811  0.0450545  -0.0197512  0.0745648  0.0745544  0.0319546  0  0  0  0.630125  0.627984  0.0834161  0.0159252  0.0132771  0.00653596  -0.0233877  -0.0364674  -0.0265161  0.0272522  0.00315157  -0.0149878  -0.401737  0.374997  -0.0153856 
1703174150.544582000  0  0  11.3946  0.00107048  -0.139942  0.0199306  nan  nan  nan  nan  nan  nan  -2.493  -0.293002  0.99429  -0.0646763  0.0481236  -0.0203442  0.07776  0.0777348  0.0323574  0  0  0  0.647955  0.644146  0.0776593  0.0160095  0.0133956  0.0066606  -0.0248424  -0.0368221  -0.0195396  0.0283475  0.000891732  -0.015118  -0.328414  0.289811  -0.0685418 
1703174150.549590000  0  0  11.3733  0.0128281  -0.158416  0.0218438  nan  nan  nan  nan  nan  nan  -2.4926  -0.292605  0.99445  -0.0669383  0.0489914  -0.0208085  0.081044  0.0809954  0.0327308  0  0  0  0.665619  0.660058  0.0716736  0.0159045  0.013219  0.00657125  -0.0233238  -0.0369815  -0.0181849  0.0286998  0.00175196  -0.0153374  -0.357678  0.319528  -0.0899683 
1703174150.554587000  0  0  11.3875  0.0503043  -0.179936  0.0164066  nan  nan  nan  nan  nan  nan  -2.49219  -0.292192  0.99461  -0.0675512  0.0514208  -0.021306  0.0844157  0.0843349  0.0330744  0  0  0  0.683032  0.67572  0.0658122  0.0159633  0.013372  0.00661953  -0.0245166  -0.0361574  -0.0195914  0.0267999  0.00141329  -0.0146324  -0.416179  0.369569  -0.0300545 
1703174150.559580000  0  0  11.3569  0.00915504  -0.14479  0.0194526  nan  nan  nan  nan  nan  nan  -2.49176  -0.291761  0.99478  -0.070881  0.0546064  -0.0220131  0.0878739  0.0877522  0.0333894  0  0  0  0.700196  0.691132  0.0602008  0.0158814  0.0132323  0.00658513  -0.0261455  -0.0377186  -0.0175237  0.0287217  -0.000551867  -0.0145989  -0.350054  0.316814  -0.0687837 
1703174150.564580000  0  0  11.3048  0.030202  -0.156338  0.0208247  nan  nan  nan  nan  nan  nan  -2.49131  -0.291314  0.99495  -0.0727962  0.0563495  -0.0225608  0.0914173  0.0912458  0.0336769  0  0  0  0.71711  0.706294  0.0548394  0.0157618  0.0130569  0.006521  -0.0256037  -0.0372082  -0.0139464  0.0284727  -0.00048191  -0.0147069  -0.392319  0.340772  -0.0847461 
1703174150.569589000  0  0  11.3386  0.0560725  -0.165967  0.0154418  nan  nan  nan  nan  nan  nan  -2.49085  -0.290849  0.99512  -0.0751674  0.0588601  -0.0232056  0.0950446  0.0948147  0.0339382  0  0  0  0.733773  0.721205  0.0497281  0.0156749  0.0129211  0.0064667  -0.0267802  -0.0381102  -0.0163766  0.0282303  -0.00100269  -0.0139093  -0.445004  0.367409  -0.0266316 
1703174150.574587000  0  0  11.3928  0.0234958  -0.139195  0.0187177  nan  nan  nan  nan  nan  nan  -2.49036  -0.290366  0.99529  -0.0778659  0.0622527  -0.0239576  0.0987546  0.0984575  0.0341746  0  0  0  0.750187  0.735867  0.0448667  0.0155213  0.0127251  0.00635143  -0.0291495  -0.0394643  -0.0200633  0.0293313  -0.0029555  -0.013931  -0.387818  0.332469  -0.0675878 
1703174150.579581000  0  0  11.3154  0.0429395  -0.138171  0.0190151  nan  nan  nan  nan  nan  nan  -2.48986  -0.289864  0.99546  -0.0797302  0.0642933  -0.0245714  0.102546  0.102173  0.0343873  0  0  0  0.76635  0.750279  0.0402553  0.0154473  0.0126196  0.00636079  -0.029  -0.0388957  -0.0147496  0.0288634  -0.00339592  -0.0138299  -0.424127  0.335341  -0.0725486 
1703174150.584582000  0  0  11.4049  0.060467  -0.154492  0.0156332  nan  nan  nan  nan  nan  nan  -2.48934  -0.289344  0.99563  -0.0815946  0.0658972  -0.0251636  0.106418  0.10596  0.0345775  0  0  0  0.782264  0.764441  0.0358939  0.0153563  0.0125348  0.00628574  -0.029537  -0.0399386  -0.0210527  0.0282301  -0.00300811  -0.0132578  -0.454424  0.365875  -0.0368925 
1703174150.589538000  0  0  11.4968  0.0481009  -0.136437  0.0168436  nan  nan  nan  nan  nan  nan  -2.48879  -0.288804  0.99581  -0.0834175  0.0698097  -0.0259576  0.110368  0.109817  0.0347466  0  0  0  0.797928  0.778353  0.0317825  0.015174  0.0123339  0.00613295  -0.0329768  -0.0405928  -0.027233  0.0281016  -0.00527184  -0.0130954  -0.42643  0.353204  -0.0540805 
1703174150.594586000  0  0  11.3045  0.0528934  -0.122754  0.0177765  nan  nan  nan  nan  nan  nan  -2.48823  -0.288246  0.99598  -0.0861668  0.0714384  -0.0266442  0.114397  0.113743  0.0348958  0  0  0  0.813341  0.792015  0.0279211  0.0151122  0.0122278  0.00616252  -0.0314405  -0.0401402  -0.013755  0.0284704  -0.00544016  -0.0129553  -0.440949  0.3258  -0.0675066 
1703174150.599582000  0  0  11.4583  0.0606075  -0.142722  0.0165009  nan  nan  nan  nan  nan  nan  -2.48765  -0.287667  0.99615  -0.088188  0.0730058  -0.0272872  0.118501  0.117737  0.0350263  0  0  0  0.828505  0.805427  0.0243098  0.0149521  0.012017  0.00599222  -0.0324809  -0.0418171  -0.0243122  0.0281269  -0.0049867  -0.012609  -0.453539  0.363399  -0.0556313 
1703174150.604581000  0  0  11.4957  0.0455548  -0.119335  0.0168363  nan  nan  nan  nan  nan  nan  -2.48705  -0.287068  0.99633  -0.0889311  0.0773203  -0.028091  0.122681  0.121797  0.0351393  0  0  0  0.843418  0.818589  0.0209484  0.0148319  0.0119187  0.00590938  -0.0363022  -0.0409167  -0.0267208  0.0270317  -0.00770581  -0.0124485  -0.408662  0.344533  -0.0617862 
1703174150.609538000  0  0  11.32  0.0396658  -0.105909  0.0179861  nan  nan  nan  nan  nan  nan  -2.48642  -0.286449  0.99651  -0.091973  0.0793091  -0.0288826  0.126935  0.125922  0.0352362  0  0  0  0.858082  0.8315  0.017837  0.0147277  0.0118168  0.00595627  -0.0352239  -0.0409778  -0.0143547  0.0279913  -0.00835609  -0.0122834  -0.407074  0.323226  -0.0782419 
1703174150.614590000  0  0  11.4783  0.0546431  -0.141661  0.016126  nan  nan  nan  nan  nan  nan  -2.48578  -0.285809  0.99668  -0.0935804  0.0805703  -0.0295072  0.131262  0.130111  0.0353181  0  0  0  0.872495  0.844162  0.0149756  0.0145612  0.0116092  0.0057857  -0.0361219  -0.0423614  -0.0251721  0.0272756  -0.00731902  -0.0119442  -0.430955  0.387957  -0.0589276 
1703174150.619581000  0  0  11.486  0.0378997  -0.118897  0.0158679  nan  nan  nan  nan  nan  nan  -2.48511  -0.285148  0.99686  -0.0952563  0.0849003  -0.0304399  0.13566  0.134363  0.0353863  0  0  0  0.886659  0.856574  0.0123642  0.0143692  0.0114317  0.00568671  -0.0396511  -0.0422448  -0.0253204  0.0271572  -0.00997891  -0.0116114  -0.393692  0.369746  -0.0596909 
1703174150.624582000  0  0  11.3725  0.0196552  -0.122823  0.0177992  nan  nan  nan  nan  nan  nan  -2.48442  -0.284465  0.99704  -0.0988598  0.086103  -0.0312578  0.140128  0.138677  0.0354421  0  0  0  0.900573  0.868736  0.0100028  0.0141958  0.0112155  0.00563926  -0.0379603  -0.0433919  -0.0170798  0.0289415  -0.00940499  -0.0114988  -0.375098  0.371561  -0.085349 
1703174150.629536000  0  0  11.4981  0.0368716  -0.152477  0.0159957  nan  nan  nan  nan  nan  nan  -2.48371  -0.283761  0.99721  -0.0992674  0.0868853  -0.0317677  0.144665  0.14305  0.0354868  0  0  0  0.914236  0.880648  0.0078914  0.0140244  0.0111694  0.00537972  -0.0380616  -0.0435235  -0.0254304  0.0272771  -0.00763589  -0.0112233  -0.392866  0.414795  -0.0659783 
1703174150.634577000  0  0  11.4799  0.0288044  -0.12766  0.0147575  nan  nan  nan  nan  nan  nan  -2.48297  -0.283034  0.99739  -0.100272  0.0903799  -0.032609  0.14927  0.147483  0.0355215  0  0  0  0.92765  0.89231  0.0060301  0.013887  0.0111682  0.0053286  -0.0404473  -0.0428547  -0.0238524  0.0264946  -0.00942401  -0.0107937  -0.366566  0.382151  -0.0555775 
1703174150.639581000  0  0  11.4127  0.0179836  -0.135721  0.0172811  nan  nan  nan  nan  nan  nan  -2.48222  -0.282286  0.99757  -0.103356  0.0916191  -0.0334277  0.153941  0.151973  0.0355475  0  0  0  0.940813  0.903722  0.0044187  0.0137106  0.010952  0.00525175  -0.0393144  -0.0438796  -0.0187674  0.0278077  -0.00875728  -0.0107394  -0.35847  0.391766  -0.0879836 
1703174150.644580000  0  0  11.4913  0.0510212  -0.158004  0.0146413  nan  nan  nan  nan  nan  nan  -2.48143  -0.281515  0.99775  -0.103454  0.0930635  -0.0340017  0.158677  0.15652  0.0355661  0  0  0  0.953727  0.914883  0.0030573  0.0136088  0.0109193  0.00523343  -0.0401518  -0.0432089  -0.0242046  0.0255389  -0.00795487  -0.0103452  -0.403209  0.430314  -0.0595203 
1703174150.649537000  0  0  11.4825  0.041162  -0.146736  0.0145308  nan  nan  nan  nan  nan  nan  -2.48063  -0.280721  0.99792  -0.105985  0.0960933  -0.0349822  0.163478  0.161121  0.0355785  0  0  0  0.966391  0.925795  0.0019459  0.0133981  0.0106961  0.0051374  -0.0419851  -0.0441167  -0.0230538  0.0261522  -0.00904312  -0.00996823  -0.389125  0.418674  -0.0626736 
1703174150.654586000  0  0  11.4238  0.0382946  -0.152552  0.0166585  nan  nan  nan  nan  nan  nan  -2.4798  -0.279903  0.9981  -0.10696  0.0971785  -0.0356209  0.168341  0.165777  0.0355859  0  0  0  0.978804  0.936457  0.0010845  0.0133048  0.0106284  0.00514808  -0.0409444  -0.0429666  -0.0188232  0.0252912  -0.00815873  -0.0100202  -0.373071  0.420969  -0.0888182 
1703174150.659580000  0  0  11.4605  0.062711  -0.161512  0.0147163  nan  nan  nan  nan  nan  nan  -2.47895  -0.279063  0.99828  -0.107681  0.0984917  -0.0362673  0.173265  0.170486  0.0355897  0  0  0  0.990968  0.946869  0.0004731  0.0131717  0.0105692  0.00509653  -0.0412153  -0.0426584  -0.0211398  0.0237212  -0.00728514  -0.00965082  -0.407364  0.430132  -0.0688337 
1703174150.664579000  0  0  11.5063  0.0378476  -0.161417  0.0152779  nan  nan  nan  nan  nan  nan  -2.47807  -0.278198  0.99846  -0.109847  0.100199  -0.0371107  0.17825  0.175245  0.0355911  0  0  0  1.00288  0.957031  0.0001118  0.0129615  0.0103478  0.00496804  -0.0420247  -0.0439076  -0.0238015  0.0242731  -0.00694357  -0.00940476  -0.3604  0.425999  -0.0788664 
1703174150.669537000  0  0  11.43  0.048569  -0.154747  0.016754  nan  nan  nan  nan  nan  nan  -2.47716  -0.27731  0.99864  -0.110284  0.102581  -0.0378642  0.183294  0.180055  0.0355913  0  0  0  1.01454  0.966943  -0  0.0128051  0.0103216  0.00494118  -0.0423581  -0.041942  -0.0181341  0.0228545  -0.00736004  -0.00946403  -0.36707  0.416488  -0.0967249 
1703174150.674586000  0  0  11.4438  0.0603733  -0.157837  0.0157921  nan  nan  nan  nan  nan  nan  -2.47623  -0.276398  0.99881  -0.112723  0.103587  -0.0386835  0.188395  0.184914  0.0355913  0  0  0  1.02596  0.976605  -0  0.0126071  0.0101102  0.00485216  -0.0419778  -0.0432778  -0.0186134  0.0230472  -0.00636191  -0.00913782  -0.394598  0.41163  -0.088554 
1703174150.679582000  0  0  11.5209  0.0526724  -0.169  0.0164665  nan  nan  nan  nan  nan  nan  -2.47528  -0.275461  0.99899  -0.11334  0.104645  -0.0393272  0.193553  0.189821  0.0355913  0  0  0  1.03712  0.986017  -0  0.0125055  0.0100293  0.00482593  -0.0426744  -0.043439  -0.0238032  0.0219432  -0.0053893  -0.00907887  -0.365385  0.424378  -0.0977494 
1703174150.684580000  0  0  11.3905  0.0699528  -0.150982  0.0152955  nan  nan  nan  nan  nan  nan  -2.4743  -0.274499  0.99917  -0.114171  0.107205  -0.0401727  0.198766  0.194774  0.0355913  0  0  0  1.04804  0.995178  -0  0.0123879  0.0100162  0.00486986  -0.0427487  -0.0413835  -0.0144315  0.0206219  -0.0062338  -0.00881598  -0.387237  0.395459  -0.0861853 
1703174150.689537000  0  0  11.3853  0.0680588  -0.151085  0.0145885  nan  nan  nan  nan  nan  nan  -2.47329  -0.273513  0.99935  -0.117047  0.107937  -0.0410419  0.204033  0.199772  0.0355913  0  0  0  1.0587  1.00409  -0  0.0121758  0.00979076  0.00478912  -0.04186  -0.0430959  -0.0135719  0.02142  -0.00522159  -0.00840013  -0.392357  0.384035  -0.0823023 
1703174150.694590000  0  0  11.5453  0.0801801  -0.166765  0.0145142  nan  nan  nan  nan  nan  nan  -2.47226  -0.272502  0.99953  -0.115899  0.109306  -0.041553  0.209353  0.204815  0.0355913  0  0  0  1.06911  1.01275  -0  0.0119841  0.00973614  0.00461471  -0.0438341  -0.0421947  -0.0243729  0.0184318  -0.00439298  -0.00842357  -0.383972  0.408124  -0.0810841 
1703174150.699581000  0  0  11.3407  0.0882957  -0.133584  0.0129019  nan  nan  nan  nan  nan  nan  -2.4712  -0.271465  0.9997  -0.11861  0.112738  -0.0427437  0.214724  0.2099  0.0355913  0  0  0  1.07928  1.02116  -0  0.0117672  0.00953854  0.00464496  -0.0439232  -0.041066  -0.00953766  0.0188367  -0.00642764  -0.00785705  -0.406032  0.360382  -0.0676272 
1703174150.704583000  0  0  11.4424  0.078325  -0.142626  0.0149777  nan  nan  nan  nan  nan  nan  -2.47011  -0.270403  0.99988  -0.119389  0.111745  -0.0432048  0.220145  0.215026  0.0355913  0  0  0  1.08919  1.02933  -0  0.0116402  0.00948006  0.00456857  -0.0424295  -0.0421601  -0.0165056  0.0179341  -0.0038433  -0.00784961  -0.374267  0.350039  -0.0938348 
1703174150.709586000  0  0  11.559  0.0994021  -0.159327  0.0134347  nan  nan  nan  nan  nan  nan  -2.469  -0.269315  1.00006  -0.118005  0.113826  -0.0437902  0.225615  0.220192  0.0355913  0  0  0  1.09885  1.03724  -0  0.0114416  0.00943472  0.00445248  -0.0449175  -0.0404724  -0.0243326  0.0145769  -0.00382656  -0.0077183  -0.38084  0.385659  -0.0760038 
1703174150.714589000  0  0  11.3882  0.0857274  -0.121047  0.0137762  nan  nan  nan  nan  nan  nan  -2.46785  -0.268201  1.00024  -0.121113  0.116581  -0.0449844  0.231133  0.225398  0.0355913  0  0  0  1.10827  1.0449  -0  0.0112171  0.0092362  0.00445227  -0.044595  -0.0403942  -0.011829  0.015781  -0.00544146  -0.0073149  -0.36537  0.322156  -0.0851625 
1703174150.719530000  0  0  11.4614  0.0655945  -0.13152  0.0167638  nan  nan  nan  nan  nan  nan  -2.46668  -0.267061  1.00042  -0.122381  0.115708  -0.0455369  0.236697  0.230641  0.0355913  0  0  0  1.11743  1.05231  -0  0.0110584  0.0091275  0.00438574  -0.042956  -0.0417156  -0.0167691  0.0156994  -0.00315315  -0.00745817  -0.321262  0.318286  -0.121027 
1703174150.724584000  0  0  11.5525  0.0895826  -0.150788  0.0130091  nan  nan  nan  nan  nan  nan  -2.46549  -0.265894  1.00059  -0.12224  0.117821  -0.0462938  0.242307  0.235921  0.0355913  0  0  0  1.12634  1.05947  -0  0.0108398  0.00893973  0.00425583  -0.0453105  -0.0410271  -0.0226664  0.0135705  -0.00324711  -0.00710592  -0.348206  0.360683  -0.0780295 
1703174150.729537000  0  0  11.4118  0.0780351  -0.122721  0.0133052  nan  nan  nan  nan  nan  nan  -2.46426  -0.264701  1.00077  -0.12421  0.120855  -0.0474268  0.24796  0.241235  0.0355913  0  0  0  1.13501  1.06639  -0  0.0106309  0.00886696  0.00428408  -0.0457888  -0.0402267  -0.0123996  0.013966  -0.00510351  -0.00675331  -0.327996  0.321857  -0.0860052 
1703174150.734585000  0  0  11.5477  0.0646235  -0.140795  0.015637  nan  nan  nan  nan  nan  nan  -2.46301  -0.263482  1.00095  -0.123792  0.120192  -0.0478216  0.253657  0.246584  0.0355913  0  0  0  1.14342  1.07305  -0  0.0104755  0.00879197  0.00419018  -0.0453771  -0.0404076  -0.0218001  0.0124177  -0.00282795  -0.00699333  -0.281426  0.334434  -0.112452 
1703174150.739579000  0  0  11.6138  0.0777873  -0.156649  0.0122588  nan  nan  nan  nan  nan  nan  -2.46172  -0.262235  1.00113  -0.124265  0.121606  -0.0485885  0.259394  0.251965  0.0355913  0  0  0  1.15159  1.07946  -0  0.0102331  0.00859208  0.00405835  -0.046573  -0.0403034  -0.0259545  0.011228  -0.00229917  -0.00651751  -0.295966  0.362346  -0.0756819 
1703174150.744582000  0  0  11.5326  0.050385  -0.135848  0.0134067  nan  nan  nan  nan  nan  nan  -2.46041  -0.260962  1.00131  -0.126549  0.123404  -0.049637  0.265172  0.257378  0.0355913  0  0  0  1.1595  1.08562  -0  0.010066  0.00846093  0.00407452  -0.0464992  -0.0407396  -0.0199015  0.0123722  -0.00295421  -0.00618486  -0.250371  0.325277  -0.0941351 
1703174150.749538000  0  0  11.5962  0.0369248  -0.138993  0.0151364  nan  nan  nan  nan  nan  nan  -2.45907  -0.259662  1.00148  -0.127565  0.12396  -0.0503811  0.270989  0.262821  0.0355913  0  0  0  1.16716  1.09153  -0  0.00982656  0.00824609  0.00394707  -0.0466528  -0.0414193  -0.0239254  0.0124153  -0.00203763  -0.00624008  -0.222005  0.321477  -0.115233 
1703174150.754590000  0  0  11.6147  0.0523259  -0.161999  0.0125627  nan  nan  nan  nan  nan  nan  -2.4577  -0.258334  1.00166  -0.128393  0.124425  -0.0510967  0.276843  0.268293  0.0355913  0  0  0  1.17458  1.09719  -0  0.00962175  0.00809696  0.00383021  -0.0461366  -0.0414542  -0.0248352  0.0117538  -0.000595524  -0.00582507  -0.247419  0.354218  -0.087852 
1703174150.759581000  0  0  11.5958  0.0351956  -0.153746  0.0131129  nan  nan  nan  nan  nan  nan  -2.4563  -0.256979  1.00184  -0.129433  0.126347  -0.0520339  0.282734  0.273793  0.0355913  0  0  0  1.18174  1.10261  -0  0.00942304  0.00798479  0.0037762  -0.0470805  -0.041244  -0.0230998  0.0118871  -0.00107477  -0.00561419  -0.212221  0.342035  -0.0973165 
1703174150.764583000  0  0  11.5946  0.0314388  -0.151158  0.0140574  nan  nan  nan  nan  nan  nan  -2.45488  -0.255596  1.00202  -0.130599  0.127067  -0.0528409  0.28866  0.279319  0.0355913  0  0  0  1.18865  1.10777  -0  0.00920264  0.00778106  0.00366423  -0.0466633  -0.0413262  -0.0225846  0.011986  -0.000331393  -0.00552577  -0.205303  0.327932  -0.110267 
1703174150.768591000  0  0  11.6256  0.0285297  -0.166578  0.0131696  nan  nan  nan  nan  nan  nan  -2.45342  -0.254185  1.00219  -0.133193  0.128122  -0.0538849  0.29462  0.28487  0.0355913  0  0  0  1.19532  1.11268  -0  0.00873287  0.00732963  0.00353347  -0.0466239  -0.0430375  -0.024101  0.013511  0.000106289  -0.00501711  -0.216609  0.355962  -0.105228 
1703174150.773591000  0  0  11.6234  0.0407071  -0.170775  0.0121135  nan  nan  nan  nan  nan  nan  -2.45193  -0.252747  1.00237  -0.131635  0.129947  -0.0544966  0.300613  0.290445  0.0355913  0  0  0  1.20173  1.11734  -0  0.00863832  0.00748233  0.003513  -0.0479033  -0.0405045  -0.0238605  0.010885  -0.000161741  -0.00469984  -0.21251  0.368044  -0.0957641 
1703174150.779580000  0  0  11.536  0.0394404  -0.150941  0.014247  nan  nan  nan  nan  nan  nan  -2.45041  -0.251281  1.00255  -0.131778  0.129523  -0.05504  0.306637  0.296043  0.0355913  0  0  0  1.20789  1.12175  -0  0.00870621  0.00759762  0.00351408  -0.0454561  -0.0391162  -0.0177787  0.00990584  0.00145359  -0.00488834  -0.19853  0.306933  -0.120336 
1703174150.784578000  0  0  11.6248  0.0513347  -0.193316  0.0140961  nan  nan  nan  nan  nan  nan  -2.44886  -0.249787  1.00273  -0.131898  0.12857  -0.055516  0.312691  0.301662  0.0355913  0  0  0  1.21381  1.12592  -0  0.00846604  0.0074568  0.00333824  -0.0442105  -0.039585  -0.0237018  0.00895512  0.00450668  -0.00486468  -0.213097  0.362671  -0.118723 
1703174150.789536000  0  0  11.6527  0.0661588  -0.196758  0.0115017  nan  nan  nan  nan  nan  nan  -2.44728  -0.248264  1.00291  -0.131982  0.131466  -0.0564986  0.318775  0.307302  0.0355913  0  0  0  1.21947  1.12983  -0  0.00820266  0.00725862  0.0032112  -0.0471435  -0.0386238  -0.0250562  0.00764692  0.00353943  -0.00451431  -0.229834  0.381178  -0.0903028 
1703174150.794590000  0  0  11.5159  0.041179  -0.156231  0.0155581  nan  nan  nan  nan  nan  nan  -2.44568  -0.246714  1.00308  -0.134326  0.131518  -0.0574138  0.324886  0.31296  0.0355913  0  0  0  1.22488  1.13349  -0  0.00806332  0.00713083  0.00324365  -0.044213  -0.0387397  -0.0153267  0.00908812  0.00405787  -0.00456239  -0.192851  0.288315  -0.140762 
1703174150.799531000  0  0  11.612  0.0532623  -0.198243  0.0157768  nan  nan  nan  nan  nan  nan  -2.44404  -0.245135  1.00326  -0.134833  0.130024  -0.0578812  0.331023  0.318636  0.0355913  0  0  0  1.23005  1.1369  -0  0.00783519  0.00691371  0.00309039  -0.0425543  -0.0397814  -0.0218293  0.0083957  0.00747083  -0.00463171  -0.210794  0.339135  -0.142677 
1703174150.804583000  0  0  11.5585  0.075933  -0.168965  0.0119933  nan  nan  nan  nan  nan  nan  -2.44237  -0.243527  1.00344  -0.134983  0.133706  -0.0590016  0.337186  0.324329  0.0355913  0  0  0  1.23496  1.14006  -0  0.00763022  0.00681919  0.00308614  -0.0455022  -0.0380194  -0.0176589  0.00696208  0.00500224  -0.00416536  -0.242913  0.304755  -0.100694 
1703174150.809537000  0  0  11.4373  0.04106  -0.133496  0.0155365  nan  nan  nan  nan  nan  nan  -2.44066  -0.241891  1.00362  -0.137433  0.134043  -0.0599897  0.343372  0.330036  0.0355913  0  0  0  1.23963  1.14298  -0  0.00745094  0.00665871  0.00311804  -0.0431586  -0.0384068  -0.00897568  0.00867468  0.00501263  -0.00420935  -0.187839  0.228581  -0.144745 
1703174150.814590000  0  0  11.5812  0.0856824  -0.19087  0.0150594  nan  nan  nan  nan  nan  nan  -2.43893  -0.240227  1.0038  -0.135993  0.132772  -0.060235  0.349582  0.335758  0.0355913  0  0  0  1.24404  1.14564  -0  0.00725481  0.00648833  0.00296241  -0.0426508  -0.0378623  -0.0189869  0.00562871  0.0083188  -0.00449792  -0.248479  0.313571  -0.135264 
1703174150.819530000  0  0  11.5206  0.109623  -0.171306  0.0108218  nan  nan  nan  nan  nan  nan  -2.43717  -0.238534  1.00397  -0.136276  0.1367  -0.0614246  0.355812  0.341492  0.0355913  0  0  0  1.2482  1.14805  -0  0.0069747  0.00636316  0.00297215  -0.0456723  -0.0361319  -0.0143  0.0041678  0.00564202  -0.00390775  -0.283007  0.302415  -0.0890586 
1703174150.824581000  0  0  11.4823  0.0540035  -0.14462  0.0173461  nan  nan  nan  nan  nan  nan  -2.43537  -0.236812  1.00415  -0.138255  0.135242  -0.06212  0.362063  0.347238  0.0355913  0  0  0  1.25212  1.15021  -0  0.00678726  0.00618487  0.00292282  -0.0423307  -0.0373657  -0.0114808  0.00570794  0.0075343  -0.00430477  -0.181463  0.223425  -0.166364 
1703174150.829537000  0  0  11.5953  0.0921101  -0.188821  0.0161138  nan  nan  nan  nan  nan  nan  -2.43355  -0.235061  1.00433  -0.136684  0.133688  -0.0623176  0.368333  0.352994  0.0355913  0  0  0  1.25578  1.15212  -0  0.00654596  0.0060473  0.00269633  -0.0409233  -0.0364219  -0.0192492  0.00267804  0.0109767  -0.0045066  -0.228316  0.278601  -0.148426 
1703174150.834587000  0  0  11.4988  0.102981  -0.147581  0.011728  nan  nan  nan  nan  nan  nan  -2.43169  -0.233282  1.00451  -0.137717  0.137027  -0.0635449  0.374621  0.358759  0.0355913  0  0  0  1.25919  1.15378  -0  0.00636766  0.00595653  0.00274178  -0.0430145  -0.0353698  -0.0121087  0.00206443  0.00825146  -0.00381079  -0.244567  0.221523  -0.10163 
1703174150.839581000  0  0  11.5026  0.0548715  -0.126165  0.0171511  nan  nan  nan  nan  nan  nan  -2.4298  -0.231474  1.00469  -0.1392  0.136268  -0.0642775  0.380925  0.364531  0.0355913  0  0  0  1.26236  1.1552  -0  0.00616407  0.00576746  0.00267016  -0.0413109  -0.0365793  -0.0121533  0.00327533  0.00925869  -0.00425421  -0.155338  0.164015  -0.16452 
1703174150.844580000  0  0  11.5534  0.106074  -0.168871  0.0138434  nan  nan  nan  nan  nan  nan  -2.42788  -0.229637  1.00486  -0.137203  0.136055  -0.0646065  0.387244  0.37031  0.0355913  0  0  0  1.26527  1.15636  -0  0.00592267  0.00572884  0.00255222  -0.0407461  -0.0343999  -0.015713  -0.000186246  0.0110419  -0.00428951  -0.225306  0.235073  -0.122476 
1703174150.848593000  0  0  11.5135  0.0892446  -0.139321  0.00893202  nan  nan  nan  nan  nan  nan  -2.42593  -0.227771  1.00504  -0.139846  0.139738  -0.0661223  0.393577  0.376095  0.0355913  0  0  0  1.26793  1.15727  -0  0.00535851  0.00522258  0.00248493  -0.0433512  -0.0351249  -0.0120602  0.00149744  0.00787484  -0.00323075  -0.20859  0.208143  -0.0734419 
1703174150.854585000  0  0  11.5309  0.039789  -0.123055  0.0156415  nan  nan  nan  nan  nan  nan  -2.42395  -0.225876  1.00522  -0.139058  0.13769  -0.0663662  0.399923  0.381883  0.0355913  0  0  0  1.27035  1.15793  -0  0.00548045  0.00541962  0.00235736  -0.0409982  -0.034951  -0.0133401  0.000743192  0.0104085  -0.00401921  -0.0938673  0.144118  -0.148358 
1703174150.859529000  0  0  11.58  0.070233  -0.149126  0.0143279  nan  nan  nan  nan  nan  nan  -2.42193  -0.223952  1.0054  -0.138141  0.136765  -0.0667524  0.40628  0.387673  0.0355913  0  0  0  1.27251  1.15834  -0  0.00521436  0.0052962  0.00216281  -0.0395837  -0.0340774  -0.0165851  -0.00117837  0.0125443  -0.00402558  -0.137041  0.175449  -0.131754 
1703174150.864582000  0  0  11.5649  0.0641487  -0.131581  0.0119546  nan  nan  nan  nan  nan  nan  -2.41988  -0.221999  1.00558  -0.138735  0.138161  -0.0676718  0.412647  0.393466  0.0355913  0  0  0  1.27442  1.15851  -0  0.00501949  0.00514662  0.002095  -0.0405504  -0.0338923  -0.0151639  -0.00127925  0.011697  -0.00363352  -0.122834  0.147576  -0.106618 
1703174150.869532000  0  0  11.5423  0.0285402  -0.112123  0.0153712  nan  nan  nan  nan  nan  nan  -2.4178  -0.220017  1.00575  -0.139491  0.138712  -0.0685  0.419024  0.399258  0.0355913  0  0  0  1.27609  1.15842  -0  0.00477601  0.00508603  0.00205708  -0.0401694  -0.0341814  -0.0133552  -0.000404168  0.0112844  -0.00386159  -0.0565476  0.1106  -0.146857 
1703174150.874574000  0  0  11.5892  0.0470195  -0.152105  0.0147697  nan  nan  nan  nan  nan  nan  -2.41569  -0.218006  1.00593  -0.138396  0.137034  -0.0687615  0.425408  0.405049  0.0355913  0  0  0  1.2775  1.15808  -0  0.00460837  0.00494044  0.00195861  -0.0380828  -0.0331717  -0.0167618  -0.00206118  0.0140296  -0.00406459  -0.077109  0.164748  -0.136843 
1703174150.879579000  0  0  11.5794  0.0549075  -0.141969  0.0119637  nan  nan  nan  nan  nan  nan  -2.41355  -0.215967  1.00611  -0.138217  0.138964  -0.069651  0.431798  0.410839  0.0355913  0  0  0  1.27867  1.15749  -0  0.00441369  0.00485075  0.00198542  -0.0398786  -0.0322612  -0.0159246  -0.00293523  0.0125206  -0.0036536  -0.0839676  0.160375  -0.10649 
1703174150.883580000  0  0  11.5286  0.00955658  -0.115305  0.0140326  nan  nan  nan  nan  nan  nan  -2.41137  -0.213898  1.00629  -0.141636  0.140704  -0.0710293  0.438194  0.416624  0.0355913  0  0  0  1.27958  1.15665  -0  0.00382137  0.00429875  0.0019226  -0.0399505  -0.0341295  -0.0116515  0.000530669  0.0108388  -0.00326001  -0.0265967  0.122551  -0.137266 
1703174150.889535000  0  0  11.5888  0.0246177  -0.156047  0.0164565  nan  nan  nan  nan  nan  nan  -2.40917  -0.2118  1.00647  -0.138506  0.136672  -0.0706763  0.444594  0.422405  0.0355913  0  0  0  1.28024  1.15556  -0  0.00400625  0.00461504  0.00182066  -0.0358778  -0.0323901  -0.0165013  -0.00252612  0.0159009  -0.00413992  -0.0237252  0.151674  -0.157158 
1703174150.894587000  0  0  11.5708  0.0524012  -0.15012  0.00988999  nan  nan  nan  nan  nan  nan  -2.40693  -0.209674  1.00664  -0.137917  0.13888  -0.07155  0.450996  0.428179  0.0355913  0  0  0  1.28066  1.15423  -0  0.00379159  0.00452396  0.00169084  -0.0379089  -0.0308825  -0.0147799  -0.00390419  0.0145998  -0.00347563  -0.0674461  0.153934  -0.0825435 
1703174150.899528000  0  0  11.4566  0.00742842  -0.123601  0.013602  nan  nan  nan  nan  nan  nan  -2.40466  -0.207519  1.00682  -0.140207  0.138729  -0.0725051  0.4574  0.433946  0.0355913  0  0  0  1.28082  1.15264  -0  0.00359691  0.00433806  0.00168152  -0.0355275  -0.0317135  -0.00656074  -0.00133876  0.0146742  -0.00344917  -0.000526814  0.0962151  -0.129568 
1703174150.904581000  0  0  11.5899  0.0418381  -0.173565  0.0148004  nan  nan  nan  nan  nan  nan  -2.40235  -0.205334  1.007  -0.136934  0.136544  -0.0723992  0.463804  0.439705  0.0355913  0  0  0  1.28073  1.1508  -0  0.00347366  0.00434549  0.00166666  -0.0343472  -0.0298738  -0.0164792  -0.00491213  0.0178735  -0.00404416  -0.0332006  0.166545  -0.137475 
1703174150.909533000  0  0  11.5892  0.0698593  -0.167591  0.0100101  nan  nan  nan  nan  nan  nan  -2.40002  -0.203121  1.00718  -0.136156  0.138624  -0.0732276  0.470207  0.445454  0.0355913  0  0  0  1.2804  1.14871  -0  0.00320768  0.00426475  0.00161652  -0.0364343  -0.0285164  -0.0161687  -0.00635201  0.0165419  -0.00352276  -0.07672  0.169053  -0.0834872 
1703174150.914588000  0  0  11.5088  0.00244048  -0.138159  0.0168517  nan  nan  nan  nan  nan  nan  -2.39765  -0.20088  1.00736  -0.138038  0.13711  -0.0739391  0.476607  0.451192  0.0355913  0  0  0  1.27981  1.14637  -0  0.00307294  0.00413179  0.00159361  -0.0330569  -0.0297703  -0.0104852  -0.00373133  0.0178566  -0.00392627  0.0376933  0.0908192  -0.164705 
1703174150.919529000  0  0  11.5995  0.0408816  -0.1723  0.0167055  nan  nan  nan  nan  nan  nan  -2.39525  -0.19861  1.00753  -0.135231  0.135668  -0.074009  0.483005  0.456917  0.0355913  0  0  0  1.27897  1.14379  -0  0.00294329  0.00410567  0.00158932  -0.0322479  -0.0277834  -0.0173216  -0.00686647  0.0200372  -0.00438767  -0.00866628  0.138938  -0.157304 
