ts fx fy fz tx ty tz exfx exfy exfz extx exty extz xd yd zd rolld pitchd yawd vxd vyd vzd wxd wyd wzd axd ayd azd e_x e_y e_z e_vx e_vy e_vz e_rx e_ry e_rz e_wx e_wy e_wz
1701770382.387964000  0  0  11.9337  0.0522891  0.0158203  0.00561013  nan  nan  nan  nan  nan  nan  -2  -1  1.5  -0.00253176  0.0439943  -0.000111347  0  0  0  0  0  0  0  0  0  -0.00821011  -0.00489344  -0.0220976  -0.0400737  0.00752365  0.00324436  -0.00613251  -0.00587302  -0.00910922  -0.0481591  0.0223912  0.0209656 
1701770382.391964000  0  0  11.887  0.0491752  0.0245693  0.00615242  nan  nan  nan  nan  nan  nan  -2  -1  1.5  -0.0018754  0.0432771  -8.11367e-05  0  0  0  0  0  0  0  0  0  -0.00836488  -0.00486021  -0.0220443  -0.0385552  0.00832801  0.00698669  -0.00682735  -0.00534194  -0.00913037  -0.0355388  7.38212e-06  0.0143985 
1701770382.396969000  0  0  11.8891  0.0681872  0.0132009  0.00609782  nan  nan  nan  nan  nan  nan  -2  -1  1.5  -0.0018627  0.0424946  -7.91309e-05  0  0  0  0  0  0  0  0  0  -0.00857944  -0.00492802  -0.0220437  -0.0370556  0.00849487  0.00678171  -0.00741815  -0.00444823  -0.00909094  -0.0681273  0.0145219  0.0146866 
1701770382.402412000  0  0  11.9257  0.0660567  0.0125121  0.00660078  nan  nan  nan  nan  nan  nan  -2  -1  1.5  -0.00178351  0.0418426  -7.46049e-05  0  0  0  0  0  0  0  0  0  -0.00885164  -0.00498827  -0.0221248  -0.0357606  0.00872579  0.00386824  -0.00784951  -0.00377503  -0.00910793  -0.0598979  0.00970598  0.00856958 
1701770382.406939000  0  0  11.8823  0.0577991  0.020637  0.00649291  nan  nan  nan  nan  nan  nan  -2  -1  1.5  -0.00102291  0.0408947  -4.182e-05  0  0  0  0  0  0  0  0  0  -0.0090071  -0.00494512  -0.0220733  -0.0339627  0.00964086  0.00733677  -0.00858578  -0.00307491  -0.00909002  -0.0366091  -0.0129848  0.00973888 
1701770382.411984000  0  0  11.8863  0.0796546  0.001773  0.00558563  nan  nan  nan  nan  nan  nan  -2  -1  1.5  -0.000758931  0.0398603  -3.02432e-05  0  0  0  0  0  0  0  0  0  -0.0091742  -0.00489938  -0.0220453  -0.0322449  0.00988674  0.00689714  -0.00946144  -0.00179416  -0.00893189  -0.072264  0.0129603  0.0194986 
1701770382.416950000  0  0  11.9052  0.0681229  0.00584413  0.0053403  nan  nan  nan  nan  nan  nan  -2  -1  1.5  -0.000740488  0.0393297  -2.91157e-05  0  0  0  0  0  0  0  0  0  -0.00939162  -0.00495836  -0.0221042  -0.031144  0.0100405  0.0054271  -0.00956691  -0.0013853  -0.00885918  -0.0482303  0.00105653  0.0218381 
1701770382.422949000  0  0  11.8844  0.0525421  0.0174195  0.0052227  nan  nan  nan  nan  nan  nan  -2  -1  1.5  -0.000548346  0.038312  -2.10031e-05  0  0  0  0  0  0  0  0  0  -0.00961446  -0.00500217  -0.0221117  -0.0292153  0.0103929  0.00712885  -0.00961947  -0.000773991  -0.00873602  -0.016585  -0.0277183  0.0220765 
1701770382.427086000  0  0  11.9117  0.060092  0.00152023  0.00428354  nan  nan  nan  nan  nan  nan  -2  -1  1.5  -0.00114314  0.0375799  -4.29488e-05  0  0  0  0  0  0  0  0  0  -0.00976357  -0.00507105  -0.0221508  -0.0280316  0.00975811  0.00491441  -0.00931955  0.000101367  -0.00852594  -0.0344441  -0.00397303  0.0317152 
1701770382.433130000  0  0  11.9018  0.0280173  0.0173377  0.00401431  nan  nan  nan  nan  nan  nan  -2  -1  1.5  -0.000564875  0.0364599  -2.05907e-05  0  0  0  0  0  0  0  0  0  -0.00992846  -0.0050092  -0.0221149  -0.0261435  0.0103855  0.00562722  -0.00936409  0.000783833  -0.00832652  0.0301151  -0.0418867  0.0330863 
1701770382.437022000  0  0  11.9127  0.0193281  0.0206559  0.00371146  nan  nan  nan  nan  nan  nan  -2  -1  1.5  -0.000779417  0.0356891  -2.78108e-05  0  0  0  0  0  0  0  0  0  -0.0100636  -0.0050762  -0.0221838  -0.0248677  0.01025  0.00483409  -0.00887637  0.0012275  -0.00820459  0.0430063  -0.0526049  0.0356526 
1701770382.441963000  0  0  11.9333  0.0257766  0.00979292  0.00331267  nan  nan  nan  nan  nan  nan  -2  -1  1.5  -0.00073613  0.0345898  -2.54576e-05  0  0  0  0  0  0  0  0  0  -0.0101828  -0.00502889  -0.0221745  -0.023228  0.0102004  0.00305952  -0.00888978  0.00223535  -0.00798616  0.0302327  -0.040151  0.0384532 
1701770382.447063000  0  0  11.92  -0.00702673  0.0164293  0.00355294  nan  nan  nan  nan  nan  nan  -2  -1  1.5  -0.00107676  0.0338923  -3.6487e-05  -6e-07  -6e-07  6e-07  0  0  0  -0.000375  -0.000375  0.000375  -0.0103253  -0.00509477  -0.0221969  -0.0219846  0.00984874  0.00423802  -0.00774683  0.0025382  -0.00783744  0.0853243  -0.0562101  0.0339626 
1701770382.452341000  0  0  11.9138  -0.0172871  0.0200212  0.00348922  nan  nan  nan  nan  nan  nan  -2  -1  1.5  -0.00133591  0.0325779  -4.35136e-05  -5e-06  -5e-06  5e-06  0  0  0  -0.0015  -0.0015  0.0014996  -0.0104627  -0.0051545  -0.0222349  -0.0200622  0.00949402  0.00490405  -0.00687662  0.00336183  -0.00766421  0.097839  -0.0709713  0.0330268 
1701770382.457059000  0  0  11.9237  -0.00586966  0.0132186  0.0034526  nan  nan  nan  nan  nan  nan  -2  -1  1.5  -0.0010354  0.0313106  -3.24139e-05  -1.69e-05  -1.69e-05  1.55e-05  0  0  0  -0.003375  -0.003375  0.0025892  -0.0105538  -0.00511051  -0.0222216  -0.0184598  0.00955011  0.00411423  -0.007012  0.00435139  -0.00752513  0.0762497  -0.06647  0.0320938 
1701770382.462040000  0  0  11.9268  -0.022971  0.0165596  0.00471463  nan  nan  nan  nan  nan  nan  -2  -1  1.5  -0.000843557  0.0304177  -2.55551e-05  -4e-05  -4e-05  2.96e-05  0  0  0  -0.006  -0.006  0.0029289  -0.0106707  -0.00516992  -0.0222725  -0.0173673  0.00959649  0.0039661  -0.00645976  0.00480328  -0.00757512  0.105372  -0.0773095  0.0168183 
1701770382.467056000  0  0  11.8984  -0.0249626  0.0252599  0.00610438  nan  nan  nan  nan  nan  nan  -2  -1  1.5  -0.000271346  0.0287063  -7.58828e-06  -7.81e-05  -7.81e-05  4.36e-05  0  0  0  -0.009375  -0.009375  0.0025185  -0.0107498  -0.00512193  -0.0222341  -0.0152705  0.00981214  0.00615169  -0.00644966  0.00575757  -0.00772198  0.109262  -0.103489  0.00091499 
1701770382.471956000  0  0  11.9506  -0.011457  0.0156167  0.00585059  nan  nan  nan  nan  nan  nan  -2  -1  1.5  -0.000100096  0.0272981  -2.33209e-06  -0.000135  -0.000135  5.36e-05  0  0  0  -0.0135  -0.0135  0.0013619  -0.010845  -0.00519054  -0.0223182  -0.0138892  0.00965721  0.00182518  -0.00647673  0.00678908  -0.00769179  0.0824999  -0.0936929  0.00378552 
1701770382.477384000  0  0  11.9084  -0.0113967  0.0209444  0.00563462  nan  nan  nan  nan  nan  nan  -2  -1  1.5  0.000537621  0.0258149  1.44771e-05  -0.0002144  -0.0002144  5.74e-05  0  0  0  -0.018375  -0.018375  0.0003076  -0.0109226  -0.0052542  -0.0223163  -0.012257  0.0100124  0.00518869  -0.00664868  0.00751787  -0.00769567  0.0839612  -0.111053  0.00652398 
1701770382.481920000  0  0  11.8618  -0.00216088  0.0197644  0.00533597  nan  nan  nan  nan  nan  nan  -2  -1  1.5  0.00139443  0.0239266  3.41609e-05  -0.00032  -0.00032  5.79e-05  0  0  0  -0.024  -0.024  -3.3e-06  -0.0109718  -0.00521052  -0.0222628  -0.0102534  0.0103145  0.00887205  -0.00729744  0.00876568  -0.00764444  0.0714582  -0.120173  0.0097448 
1701770382.486937000  0  0  11.9399  0.0131644  0.00434515  0.0048548  nan  nan  nan  nan  nan  nan  -2.00001  -1.00001  1.5  0.0024734  0.0222697  5.60774e-05  -0.0004549  -0.0004556  5.71e-05  0  0  0  -0.0298319  -0.030375  -0.0004491  -0.0110154  -0.00514989  -0.0222891  -0.00892049  0.010799  0.00232159  -0.00834451  0.010047  -0.00754942  0.0504407  -0.101123  0.0148093 
1701770382.491930000  0  0  11.9002  0.018387  0.00691844  0.00459717  nan  nan  nan  nan  nan  nan  -2.00001  -1.00001  1.5  0.00346664  0.0205783  7.2533e-05  -0.0006171  -0.000625  5.22e-05  0  0  0  -0.0349304  -0.0375  -0.0016448  -0.0110734  -0.00521235  -0.0223159  -0.00711688  0.0113194  0.00551144  -0.00914216  0.0110666  -0.0074741  0.0473338  -0.115649  0.0172763 
1701770382.496953000  0  0  11.8575  0.0381068  0.00652668  0.00393046  nan  nan  nan  nan  nan  nan  -2.00001  -1.00001  1.5  0.00407287  0.0186022  7.71603e-05  -0.0008029  -0.0008318  3.94e-05  0  0  0  -0.0392789  -0.0452796  -0.0035905  -0.0111146  -0.00528028  -0.0223387  -0.00488686  0.0112476  0.00887251  -0.00995279  0.0123402  -0.00731051  0.0153521  -0.126583  0.0239743 
1701770382.502128000  0  0  11.9394  0.0487749  -0.00325844  0.00387016  nan  nan  nan  nan  nan  nan  -2.00002  -1.00002  1.5  0.00488377  0.0171705  8.55535e-05  -0.0010086  -0.0010769  1.5e-05  0  0  0  -0.0428774  -0.0526197  -0.0062863  -0.0111504  -0.00532756  -0.0224763  -0.00354298  0.0115172  0.00202683  -0.0109181  0.0132584  -0.00722488  0.00289696  -0.11546  0.0238718 
1701770382.507929000  0  0  11.8771  0.0594533  0.000520724  0.00352675  nan  nan  nan  nan  nan  nan  -2.00002  -1.00002  1.5  0.00594493  0.0156278  9.49035e-05  -0.0012224  -0.0013394  -1.7e-05  0  0  0  -0.0425024  -0.0522447  -0.0066612  -0.0111696  -0.00526107  -0.022413  -0.00129761  0.0127848  0.00701428  -0.0120928  0.0139464  -0.00706677  -0.00765253  -0.129348  0.0265833 
1701770382.512948000  0  0  11.8705  0.0729776  -0.00601028  0.00393888  nan  nan  nan  nan  nan  nan  -2.00003  -1.00003  1.5  0.00589122  0.0141653  8.57492e-05  -0.0014324  -0.0015981  -5.29e-05  0  0  0  -0.0413774  -0.0511197  -0.0077862  -0.0111564  -0.00531063  -0.0224403  0.000758547  0.0129656  0.00747314  -0.0124329  0.0148378  -0.00700274  -0.0315726  -0.124487  0.0207913 
1701770382.517944000  0  0  11.8997  0.0737539  -0.00980074  0.00475404  nan  nan  nan  nan  nan  nan  -2.00004  -1.00004  1.5  0.00662674  0.0131872  9.00868e-05  -0.0016349  -0.0018493  -9.62e-05  0  0  0  -0.0395024  -0.0492447  -0.0096612  -0.0111493  -0.00524015  -0.0224367  0.00223206  0.0140432  0.00482036  -0.0132724  0.0152494  -0.00703296  -0.0254022  -0.120693  0.0109041 
1701770382.521948000  0  0  11.8856  0.0703832  -0.011048  0.00508712  nan  nan  nan  nan  nan  nan  -2.00004  -1.00005  1.5  0.00649586  0.0121265  8.20714e-05  -0.0018262  -0.0020893  -0.0001507  0  0  0  -0.0368774  -0.0466197  -0.0122863  -0.0111264  -0.00529053  -0.0224573  0.00394213  0.0143114  0.00576702  -0.0131808  0.0157742  -0.00707411  -0.0195029  -0.123026  0.00715205 
1701770382.527285000  0  0  11.8749  0.0761518  -0.011738  0.00552825  nan  nan  nan  nan  nan  nan  -2.00005  -1.00006  1.5  0.0057817  0.0106629  6.55495e-05  -0.0020024  -0.0023142  -0.0002203  0  0  0  -0.0335024  -0.0432447  -0.0156613  -0.011079  -0.00533014  -0.0224759  0.00621874  0.0138859  0.00634076  -0.0128015  0.0164978  -0.00712231  -0.0345298  -0.128304  0.00211994 
1701770382.531936000  0  0  11.9161  0.0650505  -0.0105669  0.00567741  nan  nan  nan  nan  nan  nan  -2.00006  -1.00007  1.5  0.00635319  0.0100933  6.88245e-05  -0.0021599  -0.0025205  -0.0003086  0  0  0  -0.0293774  -0.0391197  -0.0197863  -0.011051  -0.00525992  -0.0224849  0.00739486  0.0150462  0.00251782  -0.0132018  0.0164444  -0.00713872  -0.00864477  -0.130155  0.000419575 
1701770382.537069000  0  0  11.8617  0.0490903  0.000809175  0.00549539  nan  nan  nan  nan  nan  nan  -2.00008  -1.00008  1.5  0.00616207  0.00902341  6.14029e-05  -0.0022949  -0.0027042  -0.0004194  0  0  0  -0.0245024  -0.0342447  -0.0246613  -0.0109978  -0.0051899  -0.0224305  0.00937798  0.0152303  0.00645985  -0.0126845  0.0165311  -0.00709488  0.0185172  -0.153704  0.00225642 
1701770382.542074000  0  0  11.8896  0.0369704  0.000321723  0.00528019  nan  nan  nan  nan  nan  nan  -2.00009  -1.0001  1.49999  0.00531952  0.00817348  5.05789e-05  -0.0024037  -0.0028617  -0.0005564  0  0  0  -0.0188774  -0.0286197  -0.0302863  -0.0109251  -0.00521914  -0.0224765  0.0110386  0.0149281  0.00368363  -0.0116045  0.0165974  -0.00707969  0.0328205  -0.15334  0.00479447 
1701770382.547072000  0  0  11.898  0.018462  0.00391225  0.00483295  nan  nan  nan  nan  nan  nan  -2.0001  -1.00011  1.49999  0.00474907  0.0076373  4.517e-05  -0.0024825  -0.0029891  -0.0007235  0  0  0  -0.0125024  -0.0222447  -0.0366613  -0.0108441  -0.00525688  -0.0225302  0.0123838  0.0150864  0.00248946  -0.0105413  0.0163116  -0.00703219  0.0600556  -0.157891  0.00991007 
1701770382.552126000  0  0  11.8483  0.00548398  0.0161597  0.0042787  nan  nan  nan  nan  nan  nan  -2.00011  -1.00013  1.49999  0.00346104  0.00676222  3.44042e-05  -0.0025275  -0.0030829  -0.0009243  0  0  0  -0.0053774  -0.0151197  -0.0437863  -0.0107537  -0.00528612  -0.0226132  0.0142984  0.01435  0.00612487  -0.00885134  0.0161579  -0.00692361  0.0704644  -0.180972  0.0157524 
1701770382.557069000  0  0  11.8606  -0.010216  0.0221513  0.00389546  nan  nan  nan  nan  nan  nan  -2.00012  -1.00014  1.49998  0.00284732  0.00632425  3.18071e-05  -0.002535  -0.0031391  -0.0011626  0  0  0  0.0024976  -0.0072447  -0.0516613  -0.0106826  -0.00522086  -0.0226011  0.0157261  0.0144184  0.0043223  -0.0076471  0.0156079  -0.00679965  0.0907854  -0.187895  0.0193032 
1701770382.562156000  0  0  11.8572  -0.025745  0.0203945  0.00422062  nan  nan  nan  nan  nan  nan  -2.00014  -1.00016  1.49998  0.00187074  0.005997  2.83188e-05  -0.0025013  -0.0031541  -0.0014422  0  0  0  0.0111226  0.0013803  -0.0602863  -0.0105606  -0.00525067  -0.0226482  0.0170035  0.0143112  0.00388651  -0.00600794  0.0150929  -0.0067938  0.106763  -0.179644  0.0151803 
1701770382.566971000  0  0  11.7916  -0.0318788  0.0387236  0.00502807  nan  nan  nan  nan  nan  nan  -2.00015  -1.00018  1.49997  0.000933069  0.00573008  2.66465e-05  -0.0024225  -0.003124  -0.0017667  0  0  0  0.0204976  0.0107553  -0.0696613  -0.0104764  -0.00517916  -0.0225905  0.0184213  0.0141215  0.00833843  -0.0045703  0.0141955  -0.0068197  0.105804  -0.208046  0.0053461 
1701770382.571973000  0  0  11.825  -0.045093  0.0481972  0.00588041  nan  nan  nan  nan  nan  nan  -2.00016  -1.00019  1.49996  -0.000310118  0.00551387  2.45901e-05  -0.002295  -0.0030453  -0.00214  0  0  0  0.0306226  0.0208803  -0.0797863  -0.0103342  -0.00521282  -0.0227006  0.0196768  0.0138746  0.00482308  -0.00266814  0.013239  -0.00695416  0.114733  -0.218193  -0.00396348 
1701770382.577081000  0  0  11.8113  -0.0482298  0.0423588  0.00579988  nan  nan  nan  nan  nan  nan  -2.00017  -1.00021  1.49995  -0.00170711  0.00557696  2.28796e-05  -0.002115  -0.002914  -0.0025658  0  0  0  0.0414976  0.0317553  -0.0906613  -0.0101945  -0.00524817  -0.0227452  0.0206974  0.0135254  0.00502044  -0.000829301  0.0123439  -0.0069665  0.104089  -0.198282  -0.00283357 
1701770382.581988000  0  0  11.7534  -0.0511519  0.0533335  0.00597425  nan  nan  nan  nan  nan  nan  -2.00018  -1.00022  1.49993  -0.00283706  0.00558956  2.38421e-05  -0.0018788  -0.0027265  -0.0030479  0  0  0  0.0531226  0.0433803  -0.102286  -0.0100873  -0.00518663  -0.0226836  0.021981  0.0134261  0.00860566  0.000704  0.0112169  -0.0069992  0.0958271  -0.209863  -0.00468613 
1701770382.586984000  0  0  11.7661  -0.0554463  0.0681267  0.00602224  nan  nan  nan  nan  nan  nan  -2.00019  -1.00023  1.49992  -0.00442408  0.00579643  2.26561e-05  -0.0015826  -0.0024789  -0.00359  0  0  0  0.0654976  0.0557553  -0.114661  -0.00992977  -0.0052417  -0.0227124  0.0229518  0.0130688  0.00642198  0.00263061  0.00976464  -0.00704731  0.086691  -0.226088  -0.00480488 
1701770382.592939000  0  0  11.7313  -0.0469298  0.0637731  0.00586248  nan  nan  nan  nan  nan  nan  -2.0002  -1.00024  1.4999  -0.00544007  0.00609628  2.51357e-05  -0.0012226  -0.0021677  -0.0041958  0  0  0  0.0786226  0.0688803  -0.127786  -0.009789  -0.00516557  -0.0226669  0.0239668  0.0132884  0.00797206  0.00379538  0.00842093  -0.00704737  0.0589421  -0.205019  -0.00280736 
1701770382.596976000  0  0  11.6949  -0.0498283  0.0695881  0.00603026  nan  nan  nan  nan  nan  nan  -2.0002  -1.00025  1.49987  -0.00738455  0.00643755  2.25611e-05  -0.0007951  -0.0017889  -0.0048691  0  0  0  0.0924976  0.0827553  -0.141661  -0.00965414  -0.00521076  -0.0227373  0.0250414  0.012677  0.00982066  0.0058206  0.00728639  -0.00711354  0.0461071  -0.206211  -0.00424293 
1701770382.602246000  0  0  11.725  -0.0393411  0.0642761  0.00564698  nan  nan  nan  nan  nan  nan  -2.00021  -1.00026  1.49985  -0.00896578  0.00678507  2.28654e-05  -0.0002963  -0.0013388  -0.0056136  0  0  0  0.107123  0.0973803  -0.156286  -0.00946143  -0.00524082  -0.0228301  0.0260289  0.012549  0.00610636  0.00718863  0.00616014  -0.00710083  0.0125469  -0.185225  0.000420977 
1701770382.607104000  0  0  11.6443  -0.0198665  0.0579688  0.00576746  nan  nan  nan  nan  nan  nan  -2.00021  -1.00027  1.49982  -0.0103508  0.00779923  1.86695e-05  0.0002774  -0.0008138  -0.0064332  0  0  0  0.122498  0.112755  -0.171661  -0.00933525  -0.00517355  -0.0227578  0.0264841  0.0126747  0.0112055  0.00806258  0.00459148  -0.00710236  -0.0344427  -0.158179  -0.00106965 
1701770382.611956000  0  0  11.6179  -0.0252377  0.0655532  0.00633009  nan  nan  nan  nan  nan  nan  -2.0002  -1.00027  1.49978  -0.0125536  0.00818241  1.45774e-05  0.0009299  -0.00021  -0.0073315  0  0  0  0.138623  0.12888  -0.187786  -0.00915735  -0.00521195  -0.0227607  0.027701  0.0120306  0.0118714  0.00998813  0.00344635  -0.0071916  -0.0414154  -0.162813  -0.00721016 
1701770382.616957000  0  0  11.6316  -0.0181597  0.0587526  0.00614888  nan  nan  nan  nan  nan  nan  -2.0002  -1.00027  1.49974  -0.0137099  0.00919685  1.16055e-05  0.0016649  0.0004762  -0.0083123  0  0  0  0.155498  0.145755  -0.204661  -0.00901157  -0.00514488  -0.0227395  0.0282343  0.0125485  0.00906661  0.0106908  0.00195453  -0.00719634  -0.062036  -0.135487  -0.00489763 
1701770382.622005000  0  0  11.598  -0.00668276  0.0481005  0.00508739  nan  nan  nan  nan  nan  nan  -2.00019  -1.00027  1.4997  -0.0158472  0.0100868  8.42705e-07  0.0024861  0.0012488  -0.0093793  0  0  0  0.173123  0.16338  -0.222286  -0.00881059  -0.00516997  -0.0227522  0.0289528  0.0121787  0.010206  0.0120106  0.00087014  -0.00706853  -0.0971321  -0.104206  0.00709297 
1701770382.627404000  0  0  11.5179  -0.00211763  0.0556834  0.00590515  nan  nan  nan  nan  nan  nan  -2.00017  -1.00026  1.49965  -0.0183756  0.0106164  -8.40047e-06  0.0033973  0.0021113  -0.0105364  0  0  0  0.191498  0.181755  -0.240661  -0.00859771  -0.00518601  -0.0227459  0.0302665  0.0114941  0.0151198  0.0136363  -0.000205831  -0.00717539  -0.121219  -0.109473  -0.00206048 
1701770382.631984000  0  0  11.5314  -0.00180712  0.0501972  0.00622313  nan  nan  nan  nan  nan  nan  -2.00015  -1.00024  1.49959  -0.0199505  0.0121721  -2.70664e-05  0.0044023  0.0030676  -0.0117872  0  0  0  0.210623  0.20088  -0.259786  -0.00846199  -0.00513617  -0.0227115  0.030427  0.0118093  0.0120994  0.0145622  -0.00192201  -0.00722922  -0.130358  -0.0827118  -0.00549685 
1701770382.636930000  0  0  11.4854  0.00562672  0.0445805  0.00691072  nan  nan  nan  nan  nan  nan  -2.00013  -1.00023  1.49953  -0.0224548  0.0132484  -4.94302e-05  0.0055048  0.0041213  -0.0131355  0  0  0  0.230498  0.220755  -0.279661  -0.00824661  -0.00514594  -0.0227275  0.0312054  0.0113056  0.014082  0.0160232  -0.00303727  -0.00736273  -0.158667  -0.0612181  -0.0127566 
1701770382.641935000  0  0  11.4081  0.00887121  0.0552213  0.00743141  nan  nan  nan  nan  nan  nan  -2.0001  -1.0002  1.49946  -0.0249398  0.0146964  -8.2689e-05  0.0067086  0.0052764  -0.0145851  0  0  0  0.251123  0.24138  -0.300286  -0.00808626  -0.00509761  -0.0226275  0.0317922  0.0109064  0.0183556  0.0174522  -0.00483418  -0.00750055  -0.178302  -0.065968  -0.0178871 
1701770382.646993000  0  0  11.4699  0.00714839  0.0382655  0.00811972  nan  nan  nan  nan  nan  nan  -2.00006  -1.00017  1.49939  -0.0266599  0.0159651  -0.000102411  0.0080173  0.0065364  -0.0161396  0  0  0  0.272498  0.262755  -0.321661  -0.00783052  -0.00511121  -0.0226751  0.0322684  0.0113356  0.0112785  0.0182178  -0.00581285  -0.00771278  -0.181901  -0.0230527  -0.0243687 
1701770382.652320000  0  0  11.4009  0.0160935  0.0349173  0.00865821  nan  nan  nan  nan  nan  nan  -2.00002  -1.00014  1.4993  -0.0295596  0.017117  -0.000139593  0.0094348  0.0079052  -0.0178029  0  0  0  0.294623  0.28488  -0.343786  -0.00754697  -0.00511699  -0.0226389  0.0331603  0.0107394  0.0148755  0.0196802  -0.00677587  -0.0079158  -0.213245  -0.0074966  -0.0290696 
1701770382.656991000  0  0  11.348  0.00873526  0.0492879  0.00953287  nan  nan  nan  nan  nan  nan  -1.99997  -1.00009  1.49921  -0.0324364  0.0192546  -0.000211131  0.0109648  0.0093864  -0.0195787  0  0  0  0.317498  0.307755  -0.366661  -0.00739356  -0.00507909  -0.0225551  0.033179  0.010158  0.0169538  0.0215416  -0.00903484  -0.00816032  -0.215653  -0.0154553  -0.0375577 
1701770382.662127000  0  0  11.3781  0.0128928  0.0341258  0.00952746  nan  nan  nan  nan  nan  nan  -1.99991  -1.00004  1.4991  -0.0346826  0.021205  -0.000270985  0.012611  0.010984  -0.0214708  0  0  0  0.341123  0.33138  -0.390286  -0.00714361  -0.00507922  -0.0226318  0.0331454  0.0102648  0.0123988  0.0224508  -0.0104196  -0.00834946  -0.232333  0.0276086  -0.0355986 
1701770382.667000000  0  0  11.3168  0.0162327  0.0326455  0.00910696  nan  nan  nan  nan  nan  nan  -1.99984  -0.999984  1.49899  -0.0377627  0.0235852  -0.000370881  0.0143772  0.0127015  -0.0234829  0  0  0  0.365498  0.355755  -0.414661  -0.00698441  -0.00503006  -0.0225473  0.0330901  0.00967036  0.0150565  0.0241362  -0.012373  -0.00842764  -0.254518  0.0485409  -0.0295605 
1701770382.671934000  0  0  11.2818  -0.0022175  0.0489027  0.00881171  nan  nan  nan  nan  nan  nan  -1.99976  -0.999916  1.49887  -0.0413359  0.0254344  -0.000472042  0.0162672  0.0145428  -0.0256187  0  0  0  0.390623  0.38088  -0.439786  -0.00672729  -0.00504366  -0.0225867  0.0335355  0.00861655  0.0157151  0.0265928  -0.0140858  -0.0085189  -0.240219  0.0317838  -0.0249573 
1701770382.677369000  0  0  11.321  -0.000922714  0.0357544  0.00811801  nan  nan  nan  nan  nan  nan  -1.99968  -0.999838  1.49874  -0.0439812  0.027571  -0.000569435  0.0182847  0.0165116  -0.027882  0  0  0  0.416498  0.406755  -0.465661  -0.00643551  -0.00503968  -0.0226759  0.0334297  0.00844749  0.0102459  0.0277551  -0.0154362  -0.00854854  -0.253501  0.070504  -0.0159897 
1701770382.681940000  0  0  11.2421  -0.00575961  0.0478898  0.00833424  nan  nan  nan  nan  nan  nan  -1.99958  -0.99975  1.49859  -0.0479423  0.0304039  -0.000746122  0.0204335  0.0186116  -0.0302763  0  0  0  0.443123  0.43338  -0.492044  -0.00629068  -0.00501387  -0.0225755  0.0332437  0.00727267  0.0141847  0.030386  -0.0179183  -0.00859945  -0.268032  0.0690688  -0.0181835 
1701770382.686927000  0  0  11.2184  -0.0267512  0.0676472  0.0088851  nan  nan  nan  nan  nan  nan  -1.99947  -0.999652  1.49843  -0.0516404  0.0327771  -0.000908225  0.0227172  0.0208466  -0.0328013  0  0  0  0.470498  0.460755  -0.517817  -0.00602933  -0.00502333  -0.0226065  0.0333139  0.00635127  0.0138494  0.0329664  -0.0201238  -0.00873861  -0.249788  0.0498446  -0.0236777 
1701770382.691969000  0  0  11.2598  -0.0299943  0.0521186  0.0080788  nan  nan  nan  nan  nan  nan  -1.99935  -0.999542  1.49826  -0.0546897  0.0364452  -0.00113132  0.0251397  0.0232204  -0.0354532  0  0  0  0.498623  0.48888  -0.542839  -0.00586987  -0.004988  -0.022597  0.0318427  0.00586361  0.00811942  0.0346722  -0.0227747  -0.00868067  -0.258995  0.10529  -0.0141784 
1701770382.696987000  0  0  11.1501  -0.041978  0.0731382  0.00750822  nan  nan  nan  nan  nan  nan  -1.99922  -0.999419  1.49808  -0.0593686  0.0399229  -0.00142632  0.0277047  0.0257367  -0.0382284  0  0  0  0.527498  0.517755  -0.567112  -0.00570514  -0.00496538  -0.0224922  0.0313255  0.00442428  0.0148741  0.0379624  -0.0258579  -0.00857386  -0.265298  0.0916164  -0.00811409 
1701770382.702918000  0  0  11.141  -0.0588143  0.0916812  0.00814608  nan  nan  nan  nan  nan  nan  -1.99908  -0.999284  1.49788  -0.0629831  0.0431422  -0.00168658  0.0304159  0.0283992  -0.0411231  0  0  0  0.557123  0.54738  -0.590635  -0.00548801  -0.00491374  -0.0224588  0.0307087  0.00373323  0.0134528  0.0402476  -0.0287224  -0.00866353  -0.252649  0.0808838  -0.0151906 
1701770382.707914000  0  0  11.1248  -0.0562293  0.0774906  0.00884912  nan  nan  nan  nan  nan  nan  -1.99892  -0.999135  1.49767  -0.0670933  0.047208  -0.00204531  0.0332772  0.0312117  -0.0441335  0  0  0  0.587498  0.577755  -0.613407  -0.00534026  -0.00489618  -0.0224061  0.0293327  0.00267014  0.0127242  0.0427533  -0.0316369  -0.00873178  -0.280872  0.136078  -0.0232962 
1701770382.711936000  0  0  11.0043  -0.0788567  0.10742  0.00904583  nan  nan  nan  nan  nan  nan  -1.99874  -0.998972  1.49744  -0.072587  0.0519938  -0.0025562  0.0362921  0.034178  -0.0472559  0  0  0  0.618623  0.60888  -0.63543  -0.00526321  -0.00492045  -0.0222451  0.0279202  0.000946965  0.0205262  0.0471834  -0.0360851  -0.00868763  -0.276374  0.117142  -0.0261966 
1701770382.717937000  0  0  11.0563  -0.087762  0.113601  0.00956144  nan  nan  nan  nan  nan  nan  -1.99855  -0.998793  1.49719  -0.0761033  0.0549607  -0.00286385  0.0394646  0.0373018  -0.0504865  0  0  0  0.650498  0.640755  -0.656702  -0.00494095  -0.00492686  -0.0223427  0.0273516  0.000359439  0.0145689  0.0490966  -0.0382963  -0.00886386  -0.276164  0.125124  -0.0308793 
1701770382.721994000  0  0  11.0428  -0.0894419  0.11563  0.00915136  nan  nan  nan  nan  nan  nan  -1.99835  -0.998598  1.49693  -0.0813486  0.0591825  -0.00339051  0.0427984  0.0405868  -0.0538217  0  0  0  0.683123  0.67338  -0.677225  -0.00474232  -0.00502709  -0.022317  0.025978  -0.00149486  0.013958  0.0527975  -0.0415961  -0.00876161  -0.306853  0.151425  -0.026776 
1701770382.726990000  0  0  10.9312  -0.106436  0.141124  0.00882974  nan  nan  nan  nan  nan  nan  -1.99812  -0.998387  1.49666  -0.0873362  0.0632989  -0.00399502  0.0462971  0.0440368  -0.0572575  0  0  0  0.716498  0.706755  -0.696998  -0.00448942  -0.00508893  -0.0223116  0.0254002  -0.0032779  0.0216409  0.0570933  -0.0450726  -0.00865047  -0.312386  0.13242  -0.0238671 
1701770382.732922000  0  0  10.9784  -0.110563  0.146747  0.00944109  nan  nan  nan  nan  nan  nan  -1.99788  -0.998158  1.49636  -0.0912927  0.0663745  -0.00441147  0.0499643  0.0476554  -0.0607904  0  0  0  0.750312  0.740692  -0.71602  -0.00416145  -0.00512066  -0.0223902  0.0249136  -0.00407462  0.0163461  0.059062  -0.0472398  -0.00879565  -0.322244  0.141111  -0.0300571 
1701770382.737361000  0  0  11.0036  -0.0992252  0.131009  0.00926852  nan  nan  nan  nan  nan  nan  -1.99762  -0.99791  1.49605  -0.0963196  0.0705234  -0.00502601  0.053799  0.0514426  -0.0644165  0  0  0  0.783471  0.774066  -0.734293  -0.00393903  -0.00522063  -0.0224353  0.0233785  -0.00589212  0.0129881  0.0619315  -0.0499136  -0.00872363  -0.37132  0.197186  -0.0286202 
1701770382.742932000  0  0  10.8968  -0.105316  0.143941  0.00966787  nan  nan  nan  nan  nan  nan  -1.99735  -0.997643  1.49572  -0.10176  0.0740305  -0.00564369  0.0577977  0.0553948  -0.0681321  0  0  0  0.81588  0.806689  -0.751815  -0.00362218  -0.00525465  -0.0224644  0.0233856  -0.00699685  0.0206537  0.0649478  -0.052212  -0.00873371  -0.386887  0.192469  -0.0335113 
1701770382.746937000  0  0  10.9283  -0.111703  0.151489  0.00976683  nan  nan  nan  nan  nan  nan  -1.99705  -0.997356  1.49537  -0.106533  0.078704  -0.00636739  0.0619566  0.0595083  -0.0719334  0  0  0  0.847539  0.838563  -0.768588  -0.00359108  -0.00534071  -0.0223678  0.0213822  -0.00877685  0.0166327  0.0679714  -0.0558754  -0.00865161  -0.401931  0.211076  -0.0355693 
1701770382.751941000  0  0  10.9695  -0.0672386  0.100986  0.00935196  nan  nan  nan  nan  nan  nan  -1.99673  -0.997048  1.495  -0.110666  0.0821978  -0.0069468  0.0662719  0.0637792  -0.0758167  0  0  0  0.878448  0.869686  -0.784611  -0.00335492  -0.00541123  -0.0224576  0.020177  -0.0100405  0.0124217  0.0687615  -0.0567638  -0.00855944  -0.498129  0.320255  -0.0313051 
1701770382.756989000  0  0  10.8475  -0.0767469  0.114958  0.0103666  nan  nan  nan  nan  nan  nan  -1.99638  -0.996718  1.49461  -0.116171  0.087254  -0.00785147  0.0707398  0.0682039  -0.0797783  0  0  0  0.908607  0.90006  -0.799883  -0.00325635  -0.00545694  -0.0223129  0.0187679  -0.0110558  0.0213381  0.0716264  -0.0601407  -0.00856032  -0.505469  0.323378  -0.0439796 
1701770382.761973000  0  0  10.9039  -0.0566027  0.100985  0.0117631  nan  nan  nan  nan  nan  nan  -1.99602  -0.996365  1.4942  -0.119755  0.0901067  -0.0083642  0.0753567  0.0727786  -0.0838143  0  0  0  0.938016  0.929683  -0.814406  -0.00301672  -0.00553501  -0.0224124  0.0179807  -0.0120382  0.0160107  0.0720644  -0.0608524  -0.00885105  -0.549787  0.357872  -0.0585282 
1701770382.767929000  0  0  10.9608  -0.00744581  0.0547  0.0117714  nan  nan  nan  nan  nan  nan  -1.99563  -0.99599  1.49377  -0.122687  0.0936071  -0.00891138  0.0801187  0.0774995  -0.0879211  0  0  0  0.966675  0.958557  -0.828179  -0.00284247  -0.00553226  -0.0224491  0.016431  -0.0125144  0.0107521  0.0705919  -0.0609295  -0.00903863  -0.634554  0.451151  -0.0567558 
1701770382.771944000  0  0  10.8495  -0.0129006  0.0679338  0.0122057  nan  nan  nan  nan  nan  nan  -1.99522  -0.99559  1.49332  -0.128843  0.0980332  -0.00991172  0.0850222  0.0823629  -0.0920948  0  0  0  0.994584  0.98668  -0.841201  -0.00269853  -0.00567613  -0.0223732  0.0154139  -0.0143398  0.0192665  0.0738045  -0.0634787  -0.00897916  -0.6532  0.448137  -0.0627799 
1701770382.777373000  0  0  10.8861  0.00405149  0.054153  0.0132718  nan  nan  nan  nan  nan  nan  -1.99478  -0.995166  1.49285  -0.131841  0.100712  -0.0104041  0.0900633  0.087365  -0.0963318  0  0  0  1.02174  1.01405  -0.853474  -0.00243602  -0.00572401  -0.0224759  0.014669  -0.0147263  0.0159279  0.0728586  -0.0632868  -0.00933549  -0.678402  0.473933  -0.0725421 
1701770382.782935000  0  0  10.928  0.0536838  0.0127147  0.0129454  nan  nan  nan  nan  nan  nan  -1.99432  -0.994716  1.49236  -0.134784  0.104115  -0.0110006  0.0952384  0.0925022  -0.100628  0  0  0  1.04815  1.04068  -0.864996  -0.00230321  -0.00575386  -0.0224945  0.0131573  -0.0152415  0.0122138  0.0708839  -0.0628501  -0.00950895  -0.759499  0.552791  -0.0667286 
1701770382.786995000  0  0  10.8563  0.0392638  0.027589  0.0125537  nan  nan  nan  nan  nan  nan  -1.99383  -0.994241  1.49184  -0.140291  0.108579  -0.0120425  0.100544  0.0977706  -0.104981  0  0  0  1.07381  1.06655  -0.875769  -0.00219046  -0.00591485  -0.0224085  0.0115387  -0.0169416  0.0177325  0.0732541  -0.0651432  -0.00937128  -0.752465  0.54414  -0.0632079 
1701770382.791923000  0  0  10.8704  0.0423377  0.031759  0.0122194  nan  nan  nan  nan  nan  nan  -1.99331  -0.993738  1.49131  -0.143886  0.112466  -0.0128275  0.105975  0.103166  -0.109385  0  0  0  1.09872  1.09167  -0.885792  -0.00214734  -0.00600565  -0.0223458  0.00972093  -0.0178805  0.0162528  0.0730716  -0.0663466  -0.00939536  -0.756934  0.54687  -0.0587886 
1701770382.796988000  0  0  10.9714  0.0822949  -0.00905058  0.0108016  nan  nan  nan  nan  nan  nan  -1.99277  -0.993209  1.49075  -0.146285  0.114749  -0.0132605  0.11153  0.108686  -0.113837  0  0  0  1.12288  1.11605  -0.895064  -0.00191432  -0.00608384  -0.0225146  0.00827515  -0.0189203  0.00818759  0.0706953  -0.064816  -0.00935314  -0.814987  0.614408  -0.0414888 
1701770382.801986000  0  0  10.8773  0.0653063  0.0141133  0.0109592  nan  nan  nan  nan  nan  nan  -1.99219  -0.992651  1.49017  -0.15108  0.119411  -0.0143465  0.117203  0.114326  -0.118334  0  0  0  1.14629  1.13967  -0.903587  -0.00187987  -0.00617593  -0.0223888  0.00667332  -0.0197113  0.015797  0.0716662  -0.066822  -0.00923657  -0.789942  0.586536  -0.0446243 
1701770382.807925000  0  0  10.9298  0.0739081  0.0120725  0.0118558  nan  nan  nan  nan  nan  nan  -1.99159  -0.992065  1.48957  -0.153058  0.120968  -0.0146424  0.122991  0.120082  -0.122872  0  0  0  1.16895  1.16254  -0.911359  -0.00154748  -0.00617011  -0.0225981  0.00629626  -0.0199012  0.0118797  0.0690253  -0.0649858  -0.00960443  -0.782849  0.573724  -0.0521531 
1701770382.812931000  0  0  10.9844  0.0831532  -0.0085969  0.0110838  nan  nan  nan  nan  nan  nan  -1.99096  -0.99145  1.48894  -0.156071  0.123643  -0.0152452  0.128891  0.12595  -0.127446  0  0  0  1.19086  1.18467  -0.918382  -0.0013563  -0.00626843  -0.0226831  0.00466889  -0.0212271  0.0077318  0.0678714  -0.0642378  -0.00956898  -0.790724  0.608182  -0.0428583 
1701770382.816998000  0  0  10.9235  0.0503698  0.0237514  0.0111442  nan  nan  nan  nan  nan  nan  -1.99031  -0.990806  1.48829  -0.161488  0.128599  -0.0165403  0.134898  0.131927  -0.132054  0  0  0  1.21202  1.20604  -0.924655  -0.00145057  -0.00647601  -0.0224838  0.00226059  -0.0232633  0.012699  0.07049  -0.067266  -0.0093172  -0.749248  0.571344  -0.0461309 
1701770382.822946000  0  0  10.9769  0.0484343  0.0258534  0.0118689  nan  nan  nan  nan  nan  nan  -1.98962  -0.990131  1.48762  -0.163406  0.131084  -0.0170054  0.14101  0.138009  -0.136692  0  0  0  1.23242  1.22667  -0.930177  -0.00131049  -0.00648633  -0.0225734  0.000787031  -0.0236757  0.00873301  0.0683219  -0.066531  -0.00963529  -0.72543  0.560379  -0.0520083 
1701770382.827935000  0  0  10.9927  0.0465784  0.0178814  0.0121266  nan  nan  nan  nan  nan  nan  -1.98889  -0.989425  1.48692  -0.166673  0.133126  -0.0175878  0.147221  0.144192  -0.141355  0  0  0  1.25208  1.24654  -0.93495  -0.00102507  -0.00659257  -0.0227715  -6.93039e-05  -0.0249541  0.00820923  0.067826  -0.0655269  -0.0097373  -0.717156  0.567085  -0.0542097 
1701770382.831991000  0  0  10.92  0.000180025  0.0578401  0.0123401  nan  nan  nan  nan  nan  nan  -1.98814  -0.988689  1.48621  -0.172558  0.138028  -0.0190383  0.153529  0.150473  -0.14604  0  0  0  1.27099  1.26566  -0.938973  -0.00116455  -0.00683725  -0.0225638  -0.00240582  -0.0274349  0.0144026  0.0714512  -0.0688778  -0.00947432  -0.657711  0.517995  -0.0595082 
1701770382.836995000  0  0  11.0092  -0.0106167  0.0503878  0.0131982  nan  nan  nan  nan  nan  nan  -1.98736  -0.98792  1.48546  -0.17449  0.140094  -0.0194706  0.15993  0.156848  -0.150743  0  0  0  1.28915  1.28404  -0.942245  -0.00102613  -0.00695043  -0.0227282  -0.00428285  -0.0286847  0.00781326  0.0704721  -0.0681869  -0.00981862  -0.62711  0.526544  -0.0667909 
1701770382.841984000  0  0  11.0611  -9.73789e-05  0.0353129  0.0120811  nan  nan  nan  nan  nan  nan  -1.98654  -0.98712  1.4847  -0.177516  0.143475  -0.0203022  0.16642  0.163312  -0.155461  0  0  0  1.30656  1.30166  -0.944768  -0.00106199  -0.00710039  -0.0227253  -0.00699493  -0.0305169  0.00425144  0.0700438  -0.0685034  -0.00973155  -0.644208  0.559606  -0.0536984 
1701770382.846993000  0  0  10.9994  -0.0322665  0.0642909  0.0122568  nan  nan  nan  nan  nan  nan  -1.9857  -0.986287  1.48391  -0.181479  0.146907  -0.0213034  0.172995  0.169863  -0.16019  0  0  0  1.32322  1.31853  -0.94654  -0.000947291  -0.00725328  -0.0227507  -0.00842688  -0.0313631  0.0101034  0.071294  -0.0697584  -0.00968708  -0.591372  0.513195  -0.0563392 
1701770382.851990000  0  0  11.0806  -0.0464401  0.0695107  0.0127502  nan  nan  nan  nan  nan  nan  -1.98481  -0.985421  1.4831  -0.183806  0.149581  -0.0219384  0.179651  0.176496  -0.164925  0  0  0  1.33913  1.33466  -0.947563  -0.00100464  -0.00741695  -0.0227646  -0.0109252  -0.0331699  0.0041632  0.0710825  -0.0700271  -0.00988364  -0.561079  0.505228  -0.0605412 
1701770382.856997000  0  0  11.146  -0.026392  0.0411955  0.0128802  nan  nan  nan  nan  nan  nan  -1.9839  -0.984522  1.48226  -0.186291  0.151412  -0.0224524  0.186385  0.183208  -0.169664  0  0  0  1.35429  1.35003  -0.947836  -0.000866269  -0.00759563  -0.0228955  -0.0126563  -0.0349595  -0.00010496  0.0702038  -0.0687156  -0.0100552  -0.593091  0.549792  -0.0604501 
1701770382.861993000  0  0  11.0773  -0.0443661  0.0615859  0.0129059  nan  nan  nan  nan  nan  nan  -1.98295  -0.983589  1.4814  -0.189932  0.154658  -0.0234258  0.193192  0.189995  -0.174402  0  0  0  1.3687  1.36465  -0.947358  -0.000802994  -0.0077779  -0.022967  -0.0138815  -0.0354499  0.0066399  0.0710782  -0.0696468  -0.0100328  -0.565187  0.517579  -0.0609963 
1701770382.867063000  0  0  11.1272  -0.0410248  0.0740388  0.0132628  nan  nan  nan  nan  nan  nan  -1.98197  -0.982622  1.48052  -0.19186  0.157065  -0.0239821  0.20007  0.196854  -0.179137  0  0  0  1.38236  1.37853  -0.946131  -0.000859167  -0.00794473  -0.022983  -0.015862  -0.0364796  0.00346573  0.0701697  -0.069799  -0.0102841  -0.563512  0.494073  -0.0629441 
1701770382.872076000  0  0  11.174  -0.00866679  0.0404832  0.01318  nan  nan  nan  nan  nan  nan  -1.98095  -0.98162  1.47961  -0.194317  0.159528  -0.0246449  0.207015  0.203779  -0.183863  0  0  0  1.39527  1.39165  -0.944153  -0.000854262  -0.00817121  -0.0230732  -0.0181164  -0.0380319  0.000962782  0.0689699  -0.0690299  -0.0103967  -0.61719  0.554108  -0.0607826 
1701770382.877354000  0  0  11.1389  -0.0177248  0.0577304  0.0136449  nan  nan  nan  nan  nan  nan  -1.9799  -0.980584  1.47868  -0.196732  0.161906  -0.0252954  0.214022  0.210769  -0.188577  0  0  0  1.40742  1.40402  -0.941426  -0.000788653  -0.00833504  -0.0232315  -0.0190491  -0.0380601  0.00523195  0.0683239  -0.0689342  -0.0106054  -0.59313  0.518734  -0.0645072 
1701770382.882114000  0  0  11.1865  -0.000405675  0.0605849  0.0135679  nan  nan  nan  nan  nan  nan  -1.97881  -0.979513  1.47772  -0.198453  0.164268  -0.0258355  0.221088  0.217818  -0.193276  0  0  0  1.41883  1.41565  -0.937949  -0.000935624  -0.00856661  -0.0231858  -0.0210635  -0.0389637  0.00235913  0.066966  -0.0689861  -0.010821  -0.615276  0.513502  -0.0613894 
1701770382.886995000  0  0  11.2862  0.0348067  0.0309993  0.0133003  nan  nan  nan  nan  nan  nan  -1.97769  -0.978406  1.47674  -0.200176  0.165877  -0.0262331  0.228209  0.224924  -0.197955  0  0  0  1.42949  1.42652  -0.933721  -0.000981376  -0.00883757  -0.0233402  -0.0234156  -0.0410397  -0.00420142  0.0649308  -0.0674854  -0.0110029  -0.666977  0.558867  -0.0562241 
1701770382.891935000  0  0  11.1947  0.0225144  0.0451175  0.0134474  nan  nan  nan  nan  nan  nan  -1.97653  -0.977263  1.47574  -0.202953  0.169609  -0.0272492  0.235381  0.232082  -0.202612  0  0  0  1.4394  1.43664  -0.928744  -0.00110874  -0.00903817  -0.0232528  -0.0248873  -0.040383  0.00452705  0.0646308  -0.0687232  -0.0110472  -0.639632  0.542018  -0.0576209 
1701770382.897012000  0  0  11.1953  0.0305082  0.0520476  0.0134733  nan  nan  nan  nan  nan  nan  -1.97533  -0.976085  1.47472  -0.204609  0.171527  -0.0277138  0.242602  0.239289  -0.207241  0  0  0  1.44856  1.44602  -0.923017  -0.00114146  -0.00927159  -0.0233139  -0.0260239  -0.0404952  0.00589262  0.0629958  -0.0681916  -0.0112731  -0.640578  0.523267  -0.055685 
1701770382.902417000  0  0  11.315  0.0780733  0.016751  0.0135558  nan  nan  nan  nan  nan  nan  -1.9741  -0.97487  1.47367  -0.204812  0.172194  -0.0276679  0.249866  0.246541  -0.21184  0  0  0  1.45697  1.45464  -0.916539  -0.001124  -0.00945404  -0.0235179  -0.0279852  -0.0417557  -0.00217105  0.058907  -0.0653871  -0.0117182  -0.698091  0.568059  -0.0522658 
1701770382.906993000  0  0  11.2573  0.0627391  0.0220164  0.0142102  nan  nan  nan  nan  nan  nan  -1.97283  -0.973619  1.4726  -0.207243  0.175664  -0.0286006  0.25717  0.253834  -0.216405  0  0  0  1.46463  1.46251  -0.909312  -0.00135953  -0.0097383  -0.023376  -0.0297726  -0.0415029  0.00387478  0.0584722  -0.066312  -0.0118382  -0.663423  0.566037  -0.0592456 
1701770382.911990000  0  0  11.2097  0.0633926  0.0364055  0.0142898  nan  nan  nan  nan  nan  nan  -1.97153  -0.972332  1.47151  -0.208956  0.177958  -0.0291717  0.264511  0.261165  -0.220932  0  0  0  1.47154  1.46964  -0.901334  -0.00149845  -0.00993732  -0.0233118  -0.0304999  -0.0409404  0.0091293  0.0570326  -0.0662311  -0.0120603  -0.651485  0.536515  -0.0580189 
1701770382.917081000  0  0  11.3492  0.0984794  0.00891989  0.0142032  nan  nan  nan  nan  nan  nan  -1.97019  -0.971008  1.47039  -0.209027  0.178424  -0.0290626  0.271884  0.26853  -0.225417  0  0  0  1.4777  1.47601  -0.892607  -0.00157123  -0.0101917  -0.0235185  -0.0327828  -0.0426987  -0.000392313  0.0532744  -0.0635429  -0.0124972  -0.687083  0.566755  -0.0525678 
1701770382.922079000  0  0  11.2756  0.0667257  0.0187471  0.0147375  nan  nan  nan  nan  nan  nan  -1.96881  -0.969647  1.46925  -0.210891  0.180824  -0.029693  0.279286  0.275924  -0.229857  0  0  0  1.48311  1.48164  -0.88313  -0.00168245  -0.0104519  -0.0235599  -0.0333948  -0.0417853  0.00733736  0.0524739  -0.0633856  -0.0126947  -0.616211  0.545653  -0.0572724 
1701770382.927369000  0  0  11.28  0.0772539  0.0165882  0.0154433  nan  nan  nan  nan  nan  nan  -1.96739  -0.968248  1.46809  -0.211574  0.181655  -0.0297769  0.286714  0.283345  -0.234248  0  0  0  1.48776  1.48651  -0.872902  -0.00173406  -0.0106582  -0.0236811  -0.0337285  -0.0415235  0.0087293  0.0499215  -0.0615076  -0.0131594  -0.613785  0.532694  -0.0614473 
1701770382.931960000  0  0  11.4235  0.0945435  -0.000141317  0.0150259  nan  nan  nan  nan  nan  nan  -1.96594  -0.966813  1.46691  -0.212128  0.182727  -0.0298882  0.294163  0.290788  -0.238585  0  0  0  1.49167  1.49063  -0.861925  -0.00202159  -0.0109856  -0.0236528  -0.0367925  -0.0441047  -0.00131269  0.0474889  -0.0598824  -0.013466  -0.625985  0.551201  -0.0531638 
1701770382.936958000  0  0  11.377  0.0751491  0.00787337  0.015042  nan  nan  nan  nan  nan  nan  -1.96445  -0.965341  1.46571  -0.21337  0.185163  -0.0304224  0.301629  0.29825  -0.242866  0  0  0  1.49483  1.49401  -0.850197  -0.00217804  -0.0112754  -0.0236713  -0.0381604  -0.0432711  0.00431326  0.0461983  -0.0598344  -0.0136766  -0.575323  0.53473  -0.0512594 
1701770382.941930000  0  0  11.3395  0.0655017  0.0211289  0.0150095  nan  nan  nan  nan  nan  nan  -1.96293  -0.963831  1.46448  -0.214397  0.186796  -0.030749  0.30911  0.305727  -0.247086  0  0  0  1.49724  1.49663  -0.83772  -0.00236338  -0.0114921  -0.023596  -0.0386887  -0.0426949  0.0089488  0.0448037  -0.0592486  -0.0139357  -0.543198  0.502829  -0.0482617 
1701770382.947003000  0  0  11.4873  0.0782735  0.00597074  0.0144838  nan  nan  nan  nan  nan  nan  -1.96136  -0.962283  1.46324  -0.214073  0.186532  -0.03041  0.316601  0.313215  -0.251241  0  0  0  1.4989  1.4985  -0.824493  -0.00254223  -0.0117882  -0.023756  -0.04069  -0.044812  -0.00112877  0.0417861  -0.056389  -0.0143134  -0.540979  0.506838  -0.0379136 
1701770382.952009000  0  0  11.4883  0.0647812  0.00347996  0.0145145  nan  nan  nan  nan  nan  nan  -1.95976  -0.960698  1.46197  -0.213947  0.188365  -0.0305561  0.324098  0.32071  -0.255329  0  0  0  1.49981  1.49963  -0.810515  -0.00274808  -0.0119984  -0.0237314  -0.0423955  -0.0439261  0.000506275  0.0395938  -0.0556711  -0.0146709  -0.493826  0.505214  -0.0347213 
1701770382.957928000  0  0  11.4309  0.0604577  0.0138405  0.0142205  nan  nan  nan  nan  nan  nan  -1.95812  -0.959076  1.46068  -0.21305  0.188387  -0.0301654  0.331597  0.32821  -0.259345  0  0  0  1.5  1.5  -0.795788  -0.00268391  -0.0119438  -0.0238829  -0.0411777  -0.041589  0.00690905  0.0364091  -0.0532228  -0.015128  -0.455879  0.461969  -0.0264767 
1701770382.961988000  0  0  11.5386  0.0541801  0.0140394  0.0140342  nan  nan  nan  nan  nan  nan  -1.95644  -0.957416  1.45938  -0.214234  0.190081  -0.0305389  0.339097  0.33571  -0.263286  0  0  0  1.5  1.5  -0.780311  -0.00318435  -0.0124406  -0.0236925  -0.0445008  -0.0442786  -5.65571e-05  0.0359073  -0.0531084  -0.0152073  -0.438707  0.460518  -0.0233541 
1701770382.966999000  0  0  11.5452  0.0397667  0.00671329  0.0132588  nan  nan  nan  nan  nan  nan  -1.95473  -0.955719  1.45805  -0.21443  0.19155  -0.0306711  0.346597  0.34321  -0.267147  0  0  0  1.5  1.5  -0.764083  -0.00338935  -0.0127632  -0.0237126  -0.0460046  -0.0438451  0.00142153  0.0344311  -0.0522145  -0.0153403  -0.396299  0.466946  -0.0123325 
1701770382.971998000  0  0  11.436  0.0254465  0.033304  0.0134163  nan  nan  nan  nan  nan  nan  -1.95298  -0.953984  1.4567  -0.216526  0.193095  -0.0312016  0.354097  0.35071  -0.270926  0  0  0  1.5  1.5  -0.747106  -0.00361818  -0.0131106  -0.0236946  -0.0451576  -0.0429819  0.0124549  0.0348544  -0.0522181  -0.0152472  -0.371554  0.413798  -0.0152326 
1701770382.977925000  0  0  11.6022  0.0312069  0.0243913  0.0151927  nan  nan  nan  nan  nan  nan  -1.95119  -0.952212  1.45534  -0.213674  0.191538  -0.0300784  0.361597  0.35821  -0.274617  0  0  0  1.5  1.5  -0.729378  -0.00359405  -0.0132022  -0.0240796  -0.0465292  -0.043292  0.00112513  0.0304522  -0.0484487  -0.0162157  -0.342574  0.396945  -0.0277512 
1701770382.981929000  0  0  11.5905  0.0302377  0.0277087  0.0156687  nan  nan  nan  nan  nan  nan  -1.94936  -0.950402  1.45396  -0.215398  0.194579  -0.0308535  0.369097  0.36571  -0.278218  0  0  0  1.5  1.5  -0.710901  -0.004153  -0.0137303  -0.0237758  -0.0489981  -0.0437349  0.00405065  0.030707  -0.0498736  -0.0162992  -0.34298  0.403419  -0.0328669 
1701770382.986971000  0  0  11.4282  0.00488429  0.0679594  0.0158303  nan  nan  nan  nan  nan  nan  -1.9475  -0.948555  1.45256  -0.219168  0.196869  -0.0318961  0.376597  0.37321  -0.281772  0  0  0  1.5  1.5  -0.710526  -0.00442482  -0.0142796  -0.0238047  -0.0479144  -0.0431409  0.0181685  0.033114  -0.0512411  -0.0159879  -0.314417  0.335499  -0.0380003 
1701770382.991932000  0  0  11.5659  0.00566822  0.0744667  0.0158861  nan  nan  nan  nan  nan  nan  -1.9456  -0.94667  1.45114  -0.217616  0.197001  -0.0313867  0.384097  0.38071  -0.285322  0  0  0  1.5  1.5  -0.709401  -0.00469559  -0.0145227  -0.0238327  -0.0503535  -0.0439688  0.00717587  0.0304351  -0.0499981  -0.0166034  -0.291339  0.311049  -0.0325426 
1701770382.996962000  0  0  11.5927  0.0221984  0.0607022  0.0146274  nan  nan  nan  nan  nan  nan  -1.94366  -0.944748  1.4497  -0.217439  0.198263  -0.0314037  0.391597  0.38821  -0.288865  0  0  0  1.5  1.5  -0.707526  -0.00496058  -0.0148169  -0.0238341  -0.0518994  -0.043643  0.00549311  0.0285947  -0.0494342  -0.0167782  -0.307468  0.33339  -0.0150601 
1701770383.002412000  0  0  11.473  0.00962954  0.0929883  0.0142038  nan  nan  nan  nan  nan  nan  -1.94168  -0.942788  1.44825  -0.217819  0.199374  -0.0315028  0.399097  0.39571  -0.292396  0  0  0  1.5  1.5  -0.704901  -0.00507483  -0.0149547  -0.0238722  -0.0503673  -0.0409452  0.0156919  0.0277016  -0.0495728  -0.016914  -0.274114  0.270093  -0.00840814 
1701770383.006939000  0  0  11.5547  0.0149462  0.0925912  0.0136083  nan  nan  nan  nan  nan  nan  -1.93967  -0.940791  1.44678  -0.218016  0.200452  -0.0315575  0.406597  0.40321  -0.295912  0  0  0  1.5  1.5  -0.701526  -0.00550254  -0.0153426  -0.0237411  -0.0525661  -0.0421751  0.00948813  0.026685  -0.049459  -0.0170314  -0.275394  0.26984  0.00021099 
1701770383.011992000  0  0  11.6412  0.0392852  0.0635008  0.012442  nan  nan  nan  nan  nan  nan  -1.93761  -0.938756  1.44529  -0.217263  0.201586  -0.0314259  0.414097  0.41071  -0.29941  0  0  0  1.5  1.5  -0.697401  -0.00584169  -0.0156837  -0.0238046  -0.0551021  -0.0424474  0.00327222  0.0242553  -0.0486279  -0.0171501  -0.301719  0.320375  0.0159753 
1701770383.017080000  0  0  11.491  0.0256333  0.0885877  0.0124867  nan  nan  nan  nan  nan  nan  -1.93553  -0.936684  1.44379  -0.217853  0.203511  -0.0317466  0.421597  0.41821  -0.302885  0  0  0  1.5  1.5  -0.692526  -0.00605619  -0.0158366  -0.0236879  -0.0536837  -0.0391974  0.0159469  0.0236944  -0.0494764  -0.0171802  -0.269255  0.278008  0.0157188 
1701770383.022941000  0  0  11.5952  0.0381053  0.0822141  0.0134914  nan  nan  nan  nan  nan  nan  -1.9334  -0.934574  1.44226  -0.215248  0.202172  -0.0306903  0.429097  0.42571  -0.306334  0  0  0  1.5  1.5  -0.686901  -0.00607883  -0.0158446  -0.0239848  -0.0540491  -0.0385973  0.00820963  0.019934  -0.0467533  -0.017855  -0.259603  0.265702  0.00990738 
1701770383.026974000  0  0  11.6316  0.0447196  0.0651359  0.0136932  nan  nan  nan  nan  nan  nan  -1.93123  -0.932426  1.44072  -0.21657  0.204557  -0.0312621  0.436597  0.43321  -0.309753  0  0  0  1.5  1.5  -0.680526  -0.00673011  -0.0164203  -0.0236781  -0.0565147  -0.039598  0.00597464  0.0199489  -0.0475682  -0.0178243  -0.272969  0.307355  0.00707799 
1701770383.032486000  0  0  11.5071  0.0311905  0.0758867  0.0153447  nan  nan  nan  nan  nan  nan  -1.92903  -0.930242  1.43917  -0.216514  0.205587  -0.0312531  0.444097  0.44071  -0.313138  0  0  0  1.5  1.5  -0.673401  -0.00684531  -0.0165393  -0.0237294  -0.0546712  -0.03633  0.0169175  0.0189412  -0.0472972  -0.0182237  -0.23664  0.283361  -0.00957202 
1701770383.036940000  0  0  11.5706  0.0235624  0.0842054  0.0165085  nan  nan  nan  nan  nan  nan  -1.92679  -0.928019  1.43759  -0.217785  0.207378  -0.0316938  0.451597  0.44821  -0.316486  0  0  0  1.5  1.5  -0.665526  -0.00746462  -0.0171484  -0.0235713  -0.057062  -0.0378742  0.012846  0.0193526  -0.0481728  -0.0184157  -0.225168  0.274779  -0.0221988 
1701770383.042942000  0  0  11.6079  0.0493597  0.0407963  0.0162889  nan  nan  nan  nan  nan  nan  -1.92452  -0.92576  1.436  -0.214495  0.206005  -0.0304757  0.459097  0.45571  -0.319792  0  0  0  1.5  1.5  -0.656901  -0.00734412  -0.0169193  -0.0238446  -0.05616  -0.035409  0.0105807  0.0147196  -0.0442634  -0.019238  -0.23414  0.325631  -0.0112314 
1701770383.046988000  0  0  11.5014  0.0179891  0.0675652  0.0162367  nan  nan  nan  nan  nan  nan  -1.9222  -0.923462  1.43439  -0.217527  0.20946  -0.0316536  0.466597  0.46321  -0.323053  0  0  0  1.5  1.5  -0.647526  -0.00807955  -0.0176602  -0.0234405  -0.0566086  -0.0347062  0.0202724  0.0171872  -0.0470081  -0.0189439  -0.1941  0.297344  -0.01352 
1701770383.052928000  0  0  11.6501  0.0475399  0.0412843  0.0162216  nan  nan  nan  nan  nan  nan  -1.91985  -0.921127  1.43277  -0.214679  0.207547  -0.030411  0.474097  0.47071  -0.326266  0  0  0  1.5  1.5  -0.637401  -0.00809905  -0.017628  -0.0237951  -0.0573209  -0.0349774  0.00940333  0.013222  -0.0431258  -0.0196604  -0.216723  0.314189  -0.00616514 
1701770383.056939000  0  0  11.7003  0.0494992  0.0291376  0.016128  nan  nan  nan  nan  nan  nan  -1.91746  -0.918755  1.43113  -0.216049  0.209433  -0.0308954  0.481597  0.47821  -0.329426  0  0  0  1.5  1.5  -0.626526  -0.00880853  -0.0182439  -0.0234573  -0.0593576  -0.0363077  0.00638668  0.0135497  -0.0434439  -0.0196396  -0.223656  0.341409  -0.00520444 
1701770383.061932000  0  0  11.5746  0.0164556  0.0397604  0.0160597  nan  nan  nan  nan  nan  nan  -1.91503  -0.916345  1.42948  -0.216612  0.211561  -0.0312615  0.489097  0.48571  -0.33253  0  0  0  1.5  1.5  -0.614901  -0.00921226  -0.0185785  -0.0233494  -0.0582444  -0.0331955  0.0178046  0.0138925  -0.0441844  -0.0197049  -0.160722  0.326975  -0.00369776 
1701770383.066932000  0  0  11.6607  0.0347043  0.0235072  0.0149521  nan  nan  nan  nan  nan  nan  -1.91257  -0.913898  1.42781  -0.215113  0.211188  -0.0306403  0.496597  0.49321  -0.335574  0  0  0  1.5  1.5  -0.602526  -0.00950818  -0.018755  -0.0233304  -0.0589769  -0.0330471  0.0118495  0.0115331  -0.0419429  -0.0200049  -0.175513  0.33886  0.0131475 
1701770383.071926000  0  0  11.7371  0.0624007  0.013959  0.0131336  nan  nan  nan  nan  nan  nan  -1.91007  -0.911413  1.42612  -0.215106  0.211766  -0.0305508  0.504097  0.50071  -0.338554  0  0  0  1.5  1.5  -0.589401  -0.00994171  -0.0191342  -0.0233353  -0.0604884  -0.0339406  0.00721508  0.0101208  -0.0408137  -0.0198491  -0.217913  0.347568  0.0343206 
1701770383.077911000  0  0  11.6807  0.0314383  0.015124  0.0130786  nan  nan  nan  nan  nan  nan  -1.90753  -0.908891  1.42442  -0.212688  0.211144  -0.029679  0.511597  0.50821  -0.341467  0  0  0  1.5  1.5  -0.575526  -0.00987702  -0.0189979  -0.023554  -0.0583147  -0.0301054  0.0130016  0.00783114  -0.0384624  -0.0202043  -0.134923  0.323606  0.0385607 
1701770383.081940000  0  0  11.7203  0.03397  0.0111198  0.0124126  nan  nan  nan  nan  nan  nan  -1.90495  -0.906331  1.42271  -0.213956  0.212748  -0.0300883  0.519097  0.51571  -0.344308  0  0  0  1.5  1.5  -0.560901  -0.0106189  -0.0196236  -0.0231973  -0.0596805  -0.0310649  0.0110823  0.00837969  -0.0386645  -0.0199509  -0.145033  0.333473  0.0443519 
1701770383.087936000  0  0  11.7985  0.0492716  0.00619303  0.012712  nan  nan  nan  nan  nan  nan  -1.90234  -0.903734  1.42098  -0.211207  0.211655  -0.0290471  0.526597  0.52321  -0.347075  0  0  0  1.5  1.5  -0.545526  -0.0106065  -0.0195049  -0.0235504  -0.0599284  -0.0298879  0.00642064  0.0049575  -0.0358208  -0.0203837  -0.144152  0.317165  0.0449376 
1701770383.092476000  0  0  11.7606  0.0227658  0.0249656  0.0127785  nan  nan  nan  nan  nan  nan  -1.89969  -0.901099  1.41924  -0.212798  0.214094  -0.0297054  0.534097  0.53071  -0.349762  0  0  0  1.5  1.5  -0.529401  -0.0112842  -0.0201093  -0.023346  -0.0607385  -0.0294676  0.0113342  0.00644667  -0.0373582  -0.0200991  -0.104841  0.293764  0.0412598 
1701770383.097073000  0  0  11.7946  0.0217062  0.0307569  0.0128584  nan  nan  nan  nan  nan  nan  -1.897  -0.898427  1.41748  -0.212874  0.214448  -0.0295937  0.541597  0.53821  -0.352367  0  0  0  1.5  1.5  -0.512526  -0.0117788  -0.0204652  -0.0231623  -0.0608498  -0.0295569  0.0100002  0.00614401  -0.0365666  -0.020103  -0.0999373  0.274899  0.0403003 
1701770383.102946000  0  0  11.8634  0.0233158  0.0198787  0.0139693  nan  nan  nan  nan  nan  nan  -1.89427  -0.895717  1.41571  -0.210076  0.213465  -0.0285664  0.549097  0.54571  -0.354886  0  0  0  1.5  1.5  -0.494901  -0.0117819  -0.0203611  -0.0234511  -0.0609977  -0.0280446  0.00615443  0.00328789  -0.0340175  -0.0206831  -0.0768802  0.273203  0.0322147 
1701770383.106989000  0  0  11.8307  0.00399121  0.039868  0.0140833  nan  nan  nan  nan  nan  nan  -1.89151  -0.89297  1.41393  -0.21154  0.215977  -0.0292165  0.556597  0.55321  -0.357315  0  0  0  1.5  1.5  -0.476526  -0.0125507  -0.0209923  -0.0230445  -0.0618309  -0.0275324  0.0104436  0.00466659  -0.0357609  -0.0205156  -0.050915  0.249264  0.0291157 
1701770383.111988000  0  0  11.8441  -0.00139312  0.0555245  0.0143568  nan  nan  nan  nan  nan  nan  -1.8887  -0.890185  1.41214  -0.211888  0.2159  -0.0290808  0.564097  0.56071  -0.35965  0  0  0  1.5  1.5  -0.457401  -0.012956  -0.0213238  -0.0229922  -0.0611026  -0.0275825  0.0112032  0.0049544  -0.0350277  -0.0205193  -0.0427943  0.211206  0.0257324 
1701770383.116991000  0  0  11.9349  0.00189986  0.0386952  0.0137811  nan  nan  nan  nan  nan  nan  -1.88587  -0.887363  1.41034  -0.209921  0.215409  -0.0283432  0.571597  0.56821  -0.361888  0  0  0  1.5  1.5  -0.437526  -0.0132609  -0.0214628  -0.0229945  -0.0618042  -0.0269892  0.00546495  0.00301513  -0.0332029  -0.0208289  -0.0315389  0.228076  0.036025 
1701770383.121935000  0  0  11.9271  -0.00314334  0.0418665  0.01272  nan  nan  nan  nan  nan  nan  -1.88299  -0.884503  1.40852  -0.210129  0.21661  -0.0284455  0.579097  0.57571  -0.364024  0  0  0  1.5  1.5  -0.416901  -0.0137238  -0.0218264  -0.0229029  -0.0621354  -0.0262066  0.00817648  0.00323963  -0.0334706  -0.0206327  -0.0235179  0.224197  0.0473264 
1701770383.126988000  0  0  11.9115  -0.0111345  0.0638683  0.0118967  nan  nan  nan  nan  nan  nan  -1.88007  -0.881605  1.4067  -0.209354  0.216116  -0.0279776  0.586597  0.58321  -0.366056  0  0  0  1.5  1.5  -0.395526  -0.0139991  -0.0219244  -0.0228542  -0.0604061  -0.0247748  0.0111642  0.00270438  -0.0324811  -0.0205894  -0.00261135  0.17109  0.0571848 
1701770383.132960000  0  0  12.0151  0.00411712  0.0414451  0.0113651  nan  nan  nan  nan  nan  nan  -1.87712  -0.878671  1.40486  -0.204818  0.213393  -0.0262224  0.594097  0.59071  -0.367978  0  0  0  1.5  1.5  -0.373401  -0.0137905  -0.0215008  -0.0232055  -0.0594771  -0.0226705  0.00442176  -0.00145365  -0.0284703  -0.0211413  0.0051393  0.179037  0.0693494 
1701770383.137030000  0  0  12.0011  -0.00839112  0.0371053  0.0104548  nan  nan  nan  nan  nan  nan  -1.87413  -0.875698  1.40302  -0.206319  0.215576  -0.0268108  0.601597  0.59821  -0.369788  0  0  0  1.5  1.5  -0.350526  -0.0145889  -0.022143  -0.0228119  -0.0602863  -0.0226645  0.0076574  0.000114283  -0.0296849  -0.0206709  0.0157308  0.198891  0.0760239 
1701770383.142062000  0  0  11.9634  -0.0241122  0.0577496  0.0105697  nan  nan  nan  nan  nan  nan  -1.87111  -0.872689  1.40116  -0.20682  0.215853  -0.026793  0.609097  0.60571  -0.371482  0  0  0  1.5  1.5  -0.326901  -0.0149927  -0.022464  -0.0227475  -0.0588247  -0.0217647  0.0129784  0.00107617  -0.0296556  -0.0203985  0.0383235  0.157333  0.0718636 
1701770383.147938000  0  0  12.0877  -0.0100108  0.0381621  0.0103428  nan  nan  nan  nan  nan  nan  -1.86804  -0.869641  1.3993  -0.203826  0.21462  -0.0256924  0.616597  0.61321  -0.373056  0  0  0  1.5  1.5  -0.302526  -0.0150197  -0.0223573  -0.023068  -0.0599123  -0.0211615  0.00530027  -0.00144651  -0.0273852  -0.0206093  0.0333295  0.17562  0.0768075 
1701770383.151986000  0  0  12.0818  -0.0101044  0.0337223  0.00974882  nan  nan  nan  nan  nan  nan  -1.86494  -0.866556  1.39743  -0.205335  0.216488  -0.0262235  0.624097  0.62071  -0.374506  0  0  0  1.5  1.5  -0.277401  -0.0158473  -0.0230287  -0.0226566  -0.0604438  -0.021317  0.00802037  -6.25949e-05  -0.0283219  -0.0201515  0.0207846  0.193116  0.0796552 
1701770383.156997000  0  0  12.069  -0.0277511  0.0513244  0.0104757  nan  nan  nan  nan  nan  nan  -1.8618  -0.863434  1.39556  -0.205637  0.216776  -0.0261683  0.631597  0.62821  -0.375829  0  0  0  1.5  1.5  -0.251526  -0.0163092  -0.0233515  -0.0225676  -0.0594564  -0.0207196  0.0114867  0.000814419  -0.0282161  -0.0199817  0.0480096  0.15694  0.068871 
1701770383.161997000  0  0  12.1734  -0.0148878  0.0442368  0.0103503  nan  nan  nan  nan  nan  nan  -1.85862  -0.860274  1.39367  -0.204773  0.217132  -0.0258676  0.639097  0.63571  -0.37702  0  0  0  1.5  1.5  -0.224901  -0.0168301  -0.0237109  -0.0225471  -0.0612001  -0.0211516  0.00562184  0.000130172  -0.0278099  -0.0199397  0.0285781  0.167378  0.0700182 
1701770383.167006000  0  0  12.1764  0.00717887  0.0377967  0.00979286  nan  nan  nan  nan  nan  nan  -1.85541  -0.857077  1.39179  -0.203438  0.216909  -0.0253457  0.646597  0.64321  -0.378077  0  0  0  1.5  1.5  -0.197629  -0.0171212  -0.0238028  -0.0224996  -0.0602222  -0.0193959  0.00763899  -0.00139475  -0.0266073  -0.0199333  -0.00152608  0.169194  0.0769219 
1701770383.171989000  0  0  12.1502  -0.00887508  0.0642921  0.00991092  nan  nan  nan  nan  nan  nan  -1.85216  -0.853842  1.38989  -0.203905  0.21761  -0.0254152  0.654097  0.65071  -0.378997  0  0  0  1.5  1.5  -0.17081  -0.0176562  -0.0241908  -0.0224069  -0.0593201  -0.0185391  0.0123647  -0.00054562  -0.0273211  -0.0196692  0.0227699  0.12277  0.0728059 
1701770383.177405000  0  0  12.2687  0.00944321  0.0389009  0.0100869  nan  nan  nan  nan  nan  nan  -1.84887  -0.85057  1.388  -0.201882  0.216958  -0.0246558  0.661597  0.65821  -0.379786  0  0  0  1.5  1.5  -0.144741  -0.0179488  -0.0242939  -0.0225919  -0.0605089  -0.0184358  0.0053223  -0.00246822  -0.0256816  -0.019831  0.00382117  0.158469  0.0722234 
1701770383.181990000  0  0  12.2498  0.023422  0.0320673  0.00969753  nan  nan  nan  nan  nan  nan  -1.84554  -0.84726  1.3861  -0.201772  0.217489  -0.0245633  0.669097  0.66571  -0.380446  0  0  0  1.5  1.5  -0.119421  -0.018496  -0.0246455  -0.0223668  -0.0595065  -0.017105  0.00891632  -0.00288943  -0.0252803  -0.0196554  -0.0202612  0.168444  0.0753353 
1701770383.187498000  0  0  12.2223  0.0105323  0.0488703  0.00933059  nan  nan  nan  nan  nan  nan  -1.84218  -0.843913  1.38419  -0.200359  0.217083  -0.0239934  0.676597  0.67321  -0.380981  0  0  0  1.5  1.5  -0.0948522  -0.0186872  -0.0246433  -0.0224736  -0.0577764  -0.0148087  0.0133544  -0.0037712  -0.0246377  -0.0196137  0.0136305  0.128926  0.079505 
1701770383.192009000  0  0  12.307  0.0282999  0.0344546  0.00843348  nan  nan  nan  nan  nan  nan  -1.83878  -0.840528  1.38229  -0.199644  0.217403  -0.0237247  0.684097  0.68071  -0.381396  0  0  0  1.5  1.5  -0.071033  -0.0192918  -0.025049  -0.0222864  -0.0588279  -0.0148391  0.00845236  -0.00471143  -0.0240489  -0.0194506  -0.0132546  0.15234  0.0890878 
