ts x y z roll pitch yaw vx vy vz wx wy wz ax ay az dwx dwy dwz jx jy jz ddwx ddwy ddwz
1701767419.116102000  -2  -1  1.5  0  0  0  6e-07  6e-07  -6e-07  0  0  0  0.000375  0.000375  -0.000375  0  0  0  0  0  0  0  0  0 
1701767419.121055000  -2  -1  1.5  0  0  0  5e-06  5e-06  -5e-06  0  0  0  0.0015  0.0015  -0.0015  0  0  0  0  0  0  0  0  0 
1701767419.126045000  -2  -1  1.5  0  0  0  1.69e-05  1.69e-05  -1.69e-05  0  0  0  0.003375  0.003375  -0.003375  0  0  0  0  0  0  0  0  0 
1701767419.131065000  -2  -1  1.5  0  0  1e-07  4e-05  4e-05  -4e-05  0  0  0  0.006  0.006  -0.006  0  0  0  0  0  0  0  0  0 
1701767419.136061000  -2  -1  1.5  0  0  3e-07  7.81e-05  7.81e-05  -7.81e-05  0  0  0  0.009375  0.009375  -0.009375  0  0  0  0  0  0  0  0  0 
1701767419.141066000  -2  -0.999999  1.5  0  0  5e-07  0.000135  0.000135  -0.000135  0  0  0  0.0135  0.0135  -0.0135  0  0  0  0  0  0  0  0  0 
1701767419.146066000  -2  -0.999998  1.5  0  0  1e-06  0.0002144  0.0002144  -0.0002144  0  0  0  0.018375  0.018375  -0.018375  0  0  0  0  0  0  0  0  0 
1701767419.151052000  -2  -0.999997  1.5  0  0  1.7e-06  0.00032  0.00032  -0.00032  0  0  0  0.024  0.024  -0.024  0  0  0  0  0  0  0  0  0 
1701767419.156075000  -1.99999  -0.999995  1.49999  0  0  2.7e-06  0.0004556  0.0004556  -0.0004556  0  0  0  0.030375  0.030375  -0.030375  0  0  0  0  0  0  0  0  0 
1701767419.161062000  -1.99999  -0.999992  1.49999  0  0  4.2e-06  0.000625  0.000625  -0.000625  0  0  0  0.0375  0.0375  -0.0375  0  0  0  0  0  0  0  0  0 
1701767419.166059000  -1.99999  -0.999989  1.49999  0  0  6.1e-06  0.0008319  0.0008319  -0.0008319  0  0  0  0.045375  0.045375  -0.045375  0  0  0  0  0  0  0  0  0 
1701767419.171067000  -1.99998  -0.999984  1.49998  0  0  8.6e-06  0.00108  0.00108  -0.00108  0  0  0  0.054  0.054  -0.054  0  0  0  0  0  0  0  0  0 
1701767419.176082000  -1.99998  -0.999978  1.49998  0  0  1.19e-05  0.0013731  0.0013731  -0.0013731  0  0  0  0.063375  0.063375  -0.063375  0  0  0  0  0  0  0  0  0 
1701767419.181059000  -1.99997  -0.99997  1.49997  0  0  1.6e-05  0.001715  0.001715  -0.001715  0  0  0  0.0735  0.0735  -0.0735  0  0  0  0  0  0  0  0  0 
1701767419.186052000  -1.99996  -0.99996  1.49996  0  0  2.11e-05  0.0021094  0.0021094  -0.0021094  0  0  0  0.084375  0.084375  -0.084375  0  0  0  0  0  0  0  0  0 
1701767419.191054000  -1.99995  -0.999949  1.49995  0  0  2.73e-05  0.00256  0.00256  -0.00256  0  0  0  0.096  0.096  -0.096  0  0  0  0  0  0  0  0  0 
1701767419.196068000  -1.99993  -0.999935  1.49993  0  0  3.48e-05  0.0030706  0.0030706  -0.0030706  0  0  0  0.108375  0.108375  -0.108375  0  0  0  0  0  0  0  0  0 
1701767419.201047000  -1.99992  -0.999918  1.49992  0  0  4.37e-05  0.003645  0.003645  -0.003645  0  0  0  0.1215  0.1215  -0.1215  0  0  0  0  0  0  0  0  0 
1701767419.206055000  -1.9999  -0.999898  1.4999  0  0  5.43e-05  0.0042869  0.0042869  -0.0042869  0  0  0  0.135375  0.135375  -0.135375  0  0  0  0  0  0  0  0  0 
1701767419.211074000  -1.99988  -0.999875  1.49988  0  0  6.67e-05  0.005  0.005  -0.005  0  0  0  0.15  0.15  -0.15  0  0  0  0  0  0  0  0  0 
1701767419.216077000  -1.99985  -0.999848  1.49985  0  0  8.1e-05  0.0057881  0.0057881  -0.0057881  0  0  0  0.165375  0.165375  -0.165375  0  0  0  0  0  0  0  0  0 
1701767419.221074000  -1.99982  -0.999817  1.49982  0  0  9.76e-05  0.006655  0.006655  -0.006655  0  0  0  0.1815  0.1815  -0.1815  0  0  0  0  0  0  0  0  0 
1701767419.226063000  -1.99978  -0.999781  1.49978  0  0  0.0001166  0.0076044  0.0076044  -0.0076044  0  0  0  0.198375  0.198375  -0.198375  0  0  0  0  0  0  0  0  0 
1701767419.231067000  -1.99974  -0.999741  1.49974  0  0  0.0001382  0.00864  0.00864  -0.00864  0  0  0  0.216  0.216  -0.216  0  0  0  0  0  0  0  0  0 
1701767419.236065000  -1.99969  -0.999695  1.49969  0  0  0.0001628  0.0097656  0.0097656  -0.0097656  0  0  0  0.234375  0.234375  -0.234375  0  0  0  0  0  0  0  0  0 
1701767419.241053000  -1.99964  -0.999643  1.49964  0  0  0.0001904  0.010985  0.010985  -0.0109839  0  0  0  0.2535  0.2535  -0.252793  0  0  0  0  0  0  0  0  0 
1701767419.246056000  -1.99958  -0.999585  1.49958  0  0  0.0002214  0.0123019  0.0123019  -0.0122923  0  0  0  0.273375  0.273375  -0.270462  0  0  0  0  0  0  0  0  0 
1701767419.251056000  -1.99952  -0.99952  1.49952  0  0  0.000256  0.01372  0.01372  -0.0136872  0  0  0  0.294  0.294  -0.287381  0  0  0  0  0  0  0  0  0 
1701767419.256070000  -1.99945  -0.999447  1.49945  0  0  0.0002945  0.0152431  0.0152431  -0.0151649  0  0  0  0.315375  0.315375  -0.30355  0  0  0  0  0  0  0  0  0 
1701767419.261079000  -1.99937  -0.999367  1.49937  0  0  0.000337  0.016875  0.016875  -0.0167215  0  0  0  0.3375  0.3375  -0.318969  0  0  0  0  0  0  0  0  0 
1701767419.266052000  -1.99928  -0.999278  1.49928  0  0  0.0003837  0.0186194  0.0186194  -0.0183533  0  0  0  0.360375  0.360375  -0.333638  0  0  0  0  0  0  0  0  0 
1701767419.271067000  -1.99918  -0.999181  1.49918  0  0  0.0004349  0.02048  0.02048  -0.0200566  0  0  0  0.384  0.384  -0.347557  0  0  0  0  0  0  0  0  0 
1701767419.276065000  -1.99907  -0.999073  1.49908  0  0  0.0004907  0.0224606  0.0224606  -0.0218276  0  0  0  0.408375  0.408375  -0.360726  0  0  0  0  0  0  0  0  0 
1701767419.281096000  -1.99896  -0.998956  1.49897  0  0  0.0005513  0.024565  0.024565  -0.0236626  0  0  0  0.4335  0.4335  -0.373145  0  0  0  0  0  0  0  0  0 
1701767419.286095000  -1.99883  -0.998828  1.49884  0  0  0.0006169  0.0267969  0.0267969  -0.0255578  0  0  0  0.459375  0.459375  -0.384814  0  0  0  0  0  0  0  0  0 
1701767419.291096000  -1.99869  -0.998688  1.49871  0  0  0.0006876  0.02916  0.02916  -0.0275095  0  0  0  0.486  0.486  -0.395732  0  0  0  0  0  0  0  0  0 
1701767419.296106000  -1.99854  -0.998536  1.49857  0  0  0.0007636  0.0316581  0.0316581  -0.0295139  0  0  0  0.513375  0.513375  -0.405901  0  0  0  0  0  0  0  0  0 
1701767419.301088000  -1.99837  -0.998371  1.49842  0  0  0.000845  0.034295  0.034295  -0.0315673  0  0  0  0.5415  0.5415  -0.41532  0  0  0  0  0  0  0  0  0 
1701767419.306110000  -1.99819  -0.998193  1.49825  0  0  0.0009319  0.0370744  0.0370744  -0.0336659  0  0  0  0.570375  0.570375  -0.423989  0  0  0  0  0  0  0  0  0 
1701767419.311115000  -1.998  -0.998  1.49808  0  0  0.0010245  0.04  0.04  -0.0358059  0  0  0  0.6  0.6  -0.431908  0  0  0  0  0  0  0  0  0 
1701767419.316073000  -1.99779  -0.997792  1.49789  0  0  0.0011228  0.0430756  0.0430756  -0.0379837  0  0  0  0.630375  0.630306  -0.439077  0  0  0  0  0  0  0  0  0 
1701767419.321097000  -1.99757  -0.997569  1.4977  0  0  0.0012269  0.0463048  0.0463022  -0.0401954  0  0  0  0.661272  0.660227  -0.445496  0  0  0  0  0  0  0  0  0 
1701767419.326070000  -1.99733  -0.997329  1.49749  0  0  0.001337  0.0496872  0.0496766  -0.0424374  0  0  0  0.691571  0.689397  -0.451165  0  0  0  0  0  0  0  0  0 
1701767419.331095000  -1.99707  -0.997072  1.49727  0  0  0.0014531  0.0532192  0.053195  -0.0447058  0  0  0  0.721119  0.717818  -0.456084  0  0  0  0  0  0  0  0  0 
1701767419.336109000  -1.9968  -0.996797  1.49704  0  0  0.0015753  0.0568972  0.0568535  -0.046997  0  0  0  0.749918  0.745488  -0.460253  0  0  0  0  0  0  0  0  0 
1701767419.341072000  -1.9965  -0.996503  1.4968  0  0  0.0017035  0.0607172  0.0606486  -0.0493071  0  0  0  0.777966  0.772409  -0.463672  0  0  0  0  0  0  0  0  0 
1701767419.346067000  -1.99619  -0.99619  1.49655  0  0  0.001838  0.0646756  0.0645764  -0.0516324  0  0  0  0.805265  0.79858  -0.466341  0  0  0  0  0  0  0  0  0 
1701767419.351069000  -1.99586  -0.995857  1.49629  0  0  0.0019786  0.0687686  0.0686331  -0.0539693  0  0  0  0.831813  0.824  -0.46826  0  0  0  0  0  0  0  0  0 
1701767419.356076000  -1.9955  -0.995504  1.49601  0  0  0.0021255  0.0729924  0.0728151  -0.0563138  0  0  0  0.857612  0.848671  -0.469428  0  0  0  0  0  0  0  0  0 
1701767419.361076000  -1.99513  -0.995129  1.49572  0  0  0.0022787  0.0773434  0.0771186  -0.0586623  0  0  0  0.88266  0.872591  -0.469847  0  0  0  0  0  0  0  0  0 
1701767419.366081000  -1.99473  -0.994732  1.49543  0  0  0.002438  0.0818178  0.0815398  -0.061011  0  0  0  0.906958  0.895762  -0.469516  0  0  0  0  0  0  0  0  0 
1701767419.371080000  -1.99431  -0.994313  1.49511  0  0  0.0026036  0.0864118  0.086075  -0.0633562  0  0  0  0.930507  0.918183  -0.468435  0  0  0  0  0  0  0  0  0 
1701767419.376076000  -1.99386  -0.993871  1.49479  0  0  0.0027755  0.0911216  0.0907204  -0.0656941  0  0  0  0.953305  0.939853  -0.466604  0  0  0  0  0  0  0  0  0 
1701767419.381080000  -1.9934  -0.993406  1.49446  0  0  0.0029536  0.0959436  0.0954722  -0.068021  0  0  0  0.975354  0.960774  -0.464023  0  0  0  0  0  0  0  0  0 
1701767419.386071000  -1.9929  -0.992916  1.49411  0  0  0.003138  0.100874  0.100327  -0.0703331  0  0  0  0.996652  0.980944  -0.460692  0  0  0  0  0  0  0  0  0 
1701767419.391080000  -1.99239  -0.992402  1.49375  0  0  0.0033286  0.105909  0.10528  -0.0726267  0  0  0  1.0172  1.00036  -0.456611  0  0  0  0  0  0  0  0  0 
1701767419.396073000  -1.99184  -0.991864  1.49339  0  0  0.0035255  0.111045  0.110329  -0.074898  0  0  0  1.037  1.01904  -0.45178  0  0  0  0  0  0  0  0  0 
1701767419.401081000  -1.99128  -0.991299  1.49301  0  0  0.0037287  0.116278  0.11547  -0.0771432  0  0  0  1.05605  1.03696  -0.446199  0  0  0  0  0  0  0  0  0 
1701767419.406066000  -1.99068  -0.990709  1.49261  0  0  0.003938  0.121604  0.120698  -0.0793587  0  0  0  1.07435  1.05413  -0.439868  0  0  0  0  0  0  0  0  0 
1701767419.411067000  -1.99006  -0.990092  1.49221  0  0  0.0041537  0.12702  0.12601  -0.0815406  0  0  0  1.09189  1.07055  -0.432787  0  0  0  0  0  0  0  0  0 
1701767419.416076000  -1.98941  -0.989448  1.4918  0  0  0.0043755  0.132522  0.131402  -0.0836853  0  0  0  1.10869  1.08622  -0.424955  0  0  0  0  0  0  0  0  0 
1701767419.421067000  -1.98873  -0.988778  1.49138  0  0  0.0046036  0.138105  0.13687  -0.0857889  0  0  0  1.12474  1.10114  -0.416374  0  0  0  0  0  0  0  0  0 
1701767419.426071000  -1.98803  -0.98808  1.49094  0  0  0.004838  0.143768  0.142412  -0.0878478  0  0  0  1.14004  1.11531  -0.407043  0  0  0  0  0  0  0  0  0 
1701767419.431067000  -1.9873  -0.987354  1.4905  0  0  0.0050786  0.149505  0.148022  -0.0898581  0  0  0  1.15459  1.12873  -0.396962  0  0  0  0  0  0  0  0  0 
1701767419.436072000  -1.98653  -0.986599  1.49004  0  0  0.0053255  0.155312  0.153698  -0.0918162  0  0  0  1.16839  1.1414  -0.386131  0  0  0  0  0  0  0  0  0 
1701767419.441079000  -1.98574  -0.985816  1.48958  0  0  0.0055787  0.161187  0.159435  -0.0937182  0  0  0  1.18144  1.15332  -0.37455  0  0  0  0  0  0  0  0  0 
1701767419.446071000  -1.98492  -0.985005  1.48911  0  0  0.005838  0.167125  0.16523  -0.0955604  0  0  0  1.19373  1.16449  -0.362219  0  0  0  0  0  0  0  0  0 
1701767419.451066000  -1.98407  -0.984164  1.48862  0  0  0.0061037  0.173123  0.171079  -0.0973391  0  0  0  1.20528  1.17491  -0.349138  0  0  0  0  0  0  0  0  0 
1701767419.456081000  -1.98319  -0.983294  1.48813  0  0  0.0063755  0.179177  0.176978  -0.0990506  0  0  0  1.21608  1.18458  -0.335307  0  0  0  0  0  0  0  0  0 
1701767419.461069000  -1.98228  -0.982394  1.48763  0  0  0.0066536  0.185283  0.182923  -0.100691  0  0  0  1.22613  1.1935  -0.320726  0  0  0  0  0  0  0  0  0 
1701767419.466066000  -1.98134  -0.981465  1.48713  0  0  0.006938  0.191437  0.188912  -0.102257  0  0  0  1.23543  1.20167  -0.305395  0  0  0  0  0  0  0  0  0 
1701767419.471067000  -1.98037  -0.980505  1.48661  0  0  0.0072286  0.197636  0.194939  -0.103744  0  0  0  1.24398  1.20909  -0.289314  0  0  0  0  0  0  0  0  0 
1701767419.476081000  -1.97936  -0.979515  1.48609  0  0  0.0075255  0.203876  0.201001  -0.105148  0  0  0  1.25177  1.21576  -0.272482  0  0  0  0  0  0  0  0  0 
1701767419.481076000  -1.97833  -0.978495  1.48556  0  0  0.0078286  0.210152  0.207095  -0.106467  0  0  0  1.25882  1.22169  -0.254901  0  0  0  0  0  0  0  0  0 
1701767419.486072000  -1.97726  -0.977444  1.48502  0  0  0.008138  0.216463  0.213217  -0.107696  0  0  0  1.26512  1.22686  -0.23657  0  0  0  0  0  0  0  0  0 
1701767419.491076000  -1.97616  -0.976363  1.48448  0  0  0.0084537  0.222802  0.219362  -0.108833  0  0  0  1.27067  1.23128  -0.218113  0  0  0  0  0  0  0  0  0 
1701767419.496074000  -1.97503  -0.975251  1.48394  0  0  0.0087755  0.229168  0.225528  -0.109879  0  0  0  1.27547  1.23495  -0.2004  0  0  0  0  0  0  0  0  0 
1701767419.501075000  -1.97387  -0.974107  1.48338  0  0  0.0091036  0.235556  0.231711  -0.110838  0  0  0  1.27952  1.23787  -0.183438  0  0  0  0  0  0  0  0  0 
1701767419.506077000  -1.97268  -0.972933  1.48283  0  0  0.009438  0.241962  0.237906  -0.111714  0  0  0  1.28282  1.24004  -0.167225  0  0  0  0  0  0  0  0  0 
1701767419.511081000  -1.97145  -0.971728  1.48227  0  0  0.0097786  0.248383  0.24411  -0.112511  0  0  0  1.28536  1.24146  -0.151762  0  0  0  0  0  0  0  0  0 
1701767419.516074000  -1.97019  -0.970492  1.4817  0  0  0.0101255  0.254814  0.250319  -0.113233  0  0  0  1.28716  1.24213  -0.137049  0  0  0  0  0  0  0  0  0 
1701767419.521074000  -1.9689  -0.969225  1.48113  0  0  0.0104786  0.261253  0.25653  -0.113883  0  0  0  1.28821  1.24205  -0.123086  0  0  0  0  0  0  0  0  0 
1701767419.526065000  -1.96758  -0.967927  1.48056  0  0  0.010838  0.267695  0.262738  -0.114465  0  0  0  1.28851  1.24122  -0.109873  0  0  0  0  0  0  0  0  0 
1701767419.531070000  -1.96623  -0.966598  1.47999  0  0  0.0112036  0.274137  0.268941  -0.114983  0  0  0  1.28806  1.23964  -0.0974106  0  0  0  0  0  0  0  0  0 
1701767419.536073000  -1.96484  -0.965238  1.47941  0  0  0.0115755  0.280575  0.275134  -0.115441  0  0  0  1.28686  1.23731  -0.0856977  0  0  0  0  0  0  0  0  0 
1701767419.541068000  -1.96342  -0.963847  1.47884  0  0  0.0119536  0.287004  0.281313  -0.115841  0  0  0  1.2849  1.23423  -0.0747349  0  0  0  0  0  0  0  0  0 
1701767419.546066000  -1.96197  -0.962425  1.47826  0  0  0.012338  0.293422  0.287475  -0.116189  0  0  0  1.2822  1.2304  -0.0645221  0  0  0  0  0  0  0  0  0 
1701767419.551066000  -1.96049  -0.960972  1.47767  0  0  0.0127286  0.299825  0.293615  -0.116488  0  0  0  1.27875  1.22582  -0.0550592  0  0  0  0  0  0  0  0  0 
1701767419.556073000  -1.95897  -0.959488  1.47709  0  0  0.0131255  0.306209  0.299732  -0.116741  0  0  0  1.27455  1.22049  -0.0463464  0  0  0  0  0  0  0  0  0 
1701767419.561066000  -1.95742  -0.957975  1.47651  0  0  0.0135286  0.312569  0.305819  -0.116953  0  0  0  1.2696  1.21441  -0.0383835  0  0  0  0  0  0  0  0  0 
1701767419.566072000  -1.95585  -0.95643  1.47592  0  0  0.013938  0.318903  0.311874  -0.117126  0  0  0  1.2639  1.20759  -0.0311707  0  0  0  0  0  0  0  0  0 
1701767419.571069000  -1.95424  -0.954856  1.47534  0  0  0.0143536  0.325207  0.317894  -0.117265  0  0  0  1.25745  1.20001  -0.0247079  0  0  0  0  0  0  0  0  0 
1701767419.576090000  -1.95259  -0.953251  1.47475  0  0  0.0147755  0.331477  0.323873  -0.117374  0  0  0  1.25024  1.19168  -0.018995  0  0  0  0  0  0  0  0  0 
1701767419.581078000  -1.95092  -0.951617  1.47416  0  0  0.0152036  0.337708  0.329809  -0.117457  0  0  0  1.24229  1.1826  -0.0140322  0  0  0  0  0  0  0  0  0 
1701767419.586071000  -1.94922  -0.949953  1.47357  0  0  0.015638  0.343898  0.335698  -0.117516  0  0  0  1.23359  1.17277  -0.0098193  0  0  0  0  0  0  0  0  0 
1701767419.591067000  -1.94748  -0.94826  1.47299  0  0  0.0160786  0.350043  0.341536  -0.117556  0  0  0  1.22414  1.16219  -0.0063565  0  0  0  0  0  0  0  0  0 
1701767419.596073000  -1.94572  -0.946538  1.4724  0  0  0.0165255  0.356138  0.347319  -0.117581  0  0  0  1.21394  1.15086  -0.0036437  0  0  0  0  0  0  0  0  0 
1701767419.601058000  -1.94392  -0.944787  1.47181  0  0  0.0169786  0.362181  0.353043  -0.117594  0  0  0  1.20299  1.13878  -0.0016808  0  0  0  0  0  0  0  0  0 
1701767419.606067000  -1.94209  -0.943008  1.47122  0  0  0.017438  0.368167  0.358705  -0.117599  0  0  0  1.19128  1.12595  -0.000468  0  0  0  0  0  0  0  0  0 
1701767419.611067000  -1.94024  -0.9412  1.47063  0  0  0.0179036  0.374093  0.364301  -0.1176  0  0  0  1.17883  1.11237  -5.1e-06  0  0  0  0  0  0  0  0  0 
1701767419.616074000  -1.93835  -0.939365  1.47005  0  0  0.0183755  0.379954  0.369828  -0.1176  0  0  0  1.16563  1.09804  -0  0  0  0  0  0  0  0  0  0 
1701767419.621069000  -1.93644  -0.937502  1.46946  0  0  0.0188536  0.385748  0.37528  -0.1176  0  0  0  1.15168  1.08296  -0  0  0  0  0  0  0  0  0  0 
1701767419.626072000  -1.9345  -0.935612  1.46887  0  0  0.019338  0.39147  0.380656  -0.1176  0  0  0  1.13698  1.06713  -0  0  0  0  0  0  0  0  0  0 
1701767419.631078000  -1.93252  -0.933696  1.46828  0  0  0.0198286  0.397116  0.385951  -0.1176  0  0  0  1.12153  1.05055  -0  0  0  0  0  0  0  0  0  0 
1701767419.636081000  -1.93053  -0.931753  1.46769  0  0  0.0203255  0.402684  0.39116  -0.1176  0  0  0  1.10533  1.03322  -0  0  0  0  0  0  0  0  0  0 
1701767419.641076000  -1.9285  -0.929784  1.46711  0  0  0.0208286  0.408168  0.396282  -0.1176  0  0  0  1.08837  1.01514  -0  0  0  0  0  0  0  0  0  0 
1701767419.646077000  -1.92644  -0.92779  1.46652  0  0  0.021338  0.413566  0.40131  -0.1176  0  0  0  1.07067  0.996314  -0  0  0  0  0  0  0  0  0  0 
1701767419.651066000  -1.92436  -0.925771  1.46593  0  0  0.0218536  0.418874  0.406243  -0.1176  0  0  0  1.05222  0.976735  -0  0  0  0  0  0  0  0  0  0 
1701767419.656078000  -1.92225  -0.923728  1.46534  0  0  0.0223755  0.424087  0.411077  -0.1176  0  0  0  1.03302  0.956405  -0  0  0  0  0  0  0  0  0  0 
1701767419.661067000  -1.92012  -0.921661  1.46475  0  0  0.0229036  0.429203  0.415806  -0.1176  0  0  0  1.01307  0.935326  -0  0  0  0  0  0  0  0  0  0 
1701767419.666076000  -1.91796  -0.91957  1.46417  0  0  0.023438  0.434217  0.420429  -0.1176  0  0  0  0.992366  0.913497  -0  0  0  0  0  0  0  0  0  0 
1701767419.671066000  -1.91578  -0.917457  1.46358  0  0  0.0239786  0.439125  0.42494  -0.1176  0  0  0  0.970915  0.890917  -0  0  0  0  0  0  0  0  0  0 
1701767419.676072000  -1.91357  -0.915321  1.46299  0  0  0.0245255  0.443924  0.429336  -0.1176  0  0  0  0.948713  0.867588  -0  0  0  0  0  0  0  0  0  0 
1701767419.681052000  -1.91134  -0.913163  1.4624  0  0  0.0250786  0.448611  0.433615  -0.1176  0  0  0  0.925762  0.843508  -0  0  0  0  0  0  0  0  0  0 
1701767419.686057000  -1.90909  -0.910985  1.46181  0  0  0.025638  0.453181  0.43777  -0.1176  0  0  0  0.90206  0.818679  -0  0  0  0  0  0  0  0  0  0 
1701767419.691067000  -1.90681  -0.908786  1.46123  0  0  0.0262036  0.45763  0.4418  -0.1176  0  0  0  0.877609  0.793099  -0  0  0  0  0  0  0  0  0  0 
1701767419.696100000  -1.90451  -0.906567  1.46064  0  0  0.0267755  0.461956  0.4457  -0.1176  0  0  0  0.852407  0.76677  -0  0  0  0  0  0  0  0  0  0 
1701767419.701059000  -1.90219  -0.904329  1.46005  0  0  0.0273536  0.466153  0.449467  -0.1176  0  0  0  0.826455  0.739691  -0  0  0  0  0  0  0  0  0  0 
1701767419.706082000  -1.89985  -0.902073  1.45946  0  0  0.027938  0.470219  0.453096  -0.1176  0  0  0  0.799754  0.711861  -0  0  0  0  0  0  0  0  0  0 
1701767419.711058000  -1.89749  -0.899798  1.45887  0  0  0.0285286  0.474149  0.456584  -0.1176  0  0  0  0.772302  0.683282  -0  0  0  0  0  0  0  0  0  0 
1701767419.716089000  -1.89511  -0.897507  1.45829  0  0  0.0291255  0.477941  0.459927  -0.1176  0  0  0  0.744101  0.653952  -0  0  0  0  0  0  0  0  0  0 
1701767419.721057000  -1.89271  -0.895199  1.4577  0  0  0.0297286  0.481589  0.463122  -0.1176  0  0  0  0.715149  0.623873  -0  0  0  0  0  0  0  0  0  0 
1701767419.726056000  -1.89029  -0.892876  1.45711  0  0  0.030338  0.485091  0.466166  -0.1176  0  0  0  0.685448  0.593663  -0  0  0  0  0  0  0  0  0  0 
1701767419.731054000  -1.88786  -0.890538  1.45652  0  0  0.0309536  0.488442  0.46906  -0.1176  0  0  0  0.654996  0.564197  -0  0  0  0  0  0  0  0  0  0 
1701767419.736089000  -1.88541  -0.888186  1.45593  0  0  0.0315755  0.49164  0.471809  -0.1176  0  0  0  0.624115  0.535481  -0  0  0  0  0  0  0  0  0  0 
1701767419.741072000  -1.88294  -0.88582  1.45535  0  0  0.0322036  0.494685  0.474416  -0.1176  0  0  0  0.593893  0.507515  -0  0  0  0  0  0  0  0  0  0 
1701767419.746086000  -1.88046  -0.883442  1.45476  0  0  0.032838  0.49758  0.476885  -0.1176  0  0  0  0.564421  0.480298  -0  0  0  0  0  0  0  0  0  0 
1701767419.751062000  -1.87797  -0.881052  1.45417  0  0  0.0334786  0.50033  0.47922  -0.1176  0  0  0  0.535699  0.453832  -0  0  0  0  0  0  0  0  0  0 
1701767419.756098000  -1.87546  -0.87865  1.45358  0  0  0.0341255  0.502938  0.481425  -0.1176  0  0  0  0.507727  0.428116  -0  0  0  0  0  0  0  0  0  0 
1701767419.761076000  -1.87294  -0.876237  1.45299  0  0  0.0347786  0.505409  0.483503  -0.1176  0  0  0  0.480505  0.40315  -0  0  0  0  0  0  0  0  0  0 
1701767419.766082000  -1.8704  -0.873815  1.45241  0  0  0.035438  0.507745  0.485458  -0.1176  0  0  0  0.454033  0.378934  -0  0  0  0  0  0  0  0  0  0 
1701767419.771086000  -1.86786  -0.871383  1.45182  0  0  0.0361036  0.50995  0.487293  -0.1176  0  0  0  0.428311  0.355468  -0  0  0  0  0  0  0  0  0  0 
1701767419.776086000  -1.8653  -0.868942  1.45123  0  0  0.0367755  0.512029  0.489014  -0.1176  0  0  0  0.403339  0.332751  -0  0  0  0  0  0  0  0  0  0 
1701767419.781056000  -1.86274  -0.866493  1.45064  0  0  0.0374536  0.513985  0.490622  -0.1176  0  0  0  0.379117  0.310785  -0  0  0  0  0  0  0  0  0  0 
1701767419.786061000  -1.86017  -0.864036  1.45005  0  0  0.038138  0.515821  0.492123  -0.1176  0  0  0  0.355645  0.289569  -0  0  0  0  0  0  0  0  0  0 
1701767419.791052000  -1.85758  -0.861572  1.44947  0  0  0.0388286  0.517543  0.493519  -0.1176  0  0  0  0.332923  0.269103  -0  0  0  0  0  0  0  0  0  0 
1701767419.796074000  -1.85499  -0.859101  1.44888  0  0  0.0395255  0.519152  0.494815  -0.1176  0  0  0  0.310951  0.249387  -0  0  0  0  0  0  0  0  0  0 
1701767419.801061000  -1.85239  -0.856624  1.44829  0  0  0.0402286  0.520653  0.496014  -0.1176  0  0  0  0.28973  0.230421  -0  0  0  0  0  0  0  0  0  0 
1701767419.806052000  -1.84978  -0.854141  1.4477  0  0  0.040938  0.522051  0.49712  -0.1176  0  0  0  0.269258  0.212205  -0  0  0  0  0  0  0  0  0  0 
1701767419.811051000  -1.84717  -0.851653  1.44711  0  0  0.0416536  0.523347  0.498137  -0.1176  0  0  0  0.249536  0.194738  -0  0  0  0  0  0  0  0  0  0 
1701767419.816074000  -1.84455  -0.84916  1.44653  0  0  0.0423755  0.524547  0.499069  -0.1176  0  0  0  0.230564  0.178022  -0  0  0  0  0  0  0  0  0  0 
1701767419.821052000  -1.84192  -0.846662  1.44594  0  0  0.0431036  0.525654  0.499919  -0.1176  0  0  0  0.212342  0.162056  -0  0  0  0  0  0  0  0  0  0 
1701767419.826057000  -1.83929  -0.844161  1.44535  0  0  0.043838  0.526672  0.500691  -0.1176  0  0  0  0.19487  0.14684  -0  0  0  0  0  0  0  0  0  0 
1701767419.831051000  -1.83666  -0.841656  1.44476  0  0  0.0445786  0.527604  0.501389  -0.1176  0  0  0  0.178148  0.132374  -0  0  0  0  0  0  0  0  0  0 
1701767419.836071000  -1.83402  -0.839147  1.44417  0  0  0.0453255  0.528455  0.502016  -0.1176  0  0  0  0.162176  0.118658  -0  0  0  0  0  0  0  0  0  0 
1701767419.841052000  -1.83137  -0.836636  1.44359  0  0  0.0460786  0.529227  0.502576  -0.1176  0  0  0  0.146954  0.105691  -0  0  0  0  0  0  0  0  0  0 
1701767419.846071000  -1.82873  -0.834122  1.443  0  0  0.046838  0.529925  0.503074  -0.1176  0  0  0  0.132482  0.0934753  -0  0  0  0  0  0  0  0  0  0 
1701767419.851063000  -1.82607  -0.831605  1.44241  0  0  0.0476036  0.530553  0.503512  -0.1176  0  0  0  0.11876  0.0820091  -0  0  0  0  0  0  0  0  0  0 
1701767419.856077000  -1.82342  -0.829086  1.44182  0  0  0.0483755  0.531114  0.503895  -0.1176  0  0  0  0.105788  0.071293  -0  0  0  0  0  0  0  0  0  0 
1701767419.861055000  -1.82076  -0.826566  1.44123  0  0  0.0491536  0.531612  0.504227  -0.1176  0  0  0  0.0935664  0.0613268  -0  0  0  0  0  0  0  0  0  0 
1701767419.866056000  -1.8181  -0.824044  1.44065  0  0  0.049938  0.532051  0.50451  -0.1176  0  0  0  0.0820945  0.0521107  -0  0  0  0  0  0  0  0  0  0 
1701767419.871076000  -1.81544  -0.821521  1.44006  0  0  0.0507286  0.532434  0.504749  -0.1176  0  0  0  0.0713726  0.0436445  -0  0  0  0  0  0  0  0  0  0 
1701767419.876075000  -1.81278  -0.818997  1.43947  0  0  0.0515255  0.532766  0.504948  -0.1176  0  0  0  0.0614007  0.0359284  -0  0  0  0  0  0  0  0  0  0 
1701767419.881054000  -1.81012  -0.816472  1.43888  0  0  0.0523286  0.53305  0.505109  -0.1176  0  0  0  0.0521787  0.0289622  -0  0  0  0  0  0  0  0  0  0 
1701767419.886058000  -1.80745  -0.813946  1.43829  0  0  0.053138  0.533289  0.505238  -0.1176  0  0  0  0.0437068  0.0227461  -0  0  0  0  0  0  0  0  0  0 
1701767419.891050000  -1.80478  -0.811419  1.43771  0  0  0.0539536  0.533488  0.505338  -0.1176  0  0  0  0.0359849  0.0172799  -0  0  0  0  0  0  0  0  0  0 
1701767419.896072000  -1.80211  -0.808892  1.43712  0  0  0.0547755  0.53365  0.505412  -0.1176  0  0  0  0.029013  0.0125637  -0  0  0  0  0  0  0  0  0  0 
1701767419.901052000  -1.79945  -0.806365  1.43653  0  0  0.0556036  0.533779  0.505465  -0.1176  0  0  0  0.022791  0.0085976  -0  0  0  0  0  0  0  0  0  0 
1701767419.906058000  -1.79678  -0.803838  1.43594  0  0  0.056438  0.533879  0.5055  -0.1176  0  0  0  0.0173191  0.0053814  -0  0  0  0  0  0  0  0  0  0 
1701767419.911051000  -1.79411  -0.80131  1.43535  0  0  0.0572786  0.533954  0.50552  -0.1176  0  0  0  0.0125972  0.0029153  -0  0  0  0  0  0  0  0  0  0 
1701767419.916080000  -1.79144  -0.798783  1.43477  0  0  0.0581255  0.534007  0.50553  -0.1176  0  0  0  0.0086252  0.0011991  -0  0  0  0  0  0  0  0  0  0 
1701767419.921053000  -1.78877  -0.796255  1.43418  0  0  0.0589786  0.534041  0.505533  -0.1176  0  0  0  0.0054033  0.000233  -0  0  0  0  0  0  0  0  0  0 
1701767419.926058000  -1.7861  -0.793727  1.43359  0  0  0.059838  0.534062  0.505534  -0.1176  0  0  0  0.0029314  0  -0  0  0  0  0  0  0  0  0  0 
1701767419.931050000  -1.78343  -0.7912  1.433  0  0  0.0607036  0.534072  0.505534  -0.1176  0  0  0  0.0012095  0  -0  0  0  0  0  0  0  0  0  0 
1701767419.936066000  -1.78076  -0.788672  1.43241  0  0  0.0615755  0.534075  0.505534  -0.1176  0  0  0  0.0002375  0  -0  0  0  0  0  0  0  0  0  0 
1701767419.941052000  -1.77809  -0.786144  1.43183  0  0  0.0624536  0.534076  0.505534  -0.1176  0  0  0  0  0  -0  0  0  0  0  0  0  0  0  0 
1701767419.946057000  -1.77542  -0.783617  1.43124  0  0  0.063338  0.534076  0.505534  -0.1176  0  0  0  0  0  -0  0  0  0  0  0  0  0  0  0 
1701767419.951050000  -1.77275  -0.781089  1.43065  0  0  0.0642286  0.534076  0.505534  -0.1176  0  0  0  0  0  -0  0  0  0  0  0  0  0  0  0 
1701767419.956072000  -1.77008  -0.778561  1.43006  0  0  0.0651255  0.534076  0.505534  -0.1176  0  0  0  0  0  -0  0  0  0  0  0  0  0  0  0 
1701767419.961051000  -1.7674  -0.776034  1.42947  0  0  0.0660286  0.534076  0.505534  -0.1176  0  0  0  0  0  -0  0  0  0  0  0  0  0  0  0 
1701767419.966056000  -1.76473  -0.773506  1.42889  0  0  0.066938  0.534076  0.505534  -0.1176  0  0  0  0  0  -0  0  0  0  0  0  0  0  0  0 
1701767419.971052000  -1.76206  -0.770978  1.4283  0  0  0.0678536  0.534076  0.505534  -0.1176  0  0  0  0  0  -0  0  0  0  0  0  0  0  0  0 
1701767419.976073000  -1.75939  -0.768451  1.42771  0  0  0.0687755  0.534076  0.505534  -0.1176  0  0  0  0  0  -0  0  0  0  0  0  0  0  0  0 
1701767419.981051000  -1.75672  -0.765923  1.42712  0  0  0.0697036  0.534076  0.505534  -0.1176  0  0  0  0  0  -0  0  0  0  0  0  0  0  0  0 
1701767419.986057000  -1.75405  -0.763395  1.42653  0  0  0.070638  0.534076  0.505534  -0.1176  0  0  0  0  0  -0  0  0  0  0  0  0  0  0  0 
1701767419.991050000  -1.75138  -0.760868  1.42595  0  0  0.0715786  0.534076  0.505534  -0.1176  0  0  0  0  0  -0  0  0  0  0  0  0  0  0  0 
1701767419.996072000  -1.74871  -0.75834  1.42536  0  0  0.0725255  0.534076  0.505534  -0.1176  0  0  0  0  0  -0  0  0  0  0  0  0  0  0  0 
1701767420.001050000  -1.74604  -0.755812  1.42477  0  0  0.0734786  0.534076  0.505534  -0.1176  0  0  0  0  0  -0  0  0  0  0  0  0  0  0  0 
1701767420.006058000  -1.74337  -0.753285  1.42418  0  0  0.074438  0.534076  0.505534  -0.1176  0  0  0  0  0  -0  0  0  0  0  0  0  0  0  0 
1701767420.011053000  -1.7407  -0.750757  1.42359  0  0  0.0754036  0.534076  0.505534  -0.1176  0  0  0  0  0  -0  0  0  0  0  0  0  0  0  0 
1701767420.016073000  -1.73803  -0.748229  1.42301  0  0  0.0763755  0.534076  0.505534  -0.1176  0  0  0  0  0  -0  0  0  0  0  0  0  0  0  0 
1701767420.021053000  -1.73536  -0.745702  1.42242  0  0  0.0773536  0.534076  0.505534  -0.1176  0  0  0  0  0  -0  0  0  0  0  0  0  0  0  0 
1701767420.026067000  -1.73269  -0.743174  1.42183  0  0  0.078338  0.534076  0.505534  -0.1176  0  0  0  0  0  -0  0  0  0  0  0  0  0  0  0 
1701767420.031050000  -1.73002  -0.740646  1.42124  0  0  0.0793286  0.534076  0.505534  -0.1176  0  0  0  0  0  -0  0  0  0  0  0  0  0  0  0 
1701767420.036066000  -1.72735  -0.738119  1.42065  0  0  0.0803255  0.534076  0.505534  -0.1176  0  0  0  0  0  -0  0  0  0  0  0  0  0  0  0 
1701767420.041053000  -1.72468  -0.735591  1.42007  0  0  0.0813286  0.534076  0.505534  -0.1176  0  0  0  0  0  -0  0  0  0  0  0  0  0  0  0 
1701767420.046060000  -1.72201  -0.733063  1.41948  0  0  0.082338  0.534076  0.505534  -0.1176  0  0  0  0  0  -0  0  0  0  0  0  0  0  0  0 
1701767420.051054000  -1.71934  -0.730536  1.41889  0  0  0.0833536  0.534076  0.505534  -0.1176  0  0  0  0  0  -0  0  0  0  0  0  0  0  0  0 
1701767420.056073000  -1.71667  -0.728008  1.4183  0  0  0.0843755  0.534076  0.505534  -0.1176  0  0  0  0  0  -0  0  0  0  0  0  0  0  0  0 
1701767420.061058000  -1.714  -0.72548  1.41771  0  0  0.0854036  0.534076  0.505534  -0.1176  0  0  0  0  0  -0  0  0  0  0  0  0  0  0  0 
1701767420.066053000  -1.71133  -0.722953  1.41713  0  0  0.086438  0.534076  0.505534  -0.1176  0  0  0  0  0  -0  0  0  0  0  0  0  0  0  0 
1701767420.071072000  -1.70866  -0.720425  1.41654  0  0  0.0874786  0.534076  0.505534  -0.1176  0  0  0  0  0  -0  0  0  0  0  0  0  0  0  0 
1701767420.076097000  -1.70599  -0.717897  1.41595  0  0  0.0885255  0.534076  0.505534  -0.1176  0  0  0  0  0  -0  0  0  0  0  0  0  0  0  0 
1701767420.081071000  -1.70332  -0.71537  1.41536  0  0  0.0895786  0.534076  0.505534  -0.1176  0  0  0  0  0  -0  0  0  0  0  0  0  0  0  0 
1701767420.086077000  -1.70065  -0.712842  1.41477  0  0  0.090638  0.534076  0.505534  -0.1176  0  0  0  0  0  -0  0  0  0  0  0  0  0  0  0 
1701767420.091053000  -1.69797  -0.710314  1.41419  0  0  0.0917036  0.534076  0.505534  -0.1176  0  0  0  0  0  -0  0  0  0  0  0  0  0  0  0 
1701767420.096077000  -1.6953  -0.707787  1.4136  0  0  0.0927755  0.534076  0.505534  -0.1176  0  0  0  0  0  -0  0  0  0  0  0  0  0  0  0 
1701767420.101053000  -1.69263  -0.705259  1.41301  0  0  0.0938536  0.534076  0.505534  -0.1176  0  0  0  0  0  -0  0  0  0  0  0  0  0  0  0 
1701767420.106060000  -1.68996  -0.702731  1.41242  0  0  0.094938  0.534076  0.505534  -0.1176  0  0  0  0  0  -0  0  0  0  0  0  0  0  0  0 
1701767420.111066000  -1.68729  -0.700204  1.41183  0  0  0.0960286  0.534076  0.505534  -0.1176  0  0  0  0  0  -0  0  0  0  0  0  0  0  0  0 
1701767420.116076000  -1.68462  -0.697676  1.41125  0  0  0.0971255  0.534076  0.505534  -0.1176  0  0  0  0  0  -0  0  0  0  0  0  0  0  0  0 
1701767420.121080000  -1.68195  -0.695148  1.41066  0  0  0.0982286  0.534076  0.505534  -0.1176  0  0  0  0  0  -0  0  0  0  0  0  0  0  0  0 
1701767420.126080000  -1.67928  -0.692621  1.41007  0  0  0.099338  0.534076  0.505534  -0.1176  0  0  0  0  0  -0  0  0  0  0  0  0  0  0  0 
1701767420.131073000  -1.67661  -0.690093  1.40948  0  0  0.100454  0.534076  0.505534  -0.1176  0  0  0  0  0  -0  0  0  0  0  0  0  0  0  0 
1701767420.136071000  -1.67394  -0.687565  1.40889  0  0  0.101576  0.534076  0.505534  -0.1176  0  0  0  0  0  -0  0  0  0  0  0  0  0  0  0 
1701767420.141050000  -1.67127  -0.685038  1.40831  0  0  0.102704  0.534076  0.505534  -0.1176  0  0  0  0  0  -0  0  0  0  0  0  0  0  0  0 
1701767420.146056000  -1.6686  -0.68251  1.40772  0  0  0.103838  0.534076  0.505534  -0.1176  0  0  0  0  0  -0  0  0  0  0  0  0  0  0  0 
1701767420.151051000  -1.66593  -0.679982  1.40713  0  0  0.104979  0.534076  0.505534  -0.1176  0  0  0  0  0  -0  0  0  0  0  0  0  0  0  0 
1701767420.156072000  -1.66326  -0.677455  1.40654  0  0  0.106126  0.534076  0.505534  -0.1176  0  0  0  0  0  -0  0  0  0  0  0  0  0  0  0 
1701767420.161051000  -1.66059  -0.674927  1.40595  0  0  0.107279  0.534076  0.505534  -0.1176  0  0  0  0  0  -0  0  0  0  0  0  0  0  0  0 
1701767420.166055000  -1.65792  -0.672399  1.40537  0  0  0.108438  0.534076  0.505534  -0.1176  0  0  0  0  0  -0  0  0  0  0  0  0  0  0  0 
1701767420.171050000  -1.65525  -0.669872  1.40478  0  0  0.109604  0.534076  0.505534  -0.1176  0  0  0  0  0  -0  0  0  0  0  0  0  0  0  0 
1701767420.176073000  -1.65258  -0.667344  1.40419  0  0  0.110776  0.534076  0.505534  -0.1176  0  0  0  0  0  -0  0  0  0  0  0  0  0  0  0 
1701767420.181051000  -1.64991  -0.664816  1.4036  0  0  0.111954  0.534076  0.505534  -0.1176  0  0  0  0  0  -0  0  0  0  0  0  0  0  0  0 
1701767420.186051000  -1.64724  -0.662289  1.40301  0  0  0.113138  0.534076  0.505534  -0.1176  0  0  0  0  0  -0  0  0  0  0  0  0  0  0  0 
1701767420.191051000  -1.64457  -0.659761  1.40243  0  0  0.114329  0.534076  0.505534  -0.1176  0  0  0  0  0  -0  0  0  0  0  0  0  0  0  0 
1701767420.196073000  -1.6419  -0.657233  1.40184  0  0  0.115526  0.534076  0.505534  -0.1176  0  0  0  0  0  -0  0  0  0  0  0  0  0  0  0 
1701767420.201051000  -1.63923  -0.654706  1.40125  0  0  0.116729  0.534076  0.505534  -0.1176  0  0  0  0  0  -0  0  0  0  0  0  0  0  0  0 
1701767420.206052000  -1.63656  -0.652178  1.40066  0  0  0.117938  0.534076  0.505534  -0.1176  0  0  0  0  0  -0  0  0  0  0  0  0  0  0  0 
1701767420.211051000  -1.63389  -0.64965  1.40007  0  0  0.119154  0.534076  0.505534  -0.1176  0  0  0  0  0  -0  0  0  0  0  0  0  0  0  0 
1701767420.216064000  -1.63122  -0.647123  1.39949  0  0  0.120376  0.534076  0.505534  -0.1176  0  0  0  0  0  -0  0  0  0  0  0  0  0  0  0 
1701767420.221066000  -1.62855  -0.644595  1.3989  0  0  0.121604  0.534076  0.505534  -0.1176  0  0  0  0  0  -0  0  0  0  0  0  0  0  0  0 
1701767420.226054000  -1.62587  -0.642067  1.39831  0  0  0.122838  0.534076  0.505534  -0.1176  0  0  0  0  0  -0  0  0  0  0  0  0  0  0  0 
1701767420.231071000  -1.6232  -0.63954  1.39772  0  0  0.124079  0.534076  0.505534  -0.1176  0  0  0  0  0  -0  0  0  0  0  0  0  0  0  0 
1701767420.236083000  -1.62053  -0.637012  1.39713  0  0  0.125326  0.534076  0.505534  -0.1176  0  0  0  0  0  -0  0  0  0  0  0  0  0  0  0 
1701767420.241048000  -1.61786  -0.634484  1.39655  0  0  0.126579  0.534076  0.505534  -0.1176  0  0  0  0  0  -0  0  0  0  0  0  0  0  0  0 
1701767420.246050000  -1.61519  -0.631957  1.39596  0  0  0.127838  0.534076  0.505534  -0.1176  0  0  0  0  0  -0  0  0  0  0  0  0  0  0  0 
1701767420.251056000  -1.61252  -0.629429  1.39537  0  0  0.129104  0.534076  0.505534  -0.1176  0  0  0  0  0  -0  0  0  0  0  0  0  0  0  0 
1701767420.256083000  -1.60985  -0.626901  1.39478  0  0  0.130376  0.534076  0.505534  -0.1176  0  0  0  0  0  -0  0  0  0  0  0  0  0  0  0 
1701767420.261067000  -1.60718  -0.624374  1.39419  0  0  0.131654  0.534076  0.505534  -0.1176  0  0  0  0  0  -0  0  0  0  0  0  0  0  0  0 
1701767420.266063000  -1.60451  -0.621846  1.39361  0  0  0.132938  0.534076  0.505534  -0.1176  0  0  0  0  0  -0  0  0  0  0  0  0  0  0  0 
1701767420.271054000  -1.60184  -0.619318  1.39302  0  0  0.134229  0.534076  0.505534  -0.1176  0  0  0  0  0  -0  0  0  0  0  0  0  0  0  0 
1701767420.276080000  -1.59917  -0.616791  1.39243  0  0  0.135526  0.534076  0.505534  -0.1176  0  0  0  0  0  -0  0  0  0  0  0  0  0  0  0 
1701767420.281054000  -1.5965  -0.614263  1.39184  0  0  0.136829  0.534076  0.505534  -0.1176  0  0  0  0  0  -0  0  0  0  0  0  0  0  0  0 
1701767420.286054000  -1.59383  -0.611735  1.39125  0  0  0.138138  0.534076  0.505534  -0.1176  0  0  0  0  0  -0  0  0  0  0  0  0  0  0  0 
1701767420.291053000  -1.59116  -0.609208  1.39067  0  0  0.139454  0.534076  0.505534  -0.1176  0  0  0  0  0  -0  0  0  0  0  0  0  0  0  0 
1701767420.296065000  -1.58849  -0.60668  1.39008  0  0  0.140776  0.534076  0.505534  -0.1176  0  0  0  0  0  -0  0  0  0  0  0  0  0  0  0 
1701767420.301054000  -1.58582  -0.604152  1.38949  0  0  0.142104  0.534076  0.505534  -0.1176  0  0  0  0  0  -0  0  0  0  0  0  0  0  0  0 
1701767420.306063000  -1.58315  -0.601625  1.3889  0  0  0.143438  0.534076  0.505534  -0.1176  0  0  0  0  0  -0  0  0  0  0  0  0  0  0  0 
1701767420.311053000  -1.58048  -0.599097  1.38831  0  0  0.144779  0.534076  0.505534  -0.1176  0  0  0  0  0  -0  0  0  0  0  0  0  0  0  0 
1701767420.316065000  -1.57781  -0.596569  1.38773  0  0  0.146126  0.534076  0.505534  -0.1176  0  0  0  0  0  -0  0  0  0  0  0  0  0  0  0 
1701767420.321055000  -1.57514  -0.594042  1.38714  0  0  0.147479  0.534076  0.505534  -0.1176  0  0  0  0  0  -0  0  0  0  0  0  0  0  0  0 
1701767420.326059000  -1.57247  -0.591514  1.38655  0  0  0.148838  0.534076  0.505534  -0.1176  0  0  0  0  0  -0  0  0  0  0  0  0  0  0  0 
1701767420.331055000  -1.5698  -0.588986  1.38596  0  0  0.150204  0.534076  0.505534  -0.1176  0  0  0  0  0  -0  0  0  0  0  0  0  0  0  0 
1701767420.336078000  -1.56713  -0.586459  1.38537  0  0  0.151576  0.534076  0.505534  -0.1176  0  0  0  0  0  -0  0  0  0  0  0  0  0  0  0 
1701767420.341053000  -1.56446  -0.583931  1.38479  0  0  0.152954  0.534076  0.505534  -0.1176  0  0  0  0  0  -0  0  0  0  0  0  0  0  0  0 
1701767420.346054000  -1.56179  -0.581403  1.3842  0  0  0.154338  0.534076  0.505534  -0.1176  0  0  0  0  0  -0  0  0  0  0  0  0  0  0  0 
1701767420.351053000  -1.55912  -0.578876  1.38361  0  0  0.155729  0.534076  0.505534  -0.1176  0  0  0  0  0  -0  0  0  0  0  0  0  0  0  0 
1701767420.356065000  -1.55644  -0.576348  1.38302  0  0  0.157126  0.534076  0.505534  -0.1176  0  0  0  0  0  -0  0  0  0  0  0  0  0  0  0 
1701767420.361056000  -1.55377  -0.57382  1.38243  0  0  0.158529  0.534076  0.505534  -0.1176  0  0  0  0  0  -0  0  0  0  0  0  0  0  0  0 
1701767420.366063000  -1.5511  -0.571293  1.38185  0  0  0.159938  0.534076  0.505534  -0.1176  0  0  0  0  0  -0  0  0  0  0  0  0  0  0  0 
1701767420.371054000  -1.54843  -0.568765  1.38126  0  0  0.161354  0.534076  0.505534  -0.1176  0  0  0  0  0  -0  0  0  0  0  0  0  0  0  0 
1701767420.376067000  -1.54576  -0.566237  1.38067  0  0  0.162776  0.534076  0.505534  -0.1176  0  0  0  0  0  -0  0  0  0  0  0  0  0  0  0 
1701767420.381056000  -1.54309  -0.56371  1.38008  0  0  0.164204  0.534076  0.505534  -0.1176  0  0  0  0  0  -0  0  0  0  0  0  0  0  0  0 
1701767420.386053000  -1.54042  -0.561182  1.37949  0  0  0.165638  0.534076  0.505534  -0.1176  0  0  0  0  0  -0  0  0  0  0  0  0  0  0  0 
1701767420.391053000  -1.53775  -0.558654  1.37891  0  0  0.167079  0.534076  0.505534  -0.1176  0  0  0  0  0  -0  0  0  0  0  0  0  0  0  0 
1701767420.396065000  -1.53508  -0.556127  1.37832  0  0  0.168526  0.534076  0.505534  -0.1176  0  0  0  0  0  -0  0  0  0  0  0  0  0  0  0 
1701767420.401053000  -1.53241  -0.553599  1.37773  0  0  0.169979  0.534076  0.505534  -0.1176  0  0  0  0  0  -0  0  0  0  0  0  0  0  0  0 
1701767420.406053000  -1.52974  -0.551071  1.37714  0  0  0.171438  0.534076  0.505534  -0.1176  0  0  0  0  0  -0  0  0  0  0  0  0  0  0  0 
1701767420.411052000  -1.52707  -0.548544  1.37655  0  0  0.172904  0.534076  0.505534  -0.1176  0  0  0  0  0  -0  0  0  0  0  0  0  0  0  0 
1701767420.416067000  -1.5244  -0.546016  1.37597  0  0  0.174376  0.534076  0.505534  -0.1176  0  0  0  0  0  -0  0  0  0  0  0  0  0  0  0 
1701767420.421056000  -1.52173  -0.543488  1.37538  0  0  0.175854  0.534076  0.505534  -0.1176  0  0  0  0  0  -0  0  0  0  0  0  0  0  0  0 
1701767420.426062000  -1.51906  -0.540961  1.37479  0  0  0.177338  0.534076  0.505534  -0.1176  0  0  0  0  0  -0  0  0  0  0  0  0  0  0  0 
1701767420.431053000  -1.51639  -0.538433  1.3742  0  0  0.178829  0.534076  0.505534  -0.1176  0  0  0  0  0  -0  0  0  0  0  0  0  0  0  0 
1701767420.436069000  -1.51372  -0.535905  1.37361  0  0  0.180326  0.534076  0.505534  -0.1176  0  0  0  0  0  -0  0  0  0  0  0  0  0  0  0 
1701767420.441054000  -1.51105  -0.533378  1.37303  0  0  0.181829  0.534076  0.505534  -0.1176  0  0  0  0  0  -0  0  0  0  0  0  0  0  0  0 
1701767420.446053000  -1.50838  -0.53085  1.37244  0  0  0.183338  0.534076  0.505534  -0.1176  0  0  0  0  0  -0  0  0  0  0  0  0  0  0  0 
1701767420.451050000  -1.50571  -0.528322  1.37185  0  0  0.184854  0.534076  0.505534  -0.1176  0  0  0  0  0  -0  0  0  0  0  0  0  0  0  0 
1701767420.456066000  -1.50304  -0.525794  1.37126  0  0  0.186376  0.534076  0.505534  -0.1176  0  0  0  0  0  -0  0  0  0  0  0  0  0  0  0 
1701767420.461055000  -1.50037  -0.523267  1.37067  0  0  0.187904  0.534076  0.505534  -0.1176  0  0  0  0  0  -0  0  0  0  0  0  0  0  0  0 
1701767420.466057000  -1.4977  -0.520739  1.37009  0  0  0.189438  0.534076  0.505534  -0.1176  0  0  0  0  0  -0  0  0  0  0  0  0  0  0  0 
1701767420.471053000  -1.49503  -0.518211  1.3695  0  0  0.190979  0.534076  0.505534  -0.1176  0  0  0  0  0  -0  0  0  0  0  0  0  0  0  0 
1701767420.476065000  -1.49236  -0.515684  1.36891  0  0  0.192526  0.534076  0.505534  -0.1176  0  0  0  0  0  -0  0  0  0  0  0  0  0  0  0 
1701767420.481054000  -1.48969  -0.513156  1.36832  0  0  0.194079  0.534076  0.505534  -0.1176  0  0  0  0  0  -0  0  0  0  0  0  0  0  0  0 
1701767420.486061000  -1.48701  -0.510628  1.36773  0  0  0.195638  0.534076  0.505534  -0.1176  0  0  0  0  0  -0  0  0  0  0  0  0  0  0  0 
1701767420.491053000  -1.48434  -0.508101  1.36715  0  0  0.197204  0.534076  0.505534  -0.1176  0  0  0  0  0  -0  0  0  0  0  0  0  0  0  0 
1701767420.496076000  -1.48167  -0.505573  1.36656  0  0  0.198776  0.534076  0.505534  -0.1176  0  0  0  0  0  -0  0  0  0  0  0  0  0  0  0 
1701767420.501054000  -1.479  -0.503045  1.36597  0  0  0.200354  0.534076  0.505534  -0.1176  0  0  0  0  0  -0  0  0  0  0  0  0  0  0  0 
1701767420.506052000  -1.47633  -0.500518  1.36538  0  0  0.201938  0.534076  0.505534  -0.1176  0  0  0  0  0  -0  0  0  0  0  0  0  0  0  0 
1701767420.511054000  -1.47366  -0.49799  1.36479  0  0  0.203529  0.534076  0.505534  -0.1176  0  0  0  0  0  -0  0  0  0  0  0  0  0  0  0 
1701767420.516065000  -1.47099  -0.495462  1.36421  0  0  0.205126  0.534076  0.505534  -0.1176  0  0  0  0  0  -0  0  0  0  0  0  0  0  0  0 
1701767420.521055000  -1.46832  -0.492935  1.36362  0  0  0.206729  0.534076  0.505534  -0.1176  0  0  0  0  0  -0  0  0  0  0  0  0  0  0  0 
1701767420.526053000  -1.46565  -0.490407  1.36303  0  0  0.208338  0.534076  0.505534  -0.1176  0  0  0  0  0  -0  0  0  0  0  0  0  0  0  0 
1701767420.531053000  -1.46298  -0.487879  1.36244  0  0  0.209954  0.534076  0.505534  -0.1176  0  0  0  0  0  -0  0  0  0  0  0  0  0  0  0 
1701767420.536066000  -1.46031  -0.485352  1.36185  0  0  0.211576  0.534076  0.505534  -0.1176  0  0  0  0  0  -0  0  0  0  0  0  0  0  0  0 
1701767420.541052000  -1.45764  -0.482824  1.36127  0  0  0.213204  0.534076  0.505534  -0.1176  0  0  0  0  0  -0  0  0  0  0  0  0  0  0  0 
1701767420.546072000  -1.45497  -0.480296  1.36068  0  0  0.214838  0.534076  0.505534  -0.1176  0  0  0  0  0  -0  0  0  0  0  0  0  0  0  0 
1701767420.551053000  -1.4523  -0.477769  1.36009  0  0  0.216479  0.534076  0.505534  -0.1176  0  0  0  0  0  -0  0  0  0  0  0  0  0  0  0 
1701767420.556065000  -1.44963  -0.475241  1.3595  0  0  0.218126  0.534076  0.505534  -0.1176  0  0  0  0  0  -0  0  0  0  0  0  0  0  0  0 
1701767420.561049000  -1.44696  -0.472713  1.35891  0  0  0.219779  0.534076  0.505534  -0.1176  0  0  0  0  0  -0  0  0  0  0  0  0  0  0  0 
1701767420.566060000  -1.44429  -0.470186  1.35833  0  0  0.221438  0.534076  0.505534  -0.1176  0  0  0  0  0  -0  0  0  0  0  0  0  0  0  0 
1701767420.571067000  -1.44162  -0.467658  1.35774  0  0  0.223104  0.534076  0.505534  -0.1176  0  0  0  0  0  -0  0  0  0  0  0  0  0  0  0 
1701767420.576078000  -1.43895  -0.46513  1.35715  0  0  0.224776  0.534076  0.505534  -0.1176  0  0  0  0  0  -0  0  0  0  0  0  0  0  0  0 
1701767420.581054000  -1.43628  -0.462603  1.35656  0  0  0.226454  0.534076  0.505534  -0.1176  0  0  0  0  0  -0  0  0  0  0  0  0  0  0  0 
1701767420.586064000  -1.43361  -0.460075  1.35597  0  0  0.228138  0.534076  0.505534  -0.1176  0  0  0  0  0  -0  0  0  0  0  0  0  0  0  0 
1701767420.591053000  -1.43094  -0.457547  1.35539  0  0  0.229829  0.534076  0.505534  -0.1176  0  0  0  0  0  -0  0  0  0  0  0  0  0  0  0 
1701767420.596068000  -1.42827  -0.45502  1.3548  0  0  0.231526  0.534076  0.505534  -0.1176  0  0  0  0  0  -0  0  0  0  0  0  0  0  0  0 
1701767420.601054000  -1.4256  -0.452492  1.35421  0  0  0.233229  0.534076  0.505534  -0.1176  0  0  0  0  0  -0  0  0  0  0  0  0  0  0  0 
1701767420.606062000  -1.42293  -0.449964  1.35362  0  0  0.234938  0.534076  0.505534  -0.1176  0  0  0  0  0  -0  0  0  0  0  0  0  0  0  0 
1701767420.611057000  -1.42026  -0.447437  1.35303  0  0  0.236654  0.534076  0.505534  -0.1176  0  0  0  0  0  -0  0  0  0  0  0  0  0  0  0 
1701767420.616075000  -1.41759  -0.444909  1.35245  0  0  0.238376  0.534076  0.505534  -0.1176  0  0  0  0  0  -0  0  0  0  0  0  0  0  0  0 
1701767420.621054000  -1.41491  -0.442381  1.35186  0  0  0.240104  0.534076  0.505534  -0.1176  0  0  0  0  0  -0  0  0  0  0  0  0  0  0  0 
1701767420.626062000  -1.41224  -0.439854  1.35127  0  0  0.241838  0.534076  0.505534  -0.1176  0  0  0  0  0  -0  0  0  0  0  0  0  0  0  0 
1701767420.631054000  -1.40957  -0.437326  1.35068  0  0  0.243579  0.534076  0.505534  -0.1176  0  0  0  0  0  -0  0  0  0  0  0  0  0  0  0 
1701767420.636078000  -1.4069  -0.434798  1.35009  0  0  0.245326  0.534076  0.505534  -0.1176  0  0  0  0  0  -0  0  0  0  0  0  0  0  0  0 
1701767420.641054000  -1.40423  -0.432271  1.34951  0  0  0.247079  0.534076  0.505534  -0.1176  0  0  0  0  0  -0  0  0  0  0  0  0  0  0  0 
1701767420.646053000  -1.40156  -0.429743  1.34892  0  0  0.248838  0.534076  0.505534  -0.1176  0  0  0  0  0  -0  0  0  0  0  0  0  0  0  0 
1701767420.651050000  -1.39889  -0.427215  1.34833  0  0  0.250604  0.534076  0.505534  -0.1176  0  0  0  0  0  -0  0  0  0  0  0  0  0  0  0 
1701767420.656074000  -1.39622  -0.424688  1.34774  0  0  0.252375  0.534076  0.505534  -0.1176  0  0  0  0  0  -0  0  0  0  0  0  0  0  0  0 
1701767420.661047000  -1.39355  -0.42216  1.34715  0  0  0.254153  0.534076  0.505534  -0.1176  0  0  0  0  0  -0  0  0  0  0  0  0  0  0  0 
1701767420.666079000  -1.39088  -0.419632  1.34657  0  0  0.255938  0.534076  0.505534  -0.1176  0  0  0  0  0  -0  0  0  0  0  0  0  0  0  0 
1701767420.671091000  -1.38821  -0.417105  1.34598  0  0  0.257728  0.534076  0.505534  -0.1176  0  0  0  0  0  -0  0  0  0  0  0  0  0  0  0 
1701767420.676063000  -1.38554  -0.414577  1.34539  0  0  0.259524  0.534076  0.505534  -0.1176  0  0  0  0  0  -0  0  0  0  0  0  0  0  0  0 
1701767420.681052000  -1.38287  -0.412049  1.3448  0  0  0.261326  0.534076  0.505534  -0.1176  0  0  0  0  0  -0  0  0  0  0  0  0  0  0  0 
1701767420.686060000  -1.3802  -0.409522  1.34421  0  0  0.263135  0.534076  0.505534  -0.1176  0  0  0  0  0  -0  0  0  0  0  0  0  0  0  0 
1701767420.691066000  -1.37753  -0.406994  1.34363  0  0  0.264949  0.534076  0.505534  -0.1176  0  0  0  0  0  -0  0  0  0  0  0  0  0  0  0 
1701767420.696065000  -1.37486  -0.404466  1.34304  0  0  0.266768  0.534076  0.505534  -0.1176  0  0  0  0  0  -0  0  0  0  0  0  0  0  0  0 
1701767420.701051000  -1.37219  -0.401939  1.34245  0  0  0.268594  0.534076  0.505534  -0.1176  0  0  0  0  0  -0  0  0  0  0  0  0  0  0  0 
1701767420.706084000  -1.36952  -0.399411  1.34186  0  0  0.270424  0.534076  0.505534  -0.1176  0  0  0  0  0  -0  0  0  0  0  0  0  0  0  0 
1701767420.711063000  -1.36685  -0.396883  1.34127  0  0  0.27226  0.534076  0.505534  -0.1176  0  0  0  0  0  -0  0  0  0  0  0  0  0  0  0 
1701767420.716083000  -1.36418  -0.394356  1.34069  0  0  0.274102  0.534076  0.505534  -0.1176  0  0  0  0  0  -0  0  0  0  0  0  0  0  0  0 
1701767420.721048000  -1.36151  -0.391828  1.3401  0  0  0.275948  0.534076  0.505534  -0.1176  0  0  0  0  0  -0  0  0  0  0  0  0  0  0  0 
1701767420.726057000  -1.35884  -0.3893  1.33951  0  0  0.277799  0.534076  0.505534  -0.1176  0  0  0  0  0  -0  0  0  0  0  0  0  0  0  0 
1701767420.731045000  -1.35617  -0.386773  1.33892  0  0  0.279655  0.534076  0.505534  -0.1176  0  0  0  0  0  -0  0  0  0  0  0  0  0  0  0 
1701767420.736074000  -1.3535  -0.384245  1.33833  0  0  0.281516  0.534076  0.505534  -0.1176  0  0  0  0  0  -0  0  0  0  0  0  0  0  0  0 
1701767420.741051000  -1.35083  -0.381717  1.33775  0  0  0.28338  0.534076  0.505534  -0.1176  0  0  0  0  0  -0  0  0  0  0  0  0  0  0  0 
1701767420.746051000  -1.34816  -0.37919  1.33716  0  0  0.285249  0.534076  0.505534  -0.1176  0  0  0  0  0  -0  0  0  0  0  0  0  0  0  0 
1701767420.751051000  -1.34548  -0.376662  1.33657  0  0  0.287122  0.534076  0.505534  -0.1176  0  0  0  0  0  -0  0  0  0  0  0  0  0  0  0 
1701767420.756069000  -1.34281  -0.374134  1.33598  0  0  0.288999  0.534076  0.505534  -0.1176  0  0  0  0  0  -0  0  0  0  0  0  0  0  0  0 
1701767420.761056000  -1.34014  -0.371607  1.33539  0  0  0.290879  0.534076  0.505534  -0.1176  0  0  0  0  0  -0  0  0  0  0  0  0  0  0  0 
1701767420.766053000  -1.33747  -0.369079  1.33481  0  0  0.292762  0.534076  0.505534  -0.1176  0  0  0  0  0  -0  0  0  0  0  0  0  0  0  0 
1701767420.771051000  -1.3348  -0.366551  1.33422  0  0  0.294649  0.534076  0.505534  -0.1176  0  0  0  0  0  -0  0  0  0  0  0  0  0  0  0 
1701767420.776074000  -1.33213  -0.364024  1.33363  0  0  0.296538  0.534076  0.505534  -0.1176  0  0  0  0  0  -0  0  0  0  0  0  0  0  0  0 
1701767420.781052000  -1.32946  -0.361496  1.33304  0  0  0.29843  0.534076  0.505534  -0.1176  0  0  0  0  0  -0  0  0  0  0  0  0  0  0  0 
1701767420.786056000  -1.32679  -0.358968  1.33245  0  0  0.300324  0.534076  0.505534  -0.1176  0  0  0  0  0  -0  0  0  0  0  0  0  0  0  0 
1701767420.791051000  -1.32412  -0.356441  1.33187  0  0  0.30222  0.534076  0.505534  -0.1176  0  0  0  0  0  -0  0  0  0  0  0  0  0  0  0 
1701767420.796064000  -1.32145  -0.353913  1.33128  0  0  0.304118  0.534076  0.505534  -0.1176  0  0  0  0  0  -0  0  0  0  0  0  0  0  0  0 
1701767420.801050000  -1.31878  -0.351385  1.33069  0  0  0.306018  0.534076  0.505534  -0.1176  0  0  0  0  0  -0  0  0  0  0  0  0  0  0  0 
1701767420.806051000  -1.31611  -0.348858  1.3301  0  0  0.307919  0.534076  0.505534  -0.1176  0  0  0  0  0  -0  0  0  0  0  0  0  0  0  0 
1701767420.811056000  -1.31344  -0.34633  1.32951  0  0  0.309822  0.534076  0.505534  -0.1176  0  0  0  0  0  -0  0  0  0  0  0  0  0  0  0 
1701767420.816076000  -1.31077  -0.343802  1.32893  0  0  0.311725  0.534076  0.505534  -0.1176  0  0  0  0  0  -0  0  0  0  0  0  0  0  0  0 
1701767420.821069000  -1.3081  -0.341275  1.32834  0  0  0.31363  0.534076  0.505534  -0.1176  0  0  0  0  0  -0  0  0  0  0  0  0  0  0  0 
1701767420.826071000  -1.30543  -0.338747  1.32775  0  0  0.315536  0.534076  0.505534  -0.1176  0  0  0  0  0  -0  0  0  0  0  0  0  0  0  0 
1701767420.831068000  -1.30276  -0.336219  1.32716  0  0  0.317443  0.534076  0.505534  -0.1176  0  0  0  0  0  -0  0  0  0  0  0  0  0  0  0 
1701767420.836083000  -1.30009  -0.333692  1.32657  0  0  0.31935  0.534076  0.505534  -0.1176  0  0  0  0  0  -0  0  0  0  0  0  0  0  0  0 
1701767420.841067000  -1.29742  -0.331164  1.32599  0  0  0.321258  0.534076  0.505534  -0.1176  0  0  0  0  0  -0  0  0  0  0  0  0  0  0  0 
1701767420.846068000  -1.29475  -0.328636  1.3254  0  0  0.323166  0.534076  0.505534  -0.1176  0  0  0  0  0  -0  0  0  0  0  0  0  0  0  0 
1701767420.851066000  -1.29208  -0.326109  1.32481  0  0  0.325075  0.534076  0.505534  -0.1176  0  0  0  0  0  -0  0  0  0  0  0  0  0  0  0 
1701767420.856080000  -1.28941  -0.323581  1.32422  0  0  0.326984  0.534076  0.505534  -0.1176  0  0  0  0  0  -0  0  0  0  0  0  0  0  0  0 
1701767420.861066000  -1.28674  -0.321053  1.32363  0  0  0.328893  0.534076  0.505534  -0.1176  0  0  0  0  0  -0  0  0  0  0  0  0  0  0  0 
1701767420.866051000  -1.28407  -0.318526  1.32305  0  0  0.330802  0.534076  0.505534  -0.1176  0  0  0  0  0  -0  0  0  0  0  0  0  0  0  0 
1701767420.871068000  -1.2814  -0.315998  1.32246  0  0  0.332712  0.534076  0.505534  -0.1176  0  0  0  0  0  -0  0  0  0  0  0  0  0  0  0 
1701767420.876080000  -1.27873  -0.31347  1.32187  0  0  0.334621  0.534076  0.505534  -0.1176  0  0  0  0  0  -0  0  0  0  0  0  0  0  0  0 
1701767420.881069000  -1.27606  -0.310943  1.32128  0  0  0.336531  0.534076  0.505534  -0.1176  0  0  0  0  0  -0  0  0  0  0  0  0  0  0  0 
1701767420.886071000  -1.27338  -0.308415  1.32069  0  0  0.33844  0.534076  0.505534  -0.1176  0  0  0  0  0  -0  0  0  0  0  0  0  0  0  0 
1701767420.891068000  -1.27071  -0.305887  1.32011  0  0  0.34035  0.534076  0.505534  -0.1176  0  0  0  0  0  -0  0  0  0  0  0  0  0  0  0 
1701767420.896081000  -1.26804  -0.30336  1.31952  0  0  0.342259  0.534076  0.505534  -0.1176  0  0  0  0  0  -0  0  0  0  0  0  0  0  0  0 
1701767420.901066000  -1.26537  -0.300832  1.31893  0  0  0.344169  0.534076  0.505534  -0.1176  0  0  0  0  0  -0  0  0  0  0  0  0  0  0  0 
1701767420.906071000  -1.2627  -0.298304  1.31834  0  0  0.346078  0.534076  0.505534  -0.1176  0  0  0  0  0  -0  0  0  0  0  0  0  0  0  0 
1701767420.911067000  -1.26003  -0.295777  1.31775  0  0  0.347987  0.534076  0.505534  -0.1176  0  0  0  0  0  -0  0  0  0  0  0  0  0  0  0 
1701767420.916074000  -1.25736  -0.293249  1.31717  0  0  0.349897  0.534076  0.505534  -0.1176  0  0  0  0  0  -0  0  0  0  0  0  0  0  0  0 
1701767420.921066000  -1.25469  -0.290721  1.31658  0  0  0.351806  0.534076  0.505534  -0.1176  0  0  0  0  0  -0  0  0  0  0  0  0  0  0  0 
1701767420.926071000  -1.25202  -0.288194  1.31599  0  0  0.353715  0.534076  0.505534  -0.1176  0  0  0  0  0  -0  0  0  0  0  0  0  0  0  0 
1701767420.931068000  -1.24935  -0.285666  1.3154  0  0  0.355624  0.534076  0.505534  -0.1176  0  0  0  0  0  -0  0  0  0  0  0  0  0  0  0 
1701767420.936073000  -1.24668  -0.283138  1.31481  0  0  0.357532  0.534076  0.505534  -0.1176  0  0  0  0  0  -0  0  0  0  0  0  0  0  0  0 
1701767420.941074000  -1.24401  -0.280611  1.31423  0  0  0.35944  0.534076  0.505534  -0.1176  0  0  0  0  0  -0  0  0  0  0  0  0  0  0  0 
1701767420.946066000  -1.24134  -0.278083  1.31364  0  0  0.361347  0.534076  0.505534  -0.1176  0  0  0  0  0  -0  0  0  0  0  0  0  0  0  0 
1701767420.951068000  -1.23867  -0.275555  1.31305  0  0  0.363254  0.534076  0.505534  -0.1176  0  0  0  0  0  -0  0  0  0  0  0  0  0  0  0 
1701767420.956073000  -1.236  -0.273028  1.31246  0  0  0.36516  0.534076  0.505534  -0.1176  0  0  0  0  0  -0  0  0  0  0  0  0  0  0  0 
1701767420.961075000  -1.23333  -0.2705  1.31187  0  0  0.367065  0.534076  0.505534  -0.1176  0  0  0  0  0  -0  0  0  0  0  0  0  0  0  0 
1701767420.966069000  -1.23066  -0.267972  1.31129  0  0  0.368969  0.534076  0.505534  -0.1176  0  0  0  0  0  -0  0  0  0  0  0  0  0  0  0 
1701767420.971066000  -1.22799  -0.265445  1.3107  0  0  0.370871  0.534076  0.505534  -0.1176  0  0  0  0  0  -0  0  0  0  0  0  0  0  0  0 
1701767420.976058000  -1.22532  -0.262917  1.31011  0  0  0.372773  0.534076  0.505534  -0.1176  0  0  0  0  0  -0  0  0  0  0  0  0  0  0  0 
1701767420.981067000  -1.22265  -0.260389  1.30952  0  0  0.374673  0.534076  0.505534  -0.1176  0  0  0  0  0  -0  0  0  0  0  0  0  0  0  0 
1701767420.986078000  -1.21998  -0.257862  1.30893  0  0  0.376571  0.534076  0.505534  -0.1176  0  0  0  0  0  -0  0  0  0  0  0  0  0  0  0 
1701767420.991072000  -1.21731  -0.255334  1.30835  0  0  0.378467  0.534076  0.505534  -0.1176  0  0  0  0  0  -0  0  0  0  0  0  0  0  0  0 
1701767420.996086000  -1.21464  -0.252806  1.30776  0  0  0.380361  0.534076  0.505534  -0.1176  0  0  0  0  0  -0  0  0  0  0  0  0  0  0  0 
1701767421.001076000  -1.21197  -0.250279  1.30717  0  0  0.382253  0.534076  0.505534  -0.1176  0  0  0  0  0  -0  0  0  0  0  0  0  0  0  0 
1701767421.006076000  -1.2093  -0.247751  1.30658  0  0  0.384143  0.534076  0.505534  -0.1176  0  0  0  0  0  -0  0  0  0  0  0  0  0  0  0 
1701767421.011071000  -1.20663  -0.245223  1.30599  0  0  0.386029  0.534076  0.505534  -0.1176  0  0  0  0  0  -0  0  0  0  0  0  0  0  0  0 
1701767421.016086000  -1.20395  -0.242696  1.30541  0  0  0.387913  0.534076  0.505534  -0.1176  0  0  0  0  0  -0  0  0  0  0  0  0  0  0  0 
1701767421.021077000  -1.20128  -0.240168  1.30482  0  0  0.389794  0.534076  0.505534  -0.1176  0  0  0  0  0  -0  0  0  0  0  0  0  0  0  0 
1701767421.026074000  -1.19861  -0.23764  1.30423  0  0  0.391671  0.534076  0.505534  -0.1176  0  0  0  0  0  -0  0  0  0  0  0  0  0  0  0 
1701767421.031071000  -1.19594  -0.235113  1.30364  0  0  0.393544  0.534076  0.505534  -0.1176  0  0  0  0  0  -0  0  0  0  0  0  0  0  0  0 
1701767421.036087000  -1.19327  -0.232585  1.30305  0  0  0.395413  0.534076  0.505534  -0.1176  0  0  0  0  0  -0  0  0  0  0  0  0  0  0  0 
1701767421.041079000  -1.1906  -0.230057  1.30247  0  0  0.397278  0.534076  0.505534  -0.1176  0  0  0  0  0  -0  0  0  0  0  0  0  0  0  0 
1701767421.046070000  -1.18793  -0.22753  1.30188  0  0  0.399139  0.534076  0.505534  -0.1176  0  0  0  0  0  -0  0  0  0  0  0  0  0  0  0 
1701767421.051071000  -1.18526  -0.225002  1.30129  0  0  0.400996  0.534076  0.505534  -0.1176  0  0  0  0  0  -0  0  0  0  0  0  0  0  0  0 
1701767421.056087000  -1.18259  -0.222474  1.3007  0  0  0.402847  0.534076  0.505534  -0.1176  0  0  0  0  0  -0  0  0  0  0  0  0  0  0  0 
1701767421.061078000  -1.17992  -0.219947  1.30011  0  0  0.404694  0.534076  0.505534  -0.1176  0  0  0  0  0  -0  0  0  0  0  0  0  0  0  0 
1701767421.066071000  -1.17725  -0.217419  1.29953  0  0  0.406536  0.534076  0.505534  -0.1176  0  0  0  0  0  -0  0  0  0  0  0  0  0  0  0 
1701767421.071070000  -1.17458  -0.214891  1.29894  0  0  0.408372  0.534076  0.505534  -0.1176  0  0  0  0  0  -0  0  0  0  0  0  0  0  0  0 
1701767421.076084000  -1.17191  -0.212364  1.29835  0  0  0.410204  0.534076  0.505534  -0.1176  0  0  0  0  0  -0  0  0  0  0  0  0  0  0  0 
1701767421.081198000  -1.16924  -0.209836  1.29776  0  0  0.412029  0.534076  0.505534  -0.1176  0  0  0  0  0  -0  0  0  0  0  0  0  0  0  0 
1701767421.086048000  -1.16657  -0.207308  1.29717  0  0  0.41385  0.534076  0.505534  -0.1176  0  0  0  0  0  -0  0  0  0  0  0  0  0  0  0 
1701767421.091076000  -1.1639  -0.204781  1.29659  0  0  0.415664  0.534076  0.505534  -0.1176  0  0  0  0  0  -0  0  0  0  0  0  0  0  0  0 
1701767421.096072000  -1.16123  -0.202253  1.296  0  0  0.417473  0.534076  0.505534  -0.1176  0  0  0  0  0  -0  0  0  0  0  0  0  0  0  0 
1701767421.101071000  -1.15856  -0.199725  1.29541  0  0  0.419276  0.534076  0.505534  -0.1176  0  0  0  0  0  -0  0  0  0  0  0  0  0  0  0 
1701767421.106070000  -1.15589  -0.197198  1.29482  0  0  0.421072  0.534076  0.505534  -0.1176  0  0  0  0  0  -0  0  0  0  0  0  0  0  0  0 
