ts fx fy fz tx ty tz exfx exfy exfz extx exty extz xd yd zd rolld pitchd yawd vxd vyd vzd wxd wyd wzd axd ayd azd e_x e_y e_z e_vx e_vy e_vz e_rx e_ry e_rz e_wx e_wy e_wz
1701767419.057037000  0  0  12.0324  0.0909253  -0.0369194  0.000268971  nan  nan  nan  nan  nan  nan  -2  -1  1.5  0.0253333  -0.00419121  -0.000106199  0  0  0  0  0  0  0  0  0  0.00427151  0.00681919  -0.024392  -0.00388435  0.0187275  -0.00129095  -0.0271562  0.0153687  0.000484288  0.0679863  -0.0675535  -0.00820502 
1701767419.061060000  0  0  12.0222  0.0937522  -0.0432549  0.000263469  nan  nan  nan  nan  nan  nan  -2  -1  1.5  0.0255263  -0.00417051  -0.00010648  0  0  0  0  0  0  0  0  0  0.00425447  0.00689437  -0.0243883  -0.00387894  0.0187893  -0.000435354  -0.0271462  0.015241  0.000456455  0.0622404  -0.0537074  -0.00785792 
1701767419.066068000  0  0  11.9877  0.0806187  -0.0229847  0.00119699  nan  nan  nan  nan  nan  nan  -2  -1  1.5  0.0251101  -0.00482885  -0.000121278  0  0  0  0  0  0  0  0  0  0.0042533  0.00690801  -0.0244248  -0.00301493  0.0181059  0.00252695  -0.0262447  0.0151346  0.000316351  0.0802143  -0.0932688  -0.0181258 
1701767419.071058000  0  0  12.0306  0.0819465  -0.0308996  0.00145377  nan  nan  nan  nan  nan  nan  -2  -1  1.5  0.0250991  -0.00475605  -0.000119397  0  0  0  0  0  0  0  0  0  0.00423299  0.00693  -0.0245171  -0.00304425  0.0181615  -0.00084232  -0.0259082  0.014752  0.000197983  0.0744629  -0.073919  -0.0201519 
1701767419.076048000  0  0  12.0113  0.084499  -0.0428922  0.00137958  nan  nan  nan  nan  nan  nan  -2  -1  1.5  0.0252414  -0.00485284  -0.000122518  0  0  0  0  0  0  0  0  0  0.00421723  0.00701954  -0.0245063  -0.00289019  0.0180985  0.000754484  -0.0257743  0.0148009  0.000121434  0.0681252  -0.0503842  -0.0184591 
1701767419.080991000  0  0  11.9854  0.0698767  -0.0184304  0.00211208  nan  nan  nan  nan  nan  nan  -2  -1  1.5  0.0248301  -0.00542472  -0.000134724  0  0  0  0  0  0  0  0  0  0.00420709  0.00703421  -0.0245503  -0.00211973  0.0174444  0.00302275  -0.0248113  0.014556  -4.74809e-05  0.0885102  -0.0970547  -0.0259261 
1701767419.085045000  0  0  12.0331  0.0747734  -0.0289724  0.00139675  nan  nan  nan  nan  nan  nan  -2  -1  1.5  0.0251576  -0.00535022  -0.000134626  0  0  0  0  0  0  0  0  0  0.00419575  0.00710894  -0.0245775  -0.00216542  0.0178476  -0.000884447  -0.0248701  0.0143269  -5.70094e-05  0.0792581  -0.073863  -0.0168893 
1701767419.090986000  0  0  12.0324  0.0851036  -0.042785  0.00138064  nan  nan  nan  nan  nan  nan  -2  -1  1.5  0.0249285  -0.00543898  -0.000135613  0  0  0  0  0  0  0  0  0  0.00417986  0.00713771  -0.0246416  -0.00201186  0.0174752  -0.000688703  -0.0245159  0.0143519  -0.000137071  0.055339  -0.0464675  -0.0158873 
1701767419.097041000  0  0  12.0064  0.0772472  -0.0279791  0.00243982  nan  nan  nan  nan  nan  nan  -2  -1  1.5  0.0247638  -0.00599422  -0.000148469  0  0  0  0  0  0  0  0  0  0.0041742  0.00716988  -0.0246863  -0.00127397  0.017111  0.00159022  -0.0239058  0.0142329  -0.000361479  0.0654387  -0.0749846  -0.026883 
1701767419.102058000  0  0  12.0915  0.108764  -0.067422  0.00206545  nan  nan  nan  nan  nan  nan  -2  -1  1.5  0.0252729  -0.00577105  -0.000145881  0  0  0  0  0  0  0  0  0  0.00416358  0.00726188  -0.0247412  -0.00149337  0.0178259  -0.00540581  -0.0247803  0.0145714  -0.000441819  0.0104505  0.000786856  -0.0214 
1701767419.107051000  0  0  12.0028  0.0980174  -0.051696  0.00309083  nan  nan  nan  nan  nan  nan  -2  -1  1.5  0.0250052  -0.00646219  -0.000161621  0  0  0  0  0  0  0  0  0  0.00416573  0.00726943  -0.0247539  -0.000632808  0.0172023  0.00202121  -0.0242858  0.0148599  -0.000671869  0.027394  -0.0333191  -0.0319166 
1701767419.112135000  0  0  12.0168  0.0931381  -0.0487884  0.0034921  nan  nan  nan  nan  nan  nan  -2  -1  1.5  0.0252847  -0.00687624  -0.000173899  0  0  0  0  0  0  0  0  0  0.00416474  0.00735825  -0.0247621  -6.72593e-05  0.0174169  0.000878953  -0.0242826  0.0149624  -0.000874061  0.0371234  -0.0400774  -0.0349106 
1701767419.117063000  0  0  12.0765  0.109066  -0.078183  0.00327028  nan  nan  nan  nan  nan  nan  -2  -1  1.5  0.0250693  -0.00697401  -0.000174869  6e-07  6e-07  -6e-07  0  0  0  0.000375  0.000375  -0.000375  0.00416814  0.00737048  -0.0248655  0.000150638  0.0173173  -0.00393279  -0.0243034  0.0155123  -0.000999208  0.00545978  0.013653  -0.0308864 
1701767419.121981000  0  0  11.9835  0.0960796  -0.06079  0.00437411  nan  nan  nan  nan  nan  nan  -2  -1  1.5  0.0248311  -0.00759403  -0.000188605  5e-06  5e-06  -5e-06  0  0  0  0.0015  0.0015  -0.0015  0.00418355  0.00738306  -0.0248634  0.00101565  0.0168578  0.0037116  -0.0238249  0.0157712  -0.00127603  0.0270301  -0.0235152  -0.041916 
1701767419.127044000  0  0  11.9909  0.0999846  -0.0676786  0.00373757  nan  nan  nan  nan  nan  nan  -2  -1  1.5  0.0248638  -0.00769956  -0.000191478  1.69e-05  1.69e-05  -1.69e-05  0  0  0  0.003375  0.003375  -0.003375  0.00418881  0.00746917  -0.0248643  0.00139323  0.0169728  0.00291439  -0.0237887  0.0158665  -0.00138833  0.0188864  -0.0106148  -0.0328362 
1701767419.132031000  0  0  12.0269  0.115949  -0.0875597  0.00281691  nan  nan  nan  nan  nan  nan  -2  -1  1.5  0.0243308  -0.00767139  -0.000186586  4e-05  4e-05  -4e-05  0  0  0  0.006  0.006  -0.006  0.00421695  0.00747286  -0.0249245  0.00166294  0.016691  -0.000230425  -0.0236081  0.0162217  -0.00141717  -0.0147038  0.02588  -0.0210397 
1701767419.136052000  0  0  11.9521  0.103205  -0.0666565  0.00342091  nan  nan  nan  nan  nan  nan  -2  -1  1.5  0.0242315  -0.00787953  -0.000190668  7.81e-05  7.81e-05  -7.81e-05  0  0  0  0.009375  0.009375  -0.009375  0.00422746  0.0075397  -0.0248731  0.00228837  0.016644  0.00557717  -0.0233212  0.0160878  -0.00156432  0.00814483  -0.0146949  -0.0271181 
1701767419.142030000  0  0  11.9624  0.111584  -0.0697689  0.00351879  nan  nan  nan  nan  nan  nan  -2  -0.999999  1.5  0.0237815  -0.00789544  -0.000187299  0.000135  0.000135  -0.000135  0  0  0  0.0135  0.0135  -0.0135  0.00426807  0.00756069  -0.0249037  0.00276118  0.0165598  0.00437761  -0.0230515  0.0160205  -0.00172603  -0.0110944  -0.00785079  -0.0267246 
1701767419.147035000  0  0  11.9757  0.111809  -0.0754466  0.00399756  nan  nan  nan  nan  nan  nan  -2  -0.999998  1.5  0.0229782  -0.00774195  -0.000176926  0.0002144  0.0002144  -0.0002144  0  0  0  0.018375  0.018375  -0.018375  0.00430834  0.00756495  -0.0249407  0.00310855  0.0161461  0.00287179  -0.0224405  0.0159767  -0.00190276  -0.0171665  0.00390781  -0.0309418 
1701767419.152188000  0  0  11.9062  0.0954876  -0.0436692  0.00513916  nan  nan  nan  nan  nan  nan  -2  -0.999997  1.5  0.0227292  -0.00769354  -0.000173196  0.00032  0.00032  -0.00032  0  0  0  0.024  0.024  -0.024  0.00432879  0.0076486  -0.0248812  0.00366576  0.0161795  0.00801193  -0.0219444  0.0152623  -0.00219753  0.0109136  -0.0530751  -0.0422642 
1701767419.157047000  0  0  11.9245  0.107846  -0.0530001  0.00454403  nan  nan  nan  nan  nan  nan  -1.99999  -0.999995  1.49999  0.0217397  -0.00726  -0.000155154  0.0004556  0.0004556  -0.0004556  0  0  0  0.030375  0.030375  -0.030375  0.00436716  0.00765353  -0.0249094  0.00384476  0.0157271  0.00592261  -0.0212792  0.0148021  -0.00231356  -0.0199242  -0.0301789  -0.0336648 
1701767419.162045000  0  0  11.8986  0.0998562  -0.0431556  0.00482375  nan  nan  nan  nan  nan  nan  -1.99999  -0.999992  1.49999  0.0210415  -0.00679371  -0.00013877  0.000625  0.000625  -0.000625  0  0  0  0.0375  0.0375  -0.0375  0.00438976  0.00773033  -0.0248754  0.00407716  0.015491  0.0073248  -0.0206031  0.0140709  -0.00249382  -0.0101638  -0.0431413  -0.0353586 
1701767419.167039000  0  0  11.8476  0.0828348  -0.017834  0.0057575  nan  nan  nan  nan  nan  nan  -1.99999  -0.999989  1.49999  0.0201383  -0.00630744  -0.000120938  0.0008319  0.0008319  -0.0008319  0  0  0  0.045375  0.045375  -0.045375  0.00444235  0.00773405  -0.0248546  0.00429843  0.0151912  0.0107858  -0.0194798  0.0128673  -0.00277732  0.0135441  -0.0827116  -0.0441956 
1701767419.172004000  0  0  11.8739  0.0918036  -0.0234874  0.00565481  nan  nan  nan  nan  nan  nan  -1.99998  -0.999984  1.49998  0.0185425  -0.0055523  -9.43649e-05  0.00108  0.00108  -0.00108  0  0  0  0.054  0.054  -0.054  0.00448775  0.00773052  -0.0248772  0.00433324  0.0142664  0.00780559  -0.0181886  0.011907  -0.00296751  -0.0162716  -0.0625699  -0.04101 
1701767419.176985000  0  0  11.8475  0.0667436  -0.00685456  0.00606491  nan  nan  nan  nan  nan  nan  -1.99998  -0.999978  1.49998  0.0177321  -0.0046793  -7.10824e-05  0.0013731  0.0013731  -0.0013731  0  0  0  0.063375  0.063375  -0.063375  0.00451539  0.0078034  -0.024837  0.00431695  0.014194  0.00902848  -0.0170324  0.0105017  -0.00320986  0.0232108  -0.0829066  -0.0437127 
1701767419.182034000  0  0  11.8286  0.0468846  -0.000530405  0.00658801  nan  nan  nan  nan  nan  nan  -1.99997  -0.99997  1.49997  0.0162982  -0.00380892  -4.60838e-05  0.001715  0.001715  -0.001715  0  0  0  0.0735  0.0735  -0.0735  0.00456473  0.00780321  -0.0248329  0.00436111  0.0135801  0.00963046  -0.0152145  0.00915786  -0.00349687  0.0462043  -0.0831915  -0.0473815 
1701767419.186033000  0  0  11.8355  0.0540476  -0.00436389  0.00607304  nan  nan  nan  nan  nan  nan  -1.99996  -0.99996  1.49996  0.0146429  -0.00277399  -1.95222e-05  0.0021094  0.0021094  -0.0021094  0  0  0  0.084375  0.084375  -0.084375  0.00458105  0.0078502  -0.0248107  0.00437139  0.0127161  0.0079613  -0.0136882  0.00800556  -0.00361367  0.0178358  -0.0649233  -0.0397764 
1701767419.192165000  0  0  11.8133  0.0275821  0.00293806  0.00574581  nan  nan  nan  nan  nan  nan  -1.99995  -0.999949  1.49995  0.0131862  -0.00159121  6.31676e-06  0.00256  0.00256  -0.00256  0  0  0  0.096  0.096  -0.096  0.00462906  0.00786981  -0.0248198  0.00420703  0.0122259  0.00871564  -0.0117365  0.00641536  -0.00381586  0.0528115  -0.0648975  -0.0336641 
1701767419.197047000  0  0  11.7879  0.0288092  0.00110422  0.00593646  nan  nan  nan  nan  nan  nan  -1.99993  -0.999935  1.49993  0.0112356  -0.000461482  2.96148e-05  0.0030706  0.0030706  -0.0030706  0  0  0  0.108375  0.108375  -0.108375  0.0046678  0.00786021  -0.0248248  0.00423557  0.011254  0.00964463  -0.00975095  0.00513403  -0.00400239  0.0320903  -0.0494415  -0.0341817 
1701767419.202051000  0  0  11.798  0.0330876  0.0029843  0.00664871  nan  nan  nan  nan  nan  nan  -1.99992  -0.999918  1.49992  0.00938622  0.00053414  4.87137e-05  0.003645  0.003645  -0.003645  0  0  0  0.1215  0.1215  -0.1215  0.00470011  0.00791299  -0.0248072  0.00455502  0.0104206  0.00749974  -0.00804183  0.00398485  -0.00424765  0.00780953  -0.0426292  -0.0406324 
1701767419.207040000  0  0  11.7758  0.0153475  -0.00125802  0.00821323  nan  nan  nan  nan  nan  nan  -1.9999  -0.999898  1.4999  0.00748956  0.00211521  7.01423e-05  0.0042869  0.0042869  -0.0042869  0  0  0  0.135375  0.135375  -0.135375  0.00474166  0.00790049  -0.0248213  0.00418818  0.00973622  0.00803664  -0.00590957  0.00244271  -0.00465305  0.0236731  -0.0199569  -0.0561349 
1701767419.212045000  0  0  11.7332  0.0263729  -0.00796805  0.00888733  nan  nan  nan  nan  nan  nan  -1.99988  -0.999875  1.49988  0.00571748  0.00347399  8.65627e-05  0.005  0.005  -0.005  0  0  0  0.15  0.15  -0.15  0.00476809  0.00794928  -0.0247685  0.00425796  0.00917172  0.0100616  -0.00442382  0.00128443  -0.00500996  -0.0120467  0.00411939  -0.060992 
1701767419.217043000  0  0  11.7333  0.0248032  -0.00275236  0.00943488  nan  nan  nan  nan  nan  nan  -1.99985  -0.999848  1.49985  0.00323885  0.0046717  9.61309e-05  0.0057881  0.0057881  -0.0057881  0  0  0  0.165375  0.165375  -0.165375  0.00482467  0.00791692  -0.0247772  0.00455779  0.00799888  0.00858402  -0.00223248  9.79473e-05  -0.00536316  -0.0290675  0.0046036  -0.0643044 
1701767419.222032000  0  0  11.7207  0.0155331  -0.0171152  0.00967116  nan  nan  nan  nan  nan  nan  -1.99982  -0.999817  1.49982  0.00120367  0.00655939  0.000105495  0.006655  0.006655  -0.006655  0  0  0  0.1815  0.1815  -0.1815  0.00487473  0.00789313  -0.0247997  0.00407871  0.00748018  0.00812317  -0.00031304  -0.00128785  -0.0056966  -0.0281862  0.0460787  -0.0639235 
1701767419.227042000  0  0  11.6473  0.0236292  -0.0203963  0.00986907  nan  nan  nan  nan  nan  nan  -1.99978  -0.999781  1.49978  -0.00112276  0.0082849  0.000107298  0.0076044  0.0076044  -0.0076044  0  0  0  0.198375  0.198375  -0.198375  0.00489299  0.00792716  -0.0247182  0.00403955  0.00656437  0.012445  0.00150924  -0.00253722  -0.00601631  -0.0611434  0.0641351  -0.0632002 
1701767419.232044000  0  0  11.6508  0.0249006  -0.0160517  0.0100118  nan  nan  nan  nan  nan  nan  -1.99974  -0.999741  1.49974  -0.0037647  0.00990791  0.0001009  0.00864  0.00864  -0.00864  0  0  0  0.216  0.216  -0.216  0.00496016  0.00788491  -0.0247213  0.00406396  0.00551511  0.0104659  0.00356582  -0.00380715  -0.00632868  -0.0826067  0.0671292  -0.0618611 
1701767419.236043000  0  0  11.6278  0.0242022  -0.0202758  0.00992825  nan  nan  nan  nan  nan  nan  -1.99969  -0.999695  1.49969  -0.00586435  0.0124442  8.9824e-05  0.0097656  0.0097656  -0.0097656  0  0  0  0.234375  0.234375  -0.234375  0.00495922  0.00790095  -0.0246705  0.0031892  0.00515053  0.0105107  0.00521123  -0.00576824  -0.00653866  -0.0963478  0.0936194  -0.0587165 
1701767419.242046000  0  0  11.5303  0.0378784  -0.0158978  0.00942131  nan  nan  nan  nan  nan  nan  -1.99964  -0.999643  1.49964  -0.00894549  0.0140425  6.47838e-05  0.010985  0.010985  -0.0109839  0  0  0  0.2535  0.2535  -0.252793  0.00504594  0.00786577  -0.0246042  0.00355541  0.00381636  0.0167425  0.00714874  -0.00674889  -0.0067849  -0.141525  0.0938854  -0.0499173 
1701767419.247052000  0  0  11.5381  0.0331822  -0.00960481  0.0100197  nan  nan  nan  nan  nan  nan  -1.99958  -0.999585  1.49958  -0.0117095  0.016188  3.18465e-05  0.0123019  0.0123019  -0.0122923  0  0  0  0.273375  0.273375  -0.270462  0.00511175  0.00782059  -0.0245927  0.00321477  0.00293388  0.0143858  0.00907854  -0.0083964  -0.00709044  -0.149887  0.0964565  -0.0543425 
1701767419.252039000  0  0  11.5216  0.0366063  -0.0214957  0.0106223  nan  nan  nan  nan  nan  nan  -1.99952  -0.99952  1.49952  -0.0141886  0.0188594  -1.15909e-05  0.01372  0.01372  -0.0136872  0  0  0  0.294  0.294  -0.287381  0.0051299  0.00783656  -0.0245355  0.00244926  0.00241178  0.0140489  0.0106109  -0.0100973  -0.00740103  -0.170833  0.135887  -0.0587681 
1701767419.257043000  0  0  11.4531  0.0389542  -0.00881194  0.0113735  nan  nan  nan  nan  nan  nan  -1.99945  -0.999447  1.49945  -0.0176728  0.0209066  -7.49893e-05  0.0152431  0.0152431  -0.0151649  0  0  0  0.315375  0.315375  -0.30355  0.00520831  0.00777819  -0.0244754  0.00257473  0.000978472  0.0181095  0.0129044  -0.0115538  -0.00775364  -0.196629  0.123919  -0.0646328 
1701767419.261039000  0  0  11.4682  0.0285995  0.00146664  0.0116639  nan  nan  nan  nan  nan  nan  -1.99937  -0.999367  1.49937  -0.0205695  0.0236055  -0.000148576  0.016875  0.016875  -0.0167215  0  0  0  0.3375  0.3375  -0.318969  0.00520293  0.00776699  -0.0244232  0.00197017  0.000142819  0.0153048  0.0150488  -0.0137516  -0.00800821  -0.195648  0.123581  -0.0657163 
1701767419.267060000  0  0  11.4569  0.0412202  -0.0191253  0.0114181  nan  nan  nan  nan  nan  nan  -1.99928  -0.999278  1.49928  -0.0234755  0.0263426  -0.000234746  0.0186194  0.0186194  -0.0183533  0  0  0  0.360375  0.360375  -0.333638  0.00528734  0.00773039  -0.0243926  0.00128293  -0.000490929  0.0148542  0.0163219  -0.0150491  -0.00831086  -0.232602  0.176702  -0.0596175 
1701767419.272041000  0  0  11.3822  0.0317596  0.0047422  0.0122187  nan  nan  nan  nan  nan  nan  -1.99918  -0.999181  1.49918  -0.0273467  0.0287483  -0.000351357  0.02048  0.02048  -0.0200566  0  0  0  0.384  0.384  -0.347557  0.00535426  0.00767762  -0.0243291  0.00136004  -0.00201921  0.0196769  0.0189528  -0.0168592  -0.00865554  -0.237885  0.145621  -0.066178 
1701767419.277041000  0  0  11.4101  0.0288659  0.00771253  0.0125083  nan  nan  nan  nan  nan  nan  -1.99907  -0.999073  1.49908  -0.030358  0.0318728  -0.000477029  0.0224606  0.0224606  -0.0218276  0  0  0  0.408375  0.408375  -0.360726  0.00535529  0.00766817  -0.0242798  0.000453618  -0.00274683  0.0160792  0.0207083  -0.019096  -0.00896687  -0.248248  0.160258  -0.0666851 
1701767419.282030000  0  0  11.3815  0.0320828  -0.0126359  0.0120396  nan  nan  nan  nan  nan  nan  -1.99896  -0.998956  1.49897  -0.0340345  0.0350445  -0.000641638  0.024565  0.024565  -0.0236626  0  0  0  0.4335  0.4335  -0.373145  0.00541902  0.0076143  -0.0242494  -0.000355857  -0.00392687  0.0173336  0.0228299  -0.0207341  -0.00915408  -0.274201  0.216025  -0.0589537 
1701767419.286033000  0  0  11.3169  0.0175031  0.0178512  0.0124202  nan  nan  nan  nan  nan  nan  -1.99883  -0.998828  1.49884  -0.038215  0.0386118  -0.000859002  0.0267969  0.0267969  -0.0255578  0  0  0  0.459375  0.459375  -0.384814  0.00539191  0.00756958  -0.0241191  -0.00119625  -0.00548919  0.0214359  0.0259402  -0.0237534  -0.00934527  -0.273656  0.182829  -0.0617992 
1701767419.292037000  0  0  11.3699  0.0177568  0.0180202  0.0126716  nan  nan  nan  nan  nan  nan  -1.99869  -0.998688  1.49871  -0.041446  0.0415007  -0.00103293  0.02916  0.02916  -0.0275095  0  0  0  0.486  0.486  -0.395732  0.00547575  0.00753012  -0.0241371  -0.00182591  -0.00625883  0.0161586  0.0273917  -0.0253773  -0.00968055  -0.287517  0.19743  -0.0615901 
1701767419.297041000  0  0  11.3217  0.0165012  0.0106626  0.0126334  nan  nan  nan  nan  nan  nan  -1.99854  -0.998536  1.49857  -0.0456202  0.0453522  -0.0013061  0.0316581  0.0316581  -0.0295139  0  0  0  0.513375  0.513375  -0.405901  0.00546721  0.00749542  -0.0240315  -0.00290497  -0.00765919  0.01917  0.0298997  -0.0277335  -0.00984867  -0.30808  0.233823  -0.0594311 
1701767419.302076000  0  0  11.2859  -0.00811543  0.0390703  0.0138322  nan  nan  nan  nan  nan  nan  -1.99837  -0.998371  1.49842  -0.0501207  0.0485241  -0.00158814  0.034295  0.034295  -0.0315673  0  0  0  0.5415  0.5415  -0.41532  0.00551862  0.00741583  -0.0239813  -0.00319896  -0.00929665  0.0213155  0.033068  -0.0300918  -0.0101883  -0.287995  0.198704  -0.0710197 
1701767419.307037000  0  0  11.3373  -0.00508031  0.026639  0.0141592  nan  nan  nan  nan  nan  nan  -1.99819  -0.998193  1.49825  -0.0540549  0.0520357  -0.00188235  0.0370744  0.0370744  -0.0336659  0  0  0  0.570375  0.570375  -0.423989  0.00557554  0.00732596  -0.0239611  -0.00431164  -0.0105887  0.016389  0.0352767  -0.032087  -0.0104633  -0.314385  0.241922  -0.0723565 
1701767419.311041000  0  0  11.2867  -0.00265679  0.0234021  0.0137325  nan  nan  nan  nan  nan  nan  -1.998  -0.998  1.49808  -0.0588461  0.0567088  -0.00231464  0.04  0.04  -0.0358059  0  0  0  0.6  0.6  -0.431908  0.0055199  0.00724342  -0.0238343  -0.00595674  -0.0122541  0.0198486  0.0384532  -0.0353249  -0.0105177  -0.348455  0.278185  -0.0664801 
1701767419.317045000  0  0  11.2436  -0.0209872  0.0490469  0.0145116  nan  nan  nan  nan  nan  nan  -1.99779  -0.997792  1.49789  -0.0635128  0.0600616  -0.00269471  0.0430756  0.0430756  -0.0379837  0  0  0  0.630375  0.630306  -0.439077  0.00560605  0.00717023  -0.023776  -0.0061671  -0.0136974  0.022895  0.0411285  -0.0373469  -0.0108523  -0.336408  0.245498  -0.0728723 
1701767419.322032000  0  0  11.3213  -0.0113284  0.0283238  0.0136814  nan  nan  nan  nan  nan  nan  -1.99757  -0.997569  1.4977  -0.0676748  0.0635108  -0.00307483  0.0463048  0.0463022  -0.0401954  0  0  0  0.661272  0.660227  -0.445496  0.00566857  0.00706168  -0.0237963  -0.00719739  -0.0153395  0.0161778  0.0431646  -0.0389052  -0.0109538  -0.374457  0.30128  -0.0614796 
1701767419.327042000  0  0  11.2841  -0.0088022  0.025575  0.013684  nan  nan  nan  nan  nan  nan  -1.99733  -0.997329  1.49749  -0.0722556  0.0680422  -0.00358417  0.0496872  0.0496766  -0.0424374  0  0  0  0.691571  0.689397  -0.451165  0.00563058  0.00698425  -0.0236806  -0.00865439  -0.0168156  0.0188667  0.045554  -0.0415017  -0.0110501  -0.401492  0.330666  -0.0605492 
1701767419.332040000  0  0  11.265  -0.0280027  0.0424029  0.0150787  nan  nan  nan  nan  nan  nan  -1.99707  -0.997072  1.49727  -0.0768402  0.0716265  -0.00405678  0.0532192  0.053195  -0.0447058  0  0  0  0.721119  0.717818  -0.456084  0.00568586  0.00686653  -0.0236357  -0.00934121  -0.0184243  0.0202339  0.0482637  -0.0435516  -0.0113485  -0.38802  0.315869  -0.0749985 
1701767419.337043000  0  0  11.3354  -0.00728803  0.0247799  0.0144624  nan  nan  nan  nan  nan  nan  -1.9968  -0.996797  1.49704  -0.0805944  0.0753433  -0.0045043  0.0568972  0.0568535  -0.046997  0  0  0  0.749918  0.745488  -0.460253  0.00564169  0.00677293  -0.0235889  -0.010797  -0.0199157  0.0142982  0.0494952  -0.0451056  -0.0114707  -0.44078  0.365411  -0.066073 
1701767419.342024000  0  0  11.3039  -0.00118864  0.0115254  0.0146662  nan  nan  nan  nan  nan  nan  -1.9965  -0.996503  1.4968  -0.0851775  0.0791478  -0.0050473  0.0607172  0.0606486  -0.0493071  0  0  0  0.777966  0.772409  -0.463672  0.00567081  0.0066383  -0.0235431  -0.0117942  -0.0215477  0.0169687  0.051465  -0.0465333  -0.0115996  -0.4711  0.405056  -0.0673314 
1701767419.347043000  0  0  11.273  -0.012782  0.0201255  0.0157875  nan  nan  nan  nan  nan  nan  -1.99619  -0.99619  1.49655  -0.0895743  0.0826043  -0.00557251  0.0646756  0.0645764  -0.0516324  0  0  0  0.805265  0.79858  -0.466341  0.00571993  0.0065116  -0.0235214  -0.0124781  -0.0230359  0.0196861  0.0535228  -0.0479393  -0.0118628  -0.466845  0.400791  -0.0787158 
1701767419.352036000  0  0  11.3483  0.0112367  -0.000577249  0.0164206  nan  nan  nan  nan  nan  nan  -1.99586  -0.995857  1.49629  -0.0931417  0.0859197  -0.00603729  0.0687686  0.0686331  -0.0539693  0  0  0  0.831813  0.824  -0.46826  0.00565904  0.00639317  -0.0234867  -0.0138172  -0.0246604  0.0136859  0.0541692  -0.0486817  -0.0121572  -0.52083  0.449026  -0.0836856 
1701767419.357106000  0  0  11.3321  0.018071  -0.0156342  0.017396  nan  nan  nan  nan  nan  nan  -1.9955  -0.995504  1.49601  -0.0971915  0.0891904  -0.0065587  0.0729924  0.0728151  -0.0563138  0  0  0  0.857612  0.848671  -0.469428  0.00568856  0.00625201  -0.0234706  -0.0145489  -0.0260073  0.0154427  0.0552403  -0.0491543  -0.0124821  -0.544353  0.483488  -0.09263 
1701767419.362118000  0  0  11.3157  0.0119267  -0.0205528  0.0178553  nan  nan  nan  nan  nan  nan  -1.99513  -0.995129  1.49572  -0.101076  0.0922666  -0.00706555  0.0773434  0.0771186  -0.0586623  0  0  0  0.88266  0.872591  -0.469847  0.00572566  0.00610645  -0.0234457  -0.0151375  -0.027217  0.0172467  0.0564008  -0.0495876  -0.0127865  -0.54274  0.497311  -0.0953256 
1701767419.367125000  0  0  11.3578  0.0390759  -0.035624  0.0169522  nan  nan  nan  nan  nan  nan  -1.99473  -0.994732  1.49543  -0.104573  0.0955573  -0.00757567  0.0818178  0.0815398  -0.061011  0  0  0  0.906958  0.895762  -0.469516  0.00564623  0.00596752  -0.0233984  -0.0164379  -0.0286999  0.0142963  0.0565809  -0.0500111  -0.0129576  -0.598696  0.53135  -0.0823266 
1701767419.371986000  0  0  11.3542  0.0437121  -0.0401849  0.0166149  nan  nan  nan  nan  nan  nan  -1.99431  -0.994313  1.49511  -0.108212  0.0988241  -0.00811443  0.0864118  0.086075  -0.0633562  0  0  0  0.930507  0.918183  -0.468435  0.00565299  0.00580605  -0.0233611  -0.0175288  -0.0298899  0.0152353  0.0570957  -0.0504707  -0.0130989  -0.612704  0.5447  -0.0766974 
1701767419.377121000  0  0  11.3117  0.0477957  -0.033858  0.016472  nan  nan  nan  nan  nan  nan  -1.99386  -0.993871  1.49479  -0.112005  0.102566  -0.00873994  0.0911216  0.0907204  -0.0656941  0  0  0  0.953305  0.939853  -0.466604  0.00556851  0.00566517  -0.0232564  -0.0186743  -0.0309132  0.0193792  0.0576186  -0.0514439  -0.0132449  -0.625682  0.541  -0.0734512 
1701767419.382116000  0  0  11.3744  0.0690058  -0.0430788  0.016033  nan  nan  nan  nan  nan  nan  -1.9934  -0.993406  1.49446  -0.115173  0.10482  -0.00914965  0.0959436  0.0954722  -0.068021  0  0  0  0.975354  0.960774  -0.464023  0.00557978  0.00549854  -0.0232598  -0.0194298  -0.0325165  0.0150719  0.0571818  -0.0508081  -0.0134059  -0.664084  0.553592  -0.0663541 
1701767419.387123000  0  0  11.3783  0.0708742  -0.0487232  0.0161489  nan  nan  nan  nan  nan  nan  -1.9929  -0.992916  1.49411  -0.118143  0.107784  -0.00963003  0.100874  0.100327  -0.0703331  0  0  0  0.996652  0.980944  -0.460692  0.00558762  0.00532409  -0.0232285  -0.0205082  -0.0332092  0.0156546  0.0567599  -0.050814  -0.0135818  -0.66394  0.564935  -0.0660436 
1701767419.392127000  0  0  11.3536  0.0774874  -0.0419847  0.016963  nan  nan  nan  nan  nan  nan  -1.99239  -0.992402  1.49375  -0.121844  0.111215  -0.0102609  0.105909  0.10528  -0.0726267  0  0  0  1.0172  1.00036  -0.456611  0.00549212  0.00515559  -0.0231218  -0.0217142  -0.0345309  0.01859  0.0569709  -0.0514666  -0.0137955  -0.679107  0.557462  -0.0740825 
1701767419.397038000  0  0  11.3952  0.0793812  -0.0376571  0.0178817  nan  nan  nan  nan  nan  nan  -1.99184  -0.991864  1.49339  -0.124945  0.113331  -0.0106774  0.111045  0.110329  -0.074898  0  0  0  1.037  1.01904  -0.45178  0.00548857  0.00497547  -0.0231359  -0.0223577  -0.0360898  0.016286  0.0566495  -0.0509383  -0.014127  -0.679938  0.543946  -0.0822514 
1701767419.401986000  0  0  11.4505  0.0782719  -0.0498658  0.0192453  nan  nan  nan  nan  nan  nan  -1.99128  -0.991299  1.49301  -0.127143  0.116541  -0.0111342  0.116278  0.11547  -0.0771432  0  0  0  1.05605  1.03696  -0.446199  0.00537202  0.00479463  -0.023082  -0.0244277  -0.0367948  0.012821  0.0556471  -0.0511352  -0.0145944  -0.668497  0.570175  -0.0946213 
1701767419.407058000  0  0  11.4192  0.0806627  -0.0485371  0.0200241  nan  nan  nan  nan  nan  nan  -1.99068  -0.990709  1.49261  -0.130463  0.119218  -0.0116661  0.121604  0.120698  -0.0793587  0  0  0  1.07435  1.05413  -0.439868  0.00538123  0.00461895  -0.0230494  -0.0250966  -0.0378161  0.0166687  0.0554505  -0.0508896  -0.0149737  -0.67147  0.565258  -0.100565 
1701767419.412033000  0  0  11.4534  0.073178  -0.0177616  0.0206164  nan  nan  nan  nan  nan  nan  -1.99006  -0.990092  1.49221  -0.133615  0.121577  -0.0121465  0.12702  0.12601  -0.0815406  0  0  0  1.09189  1.07055  -0.432787  0.00525714  0.00442024  -0.0229834  -0.0260379  -0.0396242  0.0150532  0.0554287  -0.0511241  -0.0153961  -0.6563  0.505865  -0.103744 
1701767419.417197000  0  0  11.5193  0.0763  -0.0487842  0.0197066  nan  nan  nan  nan  nan  nan  -1.98941  -0.989448  1.4918  -0.135276  0.123993  -0.012456  0.132522  0.131402  -0.0836853  0  0  0  1.10869  1.08622  -0.424955  0.00523896  0.00424805  -0.0230248  -0.027793  -0.0401869  0.011106  0.0537668  -0.0502603  -0.0157448  -0.647254  0.559963  -0.0888848 
1701767419.422188000  0  0  11.4593  0.0676068  -0.0246713  0.0194657  nan  nan  nan  nan  nan  nan  -1.98873  -0.988778  1.49138  -0.138851  0.126346  -0.0130045  0.138105  0.13687  -0.0857889  0  0  0  1.12474  1.10114  -0.416374  0.00521079  0.00403587  -0.0229833  -0.0278563  -0.0412974  0.0175001  0.0541715  -0.0502483  -0.0159322  -0.633591  0.511627  -0.0839994 
1701767419.427066000  0  0  11.5057  0.0641415  -0.00673979  0.0194379  nan  nan  nan  nan  nan  nan  -1.98803  -0.98808  1.49094  -0.141577  0.128696  -0.0134524  0.143768  0.142412  -0.0878478  0  0  0  1.14004  1.11531  -0.407043  0.00505968  0.00381162  -0.0229136  -0.0292184  -0.0430225  0.0151013  0.0539147  -0.0504945  -0.0162213  -0.624298  0.478029  -0.0807605 
1701767419.432046000  0  0  11.6028  0.0738533  -0.0441313  0.0184929  nan  nan  nan  nan  nan  nan  -1.9873  -0.987354  1.4905  -0.142903  0.130801  -0.0136858  0.149505  0.148022  -0.0898581  0  0  0  1.15459  1.12873  -0.396962  0.00501827  0.00358406  -0.0229647  -0.0313211  -0.0438854  0.00880425  0.0520556  -0.0494656  -0.0164892  -0.626618  0.543347  -0.0662686 
1701767419.437146000  0  0  11.531  0.0643214  -0.023118  0.0193881  nan  nan  nan  nan  nan  nan  -1.98653  -0.986599  1.49004  -0.146023  0.133482  -0.0142449  0.155312  0.153698  -0.0918162  0  0  0  1.16839  1.1414  -0.386131  0.00487427  0.00337746  -0.022846  -0.0316322  -0.0444928  0.016236  0.0521513  -0.0497425  -0.0167667  -0.608434  0.503867  -0.0746841 
1701767419.442000000  0  0  11.6075  0.0504515  0.00764624  0.0205033  nan  nan  nan  nan  nan  nan  -1.98574  -0.985816  1.48958  -0.14794  0.13453  -0.014407  0.161187  0.159435  -0.0937182  0  0  0  1.18144  1.15332  -0.37455  0.00481972  0.00311212  -0.022877  -0.0322972  -0.0459777  0.0116309  0.0514543  -0.0490857  -0.0172516  -0.574282  0.436296  -0.0837752 
1701767419.446001000  0  0  11.6961  0.0629559  -0.0238512  0.020082  nan  nan  nan  nan  nan  nan  -1.98492  -0.985005  1.48911  -0.150387  0.137799  -0.0149738  0.167125  0.16523  -0.0955604  0  0  0  1.19373  1.16449  -0.362219  0.00451338  0.00276187  -0.0227833  -0.035626  -0.0481895  0.00612626  0.0513438  -0.0498364  -0.0174183  -0.598274  0.506197  -0.0768422 
1701767419.452047000  0  0  11.6284  0.0667634  -0.0271719  0.0217803  nan  nan  nan  nan  nan  nan  -1.98407  -0.984164  1.48862  -0.151972  0.138748  -0.0150746  0.173123  0.171079  -0.0973391  0  0  0  1.20528  1.17491  -0.349138  0.00459755  0.0026328  -0.0227975  -0.0344547  -0.047396  0.0135109  0.0493427  -0.0477164  -0.0180842  -0.58748  0.493335  -0.0914113 
1701767419.457062000  0  0  11.6712  0.0601979  -0.00571759  0.0232377  nan  nan  nan  nan  nan  nan  -1.98319  -0.983294  1.48813  -0.153571  0.139675  -0.0151711  0.179177  0.176978  -0.0990506  0  0  0  1.21608  1.18458  -0.335307  0.00453952  0.00237074  -0.0228013  -0.0347601  -0.0482768  0.0118087  0.0482733  -0.0468015  -0.0187503  -0.56451  0.442009  -0.102968 
1701767419.461060000  0  0  11.7539  0.0836334  -0.0400149  0.022678  nan  nan  nan  nan  nan  nan  -1.98228  -0.982394  1.48763  -0.156  0.142445  -0.0156704  0.185283  0.182923  -0.100691  0  0  0  1.22613  1.1935  -0.320726  0.00420823  0.00198937  -0.0226975  -0.0376383  -0.0506609  0.00699028  0.0479486  -0.0469996  -0.0189872  -0.608394  0.512426  -0.0936039 
1701767419.467194000  0  0  11.7002  0.0708851  -0.0364425  0.0232438  nan  nan  nan  nan  nan  nan  -1.98134  -0.981465  1.48713  -0.15655  0.142593  -0.0154891  0.191437  0.188912  -0.102257  0  0  0  1.23543  1.20167  -0.305395  0.00431461  0.00188748  -0.0227907  -0.0359204  -0.0491511  0.0134002  0.0453075  -0.0442139  -0.0197376  -0.558599  0.479652  -0.0931716 
1701767419.471055000  0  0  11.7321  0.0723819  -0.0237845  0.0233166  nan  nan  nan  nan  nan  nan  -1.98037  -0.980505  1.48661  -0.1591  0.145265  -0.0159941  0.197636  0.194939  -0.103744  0  0  0  1.24398  1.20909  -0.289314  0.00395257  0.00147474  -0.0226332  -0.0380191  -0.0509748  0.0127304  0.0456422  -0.045202  -0.0200114  -0.564672  0.463428  -0.0913443 
1701767419.477062000  0  0  11.8793  0.115332  -0.0689537  0.0228879  nan  nan  nan  nan  nan  nan  -1.97936  -0.979515  1.48609  -0.158594  0.144181  -0.0154506  0.203876  0.201001  -0.105148  0  0  0  1.25177  1.21576  -0.272482  0.00400239  0.00132816  -0.0228198  -0.0379254  -0.0517312  0.00288483  0.0412106  -0.0406562  -0.0207402  -0.609801  0.511945  -0.078696 
1701767419.482000000  0  0  11.8064  0.0847694  -0.0663904  0.023974  nan  nan  nan  nan  nan  nan  -1.97833  -0.978495  1.48556  -0.159759  0.145842  -0.0155837  0.210152  0.207095  -0.106467  0  0  0  1.25882  1.22169  -0.254901  0.00389541  0.00105091  -0.0227732  -0.0377375  -0.0505219  0.0109291  0.0401629  -0.0398574  -0.0213056  -0.539038  0.499469  -0.0866194 
1701767419.486000000  0  0  11.7974  0.0894992  -0.050931  0.0244425  nan  nan  nan  nan  nan  nan  -1.97726  -0.977444  1.48502  -0.162175  0.148296  -0.0160313  0.216463  0.213217  -0.107696  0  0  0  1.26512  1.22686  -0.23657  0.00352735  0.000636564  -0.0226028  -0.0391798  -0.051779  0.013775  0.0403062  -0.0405784  -0.021647  -0.549815  0.475183  -0.0890613 
1701767419.491997000  0  0  11.9366  0.135393  -0.0776502  0.0240252  nan  nan  nan  nan  nan  nan  -1.97616  -0.976363  1.48448  -0.160924  0.146605  -0.0152547  0.222802  0.219362  -0.108833  0  0  0  1.27067  1.23128  -0.218113  0.00359976  0.000488342  -0.0227732  -0.0385073  -0.0518117  0.00449725  0.0352027  -0.0358608  -0.0225007  -0.594651  0.48522  -0.0753079 
1701767419.496049000  0  0  11.909  0.11697  -0.0765494  0.0238819  nan  nan  nan  nan  nan  nan  -1.97503  -0.975251  1.48394  -0.162441  0.149245  -0.0155879  0.229168  0.225528  -0.109879  0  0  0  1.27547  1.23495  -0.2004  0.00322767  7.84633e-05  -0.0226128  -0.0400778  -0.0518073  0.00874726  0.034792  -0.0364672  -0.0228245  -0.554026  0.488597  -0.0702781 
1701767419.501999000  0  0  11.8891  0.139779  -0.0705487  0.0243137  nan  nan  nan  nan  nan  nan  -1.97387  -0.974107  1.48338  -0.162348  0.148611  -0.0151431  0.235556  0.231711  -0.110838  0  0  0  1.27952  1.23787  -0.183438  0.00329873  -5.80089e-05  -0.0226788  -0.0384278  -0.0507079  0.0122524  0.0312831  -0.0333588  -0.023545  -0.567363  0.447998  -0.0684704 
1701767419.507006000  0  0  11.9891  0.148783  -0.0657852  0.0253527  nan  nan  nan  nan  nan  nan  -1.97268  -0.972933  1.48283  -0.161985  0.148259  -0.0146966  0.241962  0.237906  -0.111714  0  0  0  1.28282  1.24004  -0.167225  0.00317959  -0.000357655  -0.0227315  -0.0388071  -0.051115  0.00584844  0.0282156  -0.0310991  -0.0243236  -0.55715  0.417682  -0.0736729 
1701767419.511997000  0  0  12.0012  0.147327  -0.0887088  0.0259432  nan  nan  nan  nan  nan  nan  -1.97145  -0.971728  1.48227  -0.161747  0.149597  -0.0145358  0.248383  0.24411  -0.112511  0  0  0  1.28536  1.24146  -0.151762  0.00297262  -0.000606583  -0.0226871  -0.0399094  -0.0502635  0.00652988  0.0255995  -0.0298924  -0.0250464  -0.530169  0.452427  -0.0738271 
1701767419.517042000  0  0  11.9406  0.155292  -0.0652612  0.0266174  nan  nan  nan  nan  nan  nan  -1.97019  -0.970492  1.4817  -0.162833  0.149774  -0.0143838  0.254814  0.250319  -0.113233  0  0  0  1.28716  1.24213  -0.137049  0.00287425  -0.000893094  -0.0226303  -0.038618  -0.0499025  0.0130497  0.0239895  -0.0284759  -0.0256173  -0.531288  0.3925  -0.0765447 
1701767419.522002000  0  0  12.0708  0.143556  -0.0439097  0.0271977  nan  nan  nan  nan  nan  nan  -1.9689  -0.969225  1.48113  -0.161725  0.14964  -0.0138394  0.261253  0.25653  -0.113883  0  0  0  1.28821  1.24205  -0.123086  0.00266255  -0.00115585  -0.0226482  -0.039879  -0.0502658  0.00375265  0.02094  -0.0270596  -0.0265111  -0.479759  0.336768  -0.0748601 
1701767419.527061000  0  0  12.088  0.150324  -0.0783387  0.0264243  nan  nan  nan  nan  nan  nan  -1.96758  -0.967927  1.48056  -0.161213  0.150477  -0.0135361  0.267695  0.262738  -0.114465  0  0  0  1.28851  1.24122  -0.109873  0.00247338  -0.00138901  -0.0226244  -0.0407263  -0.0495047  0.00371903  0.0182108  -0.0254521  -0.0271301  -0.468188  0.390837  -0.0590024 
1701767419.532189000  0  0  11.9862  0.128619  -0.0209704  0.0273655  nan  nan  nan  nan  nan  nan  -1.96623  -0.966598  1.47999  -0.161996  0.150094  -0.0132291  0.274137  0.268941  -0.114983  0  0  0  1.28806  1.23964  -0.0974106  0.00238252  -0.00167668  -0.022562  -0.0382995  -0.0483648  0.0131921  0.0171921  -0.0244579  -0.0277186  -0.415406  0.266954  -0.064883 
1701767419.537023000  0  0  12.0737  0.126776  -0.0255502  0.0276828  nan  nan  nan  nan  nan  nan  -1.96484  -0.965238  1.47941  -0.161454  0.150226  -0.0127953  0.280575  0.275134  -0.115441  0  0  0  1.28686  1.23731  -0.0856977  0.00213671  -0.00196346  -0.0225434  -0.0394409  -0.0489311  0.00716526  0.0150003  -0.0232798  -0.0284532  -0.391555  0.265275  -0.0615032 
1701767419.542056000  0  0  12.0974  0.129859  -0.0705688  0.0270327  nan  nan  nan  nan  nan  nan  -1.96342  -0.963847  1.47884  -0.161118  0.150063  -0.0123394  0.287004  0.281313  -0.115841  0  0  0  1.2849  1.23423  -0.0747349  0.00200161  -0.00229861  -0.0225498  -0.0394672  -0.0486346  0.00631009  0.0128995  -0.0209336  -0.0289849  -0.378394  0.333727  -0.0480597 
1701767419.547201000  0  0  11.9985  0.11198  -0.0339664  0.0273924  nan  nan  nan  nan  nan  nan  -1.96197  -0.962425  1.47826  -0.161024  0.149712  -0.0118842  0.293422  0.287475  -0.116189  0  0  0  1.2822  1.2304  -0.0645221  0.00190796  -0.00256439  -0.0224893  -0.0374038  -0.0467596  0.0151923  0.011462  -0.0198219  -0.0295706  -0.32941  0.250294  -0.0466986 
1701767419.552057000  0  0  12.1211  0.120057  -0.0554567  0.0275233  nan  nan  nan  nan  nan  nan  -1.96049  -0.960972  1.47767  -0.159904  0.149305  -0.0112575  0.299825  0.293615  -0.116488  0  0  0  1.27875  1.22582  -0.0550592  0.00167385  -0.00284519  -0.0224831  -0.0386991  -0.047517  0.00594637  0.00891719  -0.0178745  -0.0302855  -0.322153  0.275359  -0.0411854 
1701767419.557016000  0  0  12.1604  0.120734  -0.0726638  0.027811  nan  nan  nan  nan  nan  nan  -1.95897  -0.959488  1.47709  -0.159505  0.148766  -0.0107141  0.306209  0.299732  -0.116741  0  0  0  1.27455  1.22049  -0.0463464  0.00148003  -0.00319042  -0.0224734  -0.0386301  -0.0477007  0.00348046  0.00717187  -0.0157822  -0.0308635  -0.307449  0.290523  -0.0390021 
1701767419.561068000  0  0  12.0509  0.097013  -0.0458353  0.028877  nan  nan  nan  nan  nan  nan  -1.95742  -0.957975  1.47651  -0.159868  0.150515  -0.0106449  0.312569  0.305819  -0.116953  0  0  0  1.2696  1.21441  -0.0383835  0.00103418  -0.00365003  -0.0222617  -0.0387454  -0.0460232  0.0130265  0.00691736  -0.016799  -0.0314507  -0.257666  0.246222  -0.0464563 
1701767419.567063000  0  0  12.1133  0.114562  -0.0548713  0.0299206  nan  nan  nan  nan  nan  nan  -1.95585  -0.95643  1.47592  -0.157917  0.147917  -0.00952667  0.318903  0.311874  -0.117126  0  0  0  1.2639  1.20759  -0.0311707  0.00114112  -0.00372831  -0.0223551  -0.0371295  -0.0454729  0.00821757  0.00348654  -0.0129277  -0.0323995  -0.2612  0.228677  -0.0500121 
1701767419.572053000  0  0  12.146  0.0983739  -0.0564227  0.0304839  nan  nan  nan  nan  nan  nan  -1.95424  -0.954856  1.47534  -0.156954  0.14697  -0.0088175  0.325207  0.317894  -0.117265  0  0  0  1.25745  1.20001  -0.0247079  0.000951921  -0.00407555  -0.0223313  -0.036692  -0.0451088  0.00587089  0.00186194  -0.0110637  -0.0331471  -0.213878  0.214631  -0.049577 
1701767419.577064000  0  0  12.1122  0.0929067  -0.0768753  0.030381  nan  nan  nan  nan  nan  nan  -1.95259  -0.953251  1.47475  -0.155397  0.146927  -0.00815531  0.331477  0.323873  -0.117374  0  0  0  1.25024  1.19168  -0.018995  0.000761914  -0.00428699  -0.0222656  -0.0364853  -0.0431904  0.00880622  -0.000274681  -0.00955946  -0.0339258  -0.183286  0.241698  -0.0405047 
1701767419.582008000  0  0  12.0816  0.0925129  -0.0513438  0.029905  nan  nan  nan  nan  nan  nan  -1.95092  -0.951617  1.47416  -0.155968  0.14536  -0.00756921  0.337708  0.329809  -0.117457  0  0  0  1.24229  1.1826  -0.0140322  0.000601226  -0.00481728  -0.0222455  -0.0344682  -0.0435473  0.0116151  -0.000574297  -0.00767336  -0.034192  -0.179742  0.173282  -0.0318921 
1701767419.586009000  0  0  12.1554  0.078668  -0.0436805  0.030229  nan  nan  nan  nan  nan  nan  -1.94922  -0.949953  1.47357  -0.155359  0.145465  -0.00706071  0.343898  0.335698  -0.117516  0  0  0  1.23359  1.17277  -0.0098193  0.000117726  -0.00532888  -0.0221346  -0.0357458  -0.0442302  0.00570449  -0.00142362  -0.00728049  -0.034812  -0.144239  0.154342  -0.0297427 
1701767419.592052000  0  0  12.1145  0.0988219  -0.0926702  0.0297357  nan  nan  nan  nan  nan  nan  -1.94748  -0.94826  1.47299  -0.152982  0.143644  -0.0059898  0.350043  0.341536  -0.117556  0  0  0  1.22414  1.16219  -0.0063565  0.000222947  -0.00543466  -0.0221927  -0.0339761  -0.0417214  0.00888019  -0.00469953  -0.00382068  -0.0354675  -0.154408  0.220491  -0.017021 
1701767419.597064000  0  0  12.0474  0.0968998  -0.0568007  0.0306303  nan  nan  nan  nan  nan  nan  -1.94572  -0.946538  1.4724  -0.151526  0.142045  -0.00508806  0.356138  0.347319  -0.117581  0  0  0  1.21394  1.15086  -0.0036437  8.70203e-05  -0.00570533  -0.0220858  -0.0316878  -0.0397117  0.0139339  -0.00663353  -0.00214769  -0.0361977  -0.132771  0.13336  -0.0209022 
1701767419.602006000  0  0  12.1383  0.116131  -0.0747328  0.0309328  nan  nan  nan  nan  nan  nan  -1.94392  -0.944787  1.47181  -0.14907  0.140691  -0.00407817  0.362181  0.353043  -0.117594  0  0  0  1.20299  1.13878  -0.0016808  -0.000107458  -0.00592908  -0.0220886  -0.0321584  -0.03922  0.0061411  -0.00973757  1.52281e-05  -0.0370329  -0.142677  0.149325  -0.0163307 
1701767419.607201000  0  0  12.0585  0.127778  -0.0893523  0.0311175  nan  nan  nan  nan  nan  nan  -1.94209  -0.943008  1.47122  -0.146957  0.139233  -0.00310242  0.368167  0.358705  -0.117599  0  0  0  1.19128  1.12595  -0.000468  -0.000203678  -0.00612998  -0.0220149  -0.0301727  -0.0365136  0.0120694  -0.0125041  0.0023769  -0.0377481  -0.140518  0.156837  -0.0114886 
1701767419.612055000  0  0  11.9931  0.124416  -0.0659619  0.0322105  nan  nan  nan  nan  nan  nan  -1.94024  -0.9412  1.47063  -0.144714  0.13767  -0.00209343  0.374093  0.364301  -0.1176  0  0  0  1.17883  1.11237  -5.1e-06  -0.000388667  -0.00634987  -0.0219057  -0.0281928  -0.0339576  0.016653  -0.0150123  0.00404727  -0.0386142  -0.110719  0.0946888  -0.0164888 
1701767419.617196000  0  0  12.0899  0.153125  -0.0817038  0.0323029  nan  nan  nan  nan  nan  nan  -1.93835  -0.939365  1.47005  -0.141917  0.135727  -0.000954919  0.379954  0.369828  -0.1176  0  0  0  1.16563  1.09804  -0  -0.000512295  -0.00656081  -0.0219295  -0.0283913  -0.0333947  0.00805651  -0.0185599  0.00649221  -0.039405  -0.135498  0.103679  -0.00973574 
1701767419.622067000  0  0  12.0261  0.152674  -0.0784805  0.0327922  nan  nan  nan  nan  nan  nan  -1.93644  -0.937502  1.46946  -0.139836  0.134456  -1.25065e-05  0.385748  0.37528  -0.1176  0  0  0  1.15168  1.08296  -0  -0.000716291  -0.00687636  -0.0218207  -0.027008  -0.0310677  0.0125256  -0.0209552  0.00793131  -0.0401383  -0.11256  0.0839929  -0.00851984 
1701767419.627049000  0  0  11.9519  0.152625  -0.0667187  0.0328812  nan  nan  nan  nan  nan  nan  -1.9345  -0.935612  1.46887  -0.136919  0.132845  0.00109035  0.39147  0.380656  -0.1176  0  0  0  1.13698  1.06713  -0  -0.000848541  -0.00702602  -0.0217135  -0.0253043  -0.0279995  0.0176822  -0.0239902  0.00951959  -0.0409573  -0.0845394  0.0458572  -0.00144279 
1701767419.632004000  0  0  12.0535  0.175152  -0.0757143  0.0321268  nan  nan  nan  nan  nan  nan  -1.93252  -0.933696  1.46828  -0.134243  0.130337  0.0022774  0.397116  0.385951  -0.1176  0  0  0  1.12153  1.05055  -0  -0.00102746  -0.00727757  -0.0217038  -0.0249562  -0.0277951  0.00855155  -0.0272021  0.01213  -0.0415504  -0.100045  0.0398329  0.0139191 
1701767419.636005000  0  0  12.0693  0.178214  -0.0770625  0.0319737  nan  nan  nan  nan  nan  nan  -1.93053  -0.931753  1.46769  -0.132537  0.129744  0.00307837  0.402684  0.39116  -0.1176  0  0  0  1.10533  1.03322  -0  -0.00152033  -0.00777493  -0.0215572  -0.0253104  -0.0270421  0.00659068  -0.029104  0.0128689  -0.0421159  -0.0886707  0.0357309  0.0214876 
1701767419.642000000  0  0  11.982  0.183182  -0.0793839  0.0317885  nan  nan  nan  nan  nan  nan  -1.9285  -0.929784  1.46711  -0.128001  0.126822  0.00455115  0.408168  0.396282  -0.1176  0  0  0  1.08837  1.01514  -0  -0.00131456  -0.00763905  -0.0215682  -0.0227889  -0.0226687  0.0126323  -0.0336522  0.0156537  -0.0428733  -0.056765  0.0147537  0.0313762 
1701767419.647007000  0  0  12.0163  0.187257  -0.0602275  0.0321363  nan  nan  nan  nan  nan  nan  -1.92644  -0.92779  1.46652  -0.125191  0.123979  0.0057765  0.413566  0.40131  -0.1176  0  0  0  1.07067  0.996314  -0  -0.00148457  -0.00787861  -0.0215374  -0.0213288  -0.021539  0.00891769  -0.0364666  0.0177352  -0.0434589  -0.0390213  -0.0427092  0.0328855 
1701767419.652048000  0  0  12.1016  0.189647  -0.0862246  0.0314194  nan  nan  nan  nan  nan  nan  -1.92436  -0.925771  1.46593  -0.120884  0.121915  0.00708156  0.418874  0.406243  -0.1176  0  0  0  1.05222  0.976735  -0  -0.00158918  -0.00796893  -0.0215576  -0.0218405  -0.0195343  0.000977468  -0.0405028  0.0198898  -0.0441556  -0.00666951  -0.0105374  0.0488129 
1701767419.657060000  0  0  12.0268  0.191227  -0.0801021  0.0315527  nan  nan  nan  nan  nan  nan  -1.92225  -0.923728  1.46534  -0.118047  0.119938  0.00818605  0.424087  0.411077  -0.1176  0  0  0  1.03302  0.956405  -0  -0.00175556  -0.0081757  -0.0214746  -0.0202758  -0.0171032  0.00623847  -0.0430261  0.0214144  -0.0446552  0.0133865  -0.0368082  0.0521439 
1701767419.661055000  0  0  12.0073  0.172411  -0.0259964  0.0327875  nan  nan  nan  nan  nan  nan  -1.92012  -0.921661  1.46475  -0.115875  0.118275  0.00916977  0.429203  0.415806  -0.1176  0  0  0  1.01307  0.935326  -0  -0.00225412  -0.00865545  -0.0213188  -0.0192207  -0.0157671  0.00700367  -0.0445352  0.021674  -0.045281  0.0649018  -0.147408  0.0429661 
1701767419.667007000  0  0  12.1608  0.185899  -0.0561921  0.0323137  nan  nan  nan  nan  nan  nan  -1.91796  -0.91957  1.46417  -0.110764  0.11469  0.0107109  0.434217  0.420429  -0.1176  0  0  0  0.992366  0.913497  -0  -0.00204104  -0.00847724  -0.0215176  -0.01953  -0.0143408  -0.00649516  -0.0489951  0.0245556  -0.0459143  0.0789575  -0.113527  0.0552221 
1701767419.672046000  0  0  12.0143  0.16402  -0.0354072  0.0325142  nan  nan  nan  nan  nan  nan  -1.91578  -0.917457  1.46358  -0.107606  0.111985  0.0119075  0.439125  0.42494  -0.1176  0  0  0  0.970915  0.890917  -0  -0.00218445  -0.00865397  -0.0214325  -0.0165207  -0.0110055  0.0046131  -0.0509673  0.0259604  -0.0464016  0.14086  -0.168022  0.0575881 
1701767419.677140000  0  0  12.0242  0.158812  -0.0300326  0.0325639  nan  nan  nan  nan  nan  nan  -1.91357  -0.915321  1.46299  -0.103613  0.109032  0.0132108  0.443924  0.429336  -0.1176  0  0  0  0.948713  0.867588  -0  -0.00223238  -0.0086705  -0.0214379  -0.0154679  -0.00895608  0.00287915  -0.0537514  0.027625  -0.0469961  0.176889  -0.194085  0.0629128 
1701767419.682050000  0  0  12.1397  0.155441  -0.0573572  0.0316585  nan  nan  nan  nan  nan  nan  -1.91134  -0.913163  1.4624  -0.100525  0.106315  0.0143757  0.448611  0.433615  -0.1176  0  0  0  0.925762  0.843508  -0  -0.00243004  -0.0089042  -0.0214811  -0.0157015  -0.00888562  -0.00734106  -0.0556621  0.0296468  -0.0473309  0.201208  -0.158036  0.0775773 
1701767419.686043000  0  0  12.0529  0.133549  -0.0395884  0.0313725  nan  nan  nan  nan  nan  nan  -1.90909  -0.910985  1.46181  -0.097554  0.104362  0.0154435  0.453181  0.43777  -0.1176  0  0  0  0.90206  0.818679  -0  -0.00292871  -0.00936133  -0.0213167  -0.0140285  -0.00625091  -0.00112015  -0.0571404  0.0304617  -0.0477693  0.258595  -0.201071  0.085537 
1701767419.692046000  0  0  12.0548  0.150541  -0.059944  0.0313571  nan  nan  nan  nan  nan  nan  -1.90681  -0.908786  1.46123  -0.092739  0.100491  0.0168733  0.45763  0.4418  -0.1176  0  0  0  0.877609  0.793099  -0  -0.00267939  -0.00912196  -0.0214535  -0.0126362  -0.00382118  -0.00211839  -0.0603549  0.0330545  -0.048174  0.254183  -0.184213  0.0897754 
1701767419.695991000  0  0  12.1208  0.142778  -0.059329  0.0323819  nan  nan  nan  nan  nan  nan  -1.90451  -0.906567  1.46064  -0.0903882  0.0983064  0.0178801  0.461956  0.4457  -0.1176  0  0  0  0.852407  0.76677  -0  -0.00321612  -0.00961271  -0.0213837  -0.012472  -0.00376173  -0.00827033  -0.0614197  0.0343551  -0.0486757  0.279505  -0.197409  0.0819838 
1701767419.702060000  0  0  12.0631  0.124914  -0.0629829  0.033421  nan  nan  nan  nan  nan  nan  -1.90219  -0.904329  1.46005  -0.0841957  0.0934878  0.0194753  0.466153  0.449467  -0.1176  0  0  0  0.826455  0.739691  -0  -0.00288431  -0.0092918  -0.0214919  -0.00960029  0.000784181  -0.00460376  -0.0649611  0.0373007  -0.0493756  0.347814  -0.217201  0.075993 
1701767419.707058000  0  0  12.0503  0.144119  -0.0851673  0.0329993  nan  nan  nan  nan  nan  nan  -1.89985  -0.902073  1.45946  -0.080773  0.0906081  0.0206135  0.470219  0.453096  -0.1176  0  0  0  0.799754  0.711861  -0  -0.00307057  -0.00948709  -0.0215092  -0.00869073  0.00224104  -0.00424622  -0.0668098  0.0392175  -0.0497214  0.326412  -0.190466  0.0847228 
1701767419.711043000  0  0  12.0558  0.121092  -0.0472869  0.0335835  nan  nan  nan  nan  nan  nan  -1.89749  -0.899798  1.45887  -0.0778823  0.0876227  0.0216994  0.474149  0.456584  -0.1176  0  0  0  0.772302  0.683282  -0  -0.00357661  -0.00994229  -0.0214145  -0.00719128  0.00332331  -0.00552002  -0.0678446  0.0404349  -0.0501962  0.381986  -0.277427  0.0821679 
1701767419.717144000  0  0  12.1058  0.132244  -0.0918778  0.032064  nan  nan  nan  nan  nan  nan  -1.89511  -0.897507  1.45829  -0.0719012  0.0831505  0.0231435  0.477941  0.459927  -0.1176  0  0  0  0.744101  0.653952  -0  -0.00322511  -0.00958797  -0.0216084  -0.00622182  0.00628181  -0.0104713  -0.0712742  0.0435143  -0.0505121  0.391234  -0.216576  0.104321 
1701767419.722184000  0  0  12.0142  0.138133  -0.0805081  0.0308172  nan  nan  nan  nan  nan  nan  -1.89271  -0.895199  1.4577  -0.0679759  0.0789612  0.0243585  0.481589  0.463122  -0.1176  0  0  0  0.715149  0.623873  -0  -0.00334833  -0.00971151  -0.0215926  -0.00334573  0.00864605  -0.00375658  -0.0731768  0.0459481  -0.0506165  0.39696  -0.261707  0.12095 
1701767419.727185000  0  0  12.0511  0.13248  -0.0768316  0.0299525  nan  nan  nan  nan  nan  nan  -1.89029  -0.892876  1.45711  -0.0629986  0.0748493  0.0256208  0.485091  0.466166  -0.1176  0  0  0  0.685448  0.593663  -0  -0.00337239  -0.0096661  -0.0216487  -0.00206629  0.0110104  -0.00765645  -0.0758358  0.0482479  -0.0508293  0.432729  -0.290217  0.133886 
1701767419.732046000  0  0  12.1318  0.143633  -0.0977246  0.0290204  nan  nan  nan  nan  nan  nan  -1.88786  -0.890538  1.45652  -0.0596968  0.0718087  0.0266655  0.488442  0.46906  -0.1176  0  0  0  0.654996  0.564197  -0  -0.00360288  -0.00988173  -0.0217109  -0.00211574  0.0115473  -0.0148609  -0.0770937  0.0499666  -0.0508428  0.421996  -0.264243  0.145673 
1701767419.735993000  0  0  12.049  0.14839  -0.0954764  0.0287812  nan  nan  nan  nan  nan  nan  -1.88541  -0.888186  1.45593  -0.0561381  0.0685184  0.027728  0.49164  0.471809  -0.1176  0  0  0  0.624115  0.535481  -0  -0.00411475  -0.0103194  -0.0215752  -4.66567e-06  0.0141544  -0.00893488  -0.0789545  0.0518807  -0.0510377  0.429602  -0.286349  0.150612 
1701767419.741987000  0  0  12.0653  0.136924  -0.0829457  0.0291  nan  nan  nan  nan  nan  nan  -1.88294  -0.88582  1.45535  -0.0509573  0.0637781  0.028953  0.494685  0.474416  -0.1176  0  0  0  0.593893  0.507515  -0  -0.00378308  -0.00996331  -0.021752  0.00143545  0.0166613  -0.0107972  -0.0809949  0.0540017  -0.0510685  0.471306  -0.330924  0.146935 
1701767419.747181000  0  0  12.1188  0.136919  -0.0749258  0.0290733  nan  nan  nan  nan  nan  nan  -1.88046  -0.883442  1.45476  -0.0475306  0.0598271  0.0299939  0.49758  0.476885  -0.1176  0  0  0  0.564421  0.480298  -0  -0.00383469  -0.0100221  -0.0218412  0.00260541  0.0176492  -0.0156597  -0.0818888  0.0556657  -0.0510273  0.479538  -0.362273  0.146856 
1701767419.752048000  0  0  12.0534  0.131759  -0.0754386  0.0289542  nan  nan  nan  nan  nan  nan  -1.87797  -0.881052  1.45417  -0.0423105  0.0556769  0.0311227  0.50033  0.47922  -0.1176  0  0  0  0.535699  0.453832  -0  -0.00387786  -0.00998295  -0.0218481  0.00479745  0.0215819  -0.0109953  -0.0844831  0.0576749  -0.0512055  0.513726  -0.379732  0.150127 
1701767419.757045000  0  0  12.0665  0.139899  -0.0839172  0.028396  nan  nan  nan  nan  nan  nan  -1.87546  -0.87865  1.45358  -0.0390637  0.0526877  0.0320672  0.502938  0.481425  -0.1176  0  0  0  0.507727  0.428116  -0  -0.00402445  -0.0101019  -0.0219109  0.00534457  0.0228816  -0.0123766  -0.0852189  0.058648  -0.0511372  0.504215  -0.371727  0.156423 
1701767419.761041000  0  0  12.0666  0.123904  -0.0492482  0.0286623  nan  nan  nan  nan  nan  nan  -1.87294  -0.876237  1.45299  -0.036275  0.0495181  0.0329823  0.505409  0.483503  -0.1176  0  0  0  0.480505  0.40315  -0  -0.00450242  -0.0104969  -0.0218435  0.0070632  0.0243596  -0.0128871  -0.085685  0.0594229  -0.0512527  0.540493  -0.448195  0.154248 
1701767419.767049000  0  0  12.0799  0.116711  -0.0557275  0.0280754  nan  nan  nan  nan  nan  nan  -1.8704  -0.873815  1.45241  -0.0311052  0.0449573  0.0340396  0.507745  0.485458  -0.1176  0  0  0  0.454033  0.378934  -0  -0.00411197  -0.0100539  -0.0220348  0.00863711  0.027289  -0.0142132  -0.087219  0.0608971  -0.0511033  0.568992  -0.448799  0.160091 
1701767419.771995000  0  0  12.0109  0.121296  -0.0633263  0.0261534  nan  nan  nan  nan  nan  nan  -1.86786  -0.871383  1.45182  -0.028053  0.0416974  0.0349339  0.50995  0.487293  -0.1176  0  0  0  0.428311  0.355468  -0  -0.00425887  -0.0101527  -0.0220309  0.0102303  0.028916  -0.00876951  -0.0874796  0.0618618  -0.0507731  0.562219  -0.442476  0.180814 
1701767419.777047000  0  0  12.0016  0.111409  -0.0348857  0.0261848  nan  nan  nan  nan  nan  nan  -1.8653  -0.868942  1.45123  -0.0235557  0.0373374  0.035896  0.512029  0.489014  -0.1176  0  0  0  0.403339  0.332751  -0  -0.0041819  -0.00997573  -0.0220849  0.0125182  0.0317946  -0.0083594  -0.0888642  0.0630049  -0.0506542  0.594734  -0.509874  0.179231 
1701767419.782049000  0  0  12.0813  0.10878  -0.0482445  0.0248989  nan  nan  nan  nan  nan  nan  -1.86274  -0.866493  1.45064  -0.020789  0.0352511  0.0367208  0.513985  0.490622  -0.1176  0  0  0  0.379117  0.310785  -0  -0.00429466  -0.0100388  -0.0221825  0.012017  0.0326714  -0.0149154  -0.0885309  0.0626062  -0.0503587  0.596924  -0.479488  0.192351 
1701767419.785987000  0  0  12.002  0.112365  -0.0470971  0.0248276  nan  nan  nan  nan  nan  nan  -1.86017  -0.864036  1.45005  -0.0178513  0.0322318  0.0375627  0.515821  0.492123  -0.1176  0  0  0  0.355645  0.289569  -0  -0.00477822  -0.010425  -0.0220531  0.0142775  0.0350307  -0.0088222  -0.0891993  0.0635483  -0.05033  0.595904  -0.49045  0.192955 
1701767419.792033000  0  0  12.0173  0.0932341  -0.018559  0.0246931  nan  nan  nan  nan  nan  nan  -1.85758  -0.861572  1.44947  -0.0132023  0.0281017  0.0384576  0.517543  0.493519  -0.1176  0  0  0  0.332923  0.269103  -0  -0.00429469  -0.00986079  -0.0222446  0.0155317  0.0375137  -0.00995243  -0.0897111  0.0636588  -0.0499514  0.638874  -0.548543  0.19085 
1701767419.797057000  0  0  12.0931  0.0968864  -0.0212966  0.0239513  nan  nan  nan  nan  nan  nan  -1.85499  -0.859101  1.44888  -0.0109982  0.0256951  0.0392429  0.519152  0.494815  -0.1176  0  0  0  0.310951  0.249387  -0  -0.00437842  -0.00987006  -0.0223523  0.015795  0.0379427  -0.0160707  -0.0888455  0.0632435  -0.0496035  0.623606  -0.539247  0.196644 
1701767419.802064000  0  0  11.9643  0.0800114  -0.000205474  0.0234868  nan  nan  nan  nan  nan  nan  -1.85239  -0.856624  1.44829  -0.00624575  0.0215468  0.040094  0.520653  0.496014  -0.1176  0  0  0  0.28973  0.230421  -0  -0.0042844  -0.00965972  -0.0223253  0.0185019  0.0417394  -0.00562831  -0.0900691  0.0639734  -0.049349  0.668613  -0.588144  0.199905 
1701767419.807053000  0  0  12.0061  0.0834795  -0.00558542  0.0226461  nan  nan  nan  nan  nan  nan  -1.84978  -0.854141  1.4477  -0.00402537  0.0195664  0.0408592  0.522051  0.49712  -0.1176  0  0  0  0.269258  0.212205  -0  -0.00439157  -0.00967735  -0.0223861  0.0185395  0.0424568  -0.00890973  -0.089041  0.0630315  -0.0489899  0.652218  -0.568719  0.206822 
1701767419.811040000  0  0  12.0714  0.0804025  0.00225004  0.0223983  nan  nan  nan  nan  nan  nan  -1.84717  -0.851653  1.44711  -0.00233613  0.0175226  0.0416127  0.523347  0.498137  -0.1176  0  0  0  0.249536  0.194738  -0  -0.00484337  -0.0100176  -0.0223496  0.0195206  0.0432934  -0.0143998  -0.088197  0.0626766  -0.0488355  0.650607  -0.581125  0.208377 
1701767419.817058000  0  0  12.0147  0.0671866  0.00751971  0.0215123  nan  nan  nan  nan  nan  nan  -1.84455  -0.84916  1.44653  0.00210985  0.0135301  0.042404  0.524547  0.499069  -0.1176  0  0  0  0.230564  0.178022  -0  -0.00434584  -0.00941624  -0.0225094  0.0211792  0.0459899  -0.00939873  -0.0883811  0.0627336  -0.0482468  0.678733  -0.592189  0.213565 
1701767419.822048000  0  0  12.0096  0.0755089  -0.0137262  0.0200511  nan  nan  nan  nan  nan  nan  -1.84192  -0.846662  1.44594  0.00420133  0.0115593  0.0431522  0.525654  0.499919  -0.1176  0  0  0  0.212342  0.162056  -0  -0.00443745  -0.00939993  -0.0225472  0.0215582  0.0467941  -0.00877935  -0.087293  0.0621289  -0.0477521  0.652078  -0.544133  0.226882 
1701767419.827056000  0  0  12.0466  0.0652813  -0.00321119  0.0198937  nan  nan  nan  nan  nan  nan  -1.83929  -0.844161  1.44535  0.00718095  0.00806622  0.0438959  0.526672  0.500691  -0.1176  0  0  0  0.19487  0.14684  -0  -0.0043192  -0.00916094  -0.0226196  0.0235074  0.048514  -0.0117387  -0.0868992  0.062546  -0.0473325  0.668911  -0.569  0.224654 
1701767419.832045000  0  0  12.0363  0.0569478  -0.0145466  0.0197021  nan  nan  nan  nan  nan  nan  -1.83666  -0.841656  1.44476  0.00982429  0.00619871  0.0446395  0.527604  0.501389  -0.1176  0  0  0  0.178148  0.132374  -0  -0.00434346  -0.00907413  -0.0226525  0.0237553  0.0500978  -0.0106653  -0.0860088  0.0617304  -0.0469881  0.677385  -0.538827  0.223605 
1701767419.837060000  0  0  11.9783  0.0657156  -0.0276312  0.0193839  nan  nan  nan  nan  nan  nan  -1.83402  -0.839147  1.44417  0.0130419  0.00270371  0.0453608  0.528455  0.502016  -0.1176  0  0  0  0.162176  0.118658  -0  -0.00420866  -0.00881237  -0.0226623  0.0259028  0.0521905  -0.00583105  -0.0861194  0.0626905  -0.0465816  0.660868  -0.52149  0.223518 
1701767419.842033000  0  0  12.0397  0.0441924  -0.00387623  0.0196006  nan  nan  nan  nan  nan  nan  -1.83137  -0.836636  1.44359  0.0143201  0.00117617  0.0460954  0.529227  0.502576  -0.1176  0  0  0  0.146954  0.105691  -0  -0.00433627  -0.00881876  -0.0227341  0.0261583  0.0524209  -0.0105064  -0.0837735  0.0610371  -0.046258  0.682331  -0.553789  0.217572 
1701767419.847016000  0  0  12.0702  0.0489133  -0.0225041  0.0186709  nan  nan  nan  nan  nan  nan  -1.82873  -0.834122  1.443  0.017153  -0.00137301  0.0468144  0.529925  0.503074  -0.1176  0  0  0  0.132482  0.0934753  -0  -0.00420938  -0.00856254  -0.0227993  0.0272405  0.0542953  -0.0128591  -0.0833942  0.0611998  -0.0458336  0.6694  -0.51803  0.224949 
1701767419.851080000  0  0  11.9784  0.0588474  -0.0315646  0.0178469  nan  nan  nan  nan  nan  nan  -1.82607  -0.831605  1.44241  0.0188694  -0.00328895  0.0475415  0.530553  0.503512  -0.1176  0  0  0  0.11876  0.0820091  -0  -0.00459941  -0.00881306  -0.0226705  0.0287625  0.0556087  -0.00534996  -0.0827074  0.0612238  -0.045566  0.643213  -0.50013  0.232573 
1701767419.857060000  0  0  12.0078  0.034564  -0.0080599  0.018269  nan  nan  nan  nan  nan  nan  -1.82342  -0.829086  1.44182  0.0202888  -0.00506442  0.0482727  0.531114  0.503895  -0.1176  0  0  0  0.105788  0.071293  -0  -0.00427672  -0.00841064  -0.0228205  0.0286426  0.055401  -0.00711347  -0.0798198  0.0593499  -0.0450601  0.665214  -0.529899  0.222238 
1701767419.861063000  0  0  12.0867  0.048187  -0.0309973  0.0173385  nan  nan  nan  nan  nan  nan  -1.82076  -0.826566  1.44123  0.0214339  -0.00578321  0.0490296  0.531612  0.504227  -0.1176  0  0  0  0.0935664  0.0613268  -0  -0.00470101  -0.00869074  -0.0227879  0.0289131  0.0565072  -0.013619  -0.0786945  0.0585383  -0.0448573  0.627616  -0.476558  0.231841 
1701767419.867027000  0  0  11.9715  0.0512206  -0.0316101  0.0159305  nan  nan  nan  nan  nan  nan  -1.8181  -0.824044  1.44065  0.0242361  -0.00845982  0.0497329  0.532051  0.50451  -0.1176  0  0  0  0.0820945  0.0521107  -0  -0.00419557  -0.0080666  -0.0228691  0.0296109  0.0575697  -0.00364047  -0.0779014  0.0583063  -0.0440929  0.614252  -0.473198  0.241798 
