ts fx fy fz tx ty tz exfx exfy exfz extx exty extz xd yd zd rolld pitchd yawd vxd vyd vzd wxd wyd wzd axd ayd azd e_x e_y e_z e_vx e_vy e_vz e_rx e_ry e_rz e_wx e_wy e_wz
1699967300.243113000  0  0  11.8071  0.159092  -0.187014  0.00410236  nan  nan  nan  nan  nan  nan  -1  0  1  0.0268469  -0.0467169  -0.00125405  0  0  0  0  0  0  0  0  0  0.0330142  0.00657877  -0.0252299  -0.011994  0.0205676  -0.00258842  -0.035783  0.0377999  -0.00448959  0.0110192  0.0262685  -0.00638366 
1699967300.248135000  0  0  11.8498  0.145022  -0.200611  0.00377335  nan  nan  nan  nan  nan  nan  -1  0  1  0.0263501  -0.0464699  -0.00122433  0  0  0  0  0  0  0  0  0  0.0330298  0.00649562  -0.0252391  -0.012134  0.0202265  -0.00613545  -0.0349632  0.0380653  -0.00448699  0.0316166  0.0510215  -0.00229704 
1699967300.253133000  0  0  11.8127  0.159126  -0.17748  0.00453171  nan  nan  nan  nan  nan  nan  -1  0  1  0.0267028  -0.0466075  -0.00124439  0  0  0  0  0  0  0  0  0  0.0329726  0.00659384  -0.0252379  -0.0120171  0.0203618  -0.00303681  -0.0354264  0.0379229  -0.00458247  0.00767067  0.00606995  -0.0108217 
1699967300.258123000  0  0  11.8029  0.163908  -0.187248  0.00419192  nan  nan  nan  nan  nan  nan  -1  0  1  0.0263213  -0.0468352  -0.0012326  0  0  0  0  0  0  0  0  0  0.0330152  0.00648986  -0.0252205  -0.0118636  0.0200638  -0.00226801  -0.0351874  0.0383898  -0.0045915  -0.00409209  0.0213101  -0.00648399 
1699967300.263131000  0  0  11.8446  0.152893  -0.193368  0.00405361  nan  nan  nan  nan  nan  nan  -1  0  1  0.0269666  -0.0459954  -0.0012402  0  0  0  0  0  0  0  0  0  0.0329511  0.00659308  -0.0252659  -0.0126095  0.020807  -0.00565878  -0.0355446  0.0378793  -0.00460852  0.0212243  0.0382468  -0.00458485 
1699967300.268141000  0  0  11.8094  0.162594  -0.182488  0.00408533  nan  nan  nan  nan  nan  nan  -1  0  1  0.0265604  -0.0465551  -0.00123637  0  0  0  0  0  0  0  0  0  0.0329795  0.00650442  -0.0252218  -0.0121178  0.0203648  -0.0028134  -0.0352737  0.0383725  -0.00462094  -0.000670728  0.0119486  -0.00485724 
1699967300.273140000  0  0  11.7897  0.177865  -0.18398  0.0034276  nan  nan  nan  nan  nan  nan  -1  0  1  0.0260965  -0.0468062  -0.00122131  0  0  0  0  0  0  0  0  0  0.0330036  0.00641833  -0.0251824  -0.0119443  0.0198906  -0.00126549  -0.0351784  0.038723  -0.00454837  -0.0320877  0.011709  0.00263879 
1699967300.278135000  0  0  11.8026  0.169519  -0.184843  0.00299328  nan  nan  nan  nan  nan  nan  -1  0  1  0.026979  -0.0460222  -0.0012415  0  0  0  0  0  0  0  0  0  0.0329387  0.00652217  -0.0252029  -0.0127601  0.0208559  -0.0023132  -0.035951  0.0380956  -0.00447245  -0.00828814  0.0192065  0.00730851 
1699967300.283139000  0  0  11.7872  0.168531  -0.174317  0.00298411  nan  nan  nan  nan  nan  nan  -1  0  1  0.0263526  -0.046407  -0.00122279  0  0  0  0  0  0  0  0  0  0.0329758  0.00641643  -0.0251591  -0.0124189  0.0202236  -0.00110855  -0.0353709  0.0383628  -0.00443313  -0.0116508  -0.00430441  0.0070299 
1699967300.287144000  0  0  11.7672  0.191134  -0.167648  0.00276939  nan  nan  nan  nan  nan  nan  -1  0  1  0.0268742  -0.046347  -0.00124539  0  0  0  0  0  0  0  0  0  0.0329277  0.00649762  -0.0251516  -0.012491  0.0206672  0.000521563  -0.0363506  0.0381496  -0.00435643  -0.0478416  -0.0156812  0.00894695 
1699967300.293066000  0  0  11.774  0.182492  -0.16863  0.00308506  nan  nan  nan  nan  nan  nan  -1  0  1  0.0269581  -0.0459303  -0.00123806  0  0  0  0  0  0  0  0  0  0.0329371  0.00644005  -0.0251212  -0.0130228  0.020926  -0.000115245  -0.0365299  0.0377337  -0.00434913  -0.0289095  -0.00989067  0.00492813 
1699967300.298106000  0  0  11.7922  0.180359  -0.162379  0.00354403  nan  nan  nan  nan  nan  nan  -1  0  1  0.0276014  -0.045428  -0.00125377  0  0  0  0  0  0  0  0  0  0.0328712  0.00654617  -0.0251368  -0.013441  0.0215883  -0.00160297  -0.0371495  0.0371012  -0.00438559  -0.0189416  -0.0165728  -0.000444431 
1699967300.303129000  0  0  11.7547  0.198627  -0.157483  0.00362755  nan  nan  nan  nan  nan  nan  -1  0  1  0.0268851  -0.0461309  -0.00124009  0  0  0  0  0  0  0  0  0  0.0329098  0.00643875  -0.0250623  -0.0127978  0.0207756  0.00136515  -0.0370152  0.0375874  -0.00438233  -0.0567152  -0.0308381  -0.00152109 
1699967300.308114000  0  0  11.7597  0.189819  -0.166051  0.00368143  nan  nan  nan  nan  nan  nan  -1  0  1  0.0269281  -0.0460029  -0.00123863  0  0  0  0  0  0  0  0  0  0.0329334  0.00635578  -0.0250263  -0.0129919  0.0210315  0.000870401  -0.0371197  0.0375559  -0.00438575  -0.0381372  -0.0134117  -0.00216034 
1699967300.312118000  0  0  11.7992  0.186729  -0.16542  0.00335673  nan  nan  nan  nan  nan  nan  -1  0  1  0.0273952  -0.0452499  -0.00123952  0  0  0  0  0  0  0  0  0  0.032878  0.00643997  -0.0250528  -0.0136545  0.0215763  -0.00237839  -0.0375908  0.0368261  -0.00435342  -0.0276221  -0.00795956  0.00157507 
1699967300.318106000  0  0  11.761  0.195581  -0.153589  0.00352362  nan  nan  nan  nan  nan  nan  -1  0  1  0.0267536  -0.0460104  -0.0012308  0  0  0  0  0  0  0  0  0  0.0328976  0.00637503  -0.0249942  -0.0128963  0.0207647  0.0006933  -0.0373678  0.0372294  -0.00435003  -0.0473778  -0.035332  -0.000545005 
1699967300.323104000  0  0  11.77  0.180702  -0.16747  0.0036222  nan  nan  nan  nan  nan  nan  -1  0  1  0.0270081  -0.0458807  -0.00123902  0  0  0  0  0  0  0  0  0  0.0329105  0.00631013  -0.0249605  -0.0130481  0.0212686  -0.000129023  -0.0374763  0.037273  -0.00436125  -0.0166223  -0.00797163  -0.00166509 
1699967300.328114000  0  0  11.8156  0.174326  -0.17237  0.00298891  nan  nan  nan  nan  nan  nan  -1  0  1  0.0273927  -0.0450365  -0.00123356  0  0  0  0  0  0  0  0  0  0.0328411  0.00641449  -0.0249954  -0.0137704  0.0216802  -0.00387273  -0.0377267  0.0366295  -0.0042871  -0.00156698  0.00774924  0.00550967 
1699967300.333118000  0  0  11.7494  0.175  -0.155407  0.00328371  nan  nan  nan  nan  nan  nan  -1  0  1  0.0267091  -0.0459194  -0.00122633  0  0  0  0  0  0  0  0  0  0.032864  0.00633593  -0.0249143  -0.0130011  0.0207588  0.00150286  -0.0371394  0.0371006  -0.0042907  -0.00831785  -0.0305109  0.00186065 
1699967300.337116000  0  0  11.7582  0.174265  -0.169423  0.00348636  nan  nan  nan  nan  nan  nan  -1  0  1  0.0276561  -0.0453491  -0.00125407  0  0  0  0  0  0  0  0  0  0.0328084  0.0064254  -0.0249189  -0.0135751  0.0218248  0.000753483  -0.0380091  0.0367608  -0.0043039  0.0011528  0.000646805  -0.000540517 
1699967300.343109000  0  0  11.8211  0.159151  -0.185724  0.00356399  nan  nan  nan  nan  nan  nan  -1  0  1  0.0269051  -0.0451828  -0.00121552  0  0  0  0  0  0  0  0  0  0.0328276  0.00634763  -0.0249309  -0.0135221  0.0212048  -0.00445968  -0.0369777  0.0370867  -0.00434801  0.0218931  0.0302501  -0.00106979 
1699967300.348114000  0  0  11.7507  0.153289  -0.169938  0.00365239  nan  nan  nan  nan  nan  nan  -1  0  1  0.02624  -0.0460946  -0.00120937  0  0  0  0  0  0  0  0  0  0.0328484  0.00626812  -0.0248486  -0.0127324  0.0203007  0.00126583  -0.0361367  0.0377149  -0.00435729  0.0258793  -0.00710017  -0.00208192 
1699967300.353114000  0  0  11.7901  0.157037  -0.189046  0.00304065  nan  nan  nan  nan  nan  nan  -1  0  1  0.0272522  -0.0452493  -0.00123303  0  0  0  0  0  0  0  0  0  0.0327792  0.00637739  -0.0248759  -0.0134818  0.0215005  -0.00198981  -0.0370164  0.0373354  -0.00427557  0.0264774  0.0346065  0.0047476 
1699967300.358105000  0  0  11.8134  0.148683  -0.195678  0.00322651  nan  nan  nan  nan  nan  nan  -1  0  1  0.0262974  -0.0455393  -0.00119743  0  0  0  0  0  0  0  0  0  0.032811  0.00627683  -0.0248636  -0.0130569  0.020541  -0.00395273  -0.0358352  0.0379894  -0.00429748  0.0323172  0.0418539  0.00264338 
1699967300.363122000  0  0  11.7463  0.151131  -0.18179  0.00398341  nan  nan  nan  nan  nan  nan  -1  0  1  0.026975  -0.0458177  -0.0012358  0  0  0  0  0  0  0  0  0  0.0327489  0.00638046  -0.0248255  -0.0128928  0.020998  0.00156798  -0.0363498  0.038096  -0.0043753  0.0321565  0.0130962  -0.00603967 
1699967300.368116000  0  0  11.7839  0.153394  -0.198348  0.00432946  nan  nan  nan  nan  nan  nan  -1  0  1  0.0265413  -0.0457977  -0.00121539  0  0  0  0  0  0  0  0  0  0.0327774  0.00629419  -0.0248095  -0.0127914  0.0207352  -0.00161064  -0.0358795  0.038525  -0.00446655  0.0233043  0.0422654  -0.00945277 
1699967300.373115000  0  0  11.8017  0.138289  -0.198359  0.0051022  nan  nan  nan  nan  nan  nan  -1  0  1  0.0259889  -0.0457615  -0.00118914  0  0  0  0  0  0  0  0  0  0.0328062  0.0062011  -0.0247861  -0.0128147  0.0202701  -0.00313041  -0.0349157  0.0387499  -0.00463554  0.0446454  0.0402197  -0.017422 
1699967300.378141000  0  0  11.7513  0.146095  -0.180713  0.00469677  nan  nan  nan  nan  nan  nan  -1  0  1  0.0265405  -0.0458376  -0.00121641  0  0  0  0  0  0  0  0  0  0.0327438  0.00630207  -0.0247583  -0.0128318  0.0206199  0.0010195  -0.0353663  0.0385928  -0.00464284  0.03318  0.00637228  -0.0122813 
1699967300.383137000  0  0  11.7786  0.156885  -0.192972  0.0039402  nan  nan  nan  nan  nan  nan  -1  0  1  0.0261708  -0.0457848  -0.00119808  0  0  0  0  0  0  0  0  0  0.0327743  0.00621647  -0.0247363  -0.0128299  0.0204075  -0.00131887  -0.0351285  0.0388364  -0.00460197  0.0094123  0.0286494  -0.00323274 
1699967300.387144000  0  0  11.7995  0.148897  -0.191862  0.00411202  nan  nan  nan  nan  nan  nan  -1  0  1  0.0267991  -0.0452421  -0.00121232  0  0  0  0  0  0  0  0  0  0.0327208  0.00630068  -0.0247537  -0.0133155  0.0211055  -0.00302971  -0.0354915  0.0384373  -0.00463322  0.0287274  0.0301  -0.00506805 
1699967300.393144000  0  0  11.7489  0.164163  -0.172173  0.00394028  nan  nan  nan  nan  nan  nan  -1  0  1  0.0263321  -0.0457901  -0.00120561  0  0  0  0  0  0  0  0  0  0.032742  0.00623483  -0.024689  -0.0129024  0.0204907  0.00106381  -0.0352123  0.0386901  -0.00463929  -0.00437358  -0.0116027  -0.00286057 
1699967300.398136000  0  0  11.7675  0.177793  -0.170832  0.00382096  nan  nan  nan  nan  nan  nan  -1  0  1  0.0272991  -0.045211  -0.0012341  0  0  0  0  0  0  0  0  0  0.0326752  0.00634281  -0.0247013  -0.0134142  0.0215705  -0.00047702  -0.036421  0.0380641  -0.00461219  -0.0205128  -0.0085255  -0.00164016 
1699967300.403140000  0  0  11.7856  0.169434  -0.174929  0.0036618  nan  nan  nan  nan  nan  nan  -1  0  1  0.026984  -0.0449794  -0.00121361  0  0  0  0  0  0  0  0  0  0.0326942  0.00625848  -0.0246783  -0.0136707  0.0214005  -0.00203089  -0.0360274  0.0379487  -0.00460055  -0.00741575  0.000729019  0.000232936 
1699967300.408144000  0  0  11.7508  0.183283  -0.152973  0.0031267  nan  nan  nan  nan  nan  nan  -1  0  1  0.026344  -0.0453629  -0.00119491  0  0  0  0  0  0  0  0  0  0.0327222  0.00616981  -0.0246217  -0.0134074  0.0206572  0.000757288  -0.0357576  0.0378746  -0.00452155  -0.0375959  -0.0425006  0.00613177 
1699967300.412145000  0  0  11.7468  0.195291  -0.147331  0.0028303  nan  nan  nan  nan  nan  nan  -1  0  1  0.0271385  -0.0450753  -0.00122316  0  0  0  0  0  0  0  0  0  0.0326685  0.00625612  -0.0246179  -0.0136815  0.0214912  0.00107038  -0.0368712  0.0373253  -0.00443638  -0.0513682  -0.048732  0.00898513 
1699967300.418136000  0  0  11.7972  0.185984  -0.162655  0.00338008  nan  nan  nan  nan  nan  nan  -1  0  1  0.026905  -0.0447213  -0.00120311  0  0  0  0  0  0  0  0  0  0.0326824  0.00618068  -0.0246112  -0.013925  0.0215055  -0.00315056  -0.0367209  0.037118  -0.00447103  -0.0341357  -0.0161755  0.00245924 
1699967300.423134000  0  0  11.7559  0.185272  -0.148041  0.00423105  nan  nan  nan  nan  nan  nan  -1  0  1  0.0258853  -0.045473  -0.00117694  0  0  0  0  0  0  0  0  0  0.0327318  0.00604239  -0.0245222  -0.0132604  0.0203561  0.000128115  -0.0359061  0.0374635  -0.00457321  -0.0402079  -0.0485825  -0.00715602 
1699967300.428083000  0  0  11.7447  0.190442  -0.148311  0.00436683  nan  nan  nan  nan  nan  nan  -1  0  1  0.0270065  -0.0451023  -0.00121794  0  0  0  0  0  0  0  0  0  0.0326649  0.00614937  -0.0245145  -0.0136494  0.0215497  0.00103623  -0.0372196  0.0368715  -0.00459643  -0.0384635  -0.0425947  -0.00862105 
1699967300.433076000  0  0  11.8048  0.184882  -0.166322  0.00422034  nan  nan  nan  nan  nan  nan  -1  -0  1  0.026419  -0.0446473  -0.00117942  6e-07  -6e-07  6e-07  0  0  0  0  0  0  0.0326763  0.00606576  -0.0245106  -0.0139726  0.0211464  -0.00399232  -0.0367447  0.036666  -0.00464047  -0.0317132  -0.00468317  -0.00634954 
1699967300.438119000  0  0  11.7834  0.174085  -0.158427  0.00460645  nan  nan  nan  nan  nan  nan  -1  -0  1  0.0268428  -0.0446745  -0.00119908  5e-06  -5e-06  5e-06  0  0  0  0  0  0  0.0326099  0.00616963  -0.0245054  -0.0138946  0.0214073  -0.00221538  -0.0370174  0.0365265  -0.00471047  -0.0076108  -0.0191893  -0.0104759 
1699967300.443116000  0  0  11.7527  0.17409  -0.155774  0.00470246  nan  nan  nan  nan  nan  nan  -1  -1e-07  1  0.0266246  -0.0451337  -0.00120155  1.69e-05  -1.69e-05  1.69e-05  0  0  0  0  0  0  0.0326295  0.00609358  -0.0244525  -0.0134909  0.0211989  0.000246929  -0.0368561  0.0367688  -0.0047648  -0.00910469  -0.0267256  -0.0111327 
1699967300.448130000  0  0  11.8136  0.172128  -0.179954  0.00406327  nan  nan  nan  nan  nan  nan  -1  -2e-07  1  0.0260707  -0.0447394  -0.00116616  4e-05  -4e-05  4e-05  0  0  0  0  0  0  0.0326482  0.00598193  -0.02445  -0.0137468  0.0209012  -0.00484623  -0.036337  0.0368671  -0.0047559  -0.00995503  0.0207303  -0.00323192 
1699967300.453113000  0  0  11.7997  0.164936  -0.170158  0.00467606  nan  nan  nan  nan  nan  nan  -1  -5e-07  1  0.0265207  -0.0447199  -0.00118569  7.81e-05  -7.81e-05  7.81e-05  0  0  0  0  0  0  0.0325833  0.00608371  -0.0244538  -0.013696  0.0212246  -0.00367943  -0.036622  0.0367493  -0.00483974  0.00705036  0.00222259  -0.0100534 
1699967300.458112000  0  0  11.7536  0.164803  -0.17304  0.00484739  nan  nan  nan  nan  nan  nan  -0.999999  -1e-06  1  0.0257926  -0.0454936  -0.00117285  0.000135  -0.000135  0.000135  0  0  0  0  0  0  0.032625  0.00594858  -0.0243768  -0.013008  0.0204369  1.60013e-05  -0.0359147  0.037474  -0.00491879  0.000809058  0.00131993  -0.0114045 
1699967300.463138000  0  0  11.8325  0.160125  -0.197706  0.0045523  nan  nan  nan  nan  nan  nan  -0.999998  -1.9e-06  1  0.0264096  -0.044546  -0.00117573  0.0002141  -0.0002144  0.0002134  0  0  0  0  0  0  0.0325545  0.00605435  -0.0244407  -0.0136974  0.0212412  -0.00645416  -0.0363657  0.0372212  -0.00494108  0.0143142  0.0529777  -0.0074929 
1699967300.468141000  0  0  11.7676  0.133525  -0.178434  0.00490411  nan  nan  nan  nan  nan  nan  -0.999997  -3.2e-06  1  0.0251315  -0.045538  -0.00114348  0.0003149  -0.00032  0.0003113  0  0  0  0  0  0  0.0326442  0.00583127  -0.0243134  -0.0129248  0.0198729  -0.00126142  -0.0345592  0.0378953  -0.00505636  0.0508938  0.00823065  -0.0107378 
1699967300.473146000  0  0  11.7575  0.142266  -0.186738  0.00376365  nan  nan  nan  nan  nan  nan  -0.999995  -5.1e-06  1.00001  0.0246469  -0.045743  -0.00112626  0.0004338  -0.0004556  0.0004249  0  0  0  0  0  0  0.0326554  0.00575695  -0.0242817  -0.0127336  0.0193768  -0.000487146  -0.0340635  0.0382462  -0.00497263  0.0288514  0.0216108  0.00268071 
1699967300.478133000  0  0  11.8251  0.130423  -0.201856  0.00313287  nan  nan  nan  nan  nan  nan  -0.999992  -7.8e-06  1.00001  0.0253853  -0.0449851  -0.00114062  0.0005669  -0.000625  0.0005504  0  0  0  0  0  0  0.0325887  0.00585771  -0.0243338  -0.0132367  0.0203094  -0.0060293  -0.0343584  0.0380077  -0.00488002  0.0552517  0.0540408  0.0096393 
1699967300.483064000  0  0  11.7809  0.121366  -0.185165  0.00362064  nan  nan  nan  nan  nan  nan  -0.999989  -1.14e-05  1.00001  0.0249819  -0.0454954  -0.00113501  0.0007105  -0.0008319  0.0006841  0  0  0  0  0  0  0.0326085  0.00577697  -0.0242826  -0.0128348  0.0198349  -0.00242953  -0.0335183  0.0383956  -0.00491492  0.0656375  0.0170896  0.00389124 
1699967300.487152000  0  0  11.7672  0.137238  -0.177866  0.00351175  nan  nan  nan  nan  nan  nan  -0.999985  -1.62e-05  1.00001  0.0256171  -0.0452991  -0.00115869  0.000861  -0.00108  0.0008222  0  0  0  0  0  0  0.032555  0.00585992  -0.0242816  -0.0130407  0.0204429  -0.00128725  -0.0341718  0.0381256  -0.00487565  0.0399036  0.00497666  0.00485969 
1699967300.493240000  0  0  11.8336  0.137  -0.207727  0.0045018  nan  nan  nan  nan  nan  nan  -0.999981  -2.23e-05  1.00002  0.0258032  -0.0448155  -0.00115455  0.0010145  -0.0013731  0.000961  0  0  0  0  0  0  0.0325571  0.00580609  -0.0243104  -0.0133463  0.0209977  -0.00678721  -0.0341603  0.0383904  -0.00500585  0.0402743  0.0622633  -0.00621394 
1699967300.498127000  0  0  11.8003  0.13389  -0.20269  0.00490584  nan  nan  nan  nan  nan  nan  -0.999975  -3e-05  1.00002  0.0253186  -0.0451643  -0.00114155  0.0011672  -0.001715  0.0010968  0  0  0  0  0  0  0.0325878  0.00570131  -0.0242482  -0.0131235  0.0204993  -0.00413877  -0.0334555  0.0388745  -0.00511345  0.0400109  0.0477352  -0.0101886 
1699967300.503127000  0  0  11.759  0.157752  -0.177862  0.0048452  nan  nan  nan  nan  nan  nan  -0.999969  -3.96e-05  1.00003  0.0263005  -0.0450768  -0.00118371  0.0013155  -0.0021094  0.0012257  0  0  0  0  0  0  0.0325235  0.0058054  -0.024239  -0.0132997  0.0214345  -0.000718969  -0.034708  0.0384048  -0.00512368  0.00380863  0.00239943  -0.00932826 
1699967300.508233000  0  0  11.7862  0.159562  -0.193129  0.00455112  nan  nan  nan  nan  nan  nan  -0.999962  -5.12e-05  1.00004  0.0262654  -0.044849  -0.00117645  0.0014556  -0.0025587  0.0013441  0  0  0  0  0  0  0.0325571  0.00569706  -0.0242179  -0.0135362  0.0217096  -0.00304527  -0.0347154  0.0384912  -0.00515295  0.000257258  0.0321397  -0.00535945 
1699967300.513238000  0  0  11.7699  0.160098  -0.173486  0.00439855  nan  nan  nan  nan  nan  nan  -0.999954  -6.52e-05  1.00004  0.025691  -0.0450115  -0.00115535  0.0015837  -0.0030604  0.0014482  0  0  0  0  0  0  0.032582  0.00560347  -0.0241592  -0.0134627  0.0211183  -0.00179125  -0.0341949  0.0384129  -0.00517944  -0.00560206  -0.0064271  -0.00318752 
1699967300.518127000  0  0  11.7483  0.174922  -0.150585  0.00452266  nan  nan  nan  nan  nan  nan  -0.999946  -8.19e-05  1.00005  0.0269962  -0.0445733  -0.0012032  0.0016961  -0.0036108  0.0015342  0  0  0  0  0  0  0.0325147  0.00571258  -0.0241558  -0.0139903  0.0225184  -5.28398e-06  -0.0357061  0.0374948  -0.00517813  -0.0213479  -0.0437819  -0.00475191 
1699967300.523226000  0  0  11.7631  0.187446  -0.168  0.00446703  nan  nan  nan  nan  nan  nan  -0.999938  -0.0001014  1.00006  0.0273803  -0.0443572  -0.00121572  0.001789  -0.0042061  0.0015988  0  0  0  0  0  0  0.0325287  0.0056393  -0.0241241  -0.014229  0.0232282  -0.00132108  -0.0364129  0.0374013  -0.00519581  -0.039893  -0.00809105  -0.00387974 
1699967300.527229000  0  0  11.7717  0.192129  -0.157747  0.00437645  nan  nan  nan  nan  nan  nan  -0.999928  -0.000124  1.00007  0.028338  -0.0438078  -0.00124446  0.0018593  -0.0048425  0.0016434  0  0  0  0  0  0  0.0324675  0.00573717  -0.0241383  -0.0147668  0.0242908  -0.00202652  -0.0375179  0.0366865  -0.00518011  -0.0390925  -0.0220225  -0.00290463 
1699967300.533137000  0  0  11.7505  0.19603  -0.137951  0.00408462  nan  nan  nan  nan  nan  nan  -0.999919  -0.0001499  1.00007  0.0283569  -0.044124  -0.00125665  0.0019086  -0.0055164  0.0016716  0  0  0  0  0  0  0.0324817  0.0056697  -0.0240795  -0.0144888  0.0243972  -0.000363126  -0.0378265  0.0363874  -0.00514763  -0.0440572  -0.0588614  0.000418527 
1699967300.537143000  0  0  11.7593  0.21255  -0.151532  0.00306009  nan  nan  nan  nan  nan  nan  -0.999909  -0.0001792  1.00008  0.0299134  -0.0435473  -0.00131132  0.0019405  -0.0062239  0.0016872  0  0  0  0  0  0  0.0324189  0.00578024  -0.0240914  -0.0150543  0.026215  -0.00110759  -0.0397149  0.0359079  -0.00498035  -0.0597229  -0.0272888  0.0115524 
1699967300.543126000  0  0  11.7795  0.209019  -0.15627  0.00278075  nan  nan  nan  nan  nan  nan  -0.9999  -0.0002122  1.00009  0.0298676  -0.0434122  -0.00130929  0.0019589  -0.0069612  0.0016939  0  0  0  0  0  0  0.0324276  0.00570296  -0.0240538  -0.0151524  0.0263943  -0.00287836  -0.0399552  0.0357387  -0.00487717  -0.0504494  -0.0162555  0.0140124 
1699967300.548132000  0  0  11.7653  0.206546  -0.141448  0.00318424  nan  nan  nan  nan  nan  nan  -0.99989  -0.0002489  1.0001  0.0299004  -0.0438242  -0.00132813  0.0019674  -0.0077248  0.0016954  0  0  0  0  0  0  0.0324282  0.00564157  -0.0239854  -0.0146823  0.0265252  -0.00183098  -0.0402202  0.0356691  -0.00486612  -0.0430662  -0.0452607  0.00885817 
1699967300.553140000  0  0  11.7778  0.217576  -0.156243  0.00335209  nan  nan  nan  nan  nan  nan  -0.99988  -0.0002895  1.00011  0.0314398  -0.0432325  -0.00138325  0.0019699  -0.0085107  0.0016955  0  0  0  0  0  0  0.0323517  0.00578031  -0.024003  -0.0152202  0.0282752  -0.00287183  -0.042035  0.0352367  -0.00482138  -0.0484311  -0.0116914  0.00631267 
1699967300.558135000  0  0  11.7839  0.198507  -0.15626  0.00412165  nan  nan  nan  nan  nan  nan  -0.99987  -0.000334  1.00012  0.0316342  -0.0430731  -0.00139412  0.0019701  -0.0093153  0.0016955  0  0  0  0  0  0  0.03234  0.00573522  -0.0239595  -0.0153733  0.0286511  -0.00346911  -0.0420969  0.0350454  -0.00489947  -0.00972154  -0.00989673  -0.00252592 
1699967300.562137000  0  0  11.7768  0.197966  -0.144146  0.00476922  nan  nan  nan  nan  nan  nan  -0.99986  -0.0003826  1.00013  0.0327278  -0.0432388  -0.00145568  0.0019701  -0.0101348  0.0016955  0  0  0  0  0  0  0.0322812  0.00585989  -0.0239683  -0.0150554  0.0297792  -0.00284885  -0.0431043  0.0348874  -0.0049545  0.000626664  -0.0326731  -0.0100704 
1699967300.568129000  0  0  11.8025  0.204133  -0.17332  0.00454374  nan  nan  nan  nan  nan  nan  -0.99985  -0.0004354  1.00013  0.0330815  -0.0431206  -0.00147767  0.0019701  -0.0109655  0.0016955  0  0  0  0  0  0  0.0322639  0.00584282  -0.0239347  -0.0150452  0.0303753  -0.00509  -0.0436515  0.0352025  -0.00499451  -0.00667226  0.0227771  -0.0068516 
1699967300.573143000  0  0  11.8138  0.178958  -0.180831  0.00485866  nan  nan  nan  nan  nan  nan  -0.999841  -0.0004923  1.00014  0.0331512  -0.043032  -0.00149015  0.0019701  -0.0118035  0.0016955  0  0  0  0  0  0  0.032256  0.00581527  -0.0239095  -0.0150898  0.0305686  -0.00607431  -0.0432602  0.0354014  -0.00508728  0.0400773  0.0359692  -0.00986049 
1699967300.578135000  0  0  11.7923  0.178053  -0.167519  0.00477255  nan  nan  nan  nan  nan  nan  -0.999831  -0.0005534  1.00015  0.0343125  -0.0432707  -0.00156285  0.0019701  -0.0126452  0.0016955  0  0  0  0  0  0  0.032186  0.00596845  -0.0239176  -0.0147187  0.0316694  -0.00425705  -0.0440837  0.0354657  -0.00508088  0.0494652  0.00875245  -0.0088481 
1699967300.583133000  0  0  11.8193  0.183223  -0.196027  0.0037403  nan  nan  nan  nan  nan  nan  -0.999821  -0.0006188  1.00016  0.0345245  -0.0434297  -0.00159431  0.0019701  -0.0134869  0.0016955  0  0  0  0  0  0  0.0321782  0.0059698  -0.0239296  -0.0143592  0.0320474  -0.00650191  -0.0441872  0.0362479  -0.00499357  0.0400764  0.0585736  0.00318201 
1699967300.587146000  0  0  11.8434  0.168977  -0.204119  0.0033334  nan  nan  nan  nan  nan  nan  -0.999811  -0.0006883  1.00017  0.0356221  -0.0429101  -0.00164273  0.0019701  -0.0143246  0.0016955  0  0  0  0  0  0  0.0321152  0.00611445  -0.0239706  -0.0147827  0.0332637  -0.00843319  -0.0447423  0.0361732  -0.00490703  0.0736757  0.0754443  0.00740287 
1699967300.593143000  0  0  11.7988  0.162314  -0.186654  0.00437533  nan  nan  nan  nan  nan  nan  -0.999801  -0.000762  1.00018  0.0355744  -0.0436467  -0.00168867  0.0019701  -0.0151548  0.0016955  0  0  0  0  0  0  0.0321233  0.00610015  -0.0239254  -0.014046  0.033052  -0.00477713  -0.0441909  0.0368358  -0.00500061  0.0819289  0.0344184  -0.00468549 
1699967300.598134000  0  0  11.8198  0.168956  -0.206433  0.00496796  nan  nan  nan  nan  nan  nan  -0.999791  -0.0008398  1.00018  0.0357002  -0.0438874  -0.00172755  0.0019701  -0.0159736  0.0016955  0  0  0  0  0  0  0.0321396  0.00606863  -0.0239026  -0.0136609  0.0333688  -0.00658483  -0.0441323  0.0375678  -0.00511062  0.0681062  0.0672428  -0.0109933 
1699967300.603138000  0  0  11.8206  0.157425  -0.214184  0.00542179  nan  nan  nan  nan  nan  nan  -0.999781  -0.0009217  1.00019  0.036797  -0.0434685  -0.00178833  0.0019701  -0.0167773  0.0016955  0  0  0  0  0  0  0.0320683  0.00623701  -0.0239338  -0.0140441  0.0344386  -0.00659231  -0.0445683  0.0376775  -0.00520296  0.0951784  0.0817352  -0.0157427 
1699967300.608140000  0  0  11.8003  0.150992  -0.19875  0.00556318  nan  nan  nan  nan  nan  nan  -0.999772  -0.0010076  1.0002  0.0363214  -0.044358  -0.00183122  0.0019701  -0.0175622  0.0016955  0  0  0  0  0  0  0.0321324  0.00617874  -0.0239022  -0.0131174  0.0338555  -0.00492815  -0.043599  0.0384876  -0.00528632  0.0991264  0.0434142  -0.0166766 
1699967300.612142000  0  0  11.8058  0.164233  -0.201821  0.00497576  nan  nan  nan  nan  nan  nan  -0.999762  -0.0010973  1.00021  0.0375301  -0.0442346  -0.00191526  0.0019701  -0.0183245  0.0016955  0  0  0  0  0  0  0.032078  0.00633631  -0.0239294  -0.0131243  0.0351122  -0.00533582  -0.0445988  0.0385736  -0.0052217  0.0818433  0.0487643  -0.00998002 
1699967300.618132000  0  0  11.8056  0.158726  -0.214918  0.00482114  nan  nan  nan  nan  nan  nan  -0.999752  -0.0011908  1.00022  0.0376967  -0.0444301  -0.00196891  0.0019701  -0.0190604  0.0016955  0  0  0  0  0  0  0.0321013  0.00634211  -0.0239259  -0.012917  0.0353144  -0.00532429  -0.0442099  0.0392888  -0.00524647  0.0892787  0.0683788  -0.00779958 
1699967300.622136000  0  0  11.7993  0.157168  -0.197361  0.00510258  nan  nan  nan  nan  nan  nan  -0.999742  -0.0012879  1.00023  0.0385996  -0.0441807  -0.00204245  0.0019701  -0.0197662  0.0016955  0  0  0  0  0  0  0.0320463  0.00650277  -0.0239455  -0.0131484  0.0361127  -0.00474496  -0.0446706  0.0389627  -0.00526308  0.0966345  0.036266  -0.0111514 
1699967300.628129000  0  0  11.7984  0.171438  -0.188202  0.00433145  nan  nan  nan  nan  nan  nan  -0.999732  -0.0013884  1.00024  0.0387434  -0.0446419  -0.00211387  0.0019701  -0.0204382  0.0016955  0  0  0  0  0  0  0.0320613  0.00651057  -0.0239225  -0.0125772  0.0362754  -0.00470502  -0.0446226  0.0393047  -0.00519445  0.0676511  0.0148005  -0.00219868 
1699967300.633144000  0  0  11.7925  0.17416  -0.203041  0.00427209  nan  nan  nan  nan  nan  nan  -0.999722  -0.0014922  1.00024  0.0390504  -0.0445802  -0.00217688  0.0019701  -0.0210726  0.0016955  0  0  0  0  0  0  0.0320647  0.00653458  -0.0239018  -0.0126905  0.0365966  -0.00426149  -0.0446788  0.0396537  -0.00517042  0.0627241  0.0412674  -0.00169698 
1699967300.637144000  0  0  11.7973  0.177638  -0.180881  0.00464721  nan  nan  nan  nan  nan  nan  -0.999712  -0.001599  1.00025  0.0399835  -0.0441813  -0.00225899  0.0019701  -0.0216656  0.0016955  0  0  0  0  0  0  0.0320101  0.00670304  -0.0239254  -0.0130633  0.0374639  -0.00459662  -0.0453654  0.0390044  -0.00515855  0.0620866  0.00292131  -0.0065046 
1699967300.643139000  0  0  11.7893  0.193627  -0.164026  0.00413165  nan  nan  nan  nan  nan  nan  -0.999703  -0.0017087  1.00026  0.0400789  -0.0445264  -0.00233813  0.0019701  -0.0222136  0.0016955  0  0  0  0  0  0  0.0320136  0.00672411  -0.0239  -0.0126541  0.0375011  -0.00396574  -0.0454801  0.0389059  -0.00508375  0.0311617  -0.0298832  -0.000808119 
1699967300.648130000  0  0  11.7713  0.19666  -0.177921  0.00439334  nan  nan  nan  nan  nan  nan  -0.999693  -0.0018211  1.00027  0.0399989  -0.0443335  -0.00239305  0.0019701  -0.0227126  0.0016955  0  0  0  0  0  0  0.0320097  0.00671492  -0.0238362  -0.0129844  0.037334  -0.00260735  -0.0453614  0.0389104  -0.00509251  0.0240047  -0.00213404  -0.00399158 
1699967300.653125000  0  0  11.7865  0.189924  -0.156333  0.00575588  nan  nan  nan  nan  nan  nan  -0.999683  -0.0019358  1.00028  0.040951  -0.0438839  -0.00248832  0.0019701  -0.0231591  0.0016955  0  0  0  0  0  0  0.031944  0.00690326  -0.0238638  -0.0133466  0.0382268  -0.00379436  -0.0459752  0.0380502  -0.00520941  0.043124  -0.0373959  -0.0198545 
1699967300.658120000  0  0  11.7625  0.205588  -0.151145  0.00519363  nan  nan  nan  nan  nan  nan  -0.999673  -0.0020526  1.00029  0.0406109  -0.0441942  -0.00256257  0.0019701  -0.0235507  0.0016955  0  0  0  0  0  0  0.0319429  0.00690287  -0.0237959  -0.0130526  0.037668  -0.00192792  -0.0458028  0.0380422  -0.00516122  0.0102109  -0.0476973  -0.0133082 
1699967300.662139000  0  0  11.7598  0.20922  -0.167207  0.00470779  nan  nan  nan  nan  nan  nan  -0.999663  -0.0021712  1.0003  0.0416764  -0.0436497  -0.00266903  0.0019701  -0.0238899  0.0016955  0  0  0  0  0  0  0.031885  0.00708151  -0.0238069  -0.01364  0.0386499  -0.00169456  -0.0468087  0.0377041  -0.00506518  0.0121997  -0.012465  -0.00819555 
1699967300.668139000  0  0  11.7825  0.185447  -0.154278  0.00484926  nan  nan  nan  nan  nan  nan  -0.999653  -0.0022914  1.0003  0.0411576  -0.0436042  -0.00273208  0.0019701  -0.0241806  0.0016955  0  0  0  0  0  0  0.0318773  0.00708012  -0.0237581  -0.0135728  0.0380713  -0.00365036  -0.0457739  0.037352  -0.0050842  0.0502269  -0.0350826  -0.00977373 
1699967300.673139000  0  0  11.7436  0.196807  -0.14196  0.00436458  nan  nan  nan  nan  nan  nan  -0.999643  -0.0024129  1.00031  0.0407903  -0.0440214  -0.00282636  0.0019701  -0.0244265  0.0016955  0  0  0  0  0  0  0.031872  0.00709972  -0.0236837  -0.0132023  0.0373624  -0.000539578  -0.0454503  0.0372847  -0.00499512  0.0245294  -0.0590991  -0.0046061 
1699967300.678132000  0  0  11.7601  0.189567  -0.165209  0.00418542  nan  nan  nan  nan  nan  nan  -0.999634  -0.0025356  1.00032  0.041848  -0.0433553  -0.00294412  0.0019701  -0.0246313  0.0016955  0  0  0  0  0  0  0.031803  0.00729223  -0.0237035  -0.0138292  0.0383894  -0.00187929  -0.0461568  0.0369164  -0.00490426  0.0455074  -0.00921393  -0.00327516 
1699967300.683133000  0  0  11.7723  0.166932  -0.155889  0.00415905  nan  nan  nan  nan  nan  nan  -0.999624  -0.0026592  1.00033  0.040545  -0.0436922  -0.0030061  0.0019701  -0.0247989  0.0016955  0  0  0  0  0  0  0.0318326  0.00721493  -0.0236467  -0.0133989  0.0369027  -0.00297079  -0.0443066  0.0369929  -0.00487957  0.0737569  -0.0285562  -0.00319237 
1699967300.688141000  0  0  11.7601  0.176722  -0.145986  0.00414886  nan  nan  nan  nan  nan  nan  -0.999614  -0.0027835  1.00034  0.0412162  -0.0435968  -0.00314234  0.0019701  -0.0249328  0.0016955  0  0  0  0  0  0  0.0317672  0.00740003  -0.0236496  -0.013429  0.0373071  -0.00192825  -0.0447673  0.0365449  -0.00477865  0.0584157  -0.044241  -0.00407429 
1699967300.693140000  0  0  11.7769  0.169606  -0.172275  0.00401754  nan  nan  nan  nan  nan  nan  -0.999604  -0.0029085  1.00035  0.0409216  -0.0435191  -0.0032432  0.0019701  -0.025037  0.0016955  0  0  0  0  0  0  0.0317632  0.00742845  -0.0236289  -0.0134363  0.0369285  -0.00336967  -0.0441002  0.0368224  -0.00470382  0.0665096  0.00578267  -0.00318108 
1699967300.698140000  0  0  11.7755  0.152759  -0.165859  0.0046228  nan  nan  nan  nan  nan  nan  -0.999594  -0.0030339  1.00035  0.0403124  -0.0435438  -0.00334055  0.0019701  -0.0251151  0.0016955  0  0  0  0  0  0  0.0317514  0.00745891  -0.0235875  -0.0133834  0.0360484  -0.00331339  -0.0429255  0.0367577  -0.00472089  0.0893962  -0.00645395  -0.010576 
1699967300.703137000  0  0  11.7792  0.155961  -0.159526  0.00456631  nan  nan  nan  nan  nan  nan  -0.999584  -0.0031596  1.00036  0.0406259  -0.0434019  -0.00347756  0.0019701  -0.0251709  0.0016955  0  0  0  0  0  0  0.0316861  0.00763737  -0.023604  -0.013399  0.036071  -0.00356488  -0.0428499  0.0364507  -0.00464708  0.0822968  -0.0162953  -0.0106081 
1699967300.708267000  0  0  11.7894  0.151866  -0.182879  0.00408263  nan  nan  nan  nan  nan  nan  -0.999575  -0.0032855  1.00037  0.0402589  -0.0433488  -0.00359467  0.0019701  -0.0252082  0.0016955  0  0  0  0  0  0  0.0316759  0.00765504  -0.023582  -0.0133924  0.0355892  -0.00445975  -0.0420964  0.0368203  -0.00455412  0.0835562  0.0270108  -0.00549173 
1699967300.712138000  0  0  11.7904  0.143417  -0.178175  0.00425436  nan  nan  nan  nan  nan  nan  -0.999565  -0.0034116  1.00038  0.040674  -0.0429238  -0.00373681  0.0019701  -0.0252306  0.0016955  0  0  0  0  0  0  0.0316196  0.00782121  -0.0235997  -0.0138116  0.0357613  -0.00448692  -0.0420189  0.0364453  -0.00447192  0.0997393  0.0210522  -0.00846032 
1699967300.718109000  0  0  11.7896  0.140766  -0.170944  0.00512986  nan  nan  nan  nan  nan  nan  -0.999555  -0.0035378  1.00039  0.0391799  -0.0438182  -0.00385532  0.0019701  -0.025242  0.0016955  0  0  0  0  0  0  0.0316672  0.00773782  -0.0235695  -0.0127505  0.0339708  -0.00445716  -0.0401049  0.0371902  -0.00458104  0.0874323  -0.000261328  -0.0183129 
1699967300.723119000  0  0  11.7956  0.139991  -0.190136  0.00461781  nan  nan  nan  nan  nan  nan  -0.999545  -0.003664  1.0004  0.0382771  -0.0439963  -0.00397643  0.0019701  -0.0252461  0.0016955  0  0  0  0  0  0  0.0316824  0.00769695  -0.0235381  -0.0125196  0.0328943  -0.0050249  -0.0388911  0.037775  -0.00450924  0.0778161  0.0327421  -0.0126302 
1699967300.728076000  0  0  11.7793  0.130452  -0.186123  0.00463902  nan  nan  nan  nan  nan  nan  -0.999535  -0.0037903  1.00041  0.0387009  -0.0435775  -0.0041391  0.0019701  -0.0252466  0.0016955  0  0  0  0  0  0  0.0316173  0.00786123  -0.0235494  -0.0129943  0.0330072  -0.00362738  -0.0387135  0.0374686  -0.00443454  0.0952592  0.0275344  -0.0136423 
1699967300.733121000  0  0  11.7844  0.131562  -0.169863  0.00464571  nan  nan  nan  nan  nan  nan  -0.999525  -0.0039165  1.00041  0.0376685  -0.0441219  -0.00428095  0.0019701  -0.0252462  0.0016955  0  0  0  0  0  0  0.0316476  0.00780609  -0.0235061  -0.0123232  0.0317853  -0.00411214  -0.0373976  0.0377358  -0.00438709  0.080935  -0.00744364  -0.0142004 
1699967300.738132000  0  0  11.7709  0.148989  -0.193689  0.00355115  nan  nan  nan  nan  nan  nan  -0.999515  -0.0040427  1.00042  0.0381968  -0.0437723  -0.00446364  0.0019701  -0.0252424  0.0016955  0  0  0  0  0  0  0.0315837  0.00796649  -0.0235175  -0.0126922  0.0320571  -0.00299004  -0.0379024  0.037909  -0.00413591  0.0507239  0.0386143  -0.00303035 
1699967300.743061000  0  0  11.7668  0.136829  -0.194997  0.00380726  nan  nan  nan  nan  nan  nan  -0.999506  -0.0041689  1.00043  0.0376305  -0.0436105  -0.00461164  0.0019701  -0.0252316  0.0016955  0  0  0  0  0  0  0.0315952  0.00793771  -0.0234841  -0.0129459  0.0313537  -0.00271396  -0.0369308  0.0379967  -0.00406573  0.066105  0.0404252  -0.00693348 
1699967300.748090000  0  0  11.7723  0.145198  -0.172522  0.00405961  nan  nan  nan  nan  nan  nan  -0.999496  -0.004295  1.00044  0.0380431  -0.0435158  -0.00481125  0.0019701  -0.02521  0.0016955  0  0  0  0  0  0  0.0315331  0.00809471  -0.0235043  -0.0128938  0.0315567  -0.00311323  -0.0371425  0.0375892  -0.00395784  0.051315  -0.000776345  -0.0111667 
1699967300.753143000  0  0  11.7235  0.169132  -0.181654  0.00349607  nan  nan  nan  nan  nan  nan  -0.999486  -0.004421  1.00045  0.0373589  -0.0439432  -0.0049888  0.0019701  -0.0251737  0.0016955  0  0  0  0  0  0  0.0315568  0.00804724  -0.0234306  -0.0126204  0.0305525  0.000779952  -0.0368631  0.0381768  -0.00378309  0.0008765  0.0120815  -0.00586993 
1699967300.758137000  0  0  11.7588  0.145108  -0.178805  0.00388903  nan  nan  nan  nan  nan  nan  -0.999476  -0.0045467  1.00046  0.0367272  -0.0436222  -0.00514693  0.0019701  -0.0251192  0.0016955  0  0  0  0  0  0  0.0315746  0.00800976  -0.0234274  -0.0129046  0.0299462  -0.00214961  -0.0358299  0.0379173  -0.00372512  0.03942  0.00877137  -0.0113617 
1699967300.763139000  0  0  11.7649  0.162678  -0.151261  0.00403384  nan  nan  nan  nan  nan  nan  -0.999466  -0.0046722  1.00046  0.0369296  -0.0434563  -0.00535354  0.0019701  -0.0250426  0.0016955  0  0  0  0  0  0  0.0315125  0.00815685  -0.0234315  -0.0129435  0.0298976  -0.00263854  -0.0361754  0.0372197  -0.00360326  0.0074571  -0.0399004  -0.0143904 
1699967300.768140000  0  0  11.7114  0.182459  -0.152463  0.0032738  nan  nan  nan  nan  nan  nan  -0.999456  -0.0047971  1.00047  0.0365795  -0.0438997  -0.00556463  0.0019701  -0.0249402  0.0016955  0  0  0  0  0  0  0.0315385  0.0081448  -0.0233801  -0.0126751  0.0292355  0.00170553  -0.0362579  0.0374529  -0.00335609  -0.0313463  -0.0396403  -0.00736162 
1699967300.773139000  0  0  11.745  0.170795  -0.160036  0.00253861  nan  nan  nan  nan  nan  nan  -0.999446  -0.0049215  1.00048  0.0362881  -0.043442  -0.00575162  0.0019701  -0.0248082  0.0016955  0  0  0  0  0  0  0.0315421  0.00815021  -0.0233677  -0.0131094  0.0289702  -0.00112521  -0.0359228  0.0370125  -0.00311309  -0.0111004  -0.0204434  -0.000601708 
1699967300.778149000  0  0  11.7414  0.181357  -0.135243  0.00267811  nan  nan  nan  nan  nan  nan  -0.999437  -0.0050451  1.00049  0.0364208  -0.0433469  -0.00597663  0.0019701  -0.0246429  0.0016955  0  0  0  0  0  0  0.0314807  0.00829122  -0.0233705  -0.0131042  0.0288028  -0.000801122  -0.0362905  0.0363305  -0.00291408  -0.0288403  -0.0637548  -0.00433562 
1699967300.783140000  0  0  11.713  0.195613  -0.143118  0.00243373  nan  nan  nan  nan  nan  nan  -0.999427  -0.0051679  1.0005  0.0359945  -0.0435393  -0.00619396  0.0019701  -0.0244405  0.0016955  0  0  0  0  0  0  0.0314871  0.00828253  -0.0233171  -0.0129978  0.0281389  0.00144345  -0.0363312  0.036333  -0.00271292  -0.0569787  -0.0480269  -0.0032924 
1699967300.787140000  0  0  11.7554  0.190838  -0.154797  0.00207941  nan  nan  nan  nan  nan  nan  -0.999417  -0.0052895  1.00051  0.0364794  -0.0426623  -0.00641831  0.0019701  -0.0241973  0.0016955  0  0  0  0  0  0  0.0314281  0.00842281  -0.0233467  -0.0137924  0.0286239  -0.0020435  -0.0368781  0.035612  -0.00247285  -0.042397  -0.0180359  -0.00126406 
1699967300.793136000  0  0  11.7688  0.184456  -0.138492  0.00232225  nan  nan  nan  nan  nan  nan  -0.999407  -0.0054098  1.00052  0.035096  -0.0431783  -0.00661873  0.0019701  -0.0239095  0.0016955  0  0  0  0  0  0  0.031442  0.00835957  -0.0233457  -0.0130871  0.0269903  -0.00314492  -0.0357176  0.0356591  -0.00234021  -0.0403095  -0.0510807  -0.0056261 
1699967300.798127000  0  0  11.7541  0.192211  -0.154425  0.00214416  nan  nan  nan  nan  nan  nan  -0.999397  -0.0055285  1.00052  0.0344736  -0.0433389  -0.00684507  0.0019701  -0.0235734  0.0016955  0  0  0  0  0  0  0.0314494  0.00833348  -0.0232849  -0.0129585  0.026164  -0.00206481  -0.0354832  0.0358735  -0.00214008  -0.057977  -0.0211869  -0.00540124 
1699967300.803131000  0  0  11.7921  0.178723  -0.164241  0.00264621  nan  nan  nan  nan  nan  nan  -0.999387  -0.0056454  1.00053  0.0346857  -0.042569  -0.00708148  0.0019701  -0.0231852  0.0016955  0  0  0  0  0  0  0.0313806  0.00846515  -0.0233218  -0.0136186  0.0262869  -0.00516633  -0.0356658  0.0353106  -0.00200527  -0.02932  0.00362511  -0.0130249 
1699967300.808133000  0  0  11.776  0.163252  -0.150752  0.00364026  nan  nan  nan  nan  nan  nan  -0.999378  -0.0057603  1.00054  0.0335583  -0.0430628  -0.00731021  0.0019701  -0.0227412  0.0016955  0  0  0  0  0  0  0.0313756  0.0084422  -0.0232962  -0.0130389  0.0247809  -0.00385419  -0.0344047  0.0355104  -0.00199058  -0.00998066  -0.0251925  -0.0255975 
1699967300.812133000  0  0  11.7719  0.167259  -0.159817  0.00290869  nan  nan  nan  nan  nan  nan  -0.999368  -0.0058727  1.00055  0.0335659  -0.0429756  -0.00757401  0.0019701  -0.0222377  0.0016955  0  0  0  0  0  0  0.0313224  0.00856314  -0.0233098  -0.0130423  0.0244933  -0.00349638  -0.0345195  0.0355108  -0.00175855  -0.0169385  -0.00706487  -0.0187732 
1699967300.818129000  0  0  11.7896  0.150798  -0.174588  0.0019505  nan  nan  nan  nan  nan  nan  -0.999358  -0.0059825  1.00056  0.0325174  -0.0425993  -0.00778928  0.0019701  -0.0216708  0.0016955  0  0  0  0  0  0  0.0313035  0.00851837  -0.0233057  -0.0134102  0.0232733  -0.00498281  -0.0333149  0.0354962  -0.00154774  0.00490214  0.0226109  -0.00890385 
1699967300.823127000  0  0  11.7739  0.132193  -0.164181  0.00200502  nan  nan  nan  nan  nan  nan  -0.999348  -0.0060893  1.00057  0.0311497  -0.042949  -0.00802087  0.0019701  -0.0210368  0.0016955  0  0  0  0  0  0  0.0312917  0.00846675  -0.0232642  -0.0130056  0.0215233  -0.00375232  -0.0316695  0.0357837  -0.00137376  0.0269726  -0.000847929  -0.0113252 
1699967300.828133000  0  0  11.7816  0.142719  -0.173651  0.0018145  nan  nan  nan  nan  nan  nan  -0.999338  -0.0061928  1.00057  0.0308694  -0.0430247  -0.00829626  0.0019701  -0.0203326  0.0016955  0  0  0  0  0  0  0.0312303  0.00857236  -0.0232789  -0.0127244  0.0209316  -0.00437187  -0.031497  0.036028  -0.00115125  0.00433357  0.0158434  -0.0111687 
1699967300.833130000  0  0  11.7887  0.13044  -0.19037  0.00197115  nan  nan  nan  nan  nan  nan  -0.999328  -0.0062925  1.00058  0.0301069  -0.0427384  -0.00854622  0.0019701  -0.0195595  0.0016955  0  0  0  0  0  0  0.0312083  0.00856753  -0.0232647  -0.013015  0.0199549  -0.00500221  -0.0305829  0.0362096  -0.000986804  0.0204824  0.0476111  -0.0147714 
1699967300.837137000  0  0  11.7898  0.120498  -0.183096  0.00248563  nan  nan  nan  nan  nan  nan  -0.999318  -0.0063883  1.00059  0.0296802  -0.0424798  -0.008818  0.0019701  -0.0187213  0.0016955  0  0  0  0  0  0  0.0311536  0.00866378  -0.0232855  -0.0132219  0.0191721  -0.00504815  -0.0299071  0.0360153  -0.000853713  0.0341497  0.0348516  -0.0225332 
1699967300.843134000  0  0  11.7807  0.137809  -0.182099  0.00191731  nan  nan  nan  nan  nan  nan  -0.999309  -0.0064796  1.0006  0.028528  -0.0429379  -0.00908599  0.0019701  -0.0178216  0.0016955  0  0  0  0  0  0  0.0311386  0.00864888  -0.0232723  -0.0126341  0.0176457  -0.00432623  -0.0290558  0.0365817  -0.000633435  -0.00830424  0.0276474  -0.017632 
1699967300.848134000  0  0  11.7753  0.127557  -0.194372  0.00227684  nan  nan  nan  nan  nan  nan  -0.999299  -0.0065664  1.00061  0.0274963  -0.0430523  -0.00935501  0.0019701  -0.0168643  0.0016955  0  0  0  0  0  0  0.0311456  0.00859589  -0.0232501  -0.0125277  0.0163788  -0.00393714  -0.027994  0.0370768  -0.000498875  0.00243027  0.0476372  -0.0234718 
1699967300.853135000  0  0  11.7957  0.118854  -0.185148  0.00273574  nan  nan  nan  nan  nan  nan  -0.999289  -0.0066482  1.00062  0.0270787  -0.0425642  -0.00964022  0.0019701  -0.0158531  0.0016955  0  0  0  0  0  0  0.0310806  0.00867604  -0.0232861  -0.0129207  0.0157035  -0.00556366  -0.0273996  0.0366766  -0.000405797  0.0143687  0.0328706  -0.0301388 
1699967300.858127000  0  0  11.754  0.132175  -0.177123  0.00203639  nan  nan  nan  nan  nan  nan  -0.999279  -0.0067248  1.00063  0.0255285  -0.0431152  -0.00991096  0.0019701  -0.0147918  0.0016955  0  0  0  0  0  0  0.0310844  0.00861039  -0.0232403  -0.0124175  0.0136771  -0.00218922  -0.0262228  0.0371666  -0.000181851  -0.0231009  0.0123126  -0.0236363 
1699967300.863213000  0  0  11.7503  0.122972  -0.187876  0.00145873  nan  nan  nan  nan  nan  nan  -0.999269  -0.006796  1.00063  0.024626  -0.0430275  -0.0101988  0.0019701  -0.0136841  0.0016955  0  0  0  0  0  0  0.0310889  0.00853741  -0.0232023  -0.012562  0.0126341  -0.00197028  -0.0253962  0.0373559  6.05612e-05  -0.0122989  0.0320777  -0.0188397 
1699967300.868135000  0  0  11.7774  0.120263  -0.183351  0.00120425  nan  nan  nan  nan  nan  nan  -0.999259  -0.0068616  1.00064  0.0242374  -0.0424666  -0.0105037  0.0019701  -0.0125337  0.0016955  0  0  0  0  0  0  0.031025  0.00859952  -0.0232344  -0.0130198  0.0120499  -0.00417072  -0.0250294  0.0369091  0.00029531  -0.0102562  0.0271375  -0.0180062 
1699967300.873151000  0  0  11.7249  0.140932  -0.165017  0.00116402  nan  nan  nan  nan  nan  nan  -0.999249  -0.0069213  1.00065  0.0226424  -0.0432076  -0.0107941  0.0019701  -0.0113444  0.0016955  0  0  0  0  0  0  0.0310315  0.00851698  -0.0231719  -0.0123305  0.00998821  7.88878e-05  -0.0240881  0.0373269  0.000515366  -0.0602549  -0.0133722  -0.0197039 
1699967300.878133000  0  0  11.7406  0.146957  -0.1726  0.00185908  nan  nan  nan  nan  nan  nan  -0.99924  -0.006975  1.00066  0.0230134  -0.0423218  -0.0111374  0.0019701  -0.01012  0.0016955  0  0  0  0  0  0  0.0309644  0.00857505  -0.0231889  -0.0132463  0.0103753  -0.00121597  -0.0248336  0.0365991  0.000651469  -0.0654449  0.00848885  -0.0297531 
1699967300.883145000  0  0  11.7829  0.147998  -0.168442  0.00181773  nan  nan  nan  nan  nan  nan  -0.99923  -0.0070225  1.00067  0.0215706  -0.0422485  -0.0114287  0.0019701  -0.0088642  0.0016955  0  0  0  0  0  0  0.0309668  0.00848089  -0.0231828  -0.01316  0.00878459  -0.00476417  -0.023846  0.0365261  0.00082367  -0.0766116  0.000844378  -0.0309583 
1699967300.888145000  0  0  11.7193  0.169228  -0.146615  0.000724801  nan  nan  nan  nan  nan  nan  -0.99922  -0.0070636  1.00068  0.0210311  -0.0424817  -0.0117709  0.0019701  -0.0075807  0.0016955  0  0  0  0  0  0  0.0309048  0.00851953  -0.0231548  -0.0130176  0.00782395  0.000480983  -0.0241311  0.0362819  0.00115822  -0.116449  -0.0405627  -0.0206422 
1699967300.893147000  0  0  11.7369  0.170341  -0.159118  2.66337e-06  nan  nan  nan  nan  nan  nan  -0.99921  -0.0070982  1.00069  0.0203842  -0.0419612  -0.0119872  0.0019701  -0.0062733  0.0016955  0  0  0  0  0  0  0.0308963  0.00843591  -0.0231421  -0.0135984  0.00720135  -0.0010287  -0.0241304  0.0358811  0.00137367  -0.118683  -0.0118697  -0.01377 
1699967300.898130000  0  0  11.7627  0.170429  -0.146753  0.000117397  nan  nan  nan  nan  nan  nan  -0.9992  -0.0071263  1.00069  0.0189542  -0.0420316  -0.0119285  0.0019701  -0.0049458  0.0016954  0  0  0  0  0  0  0.0308998  0.0083311  -0.0231278  -0.0134165  0.00562273  -0.00321299  -0.0233973  0.035679  0.0012828  -0.125603  -0.0347398  -0.0142954 
1699967300.903139000  0  0  11.7102  0.179935  -0.13119  0.00070725  nan  nan  nan  nan  nan  nan  -0.99919  -0.0071477  1.0007  0.018382  -0.0421003  -0.0119057  0.0019701  -0.0036019  0.0016932  0  0  0  0  0  0  0.0308349  0.00835467  -0.0231024  -0.0134388  0.0047176  0.00110903  -0.0236507  0.0352402  0.00114838  -0.142284  -0.0618296  -0.0203245 
1699967300.908145000  0  0  11.7413  0.176671  -0.148203  0.00080982  nan  nan  nan  nan  nan  nan  -0.999181  -0.0071623  1.00071  0.017478  -0.0417036  -0.0118608  0.0019701  -0.0022454  0.0016853  0  0  0  0  0  0  0.0308243  0.0082506  -0.0230953  -0.0138013  0.00383883  -0.00151431  -0.0234634  0.0349366  0.00102643  -0.137478  -0.0250111  -0.0203871 
1699967300.912148000  0  0  11.7768  0.165379  -0.143229  0.00136321  nan  nan  nan  nan  nan  nan  -0.999171  -0.0071701  1.00072  0.0167286  -0.0411088  -0.0118196  0.0019701  -0.0008799  0.001668  0  0  0  0  0  0  0.030765  0.00826366  -0.0231273  -0.0142964  0.00290617  -0.00440443  -0.0230572  0.0342255  0.000867916  -0.118632  -0.0284157  -0.0257192 
1699967300.918133000  0  0  11.741  0.174623  -0.136116  0.00174166  nan  nan  nan  nan  nan  nan  -0.999161  -0.0071711  1.00073  0.0154363  -0.0416333  -0.0117745  0.0019701  0.0004907  0.0016374  0  0  0  0  0  0  0.0307604  0.00812904  -0.0230843  -0.013786  0.0014481  -0.00150982  -0.0227326  0.0343624  0.0006655  -0.140106  -0.0439013  -0.0284257 
1699967300.923140000  0  0  11.7958  0.171894  -0.1585  0.00208657  nan  nan  nan  nan  nan  nan  -0.999151  -0.0071652  1.00074  0.0142471  -0.04152  -0.0117234  0.0019701  0.0018626  0.0015898  0  0  0  0  0  0  0.0307635  0.00800345  -0.0231188  -0.0137055  0.000263059  -0.0060186  -0.0222691  0.0345033  0.000485069  -0.138912  -0.000429572  -0.0309328 
1699967300.928145000  0  0  11.8181  0.153699  -0.160139  0.00298289  nan  nan  nan  nan  nan  nan  -0.999141  -0.0071525  1.00074  0.013664  -0.0410375  -0.0116926  0.0019701  0.0032323  0.0015215  0  0  0  0  0  0  0.0306933  0.00800161  -0.023147  -0.0140898  -0.000456258  -0.0078258  -0.0219862  0.0341164  0.000216453  -0.105125  0.00640716  -0.0394506 
1699967300.933145000  0  0  11.7907  0.159373  -0.159818  0.00296208  nan  nan  nan  nan  nan  nan  -0.999131  -0.0071329  1.00075  0.012199  -0.041744  -0.0116411  0.0019701  0.0045958  0.0014287  0  0  0  0  0  0  0.0307006  0.00785241  -0.0231351  -0.0133276  -0.0020932  -0.00557051  -0.0212436  0.0347767  1.09344e-05  -0.123305  -0.000310006  -0.0371354 
1699967300.937130000  0  0  11.8107  0.168894  -0.171501  0.0025266  nan  nan  nan  nan  nan  nan  -0.999121  -0.0071065  1.00076  0.0116673  -0.0414688  -0.0116157  0.0019701  0.0059495  0.0013081  0  0  0  0  0  0  0.0306446  0.00783836  -0.0231742  -0.0134793  -0.00272862  -0.00717213  -0.021413  0.0347447  -6.92251e-05  -0.140789  0.0233502  -0.0308903 
1699967300.943140000  0  0  11.8426  0.138604  -0.17978  0.00251444  nan  nan  nan  nan  nan  nan  -0.999112  -0.0070734  1.00076  0.0100726  -0.0415284  -0.0115502  0.0019701  0.0072895  0.0011611  0  0  0  0  0  0  0.0306555  0.00762717  -0.0231955  -0.0133028  -0.00431702  -0.00978444  -0.0200756  0.0351553  -0.000275062  -0.0925118  0.0361306  -0.0286799 
1699967300.947149000  0  0  11.8216  0.139964  -0.175625  0.00209198  nan  nan  nan  nan  nan  nan  -0.999102  -0.0070336  1.00077  0.00937486  -0.0415979  -0.0115219  0.0019701  0.0086123  0.0009912  0  0  0  0  0  0  0.030602  0.00759896  -0.0232189  -0.0132001  -0.00519333  -0.00799312  -0.0197911  0.0352652  -0.000339621  -0.09785  0.0268107  -0.0227536 
1699967300.953142000  0  0  11.8044  0.14647  -0.18094  0.00122489  nan  nan  nan  nan  nan  nan  -0.999092  -0.0069873  1.00077  0.00800823  -0.0419126  -0.0114676  0.0019701  0.0099139  0.0008024  0  0  0  0  0  0  0.0306193  0.00740204  -0.0232088  -0.0129261  -0.00656822  -0.00658336  -0.0192967  0.0357831  -0.000369027  -0.115409  0.0326764  -0.0116209 
1699967300.958140000  0  0  11.829  0.123584  -0.186469  0.00189521  nan  nan  nan  nan  nan  nan  -0.999082  -0.0069346  1.00078  0.00684832  -0.0419362  -0.0114191  0.0019701  0.0111906  0.0005983  0  0  0  0  0  0  0.0306291  0.00721975  -0.0232235  -0.0128194  -0.00766589  -0.00860654  -0.0182757  0.0360903  -0.000526462  -0.0790309  0.0409074  -0.0184255 
1699967300.963144000  0  0  11.8082  0.136174  -0.180646  0.00178155  nan  nan  nan  nan  nan  nan  -0.999072  -0.0068755  1.00078  0.00611902  -0.0420775  -0.0113894  0.0019701  0.0124388  0.0003827  0  0  0  0  0  0  0.0305681  0.00717604  -0.0232454  -0.0126064  -0.00854149  -0.00683118  -0.018199  0.0362895  -0.000602211  -0.104918  0.02743  -0.0162472 
1699967300.968145000  0  0  11.7765  0.146199  -0.187991  0.00237032  nan  nan  nan  nan  nan  nan  -0.999062  -0.0068102  1.00078  0.00520561  -0.0425695  -0.0113535  0.0019701  0.0136546  0.0001593  0  0  0  0  0  0  0.0305886  0.00697754  -0.0232129  -0.0121691  -0.00932156  -0.00426169  -0.0180778  0.0369995  -0.000755885  -0.126083  0.0355867  -0.0220701 
1699967300.973145000  0  0  11.8055  0.134788  -0.201838  0.00321858  nan  nan  nan  nan  nan  nan  -0.999052  -0.006739  1.00078  0.0037456  -0.0427741  -0.0112922  0.0019701  0.0148343  -6.81e-05  0  0  0  0  0  0  0.0306383  0.00670558  -0.0232132  -0.0118951  -0.0106181  -0.00668116  -0.0170616  0.0376584  -0.00101203  -0.11261  0.0572187  -0.030112 
1699967300.978134000  0  0  11.7714  0.148949  -0.192804  0.00353181  nan  nan  nan  nan  nan  nan  -0.999043  -0.0066619  1.00078  0.00313247  -0.0430213  -0.0112667  0.0019701  0.0159741  -0.0002958  0  0  0  0  0  0  0.0305832  0.00664715  -0.0232224  -0.0116197  -0.0113054  -0.0038299  -0.0173061  0.0379669  -0.0011859  -0.138682  0.0363135  -0.0322887 
1699967300.983137000  0  0  11.7244  0.156328  -0.191255  0.00353524  nan  nan  nan  nan  nan  nan  -0.999033  -0.0065793  1.00078  0.00250919  -0.0434984  -0.0112411  0.0019701  0.0170704  -0.00052  0  0  0  0  0  0  0.0306111  0.00644093  -0.0231684  -0.011293  -0.011679  -3.43608e-05  -0.0175491  0.0385032  -0.00134175  -0.151204  0.0282805  -0.030773 
1699967300.987149000  0  0  11.7583  0.150381  -0.199405  0.00314721  nan  nan  nan  nan  nan  nan  -0.999023  -0.0064913  1.00077  0.00258039  -0.0428252  -0.0112425  0.0019701  0.0181193  -0.000737  0  0  0  0  0  0  0.0305592  0.00637946  -0.0231939  -0.0118923  -0.0114319  -0.00282758  -0.0180366  0.0381655  -0.00140302  -0.134825  0.0476885  -0.02531 
1699967300.993146000  0  0  11.7255  0.159487  -0.182815  0.00255061  nan  nan  nan  nan  nan  nan  -0.999013  -0.0063982  1.00077  0.00129703  -0.0436113  -0.0111885  0.0019701  0.019117  -0.000943  0  0  0  0  0  0  0.0306041  0.00613165  -0.0231384  -0.0111415  -0.0125707  -0.000204026  -0.017782  0.0388287  -0.00147599  -0.155379  0.00840502  -0.0171227 
1699967300.998139000  0  0  11.6818  0.168217  -0.179804  0.00218477  nan  nan  nan  nan  nan  nan  -0.999003  -0.0063002  1.00077  0.000727254  -0.0439612  -0.011164  0.0019701  0.02006  -0.0011342  0  0  0  0  0  0  0.0306524  0.00588643  -0.0230828  -0.0110141  -0.0127736  0.00332178  -0.0181442  0.0390867  -0.00150223  -0.169507  9.31317e-06  -0.0122873 
1699967301.003136000  0  0  11.7443  0.170293  -0.186  0.00187484  nan  nan  nan  nan  nan  nan  -0.998993  -0.0061977  1.00076  0.0010917  -0.0431786  -0.0111791  0.0019701  0.0209443  -0.001307  0  0  0  0  0  0  0.0305939  0.00582476  -0.0231182  -0.0115947  -0.0121484  -0.00184114  -0.0192602  0.0385361  -0.00150421  -0.163393  0.0174676  -0.00839339 
1699967301.008139000  0  0  11.702  0.182948  -0.167251  0.0014598  nan  nan  nan  nan  nan  nan  -0.998984  -0.0060909  1.00075  7.96499e-05  -0.0441029  -0.0111355  0.0019701  0.0217663  -0.0014575  0  0  0  0  0  0  0.0306538  0.00557886  -0.0230282  -0.0107424  -0.0129327  0.00150983  -0.0193081  0.0390745  -0.00149217  -0.188263  -0.0249837  -0.00332573 
1699967301.012143000  0  0  11.6674  0.20234  -0.163665  0.000884242  nan  nan  nan  nan  nan  nan  -0.998974  -0.0059802  1.00074  0.000473003  -0.0438581  -0.0111527  0.0019703  0.0225221  -0.0015821  0  0  0  0  0  0  0.0306064  0.00550857  -0.0229985  -0.0111177  -0.012262  0.00430957  -0.0207332  0.0386727  -0.00140383  -0.213935  -0.0284578  0.00298528 
1699967301.018129000  0  0  11.744  0.202277  -0.175758  0.00112353  nan  nan  nan  nan  nan  nan  -0.998964  -0.0058658  1.00074  0.00053105  -0.043375  -0.011155  0.0019731  0.0232082  -0.0016769  0  0  0  0  0  0  0.0306021  0.00533816  -0.0230174  -0.0113634  -0.0118008  -0.00206726  -0.0219199  0.0383883  -0.00139391  -0.202891  -0.00165603  -0.000105001 
1699967301.023131000  0  0  11.7306  0.203989  -0.163904  0.00220107  nan  nan  nan  nan  nan  nan  -0.998954  -0.0057482  1.00073  0.000189622  -0.0438791  -0.0111403  0.0019823  0.0238206  -0.0017383  0  0  0  0  0  0  0.0306235  0.00512921  -0.0229823  -0.0108223  -0.0117884  -0.00102435  -0.022549  0.0386109  -0.0015262  -0.200528  -0.0274121  -0.0122514 
1699967301.028141000  0  0  11.7254  0.222559  -0.168  0.00314785  nan  nan  nan  nan  nan  nan  -0.998944  -0.0056277  1.00072  0.000867983  -0.0434925  -0.0111697  0.0020015  0.0243556  -0.0017624  0  0  0  0  0  0  0.0305672  0.00507318  -0.0229783  -0.0112148  -0.0107752  -0.000642338  -0.0244626  0.0381932  -0.00167382  -0.220063  -0.0153774  -0.0226099 
1699967301.033141000  0  0  11.7729  0.210141  -0.177429  0.00440137  nan  nan  nan  nan  nan  nan  -0.998934  -0.0055048  1.00071  0.000448547  -0.0433887  -0.0111515  0.0020346  0.0248096  -0.0017455  0  0  0  0  0  0  0.0306104  0.00482637  -0.0229869  -0.0112222  -0.0107713  -0.00459895  -0.0248291  0.0382531  -0.00195715  -0.191854  0.00292871  -0.0354456 
1699967301.037144000  0  0  11.7763  0.20201  -0.167241  0.00475686  nan  nan  nan  nan  nan  nan  -0.998924  -0.0053798  1.0007  0.00101372  -0.0431029  -0.0111757  0.0020853  0.0251787  -0.0016839  0  0  0  0  0  0  0.0305639  0.00476017  -0.0229958  -0.0114678  -0.00988116  -0.00488404  -0.0258742  0.0377976  -0.00211263  -0.165976  -0.0132555  -0.0383344 
1699967301.043137000  0  0  11.7413  0.216904  -0.16319  0.00338204  nan  nan  nan  nan  nan  nan  -0.998913  -0.0052531  1.00069  0.000883932  -0.0437428  -0.0111707  0.0021573  0.0254592  -0.0015738  0  0  0  0  0  0  0.0305892  0.0045506  -0.0229466  -0.010856  -0.00959604  -0.00208953  -0.0269584  0.0382081  -0.00212523  -0.185792  -0.0251333  -0.0210232 
1699967301.048139000  0  0  11.784  0.201893  -0.1658  0.00275985  nan  nan  nan  nan  nan  nan  -0.998902  -0.0051253  1.00069  0.00196153  -0.0429686  -0.0112163  0.0022544  0.0256473  -0.0014115  0  0  0  0  0  0  0.0305305  0.00450779  -0.0229941  -0.0115153  -0.00807784  -0.00559329  -0.0284652  0.0374659  -0.00211287  -0.141906  -0.0130851  -0.0133694 
1699967301.053140000  0  0  11.8011  0.197243  -0.160574  0.00297803  nan  nan  nan  nan  nan  nan  -0.99889  -0.0049968  1.00068  0.0019646  -0.0432313  -0.0112169  0.0023803  0.0257393  -0.0011932  0  0  0  0  0  0  0.0305621  0.00432353  -0.0229783  -0.0111584  -0.00766542  -0.00705504  -0.0289801  0.0375228  -0.0021847  -0.127869  -0.0240625  -0.0153784 
1699967301.058134000  0  0  11.7865  0.209514  -0.167836  0.00317853  nan  nan  nan  nan  nan  nan  -0.998878  -0.0048681  1.00067  0.00135695  -0.0439325  -0.0111916  0.0025388  0.0257315  -0.0009152  0  0  0  0  0  0  0.030631  0.00402564  -0.0229526  -0.0104701  -0.00781127  -0.00589672  -0.029212  0.0382039  -0.00227547  -0.150278  -0.0158036  -0.0169769 
1699967301.063092000  0  0  11.8297  0.203263  -0.177386  0.00344742  nan  nan  nan  nan  nan  nan  -0.998865  -0.0047397  1.00067  0.00266286  -0.0433537  -0.0112474  0.0027337  0.0256201  -0.0005737  0  0  0  0  0  0  0.0305772  0.00399179  -0.0230121  -0.0108792  -0.00600808  -0.00943055  -0.0309331  0.0378134  -0.00235994  -0.121942  0.0068888  -0.0194934 
1699967301.068140000  0  0  11.8565  0.195571  -0.187187  0.00369371  nan  nan  nan  nan  nan  nan  -0.998851  -0.0046121  1.00067  0.002696  -0.043421  -0.011249  0.0029687  0.0254013  -0.0001649  0  0  0  0  0  0  0.0306133  0.00380564  -0.0230268  -0.0107395  -0.00554523  -0.0116556  -0.0313439  0.0381032  -0.00247779  -0.102777  0.023825  -0.0213936 
1699967301.073141000  0  0  11.8245  0.207999  -0.180465  0.00356506  nan  nan  nan  nan  nan  nan  -0.998835  -0.0044858  1.00067  0.00263835  -0.0441952  -0.0112486  0.0032475  0.0250714  0.0003148  0  0  0  0  0  0  0.0306764  0.00358057  -0.0230006  -0.0100148  -0.00514005  -0.00905935  -0.0319988  0.0387413  -0.00253152  -0.12161  0.00451043  -0.019248 
1699967301.078133000  0  0  11.8549  0.198793  -0.196285  0.00369912  nan  nan  nan  nan  nan  nan  -0.998818  -0.0043615  1.00067  0.00448556  -0.0433822  -0.0113265  0.0035738  0.0246267  0.0008692  0  0  0  0  0  0  0.0306217  0.00356505  -0.0230604  -0.0107848  -0.00265441  -0.0115416  -0.0340199  0.0383499  -0.00261407  -0.0846025  0.0397504  -0.0200984 
1699967301.083139000  0  0  11.8804  0.192887  -0.197718  0.00367273  nan  nan  nan  nan  nan  nan  -0.998799  -0.0042398  1.00068  0.00474177  -0.0431695  -0.0113366  0.0039516  0.0240634  0.0015022  0  0  0  0  0  0  0.0306397  0.00339723  -0.0230952  -0.0109776  -0.00192882  -0.0136233  -0.0345092  0.0383861  -0.00269586  -0.0682886  0.0422832  -0.0189505 
1699967301.087142000  0  0  11.8408  0.198436  -0.172083  0.00374732  nan  nan  nan  nan  nan  nan  -0.998779  -0.0041211  1.00069  0.0059646  -0.0431729  -0.0113894  0.0043844  0.0233777  0.0022173  0  0  0  0  0  0  0.0305957  0.00336791  -0.0231141  -0.0110452  -0.000274318  -0.0103162  -0.0359755  0.038029  -0.00273249  -0.065897  -0.00570067  -0.0195166 
1699967301.093137000  0  0  11.8737  0.19517  -0.192319  0.00354929  nan  nan  nan  nan  nan  nan  -0.998755  -0.0040062  1.0007  0.00720626  -0.0429565  -0.0114415  0.004876  0.0225659  0.0030185  0  0  0  0  0  0  0.0306274  0.00321517  -0.0231405  -0.0112213  0.00172613  -0.0130559  -0.0373507  0.0381929  -0.00278555  -0.0467136  0.0332635  -0.0165106 
