ts fx fy fz tx ty tz exfx exfy exfz extx exty extz xd yd zd rolld pitchd yawd vxd vyd vzd wxd wyd wzd axd ayd azd e_x e_y e_z e_vx e_vy e_vz e_rx e_ry e_rz e_wx e_wy e_wz
1704192235.539312000  0  0  11.8577  0.067839  -0.0635994  0.0315599  nan  nan  nan  nan  nan  nan  -2.5  -0.3  1  0.0113159  -0.00886568  -0.000100326  0  0  0  0  0  0  0  0  0  0.0150883  -0.00191003  -0.0278795  -0.0218452  0.0191558  0.00255685  -0.0182845  0.0135467  -0.0375897  0.0325396  0.00256875  -0.0186024 
1704192235.544321000  0  0  11.9533  0.063928  -0.0948899  0.0321045  nan  nan  nan  nan  nan  nan  -2.5  -0.3  1  0.0114767  -0.0117049  -0.000134336  0  0  0  0  0  0  0  0  0  0.0151981  -0.00205984  -0.027856  -0.0182224  0.0198223  -0.00547528  -0.0181795  0.0167593  -0.0377684  0.0393957  0.0355944  -0.0236222 
1704192235.549319000  0  0  11.9128  0.0887772  -0.105198  0.0293177  nan  nan  nan  nan  nan  nan  -2.5  -0.3  1  0.0121492  -0.00938314  -0.000114002  0  0  0  0  0  0  0  0  0  0.0150729  -0.00195756  -0.0278393  -0.0210709  0.0204343  -0.00214276  -0.0190825  0.0150382  -0.037541  -0.00199548  0.0720456  0.00893809 
1704192235.554307000  0  0  11.8387  0.0450074  -0.0737049  0.0320749  nan  nan  nan  nan  nan  nan  -2.5  -0.3  1  0.00912912  -0.0110427  -0.000100811  0  0  0  0  0  0  0  0  0  0.0153562  -0.00228981  -0.02757  -0.0195952  0.0170984  0.00349952  -0.0153927  0.0162906  -0.0378372  0.0515981  -0.00246381  -0.0225639 
1704192235.558781000  0  0  11.9201  0.0506037  -0.104674  0.0328787  nan  nan  nan  nan  nan  nan  -2.5  -0.3  1  0.00978905  -0.0133186  -0.000130377  0  0  0  0  0  0  0  0  0  0.0154362  -0.00236869  -0.0275391  -0.016657  0.0182304  -0.00336734  -0.0158739  0.0188757  -0.0380529  0.0448328  0.0356923  -0.0304545 
1704192235.564308000  0  0  11.8982  0.10888  -0.123539  0.0248452  nan  nan  nan  nan  nan  nan  -2.5  -0.3  1  0.0112231  -0.0112167  -0.000125889  0  0  0  0  0  0  0  0  0  0.0153124  -0.00225198  -0.0275353  -0.0191936  0.0198441  -0.00157343  -0.0182093  0.0176043  -0.0371387  -0.0502343  0.0851181  0.0608219 
1704192235.569313000  0  0  11.816  0.0486405  -0.063101  0.0298392  nan  nan  nan  nan  nan  nan  -2.5  -0.3  1  0.00842116  -0.012154  -0.000102351  0  0  0  0  0  0  0  0  0  0.0155108  -0.00251654  -0.02738  -0.0185072  0.0166495  0.0049902  -0.0145942  0.0176601  -0.037493  0.0369858  -0.036271  0.00194065 
1704192235.574259000  0  0  11.9205  0.0594492  -0.0992163  0.0307442  nan  nan  nan  nan  nan  nan  -2.5  -0.3  1  0.00864204  -0.0150015  -0.000129642  0  0  0  0  0  0  0  0  0  0.0157329  -0.00274409  -0.0272611  -0.0150859  0.0175454  -0.00398698  -0.0147438  0.0206832  -0.0376858  0.0167442  0.00814699  -0.00744444 
1704192235.579310000  0  0  11.8915  0.112778  -0.10913  0.024631  nan  nan  nan  nan  nan  nan  -2.5  -0.3  1  0.00966542  -0.0137861  -0.000133248  0  0  0  0  0  0  0  0  0  0.0156387  -0.00264799  -0.0272488  -0.016531  0.0186568  -0.00161824  -0.0167298  0.0198594  -0.0369166  -0.071643  0.0355529  0.0612793 
1704192235.584314000  0  0  11.8027  0.0548568  -0.0644827  0.0294246  nan  nan  nan  nan  nan  nan  -2.5  -0.3  1  0.00611546  -0.0155322  -9.4984e-05  0  0  0  0  0  0  0  0  0  0.0161619  -0.00318955  -0.026868  -0.0155408  0.0151081  0.0050381  -0.0125338  0.0206369  -0.0372485  0.00559713  -0.0608936  0.00467752 
1704192235.589319000  0  0  11.8881  0.0723959  -0.0856947  0.0299188  nan  nan  nan  nan  nan  nan  -2.5  -0.3  1  0.00723094  -0.0165036  -0.000119334  0  0  0  0  0  0  0  0  0  0.0161012  -0.00310247  -0.0269136  -0.013974  0.0164462  -0.00200219  -0.0138461  0.02159  -0.0373375  -0.0174078  -0.0272382  -0.000610416 
1704192235.594309000  0  0  11.8562  0.0971119  -0.103335  0.0251918  nan  nan  nan  nan  nan  nan  -2.5  -0.3  1  0.00623148  -0.0176198  -0.000109793  0  0  0  0  0  0  0  0  0  0.016366  -0.00345055  -0.0266741  -0.0131499  0.0158772  0.00015381  -0.0134682  0.0226802  -0.036728  -0.0703161  -0.00198874  0.0523826 
1704192235.598272000  0  0  11.8356  0.0867982  -0.084371  0.0271583  nan  nan  nan  nan  nan  nan  -2.5  -0.3  1  0.00643094  -0.0165274  -0.000106283  0  0  0  0  0  0  0  0  0  0.0163031  -0.00339074  -0.0266574  -0.0144879  0.0159924  0.00184076  -0.0136668  0.0213006  -0.0367783  -0.0478618  -0.0272236  0.0283043 
1704192235.604253000  0  0  11.8321  0.0694365  -0.0647803  0.031127  nan  nan  nan  nan  nan  nan  -2.5  -0.3  1  0.00566979  -0.0165038  -9.35696e-05  0  0  0  0  0  0  0  0  0  0.0163898  -0.00348162  -0.0265558  -0.0147189  0.015191  0.0019417  -0.0127985  0.0205967  -0.0372159  -0.0211265  -0.0599292  -0.0169284 
1704192235.608300000  0  0  11.8849  0.113141  -0.0937684  0.0278109  nan  nan  nan  nan  nan  nan  -2.5  -0.3  1  0.00764135  -0.0183991  -0.000140589  0  0  0  0  0  0  0  0  0  0.0163551  -0.00340238  -0.0265843  -0.0120394  0.0176519  -0.00243185  -0.0156106  0.0226262  -0.0368311  -0.0826641  -0.0206241  0.0206739 
1704192235.614433000  0  0  11.797  0.112985  -0.0600658  0.0274758  nan  nan  nan  nan  nan  nan  -2.5  -0.3  1  0.00690961  -0.015329  -0.000105915  0  0  0  0  0  0  0  0  0  0.0163766  -0.00348085  -0.026442  -0.0162937  0.0167927  0.00461338  -0.015336  0.0190404  -0.0366298  -0.084879  -0.05504  0.0228497 
1704192235.619321000  0  0  11.8019  0.0845273  -0.0397538  0.03154  nan  nan  nan  nan  nan  nan  -2.5  -0.3  1  0.00559527  -0.0175081  -9.79586e-05  0  0  0  0  0  0  0  0  0  0.0166195  -0.00372277  -0.0262866  -0.0139675  0.0156099  0.00391482  -0.0139173  0.0201247  -0.0370881  -0.0410149  -0.105639  -0.023369 
1704192235.624308000  0  0  11.7515  0.124557  -0.0747056  0.0296116  nan  nan  nan  nan  nan  nan  -2.5  -0.3  0.995  0.00786424  -0.0189477  -0.000149003  2e-07  2e-07  2e-07  0  0  0  0.000125  0.000125  0.000125  0.0165681  -0.0036223  -0.0213256  -0.012053  0.018334  -0.00225191  -0.0170178  0.0215757  -0.03695  -0.0925511  -0.0490851  -0.000645886 
1704192235.629274000  0  0  11.676  0.139865  -0.0662404  0.0258653  nan  nan  nan  nan  nan  nan  -2.5  -0.3  0.995  0.00692888  -0.0170554  -0.000118171  1.7e-06  1.7e-06  1.7e-06  0  0  0  0.0005  0.0005  0.0005  0.0166817  -0.00382334  -0.0211474  -0.0148738  0.017549  0.00372271  -0.0168034  0.0192834  -0.0364787  -0.125139  -0.0449269  0.0414704 
1704192235.634308000  0  0  11.6859  0.0866534  -0.0311442  0.0310853  nan  nan  nan  nan  nan  nan  -2.5  -0.3  0.995  0.00519118  -0.0179567  -9.32124e-05  5.6e-06  5.6e-06  5.6e-06  0  0  0  0.001125  0.001125  0.001125  0.0168494  -0.00398952  -0.0210425  -0.0139792  0.0157483  0.00278152  -0.0146989  0.0189178  -0.0369914  -0.0380768  -0.111755  -0.0186525 
1704192235.639293000  0  0  11.756  0.113845  -0.0708503  0.0281714  nan  nan  nan  nan  nan  nan  -2.5  -0.3  0.995  0.00675766  -0.0187871  -0.000127051  1.33e-05  1.33e-05  1.33e-05  0  0  0  0.002  0.002  0.002  0.0167957  -0.00389461  -0.0210781  -0.0125227  0.0177351  -0.00293455  -0.0168265  0.0198937  -0.0367597  -0.0728871  -0.0413212  0.015454 
1704192235.644307000  0  0  11.7172  0.137292  -0.0760228  0.0229295  nan  nan  nan  nan  nan  nan  -2.5  -0.3  0.995  0.00615187  -0.01748  -0.000107831  2.6e-05  2.6e-05  2.6e-05  0  0  0  0.003125  0.003125  0.003125  0.0168664  -0.00403303  -0.0209698  -0.0143209  0.0173677  0.000179254  -0.0170358  0.0184339  -0.0360234  -0.117854  -0.0175466  0.0736149 
1704192235.648467000  0  0  11.7294  0.0867522  -0.0361259  0.0275011  nan  nan  nan  nan  nan  nan  -2.5  -0.3  0.995  0.0055146  -0.0165779  -9.19172e-05  4.5e-05  4.5e-05  4.5e-05  0  0  0  0.0045  0.0045  0.0045  0.0168025  -0.00397022  -0.0209736  -0.0151579  0.0165801  -0.000669131  -0.0158825  0.016761  -0.0362908  -0.027385  -0.0819493  0.0191445 
1704192235.654305000  0  0  11.7943  0.100533  -0.0624163  0.0289432  nan  nan  nan  nan  nan  nan  -2.5  -0.299999  0.995  0.00645811  -0.0178397  -0.000116206  7.15e-05  7.15e-05  7.15e-05  0  0  0  0.006125  0.006125  0.006125  0.0167876  -0.00392075  -0.021008  -0.0131443  0.0179523  -0.00586225  -0.0171478  0.0178717  -0.0364178  -0.0433062  -0.0395867  0.00238778 
1704192235.659314000  0  0  11.7827  0.118134  -0.0790144  0.0254886  nan  nan  nan  nan  nan  nan  -2.5  -0.299999  0.995  0.00612921  -0.0174256  -0.000108501  0.0001067  0.0001067  0.0001067  0  0  0  0.008  0.008  0.008  0.0168817  -0.00406481  -0.0209341  -0.0136811  0.0180714  -0.00488339  -0.0173671  0.0174431  -0.0359747  -0.0764919  -0.00244769  0.041139 
1704192235.664404000  0  0  11.7858  0.0834069  -0.0363701  0.0283024  nan  nan  nan  nan  nan  nan  -2.5  -0.299998  0.995  0.00542485  -0.0153197  -8.58044e-05  0.0001519  0.0001519  0.0001519  0  0  0  0.010125  0.010125  0.010125  0.0167932  -0.00398549  -0.0209504  -0.0159688  0.0172442  -0.00487642  -0.0163192  0.0147199  -0.0361167  -0.016677  -0.062683  0.00738682 
1704192235.668248000  0  0  11.8081  0.0729914  -0.03599  0.0299689  nan  nan  nan  nan  nan  nan  -2.5  -0.299997  0.995  0.00561236  -0.0161804  -9.50071e-05  0.0002083  0.0002083  0.0002083  0  0  0  0.0125  0.0125  0.0125  0.0167501  -0.00391679  -0.0209776  -0.0144042  0.0176519  -0.00644755  -0.0163778  0.0152534  -0.0362887  0.00469309  -0.0683513  -0.011724 
1704192235.673351000  0  0  11.8727  0.107862  -0.0803176  0.0269763  nan  nan  nan  nan  nan  nan  -2.5  -0.299996  0.995  0.00651251  -0.0170735  -0.000117288  0.0002773  0.0002773  0.0002773  0  0  0  0.015125  0.015125  0.015125  0.0167507  -0.00388357  -0.0210341  -0.012777  0.0191387  -0.0114924  -0.0178837  0.0165677  -0.0359804  -0.0511933  0.00821206  0.0225998 
1704192235.679303000  0  0  11.8336  0.0862662  -0.0398384  0.0267561  nan  nan  nan  nan  nan  nan  -2.49999  -0.299995  0.99501  0.00575643  -0.0138917  -8.85649e-05  0.00036  0.00036  0.00036  0  0  0  0.018  0.018  0.018  0.0166789  -0.00385562  -0.0210516  -0.016513  0.0184189  -0.00790907  -0.0169563  0.0129903  -0.0357782  -0.0165347  -0.0398341  0.0233312 
1704192235.684303000  0  0  11.8728  0.0436553  -0.0301384  0.0314382  nan  nan  nan  nan  nan  nan  -2.49999  -0.299993  0.99501  0.00496139  -0.0163327  -9.29302e-05  0.0004577  0.0004577  0.0004577  0  0  0  0.021125  0.021125  0.021125  0.016704  -0.0038488  -0.0211001  -0.0128915  0.0177756  -0.0107425  -0.0154406  0.0146922  -0.0363137  0.0547434  -0.0748914  -0.0298398 
1704192235.689304000  0  0  11.9554  0.105439  -0.0925945  0.0256872  nan  nan  nan  nan  nan  nan  -2.49999  -0.29999  0.99501  0.0066108  -0.0159956  -0.000121741  0.0005717  0.0005717  0.0005717  0  0  0  0.0245  0.0245  0.0245  0.0166391  -0.00373701  -0.0212001  -0.0126159  0.020192  -0.017149  -0.0179898  0.0153109  -0.0357418  -0.0453717  0.0443288  0.0363274 
1704192235.694301000  0  0  11.8766  0.0861681  -0.051116  0.0242798  nan  nan  nan  nan  nan  nan  -2.49999  -0.299987  0.99501  0.00566547  -0.0128113  -9.36807e-05  0.0007031  0.0007031  0.0007031  0  0  0  0.028125  0.028125  0.028125  0.0165978  -0.00373477  -0.0212235  -0.0164088  0.0193413  -0.010171  -0.0168638  0.011838  -0.0353691  -0.0171889  -0.00667758  0.0501927 
1704192235.699303000  0  0  11.9299  0.0575504  -0.0479424  0.0296363  nan  nan  nan  nan  nan  nan  -2.49998  -0.299983  0.99502  0.00537207  -0.0140887  -0.000102984  0.0008533  0.0008533  0.0008533  0  0  0  0.0319374  0.032  0.032  0.0165339  -0.00363981  -0.021315  -0.014014  0.0192659  -0.0140424  -0.01609  0.0128095  -0.0358287  0.0329269  -0.0219629  -0.0121667 
1704192235.704302000  0  0  12.039  0.116818  -0.113208  0.0236538  nan  nan  nan  nan  nan  nan  -2.49998  -0.299978  0.99502  0.00660521  -0.0141761  -0.000128434  0.0010221  0.0010235  0.0010235  0  0  0  0.0355621  0.036125  0.036125  0.016555  -0.00362173  -0.021428  -0.0133124  0.0214635  -0.022551  -0.0182621  0.0141074  -0.0351511  -0.0656236  0.0966288  0.0558379 
1704192235.709306000  0  0  11.9435  0.0907258  -0.0638764  0.0234608  nan  nan  nan  nan  nan  nan  -2.49997  -0.299973  0.99503  0.00561987  -0.0115804  -0.00010878  0.0012085  0.001215  0.001215  0  0  0  0.0389369  0.0405  0.0405  0.016532  -0.00363117  -0.0214645  -0.0164301  0.0206615  -0.0140804  -0.0170538  0.0112233  -0.0348432  -0.0245563  0.0244983  0.0551728 
1704192235.714250000  0  0  11.9542  0.0460982  -0.0435239  0.02994  nan  nan  nan  nan  nan  nan  -2.49997  -0.299966  0.99503  0.0045488  -0.0120148  -0.000108952  0.0014111  0.001429  0.001429  0  0  0  0.0420616  0.045125  0.045125  0.0164712  -0.00353908  -0.0215336  -0.0153085  0.0196267  -0.0143622  -0.0152459  0.011243  -0.0354915  0.0480659  -0.0163881  -0.0193356 
1704192235.719329000  0  0  12.0388  0.0901526  -0.0855384  0.027034  nan  nan  nan  nan  nan  nan  -2.49996  -0.299958  0.99504  0.00505985  -0.0122734  -0.0001288  0.0016287  0.0016667  0.0016667  0  0  0  0.0449364  0.05  0.05  0.0164836  -0.00353512  -0.0216799  -0.0145121  0.0209623  -0.0206696  -0.0163265  0.012257  -0.0352608  -0.0301013  0.0583128  0.0146829 
1704192235.723316000  0  0  11.9828  0.0845537  -0.0636303  0.0259876  nan  nan  nan  nan  nan  nan  -2.49995  -0.299949  0.99505  0.00499681  -0.0104615  -0.000133274  0.00186  0.0019294  0.0019294  0  0  0  0.0475611  0.055125  0.055125  0.0164067  -0.00345197  -0.0217138  -0.016498  0.0213119  -0.0154407  -0.0162507  0.0104137  -0.0350624  -0.0196011  0.0314543  0.0257786 
1704192235.729331000  0  0  11.9626  0.0397356  -0.0433191  0.0310786  nan  nan  nan  nan  nan  nan  -2.49994  -0.299939  0.99506  0.00301378  -0.0104431  -0.000128973  0.0021039  0.0022183  0.0022183  0  0  0  0.0499359  0.0605  0.0605  0.0164289  -0.00347378  -0.0217819  -0.016295  0.0193942  -0.013069  -0.0134824  0.0101261  -0.0356481  0.0445672  -0.00652177  -0.0320013 
1704192235.734329000  0  0  12.0349  0.0647607  -0.0700482  0.0286378  nan  nan  nan  nan  nan  nan  -2.49993  -0.299927  0.99507  0.00289021  -0.0113246  -0.00014893  0.002359  0.0025348  0.0025348  0  0  0  0.0520606  0.066125  0.066125  0.0164703  -0.00350068  -0.021903  -0.0148547  0.0200257  -0.0183165  -0.013654  0.0114796  -0.0354707  -0.00390475  0.0344843  -0.00326629 
1704192235.739328000  0  0  12.0139  0.0702919  -0.0666315  0.0271762  nan  nan  nan  nan  nan  nan  -2.49992  -0.299914  0.99509  0.00290515  -0.0096595  -0.000165462  0.0026241  0.00288  0.00288  0  0  0  0.0539354  0.072  0.072  0.0163833  -0.00339678  -0.0219737  -0.016673  0.0205529  -0.0158614  -0.013761  0.0100695  -0.0352679  -0.0139825  0.0406233  0.0129764 
1704192235.744322000  0  0  11.9484  0.0419565  -0.0547037  0.0289448  nan  nan  nan  nan  nan  nan  -2.4999  -0.299898  0.9951  -0.000811739  -0.0101809  -0.000152936  0.0028979  0.0032552  0.0032552  0  0  0  0.0555601  0.078125  0.078125  0.0166734  -0.00376241  -0.0218648  -0.0164911  0.0171856  -0.0100038  -0.00978115  0.0105708  -0.0354321  0.00607363  0.0121565  -0.00748963 
1704192235.748324000  0  0  11.9991  0.0342273  -0.054577  0.0296967  nan  nan  nan  nan  nan  nan  -2.49989  -0.299881  0.99512  -0.000843461  -0.0111225  -0.000178319  0.0031792  0.0036617  0.0036617  0  0  0  0.0569349  0.0845  0.0845  0.0166274  -0.00368977  -0.0219494  -0.0149016  0.0177849  -0.0134432  -0.00960176  0.0114333  -0.0355429  0.0198816  0.00396762  -0.0157798 
1704192235.754326000  0  0  12.0511  0.0696945  -0.0926271  0.0248622  nan  nan  nan  nan  nan  nan  -2.49987  -0.299862  0.99514  -0.000571115  -0.0105909  -0.000210851  0.0034668  0.0041006  0.0041006  0  0  0  0.0580596  0.091125  0.091125  0.0166324  -0.00368716  -0.0220626  -0.0154176  0.0189785  -0.0169315  -0.0104116  0.011831  -0.0349654  -0.0436021  0.0764093  0.0388773 
1704192235.759327000  0  0  11.9851  0.0461796  -0.0545268  0.0261422  nan  nan  nan  nan  nan  nan  -2.49985  -0.29984  0.99516  -0.00262849  -0.00957947  -0.000223921  0.0037594  0.0045733  0.0045733  0  0  0  0.0589343  0.098  0.098  0.0166655  -0.00374503  -0.0220745  -0.016806  0.0172431  -0.0107231  -0.00821394  0.0106245  -0.034883  -0.0167909  0.0113082  0.0220521 
1704192235.764319000  0  0  12.0632  0.0380507  -0.0572314  0.0308345  nan  nan  nan  nan  nan  nan  -2.49983  -0.299816  0.99518  -0.00205169  -0.0114817  -0.000260744  0.0040558  0.005081  0.005081  0  0  0  0.0595591  0.105125  0.105125  0.0166081  -0.00364544  -0.0221795  -0.0139658  0.0186742  -0.0163413  -0.00864311  0.0123271  -0.0354078  0.00341521  0.00105381  -0.0313527 
1704192235.769333000  0  0  12.1268  0.100223  -0.0999258  0.0247658  nan  nan  nan  nan  nan  nan  -2.49981  -0.299789  0.99521  -0.00212034  -0.0104376  -0.000300369  0.0043546  0.005625  0.005625  0  0  0  0.0599338  0.1125  0.1125  0.0166352  -0.00368201  -0.0222855  -0.0153043  0.0195832  -0.0207441  -0.00979537  0.0123478  -0.0347442  -0.110329  0.0862516  0.0378688 
1704192235.774309000  0  0  12.0392  0.0756038  -0.0481963  0.0271207  nan  nan  nan  nan  nan  nan  -2.49979  -0.299759  0.99524  -0.00317912  -0.00848525  -0.000336925  0.0046547  0.0062065  0.0062065  0  0  0  0.0600586  0.120125  0.120125  0.0165384  -0.00359307  -0.0223018  -0.0177879  0.0189569  -0.0126602  -0.00879225  0.00990171  -0.0348403  -0.0703188  0.00529693  0.00939372 
1704192235.779329000  0  0  12.1015  0.062557  -0.060191  0.0318192  nan  nan  nan  nan  nan  nan  -2.49977  -0.299727  0.99527  -0.00506613  -0.0125241  -0.000345152  0.0049548  0.0068267  0.0068267  0  0  0  0.0599333  0.128  0.128  0.0169624  -0.00396968  -0.022238  -0.013257  0.0182305  -0.0172231  -0.00709431  0.0137685  -0.0354217  -0.0598464  -0.00628824  -0.0435237 
1704192235.784319000  0  0  12.1505  0.114826  -0.0835131  0.0242082  nan  nan  nan  nan  nan  nan  -2.49974  -0.299691  0.99531  -0.00584486  -0.0113774  -0.000390002  0.0052536  0.0074869  0.0074869  0  0  0  0.0595581  0.136125  0.136125  0.0169692  -0.00400023  -0.0223388  -0.0148005  0.0182492  -0.0203299  -0.00764372  0.013252  -0.0346135  -0.15933  0.0451081  0.0435324 
1704192235.789332000  0  0  12.0661  0.0722021  -0.0276845  0.0294191  nan  nan  nan  nan  nan  nan  -2.49971  -0.299652  0.99535  -0.00657088  -0.00979363  -0.000443347  0.0055499  0.0081883  0.0081883  0  0  0  0.0589328  0.1445  0.144461  0.0168751  -0.00391094  -0.0223609  -0.016902  0.0181945  -0.0124308  -0.00679841  0.0108506  -0.0350332  -0.0818587  -0.0444568  -0.0174067 
1704192235.794325000  0  0  12.1208  0.0681947  -0.0521902  0.0317379  nan  nan  nan  nan  nan  nan  -2.49968  -0.299609  0.99539  -0.00888595  -0.012075  -0.000455002  0.0058425  0.0089323  0.0089312  0  0  0  0.0580576  0.153125  0.15264  0.0171189  -0.0042438  -0.0226496  -0.0144243  0.0168678  -0.0155923  -0.0048811  0.0136476  -0.0354622  -0.0914833  -0.0211779  -0.042102 
1704192235.799333000  0  0  12.1674  0.10326  -0.0721477  0.0273044  nan  nan  nan  nan  nan  nan  -2.49965  -0.299563  0.99544  -0.00918416  -0.0117438  -0.000512442  0.0061301  0.00972  0.0097143  0  0  0  0.0569323  0.162  0.160568  0.0170462  -0.00415665  -0.0227582  -0.0147914  0.0173493  -0.0185002  -0.00580503  0.0137282  -0.0350029  -0.153114  0.0179958  0.00872378 
1704192235.804324000  0  0  12.1057  0.070398  -0.0512009  0.0299794  nan  nan  nan  nan  nan  nan  -2.49962  -0.299512  0.99549  -0.0113005  -0.0115646  -0.000550912  0.0064114  0.0105527  0.0105364  0  0  0  0.0555571  0.171125  0.168246  0.0173039  -0.00445047  -0.0225783  -0.0158626  0.016375  -0.0129697  -0.00381954  0.0131437  -0.0352716  -0.105656  -0.0185207  -0.0220264 
1704192235.809333000  0  0  12.1289  0.0816142  -0.07249  0.0292481  nan  nan  nan  nan  nan  nan  -2.49959  -0.299457  0.99554  -0.0136503  -0.0130011  -0.000568925  0.0066853  0.0114317  0.0113963  0  0  0  0.0539318  0.1805  0.175674  0.0174493  -0.00467707  -0.0228245  -0.0144285  0.0148694  -0.0136576  -0.00235782  0.015228  -0.0352544  -0.141537  0.00488267  -0.0130574 
1704192235.814281000  0  0  12.1823  0.0851592  -0.0801063  0.028279  nan  nan  nan  nan  nan  nan  -2.49956  -0.299398  0.9956  -0.0142568  -0.0141418  -0.000612876  0.0069503  0.0123581  0.0122928  0  0  0  0.0520566  0.190125  0.182852  0.017399  -0.00460379  -0.0229286  -0.0129343  0.0150227  -0.0172055  -0.00257191  0.0164619  -0.0351082  -0.146657  0.00876349  -0.00240481 
1704192235.819327000  0  0  12.1912  0.0938607  -0.0961263  0.0277794  nan  nan  nan  nan  nan  nan  -2.49952  -0.299333  0.99567  -0.0151595  -0.013166  -0.000686401  0.0072054  0.0133333  0.0132244  0  0  0  0.0499313  0.2  0.189781  0.0174947  -0.00478961  -0.0230906  -0.0147268  0.0154501  -0.0169512  -0.00244832  0.0163135  -0.0350546  -0.165197  0.0421684  0.00330364 
1704192235.824323000  0  0  12.1429  0.0903014  -0.0787945  0.0287056  nan  nan  nan  nan  nan  nan  -2.49948  -0.299264  0.99573  -0.0168924  -0.0128527  -0.000743673  0.0074492  0.0143585  0.0141901  0  0  0  0.0475561  0.210125  0.196459  0.0174168  -0.00472498  -0.0231227  -0.0153517  0.014333  -0.0121906  -0.00160621  0.0159173  -0.035085  -0.165826  0.0111501  -0.00796956 
1704192235.829331000  0  0  12.2838  0.0701807  -0.0993715  0.0310886  nan  nan  nan  nan  nan  nan  -2.49945  -0.29919  0.99581  -0.0179703  -0.0162146  -0.000747601  0.0076806  0.015435  0.0151886  0  0  0  0.0449308  0.2205  0.202887  0.0175794  -0.00488745  -0.0234  -0.0112571  0.0142685  -0.022739  -0.000919574  0.0197741  -0.0354119  -0.131901  0.0168209  -0.0344889 
1704192235.834325000  0  0  12.2605  0.105116  -0.124303  0.0266838  nan  nan  nan  nan  nan  nan  -2.49941  -0.29911  0.99589  -0.0187267  -0.0153672  -0.0008326  0.0078981  0.016564  0.0162186  0  0  0  0.0420556  0.231125  0.209065  0.0177226  -0.00500146  -0.0232598  -0.0131392  0.0148841  -0.0204988  -0.00158906  0.0195052  -0.0349228  -0.195612  0.0691579  0.0156807 
1704192235.839327000  0  0  12.2322  0.0506203  -0.0608942  0.030563  nan  nan  nan  nan  nan  nan  -2.49937  -0.299024  0.99597  -0.0211145  -0.0155342  -0.000876967  0.0081007  0.0177467  0.0172788  0  0  0  0.0389303  0.242  0.214994  0.0176578  -0.00494526  -0.0233232  -0.0132179  0.0129507  -0.0173818  0.000713332  0.0187784  -0.0352434  -0.107803  -0.0509725  -0.0296039 
1704192235.844320000  0  0  12.3562  0.0483608  -0.0941999  0.0348729  nan  nan  nan  nan  nan  nan  -2.49933  -0.298932  0.99606  -0.0214447  -0.0184069  -0.000898032  0.008287  0.0189844  0.0183681  0  0  0  0.0355551  0.253125  0.220672  0.0178365  -0.00501258  -0.023312  -0.00988575  0.0137607  -0.0271983  0.000442245  0.0216348  -0.0359341  -0.10079  -0.0106408  -0.0765702 
1704192235.849333000  0  0  12.3024  0.107781  -0.110838  0.0271493  nan  nan  nan  nan  nan  nan  -2.49928  -0.298834  0.99615  -0.0214654  -0.0160053  -0.00104  0.0084558  0.0202783  0.0194851  0  0  0  0.0319298  0.2645  0.2261  0.0177407  -0.00492918  -0.0233768  -0.0135296  0.0151183  -0.02207  -0.00126677  0.0198488  -0.0351436  -0.203908  0.0390672  0.0120691 
1704192235.854329000  0  0  12.2138  0.0572861  -0.0567433  0.0308122  nan  nan  nan  nan  nan  nan  -2.49924  -0.298729  0.99625  -0.0243741  -0.0162293  -0.00108167  0.0086059  0.0216298  0.0206287  0  0  0  0.0281174  0.276125  0.231278  0.0178921  -0.00506642  -0.0232162  -0.0142104  0.013161  -0.0144365  0.00146992  0.0189257  -0.0355186  -0.128095  -0.06063  -0.0299663 
1704192235.859327000  0  0  12.3364  0.0654036  -0.098586  0.0324881  nan  nan  nan  nan  nan  nan  -2.4992  -0.298618  0.99636  -0.0251719  -0.0187888  -0.00110098  0.0087374  0.02304  0.0217975  0  0  0  0.0244929  0.288  0.236207  0.0180403  -0.00512564  -0.0232323  -0.0112722  0.0133662  -0.0241362  0.00137578  0.021622  -0.0358761  -0.143464  -0.00175002  -0.047341 
1704192235.864317000  0  0  12.2645  0.108679  -0.10309  0.025715  nan  nan  nan  nan  nan  nan  -2.49915  -0.298499  0.99647  -0.0253073  -0.0170319  -0.0012423  0.0088513  0.0245102  0.0229903  0  0  0  0.0211184  0.300125  0.240885  0.0179529  -0.00504627  -0.0232803  -0.0140549  0.0147441  -0.0176036  -8.61324e-05  0.0202021  -0.0350715  -0.216566  0.0203195  0.0292769 
1704192235.869330000  0  0  12.1954  0.056631  -0.0479955  0.0310181  nan  nan  nan  nan  nan  nan  -2.49911  -0.298372  0.99659  -0.0277673  -0.0170147  -0.00130295  0.008949  0.0260417  0.0242059  0  0  0  0.017994  0.3125  0.245313  0.0180771  -0.00513297  -0.0231831  -0.0148892  0.0133666  -0.0115418  0.00213565  0.018994  -0.0355357  -0.13291  -0.0787535  -0.0323701 
1704192235.874331000  0  0  12.2621  0.0674686  -0.065687  0.0321786  nan  nan  nan  nan  nan  nan  -2.49907  -0.298238  0.99671  -0.02886  -0.0181181  -0.0013571  0.0090316  0.0276356  0.0254431  0  0  0  0.0151195  0.325125  0.249491  0.0180267  -0.00506718  -0.0232953  -0.0135174  0.0131225  -0.0164372  0.00226526  0.0200161  -0.0357738  -0.155778  -0.052774  -0.0444951 
1704192235.879325000  0  0  12.2118  0.0969604  -0.0730626  0.0279926  nan  nan  nan  nan  nan  nan  -2.49902  -0.298096  0.99684  -0.0293925  -0.017594  -0.00146985  0.0091006  0.0292933  0.0267004  0  0  0  0.012495  0.338  0.253419  0.018102  -0.00512081  -0.0232031  -0.0148357  0.0143119  -0.0120408  0.00135029  0.0193627  -0.0352908  -0.206343  -0.0320112  0.00299997 
1704192235.884321000  0  0  12.1714  0.0722775  -0.0344329  0.0306546  nan  nan  nan  nan  nan  nan  -2.49897  -0.297945  0.99698  -0.0312442  -0.0159707  -0.00159717  0.009157  0.031016  0.0279768  0  0  0  0.0101205  0.351125  0.257098  0.0180789  -0.0051059  -0.0232152  -0.0173697  0.0135736  -0.0082305  0.00267904  0.0169935  -0.0355297  -0.169202  -0.0874747  -0.0278849 
1704192235.889331000  0  0  12.1991  0.0675511  -0.0408191  0.0322209  nan  nan  nan  nan  nan  nan  -2.49893  -0.297786  0.99712  -0.0327795  -0.0176831  -0.00162788  0.0092022  0.032805  0.029271  0  0  0  0.007996  0.3645  0.260526  0.0180262  -0.00504253  -0.0232811  -0.0151582  0.0129462  -0.0100247  0.00333955  0.0182784  -0.0357984  -0.165826  -0.086523  -0.0447768 
1704192235.894341000  0  0  12.2386  0.0992147  -0.065527  0.0291086  nan  nan  nan  nan  nan  nan  -2.49888  -0.297617  0.99727  -0.0326612  -0.0167843  -0.00177253  0.0092374  0.0346615  0.0305817  0  0  0  0.0061215  0.378125  0.263704  0.0179718  -0.00499623  -0.0233379  -0.0164257  0.0145871  -0.0128907  0.00184543  0.0175562  -0.0355004  -0.215407  -0.0304625  -0.00885345 
1704192235.898291000  0  0  12.1966  0.0909255  -0.0362932  0.0285124  nan  nan  nan  nan  nan  nan  -2.49884  -0.297439  0.99743  -0.0343192  -0.0142617  -0.00194627  0.0092638  0.0365867  0.0319076  0  0  0  0.004497  0.391986  0.266632  0.0178751  -0.0049775  -0.0233866  -0.0199255  0.014214  -0.00895261  0.00280267  0.0146432  -0.0353487  -0.207636  -0.0621309  -0.00291758 
1704192235.904279000  0  0  12.1729  0.0629886  -0.0260147  0.0342945  nan  nan  nan  nan  nan  nan  -2.49879  -0.297251  0.99759  -0.0366364  -0.0165158  -0.00194718  0.0092828  0.0385811  0.0332476  0  0  0  0.0031225  0.40574  0.269311  0.0178456  -0.00491268  -0.0233659  -0.0170321  0.0127643  -0.00667947  0.00429032  0.0160354  -0.0360921  -0.165448  -0.0954964  -0.0677602 
1704192235.908935000  0  0  12.2594  0.0999687  -0.0659321  0.0314872  nan  nan  nan  nan  nan  nan  -2.49874  -0.297053  0.99776  -0.0368735  -0.0163571  -0.00206701  0.0092955  0.0406436  0.0346003  0  0  0  0.001998  0.419245  0.271739  0.0178004  -0.00489433  -0.0234412  -0.0171391  0.0137583  -0.0134859  0.00305346  0.0162794  -0.0359234  -0.228029  -0.0179062  -0.0343555 
1704192235.914428000  0  0  12.1664  0.102149  -0.0237119  0.0292449  nan  nan  nan  nan  nan  nan  -2.4987  -0.296844  0.99794  -0.0382021  -0.0132042  -0.00228494  0.0093032  0.0427731  0.0359646  0  0  0  0.0011235  0.4325  0.273917  0.0176726  -0.00479543  -0.0234199  -0.0214103  0.0138132  -0.00551632  0.00307641  0.0125736  -0.0356091  -0.232601  -0.0682536  -0.00946998 
1704192235.919419000  0  0  12.2441  0.0863066  -0.0570491  0.0331279  nan  nan  nan  nan  nan  nan  -2.49865  -0.296625  0.99812  -0.0397435  -0.0156909  -0.00228599  0.0093071  0.0449682  0.0373391  0  0  0  0.000499  0.445505  0.275845  0.0176582  -0.00478207  -0.0234708  -0.0179692  0.012997  -0.0116373  0.00372208  0.0150466  -0.0360731  -0.206856  -0.0243305  -0.0533684 
1704192235.923343000  0  0  12.3306  0.125743  -0.0896313  0.0295913  nan  nan  nan  nan  nan  nan  -2.4986  -0.296395  0.99831  -0.0398352  -0.0149632  -0.00243474  0.0093086  0.0472277  0.0387226  0  0  0  0.0001245  0.45826  0.277524  0.0175631  -0.00476449  -0.0236001  -0.0186604  0.0140666  -0.0184147  0.00230814  0.0149167  -0.0357303  -0.272721  0.0420291  -0.0125877 
1704192235.929336000  0  0  12.1878  0.117016  -0.0399572  0.0276156  nan  nan  nan  nan  nan  nan  -2.49856  -0.296153  0.99851  -0.0412333  -0.0120411  -0.00265634  0.0093088  0.0495504  0.0401139  0  0  0  0  0.470764  0.278952  0.0174761  -0.00468026  -0.0235031  -0.0226911  0.0142137  -0.00652903  0.00227352  0.0115206  -0.0353252  -0.254948  -0.0260749  0.00805617 
1704192235.933285000  0  0  12.1765  0.0722749  -0.0299673  0.0320874  nan  nan  nan  nan  nan  nan  -2.49851  -0.295899  0.99871  -0.0453185  -0.0148067  -0.00260435  0.0093088  0.051935  0.0415117  0  0  0  0  0.483019  0.28013  0.0177801  -0.00496505  -0.0234591  -0.0196575  0.0109182  -0.00539383  0.00601268  0.0138866  -0.0357921  -0.199866  -0.0678226  -0.0431714 
1704192235.939319000  0  0  12.2763  0.126201  -0.0873694  0.0291593  nan  nan  nan  nan  nan  nan  -2.49846  -0.295633  0.99892  -0.0439668  -0.0151087  -0.00273442  0.0093088  0.0543802  0.0429148  0  0  0  0  0.495024  0.281058  0.0176793  -0.00481888  -0.0235397  -0.0188608  0.0134507  -0.0135066  0.00258568  0.0149748  -0.035608  -0.276191  0.0369709  -0.00841113 
1704192235.944331000  0  0  12.1968  0.107416  -0.0539668  0.0296971  nan  nan  nan  nan  nan  nan  -2.49842  -0.295355  0.99914  -0.0459995  -0.0130858  -0.00292045  0.0093088  0.0568848  0.0443219  0  0  0  0  0.506779  0.281736  0.0176296  -0.00482117  -0.0235133  -0.021643  0.0125888  -0.00678081  0.0035992  0.0127138  -0.0355692  -0.247944  -0.00903335  -0.015522 
1704192235.948280000  0  0  12.2239  0.0663328  -0.0397553  0.0342564  nan  nan  nan  nan  nan  nan  -2.49837  -0.295064  0.99937  -0.0484504  -0.0136439  -0.00298535  0.0093088  0.0594476  0.0457317  0  0  0  0  0.518283  0.282165  0.0175447  -0.00484425  -0.023613  -0.0206739  0.01063  -0.00868163  0.00574813  0.0129442  -0.0361236  -0.185548  -0.0395758  -0.06697 
1704192235.954427000  0  0  12.2808  0.09474  -0.0959916  0.0307555  nan  nan  nan  nan  nan  nan  -2.49832  -0.294761  0.9996  -0.0494468  -0.0161865  -0.00297031  0.0093088  0.0620672  0.0471431  0  0  0  0  0.529538  0.282343  0.0178218  -0.00499532  -0.0235928  -0.0177422  0.0107147  -0.013402  0.00518457  0.016441  -0.0360349  -0.237178  0.0407262  -0.0240945 
1704192235.958297000  0  0  12.2444  0.0729114  -0.101203  0.0290493  nan  nan  nan  nan  nan  nan  -2.49828  -0.294444  0.99984  -0.0547679  -0.0183183  -0.0028918  0.0093088  0.0647425  0.0485547  0  0  0  0  0.540543  0.282271  0.0184094  -0.00564964  -0.023453  -0.0162366  0.00652112  -0.0104299  0.00983656  0.0187692  -0.0359904  -0.236319  0.0297297  -0.00321283 
1704192235.964281000  0  0  12.2214  0.0157166  -0.0634706  0.0351493  nan  nan  nan  nan  nan  nan  -2.49823  -0.294113  1.00009  -0.0573394  -0.0188868  -0.00293672  0.0093088  0.0674722  0.0499654  0  0  0  0  0.551298  0.281949  0.0183285  -0.00556577  -0.0234519  -0.0153491  0.00434628  -0.00841017  0.0120821  0.0186417  -0.0367598  -0.142589  -0.0445625  -0.0717682 
1704192235.969290000  0  0  12.3099  0.0506954  -0.113893  0.0317137  nan  nan  nan  nan  nan  nan  -2.49818  -0.293769  1.00034  -0.0568318  -0.0200271  -0.00300627  0.0093088  0.0702551  0.0513738  0  0  0  0  0.561803  0.281378  0.0183006  -0.00555675  -0.0235375  -0.0135481  0.00577937  -0.0156744  0.0102201  0.0204814  -0.0365713  -0.195416  0.0393567  -0.0307074 
1704192235.973289000  0  0  12.2994  0.0650692  -0.111516  0.0275732  nan  nan  nan  nan  nan  nan  -2.49814  -0.29341  1.0006  -0.0578919  -0.01801  -0.00322686  0.0093088  0.0730898  0.0527788  0  0  0  0  0.572057  0.280556  0.018217  -0.00559989  -0.0236282  -0.0161621  0.00580069  -0.0146284  0.0102275  0.0187821  -0.0360169  -0.224232  0.0502359  0.0155041 
1704192235.979285000  0  0  12.2491  0.00580411  -0.0533406  0.034341  nan  nan  nan  nan  nan  nan  -2.49809  -0.293038  1.00087  -0.060861  -0.0187494  -0.00325315  0.0093088  0.0759752  0.054179  0  0  0  0  0.582062  0.279484  0.0181811  -0.00555923  -0.023597  -0.0151961  0.00326123  -0.0104492  0.0129276  0.0184857  -0.0367525  -0.130542  -0.0633875  -0.0617376 
1704192235.984332000  0  0  12.3474  0.0507031  -0.107196  0.0313335  nan  nan  nan  nan  nan  nan  -2.49805  -0.292651  1.00114  -0.0600797  -0.0195344  -0.00334574  0.0093088  0.07891  0.0555732  0  0  0  0  0.591817  0.278162  0.0181672  -0.00555974  -0.0236951  -0.0138909  0.00489841  -0.0185777  0.0107137  0.0199608  -0.0365795  -0.199972  0.0307523  -0.0258738 
1704192235.989445000  0  0  12.2421  0.0655677  -0.0627087  0.0280208  nan  nan  nan  nan  nan  nan  -2.498  -0.292249  1.00142  -0.0611827  -0.0165319  -0.00363302  0.0093088  0.081893  0.0569602  0  0  0  0  0.601322  0.276591  0.0180516  -0.00551778  -0.0236919  -0.0179687  0.00522788  -0.00990084  0.010424  0.0165846  -0.0360894  -0.227036  -0.0271606  0.0106336 
1704192235.994267000  0  0  12.2146  0.03251  -0.0414307  0.0327797  nan  nan  nan  nan  nan  nan  -2.49795  -0.291832  1.00171  -0.0634487  -0.0171812  -0.00367916  0.0093088  0.0849228  0.0583387  0  0  0  0  0.610577  0.274769  0.0180374  -0.00557188  -0.0237188  -0.0171251  0.0036329  -0.00759176  0.0121572  0.016656  -0.0365827  -0.176866  -0.0703737  -0.0439201 
1704192235.999278000  0  0  12.3338  0.0885229  -0.0859981  0.0303415  nan  nan  nan  nan  nan  nan  -2.49791  -0.291399  1.00201  -0.0624751  -0.0173113  -0.00381282  0.0093088  0.0879983  0.0597074  0  0  0  0  0.619581  0.272697  0.0179658  -0.00553565  -0.023859  -0.0165695  0.00518249  -0.017456  0.00936382  0.0173008  -0.0364098  -0.263193  0.0128287  -0.0151703 
1704192236.004320000  0  0  12.2655  0.101103  -0.0578013  0.0279787  nan  nan  nan  nan  nan  nan  -2.49786  -0.290952  1.00231  -0.0633544  -0.0156534  -0.0040278  0.0093088  0.0911182  0.0610652  0  0  0  0  0.628336  0.270375  0.0179137  -0.00556257  -0.0238802  -0.0188634  0.00563825  -0.0118794  0.00867329  0.0153538  -0.0360113  -0.281999  -0.0256524  0.0103793 
1704192236.009331000  0  0  12.2467  0.0779798  -0.038307  0.0332163  nan  nan  nan  nan  nan  nan  -2.49781  -0.290488  1.00262  -0.0653397  -0.0157353  -0.00411624  0.0093088  0.0942813  0.0624108  0  0  0  0  0.636841  0.267804  0.0178923  -0.00561017  -0.0239277  -0.0187579  0.0042554  -0.0103388  0.00969765  0.0149606  -0.0365631  -0.245178  -0.0610234  -0.0495729 
1704192236.014327000  0  0  12.3008  0.103099  -0.0518447  0.0329631  nan  nan  nan  nan  nan  nan  -2.49777  -0.290009  1.00293  -0.0650911  -0.0159078  -0.00423392  0.0093088  0.0974862  0.0637428  0  0  0  0  0.645096  0.264982  0.017814  -0.00557877  -0.0240207  -0.0182649  0.00517605  -0.0149126  0.00782237  0.0151123  -0.0366443  -0.278164  -0.0353437  -0.0455955 
1704192236.019328000  0  0  12.2753  0.121255  -0.0535288  0.0315108  nan  nan  nan  nan  nan  nan  -2.49772  -0.289513  1.00325  -0.0658258  -0.0155227  -0.00437267  0.0093088  0.100732  0.0650602  0  0  0  0  0.653101  0.26191  0.0177937  -0.00563355  -0.0240678  -0.0188062  0.00549836  -0.0129212  0.0068373  0.0146892  -0.0365131  -0.305414  -0.0280832  -0.0287536 
1704192236.023333000  0  0  12.2466  0.114421  -0.0427966  0.0330715  nan  nan  nan  nan  nan  nan  -2.49767  -0.289001  1.00358  -0.0676755  -0.0137651  -0.00458795  0.0093088  0.104017  0.0663615  0  0  0  0  0.660855  0.258588  0.0176905  -0.0057201  -0.0241659  -0.0210453  0.00438014  -0.0105295  0.00760329  0.0128507  -0.0366999  -0.298791  -0.0326332  -0.0463947 
1704192236.029331000  0  0  12.2771  0.113253  -0.0352514  0.0344934  nan  nan  nan  nan  nan  nan  -2.49763  -0.288473  1.00392  -0.0676983  -0.0153037  -0.00460832  0.0093088  0.10734  0.0676456  0  0  0  0  0.66836  0.255016  0.0177032  -0.0056667  -0.0241706  -0.0189362  0.00494229  -0.0133722  0.00600302  0.0138656  -0.0370573  -0.281733  -0.057061  -0.0605939 
1704192236.034329000  0  0  12.326  0.143706  -0.0713719  0.0309227  nan  nan  nan  nan  nan  nan  -2.49758  -0.287928  1.00426  -0.0679124  -0.015447  -0.00472038  0.0093088  0.1107  0.0689113  0  0  0  0  0.675615  0.251195  0.0176968  -0.00571098  -0.0242418  -0.0186568  0.00529643  -0.0176378  0.0043163  0.0144855  -0.0367507  -0.327122  0.00947731  -0.0190272 
1704192236.039329000  0  0  12.2716  0.130998  -0.03877  0.0306953  nan  nan  nan  nan  nan  nan  -2.49753  -0.287366  1.00461  -0.0693155  -0.0129945  -0.00499386  0.0093088  0.114096  0.0701572  0  0  0  0  0.68262  0.247123  0.0175699  -0.00569111  -0.0242836  -0.0218396  0.00465673  -0.0133155  0.0043972  0.011743  -0.0366526  -0.302451  -0.0304957  -0.0171649 
1704192236.044319000  0  0  12.3186  0.0891887  -0.0348199  0.0356402  nan  nan  nan  nan  nan  nan  -2.49749  -0.286787  1.00496  -0.0702829  -0.0155325  -0.00492757  0.0093088  0.117526  0.0713821  0  0  0  0  0.689374  0.242801  0.0176256  -0.00577007  -0.0243507  -0.0184331  0.00398691  -0.0174152  0.0047506  0.0137996  -0.0373057  -0.222083  -0.0573164  -0.0724455 
1704192236.049332000  0  0  12.4028  0.142798  -0.0916658  0.0287322  nan  nan  nan  nan  nan  nan  -2.49744  -0.286191  1.00532  -0.0697574  -0.0148458  -0.00510885  0.0093088  0.120989  0.0725848  0  0  0  0  0.695879  0.238229  0.0175204  -0.00573758  -0.0244937  -0.0190149  0.00480542  -0.024597  0.00216088  0.014091  -0.0366297  -0.305475  0.053694  0.00714454 
1704192236.054328000  0  0  12.3154  0.119679  -0.0546223  0.0287169  nan  nan  nan  nan  nan  nan  -2.49739  -0.285577  1.00569  -0.0716549  -0.0132398  -0.00532081  0.0093088  0.124484  0.073764  0  0  0  0  0.702134  0.233408  0.0175252  -0.00583201  -0.0245026  -0.021395  0.00390558  -0.017631  0.00306343  0.0121855  -0.0364503  -0.267541  -0.0028618  0.00554182 
1704192236.059328000  0  0  12.3566  0.0701371  -0.0633624  0.0356295  nan  nan  nan  nan  nan  nan  -2.49735  -0.284946  1.00606  -0.0730304  -0.0156732  -0.00524949  0.0093088  0.12801  0.0749184  0  0  0  0  0.708139  0.228336  0.0176176  -0.00593251  -0.0245839  -0.0182136  0.00265824  -0.0212707  0.00416138  0.0145094  -0.0372753  -0.178559  -0.00676149  -0.0726155 
1704192236.064322000  0  0  12.4323  0.112775  -0.11443  0.0293899  nan  nan  nan  nan  nan  nan  -2.4973  -0.284297  1.00644  -0.0727058  -0.014899  -0.00543599  0.0093088  0.131565  0.0760469  0  0  0  0  0.713894  0.223014  0.017513  -0.00590998  -0.0247433  -0.0189356  0.00317316  -0.0277663  0.00215786  0.0148664  -0.0366853  -0.245402  0.0920884  -0.000520438 
1704192236.069328000  0  0  12.3184  0.0751303  -0.0672032  0.0319645  nan  nan  nan  nan  nan  nan  -2.49725  -0.28363  1.00682  -0.074476  -0.0138976  -0.00560928  0.0093088  0.135148  0.0771481  0  0  0  0  0.719398  0.217442  0.0175461  -0.00602342  -0.0247428  -0.0205926  0.00263221  -0.0187004  0.00347592  0.0134757  -0.0368813  -0.182239  0.0104297  -0.030743 
1704192236.073333000  0  0  12.3382  0.0545587  -0.0710529  0.0350054  nan  nan  nan  nan  nan  nan  -2.49721  -0.282945  1.00721  -0.0760299  -0.0139879  -0.00570568  0.0093088  0.138759  0.0782209  0  0  0  0  0.724653  0.211621  0.0174671  -0.0061544  -0.0249165  -0.0202882  0.0012984  -0.0204191  0.0046477  0.0136841  -0.0372936  -0.151876  0.0162122  -0.0646317 
1704192236.079330000  0  0  12.361  0.0759783  -0.0983818  0.0314611  nan  nan  nan  nan  nan  nan  -2.49716  -0.282242  1.0076  -0.0761461  -0.0151809  -0.00573804  0.0093088  0.142395  0.0792639  0  0  0  0  0.729658  0.205549  0.0175165  -0.00611742  -0.0249452  -0.0187337  0.00148602  -0.022833  0.00342565  0.0155321  -0.0370692  -0.183473  0.0538682  -0.0225718 
1704192236.084319000  0  0  12.2971  0.0632434  -0.0891639  0.0317549  nan  nan  nan  nan  nan  nan  -2.49711  -0.281521  1.008  -0.0772704  -0.0144512  -0.00590236  0.0093088  0.146055  0.080276  0  0  0  0  0.734413  0.199227  0.0175929  -0.00626369  -0.0249727  -0.0200301  0.00142672  -0.017978  0.00395982  0.0150171  -0.0370889  -0.162917  0.0401705  -0.0260468 
1704192236.089331000  0  0  12.2851  0.0602619  -0.0790283  0.0322418  nan  nan  nan  nan  nan  nan  -2.49707  -0.280782  1.0084  -0.0785826  -0.0136335  -0.00607277  0.0093088  0.149738  0.0812558  0  0  0  0  0.738918  0.192655  0.0174963  -0.00626448  -0.0250613  -0.0209778  0.000320713  -0.0173248  0.0044915  0.0142964  -0.037165  -0.161846  0.0265301  -0.0313719 
1704192236.094333000  0  0  12.2989  0.0526568  -0.0876338  0.0318301  nan  nan  nan  nan  nan  nan  -2.49702  -0.280024  1.00881  -0.0796809  -0.0161918  -0.00597844  0.0093088  0.153444  0.0822021  0  0  0  0  0.743172  0.185833  0.0176094  -0.00642473  -0.0251222  -0.0177237  -0.000424288  -0.0189058  0.00489217  0.0169708  -0.0371736  -0.150322  0.0191363  -0.0261404 
1704192236.099264000  0  0  12.2868  0.0816721  -0.103157  0.0275184  nan  nan  nan  nan  nan  nan  -2.49697  -0.279247  1.00923  -0.0791765  -0.0140094  -0.0062848  0.0093088  0.15717  0.0831137  0  0  0  0  0.747177  0.178762  0.0174915  -0.00642395  -0.0252246  -0.0204818  0.000891279  -0.0183989  0.00325625  0.0153829  -0.0366103  -0.193302  0.0647899  0.0221235 
1704192236.104319000  0  0  12.2034  0.0566485  -0.0521193  0.0294972  nan  nan  nan  nan  nan  nan  -2.49693  -0.278452  1.00964  -0.0817274  -0.0135697  -0.00640995  0.0093088  0.160915  0.0839893  0  0  0  0  0.750932  0.17144  0.0175632  -0.00656856  -0.0252047  -0.0213995  -0.00102377  -0.0120053  0.00519379  0.0144503  -0.0366042  -0.16108  -0.0287045  -0.002674 
1704192236.109339000  0  0  12.285  0.0360873  -0.0676964  0.034116  nan  nan  nan  nan  nan  nan  -2.49688  -0.277638  1.01006  -0.0820723  -0.016794  -0.00626504  0.0093088  0.164679  0.0848277  0  0  0  0  0.754437  0.163868  0.0176427  -0.0066728  -0.0252803  -0.0170583  -0.00158834  -0.0193151  0.00517837  0.0175052  -0.0371666  -0.119816  -0.0256551  -0.0547837 
1704192236.114429000  0  0  12.252  0.0955535  -0.0802109  0.0265319  nan  nan  nan  nan  nan  nan  -2.49683  -0.276805  1.01049  -0.0812405  -0.0137216  -0.00665423  0.0093088  0.168459  0.0856276  0  0  0  0  0.757692  0.156046  0.0175108  -0.0066426  -0.0253526  -0.0210287  0.0002114  -0.0172354  0.00267059  0.01496  -0.0363259  -0.215676  0.0227899  0.0316099 
1704192236.118293000  0  0  12.1951  0.0671508  -0.043753  0.0283843  nan  nan  nan  nan  nan  nan  -2.49679  -0.275953  1.01092  -0.084167  -0.0136395  -0.00674582  0.0093088  0.172255  0.0863877  0  0  0  0  0.760696  0.147975  0.0176271  -0.0070105  -0.0254248  -0.0215225  -0.00202966  -0.0128818  0.00517992  0.0144041  -0.0363397  -0.181957  -0.0450117  0.00859357 
1704192236.123345000  0  0  12.2631  0.0350634  -0.0428634  0.0364751  nan  nan  nan  nan  nan  nan  -2.49674  -0.275083  1.01135  -0.0844023  -0.0163004  -0.0066425  0.0093088  0.176065  0.0871069  0  0  0  0  0.763451  0.139661  0.0175503  -0.00700999  -0.0255427  -0.0176307  -0.00266231  -0.0190411  0.00518307  0.0164392  -0.0373223  -0.117811  -0.0655141  -0.0827156 
1704192236.129335000  0  0  12.2469  0.13506  -0.101853  0.0272969  nan  nan  nan  nan  nan  nan  -2.4967  -0.274193  1.01179  -0.0827483  -0.0148552  -0.00691449  0.0093088  0.179889  0.0877845  0  0  0  0  0.765956  0.13143  0.0176509  -0.00700366  -0.0255025  -0.0198552  4.58405e-05  -0.0187101  0.000859925  0.0161822  -0.0364048  -0.278031  0.0548305  0.0228374 
1704192236.133461000  0  0  12.1531  0.0991482  -0.0335146  0.0300658  nan  nan  nan  nan  nan  nan  -2.49665  -0.273284  1.01223  -0.0845972  -0.0135099  -0.007126  0.0093088  0.183725  0.0884216  0  0  0  0  0.768211  0.123448  0.0175413  -0.00716253  -0.0255891  -0.0216153  -0.000927897  -0.0113247  0.00221  0.0138112  -0.0365589  -0.218628  -0.060034  -0.0102342 
1704192236.139288000  0  0  12.249  0.110291  -0.0806659  0.0331561  nan  nan  nan  nan  nan  nan  -2.4966  -0.272356  1.01268  -0.0846533  -0.0163975  -0.00700524  0.0093088  0.187571  0.0890194  0  0  0  0  0.770215  0.115717  0.0176782  -0.00719166  -0.0256203  -0.0178523  -0.00161803  -0.0199634  0.0009124  0.0170436  -0.0369738  -0.228976  0.00453033  -0.044713 
1704192236.143286000  0  0  12.2241  0.154311  -0.102695  0.0272097  nan  nan  nan  nan  nan  nan  -2.49656  -0.271408  1.01312  -0.0849871  -0.0161409  -0.00714658  0.0093088  0.191426  0.0895792  0  0  0  0  0.77197  0.108235  0.0177947  -0.00754734  -0.0257072  -0.0185221  -0.000823387  -0.0184034  -0.000472138  0.0173432  -0.0362745  -0.304278  0.0458322  0.022624 
1704192236.148291000  0  0  12.1098  0.130349  -0.0477773  0.0296857  nan  nan  nan  nan  nan  nan  -2.49651  -0.270441  1.01357  -0.0854448  -0.0141112  -0.00743797  0.0093088  0.19529  0.0901022  0  0  0  0  0.773475  0.101004  0.0176747  -0.00754343  -0.0257159  -0.0212125  -0.000156071  -0.00952915  -0.000923798  0.0145785  -0.036345  -0.2522  -0.0385677  -0.00762222 
1704192236.154274000  0  0  12.1636  0.120319  -0.0726569  0.0329494  nan  nan  nan  nan  nan  nan  -2.49646  -0.269455  1.01402  -0.0863634  -0.017006  -0.00729942  0.0093088  0.199161  0.0905897  0  0  0  0  0.77473  0.0940222  0.0178675  -0.00759241  -0.0256754  -0.0176566  -0.00166806  -0.0146717  -0.00120739  0.0175537  -0.0367863  -0.229529  -0.0161802  -0.0440041 
1704192236.158291000  0  0  12.1563  0.13412  -0.0869645  0.029923  nan  nan  nan  nan  nan  nan  -2.49642  -0.26845  1.01448  -0.086872  -0.0174367  -0.00737819  0.0093088  0.203037  0.0910428  0  0  0  0  0.775735  0.0872908  0.017987  -0.00794152  -0.0257456  -0.0173707  -0.00138679  -0.0145206  -0.00180793  0.0182547  -0.036471  -0.251608  0.00598608  -0.00932696 
1704192236.163333000  0  0  12.0982  0.124288  -0.0647232  0.0288529  nan  nan  nan  nan  nan  nan  -2.49637  -0.267425  1.01493  -0.0871488  -0.0147861  -0.00772988  0.0093088  0.206918  0.091463  0  0  0  0  0.776489  0.0808093  0.0178658  -0.00793979  -0.0257715  -0.0208044  -0.00107977  -0.0102318  -0.00244566  0.0154366  -0.0362199  -0.226076  -0.01257  0.00153722 
1704192236.168285000  0  0  12.0907  0.0828622  -0.0553666  0.0330374  nan  nan  nan  nan  nan  nan  -2.49632  -0.26638  1.01539  -0.0894331  -0.0170471  -0.00761822  0.0093088  0.210801  0.0918513  0  0  0  0  0.776994  0.0745778  0.0180096  -0.0081412  -0.0257471  -0.018124  -0.00357695  -0.0100413  -0.000534954  0.0173342  -0.0366799  -0.160803  -0.0487417  -0.0461683 
1704192236.174294000  0  0  12.1635  0.115154  -0.0933376  0.0293372  nan  nan  nan  nan  nan  nan  -2.49628  -0.265317  1.01585  -0.0864178  -0.0169834  -0.00780054  0.0093088  0.214687  0.0922092  0  0  0  0  0.777249  0.0685964  0.0179182  -0.00791867  -0.0257854  -0.0178588  -0.000707441  -0.0168539  -0.00479671  0.0176828  -0.0363632  -0.186178  0.0239937  -0.00308272 
1704192236.178341000  0  0  12.1016  0.110717  -0.0850592  0.0271044  nan  nan  nan  nan  nan  nan  -2.49623  -0.264234  1.01631  -0.0886337  -0.0162979  -0.00794852  0.0093088  0.218574  0.0925377  0  0  0  0  0.777254  0.0628649  0.018048  -0.00835591  -0.0258708  -0.0192228  -0.00210329  -0.0118829  -0.00332298  0.0171476  -0.0359585  -0.190862  0.0123608  0.0207802 
1704192236.184284000  0  0  12.0775  0.0414308  -0.0665487  0.0337975  nan  nan  nan  nan  nan  nan  -2.49618  -0.263131  1.01678  -0.0915471  -0.020759  -0.00761618  0.0093088  0.222459  0.0928382  0  0  0  0  0.777009  0.0573834  0.0185295  -0.00858548  -0.0255335  -0.0143671  -0.00532759  -0.0108265  -8.06713e-05  0.0209399  -0.0366873  -0.0821194  -0.05955  -0.055596 
1704192236.188331000  0  0  12.1788  0.0732278  -0.10692  0.0314243  nan  nan  nan  nan  nan  nan  -2.49614  -0.262009  1.01724  -0.0902936  -0.020673  -0.0077753  0.0093088  0.226343  0.093112  0  0  0  0  0.776513  0.052152  0.0184645  -0.00880048  -0.0257336  -0.0141168  -0.00425891  -0.0194421  -0.00216292  0.0213876  -0.0364985  -0.126557  0.0170732  -0.0278196 
1704192236.194345000  0  0  12.0509  0.0835075  -0.0846874  0.0273788  nan  nan  nan  nan  nan  nan  -2.49609  -0.260868  1.01771  -0.0901775  -0.019233  -0.00803291  0.0093088  0.230224  0.0933602  0  0  0  0  0.775768  0.0471705  0.0185293  -0.00872995  -0.0255654  -0.016494  -0.00305971  -0.0096653  -0.00314652  0.0197938  -0.0359017  -0.138067  -0.0127278  0.0167826 
1704192236.199267000  0  0  12.0375  0.0415945  -0.0617773  0.0311611  nan  nan  nan  nan  nan  nan  -2.49604  -0.259707  1.01818  -0.0910757  -0.0199759  -0.00807266  0.0093088  0.2341  0.0935841  0  0  0  0  0.774773  0.0424391  0.0184547  -0.00877248  -0.0256234  -0.0153829  -0.00416187  -0.00878059  -0.00206865  0.0198894  -0.0362484  -0.0641574  -0.0594278  -0.02703 
1704192236.204334000  0  0  12.172  0.0918  -0.107751  0.0255959  nan  nan  nan  nan  nan  nan  -2.496  -0.258527  1.01864  -0.0892875  -0.0202999  -0.00820477  0.0093088  0.237971  0.093785  0  0  0  0  0.773528  0.0379576  0.0186333  -0.00895676  -0.0256448  -0.0150482  -0.00287459  -0.0205189  -0.00491281  0.0209431  -0.0355448  -0.138402  0.022825  0.0355001 
1704192236.209339000  0  0  12.0012  0.0639274  -0.0762981  0.0252473  nan  nan  nan  nan  nan  nan  -2.49595  -0.257327  1.01911  -0.0927606  -0.0217565  -0.0081232  0.0093088  0.241835  0.0939641  0  0  0  0  0.772033  0.0337261  0.0191135  -0.00947235  -0.0253568  -0.0145875  -0.00485002  -0.00700387  -0.00164174  0.021978  -0.0352227  -0.112751  -0.0496019  0.0366361 
1704192236.214434000  0  0  12.0411  0.0500883  -0.0679426  0.0299982  nan  nan  nan  nan  nan  nan  -2.4959  -0.256108  1.01958  -0.0922524  -0.0220718  -0.0082302  0.0093088  0.245691  0.0941227  0  0  0  0  0.770287  0.0297447  0.0190456  -0.00947458  -0.0254272  -0.0139304  -0.00480643  -0.0105805  -0.00227835  0.0217355  -0.0356041  -0.0792159  -0.0640811  -0.0189365 
1704192236.219330000  0  0  12.059  0.0677271  -0.0910821  0.0272498  nan  nan  nan  nan  nan  nan  -2.49586  -0.25487  1.02006  -0.0935572  -0.0245372  -0.00809488  0.0093088  0.249538  0.094262  0  0  0  0  0.768292  0.0260132  0.0195252  -0.0099975  -0.0252159  -0.0116643  -0.00585217  -0.0127404  -0.00153175  0.0243235  -0.0352524  -0.121362  -0.0416115  0.0119012 
1704192236.224323000  0  0  11.9821  0.0632543  -0.0705425  0.0272493  nan  nan  nan  nan  nan  nan  -2.49581  -0.253613  1.02053  -0.0935594  -0.0232288  -0.00834266  0.0093088  0.253374  0.0943832  0  0  0  0  0.766047  0.0225317  0.0194491  -0.0100263  -0.0252169  -0.0134637  -0.00526451  -0.0066855  -0.00197908  0.0225155  -0.0350557  -0.108301  -0.0660577  0.00994039 
1704192236.229331000  0  0  11.9513  0.0305978  -0.0679306  0.0313992  nan  nan  nan  nan  nan  nan  -2.49576  -0.252336  1.021  -0.0971633  -0.0265846  -0.00805621  0.0093088  0.257198  0.0944877  0  0  0  0  0.763552  0.0193003  0.020191  -0.0108029  -0.0249322  -0.0107649  -0.00833626  -0.0046789  0.00180454  0.0256356  -0.0354939  -0.0777974  -0.0999861  -0.0375511 
1704192236.234332000  0  0  11.9676  0.0415954  -0.089794  0.0299486  nan  nan  nan  nan  nan  nan  -2.49572  -0.251041  1.02147  -0.0981586  -0.0294589  -0.00787156  0.0093088  0.261009  0.0945766  0  0  0  0  0.760807  0.0163188  0.0206054  -0.0112708  -0.0247951  -0.00782314  -0.00917136  -0.00649494  0.00234454  0.0283895  -0.0354073  -0.104761  -0.0815955  -0.020284 
1704192236.239329000  0  0  11.9745  0.0596008  -0.0853397  0.0269835  nan  nan  nan  nan  nan  nan  -2.49567  -0.249726  1.02194  -0.0975823  -0.0277849  -0.0081776  0.0093088  0.264805  0.0946513  0  0  0  0  0.757811  0.0135873  0.0205459  -0.0113191  -0.0248321  -0.00991898  -0.00874256  -0.00730198  0.00100801  0.0264012  -0.0349712  -0.128475  -0.0722121  0.012418 
1704192236.244320000  0  0  11.8695  0.0395046  -0.0374436  0.0301142  nan  nan  nan  nan  nan  nan  -2.49562  -0.248393  1.02242  -0.097728  -0.0270112  -0.00837434  0.0093088  0.268587  0.0947129  0  0  0  0  0.754566  0.0111059  0.0205433  -0.0114032  -0.0247807  -0.0112715  -0.0080097  0.00111194  0.00104578  0.0243587  -0.0351941  -0.0886304  -0.149213  -0.0244862 
1704192236.249333000  0  0  11.9464  0.0628914  -0.0562969  0.0293972  nan  nan  nan  nan  nan  nan  -2.49558  -0.247041  1.02289  -0.0961834  -0.0283906  -0.00840842  0.0093088  0.272351  0.0947628  0  0  0  0  0.751071  0.0088744  0.0205164  -0.0114375  -0.0248442  -0.00914773  -0.00719067  -0.00547823  -0.00124035  0.0252029  -0.0351131  -0.114372  -0.119273  -0.0163335 
1704192236.254333000  0  0  11.9786  0.0814099  -0.0706576  0.0256985  nan  nan  nan  nan  nan  nan  -2.49553  -0.245669  1.02337  -0.0969992  -0.0286089  -0.00848891  0.0093088  0.276097  0.0948021  0  0  0  0  0.747326  0.0068929  0.0208254  -0.0118418  -0.0247375  -0.00946952  -0.0081981  -0.00847428  -0.00117575  0.0252835  -0.0345769  -0.152003  -0.0912927  0.0245373 
1704192236.259278000  0  0  11.8818  0.0611405  -0.0208029  0.0284159  nan  nan  nan  nan  nan  nan  -2.49549  -0.24428  1.02384  -0.0975036  -0.0279345  -0.00866528  0.0093088  0.279824  0.0948321  0  0  0  0  0.74333  0.0051615  0.020977  -0.0120541  -0.0246157  -0.0110217  -0.00784404  -0.000790103  -0.000799472  0.0232153  -0.0347054  -0.114926  -0.171975  -0.00814441 
1704192236.264319000  0  0  11.9623  0.0887181  -0.0495838  0.0280985  nan  nan  nan  nan  nan  nan  -2.49544  -0.242871  1.02431  -0.0957219  -0.0291277  -0.008726  0.0093088  0.28353  0.0948541  0  0  0  0  0.739085  0.00368  0.0209408  -0.0120799  -0.0246759  -0.00910199  -0.00685856  -0.00763626  -0.00350151  0.0239727  -0.0346217  -0.145222  -0.121381  -0.00501424 
1704192236.269330000  0  0  12.0042  0.114323  -0.0463524  0.0246521  nan  nan  nan  nan  nan  nan  -2.49539  -0.241444  1.02479  -0.0946122  -0.0277162  -0.0090175  0.0093088  0.287214  0.0948693  0  0  0  0  0.73459  0.0024485  0.0209665  -0.0121783  -0.0246852  -0.0109229  -0.00617236  -0.0113223  -0.00560016  0.0220296  -0.0339934  -0.177124  -0.109968  0.0317825 
1704192236.273334000  0  0  11.9262  0.100905  -0.00862865  0.0271936  nan  nan  nan  nan  nan  nan  -2.49535  -0.239999  1.02526  -0.0947654  -0.0262247  -0.00928003  0.0093088  0.290875  0.094879  0  0  0  0  0.729845  0.0014671  0.0209045  -0.0124843  -0.0247518  -0.0130213  -0.00545929  -0.00477981  -0.00577238  0.0194849  -0.0340799  -0.148704  -0.162004  0.000879398 
1704192236.279320000  0  0  11.9716  0.123713  -0.0188424  0.0280237  nan  nan  nan  nan  nan  nan  -2.4953  -0.238536  1.02574  -0.0923963  -0.026914  -0.00940385  0.0093088  0.294512  0.0948844  0  0  0  0  0.72485  0.0007356  0.0209082  -0.0122805  -0.0247193  -0.0119673  -0.00390133  -0.00890502  -0.00915705  0.0193177  -0.0340694  -0.163182  -0.140038  -0.00960219 
1704192236.284312000  0  0  12.0158  0.138721  -0.0186736  0.0268987  nan  nan  nan  nan  nan  nan  -2.49525  -0.237054  1.02621  -0.0908856  -0.0263734  -0.0096191  0.0093088  0.298123  0.0948868  0  0  0  0  0.719604  0.0002541  0.0209143  -0.0123505  -0.0248137  -0.0125741  -0.00285773  -0.0125799  -0.0114922  0.0181995  -0.0337823  -0.171713  -0.130089  0.00158896 
1704192236.289322000  0  0  11.9593  0.143006  0.00257319  0.0282729  nan  nan  nan  nan  nan  nan  -2.49521  -0.235554  1.02669  -0.0893329  -0.0244647  -0.00995639  0.0093088  0.301708  0.0948874  0  0  0  0  0.714109  2.27e-05  0.0208397  -0.0123529  -0.024829  -0.0151098  -0.000905722  -0.00804692  -0.0136969  0.0153717  -0.0338146  -0.160001  -0.146566  -0.0152659 
1704192236.294320000  0  0  11.9773  0.140214  0.00246978  0.0289632  nan  nan  nan  nan  nan  nan  -2.49516  -0.234037  1.02716  -0.0884924  -0.0247777  -0.0100743  0.0093088  0.305264  0.0948874  0  0  0  0  0.708364  0  0.0208333  -0.0124215  -0.0248649  -0.0146334  -0.00055697  -0.00955667  -0.0151075  0.0149598  -0.0338374  -0.141438  -0.14257  -0.0236652 
1704192236.298326000  0  0  12.0466  0.140753  -0.010506  0.0287065  nan  nan  nan  nan  nan  nan  -2.49511  -0.232502  1.02764  -0.0877814  -0.0251099  -0.0101879  0.0093088  0.308791  0.0948874  0  0  0  0  0.702369  0  0.0207713  -0.0127285  -0.0250461  -0.0138709  -0.000378457  -0.0149962  -0.01629  0.0149527  -0.03377  -0.131639  -0.116552  -0.0211315 
1704192236.304311000  0  0  12.0198  0.164339  -0.0163021  0.025399  nan  nan  nan  nan  nan  nan  -2.49507  -0.230949  1.02811  -0.0847379  -0.0221527  -0.010641  0.0093088  0.312287  0.0948874  0  0  0  0  0.696124  0  0.0207265  -0.0124607  -0.0249934  -0.0177785  0.0025702  -0.0132481  -0.0201517  0.0117527  -0.033279  -0.143281  -0.0755204  0.0153014 
1704192236.309317000  0  0  11.9969  0.1262  0.0126839  0.0287265  nan  nan  nan  nan  nan  nan  -2.49502  -0.229379  1.02858  -0.0847794  -0.0224933  -0.0107362  0.0093088  0.315752  0.0948874  0  0  0  0  0.689628  0  0.0207145  -0.0125364  -0.0250407  -0.0173651  0.00206945  -0.0112263  -0.0199652  0.0111196  -0.0334894  -0.0687201  -0.127668  -0.0241868 
1704192236.314321000  0  0  12.0726  0.131897  -0.0169337  0.0293528  nan  nan  nan  nan  nan  nan  -2.49497  -0.227792  1.02906  -0.082608  -0.0230003  -0.0108684  0.0093089  0.319183  0.0948874  0  0  0  0.0001052  0.682883  0  0.0206387  -0.0125178  -0.0251595  -0.016301  0.00334452  -0.0174896  -0.0223355  0.0114815  -0.033585  -0.0583071  -0.0717621  -0.0310596 
1704192236.319320000  0  0  12.032  0.145564  -0.0403308  0.0229076  nan  nan  nan  nan  nan  nan  -2.49493  -0.226187  1.02953  -0.0822398  -0.0203884  -0.0112172  0.0093103  0.32258  0.0948874  0  0  0  0.0004596  0.675888  0  0.0207809  -0.0128012  -0.0253883  -0.0201841  0.00398143  -0.0137171  -0.0228811  0.0097078  -0.0327838  -0.0806213  -0.0086502  0.0414928 
1704192236.324315000  0  0  11.9869  0.0758339  0.0101599  0.0297023  nan  nan  nan  nan  nan  nan  -2.49488  -0.224566  1.03001  -0.0825933  -0.0203657  -0.0113369  0.0093139  0.325942  0.0948874  0  0  0  0.001064  0.668643  0  0.0206845  -0.0127973  -0.0254308  -0.0200407  0.00299927  -0.00981627  -0.021456  0.00848003  -0.0333686  0.0457277  -0.098336  -0.0375923 
1704192236.329320000  0  0  12.132  0.0860093  -0.0560583  0.0291554  nan  nan  nan  nan  nan  nan  -2.49483  -0.222928  1.03048  -0.0801292  -0.0221724  -0.0113674  0.0093213  0.329266  0.0948874  0  0  0  0.0019184  0.661148  0  0.0206896  -0.0128398  -0.0255878  -0.0171624  0.00408492  -0.0217738  -0.023675  0.0109353  -0.0334442  0.0457915  0.0115115  -0.0300011 
1704192236.334320000  0  0  12.1143  0.0969793  -0.0503483  0.0245922  nan  nan  nan  nan  nan  nan  -2.49479  -0.221273  1.03096  -0.0785775  -0.0201131  -0.0116891  0.0093335  0.332553  0.0948874  0  0  0  0.0030228  0.653402  0  0.0206474  -0.0128843  -0.0258097  -0.0197401  0.00546344  -0.0200268  -0.0250225  0.00922769  -0.0327905  0.0362479  0.0158018  0.0205031 
1704192236.339318000  0  0  12.0677  0.0267653  -0.0068412  0.0314667  nan  nan  nan  nan  nan  nan  -2.49474  -0.219602  1.03143  -0.0790403  -0.0196983  -0.0118377  0.0093519  0.3358  0.0948874  0  0  0  0.0043771  0.645407  0  0.0205439  -0.0128721  -0.0258616  -0.0200175  0.00422119  -0.0159554  -0.022979  0.00792592  -0.0334498  0.157877  -0.0592361  -0.0588356 
1704192236.344310000  0  0  12.2047  0.0488573  -0.0758196  0.0307571  nan  nan  nan  nan  nan  nan  -2.49469  -0.217915  1.03191  -0.0770779  -0.0218144  -0.0118382  0.0093777  0.339006  0.0948874  0  0  0  0.0059815  0.637162  0  0.020654  -0.0130202  -0.0261409  -0.0168757  0.00491241  -0.026932  -0.0243815  0.0111895  -0.0335451  0.126595  0.0486956  -0.0490125 
