ts fx fy fz tx ty tz exfx exfy exfz extx exty extz xd yd zd rolld pitchd yawd vxd vyd vzd wxd wyd wzd axd ayd azd e_x e_y e_z e_vx e_vy e_vz e_rx e_ry e_rz e_wx e_wy e_wz
1699974878.104311000  0  0  11.9975  0.233997  -0.258212  0.00481807  nan  nan  nan  nan  nan  nan  -1  0  1  0.0418503  -0.0615906  -0.00257746  0  0  0  0  0  0  0  0  0  0.0431384  0.016643  -0.0342926  -0.013503  0.0187369  0.000225311  -0.0531493  0.0541516  -0.00701074  0.02098  0.0182299  0.00988153 
1699974878.109370000  0  0  11.954  0.205983  -0.224326  0.00373143  nan  nan  nan  nan  nan  nan  -1  0  1  0.0411992  -0.0615637  -0.0025362  0  0  0  0  0  0  0  0  0  0.0431741  0.0165536  -0.0342128  -0.0139269  0.0178649  0.00375365  -0.0518448  0.0535759  -0.00684772  0.0650059  -0.0442449  0.0218343 
1699974878.114249000  0  0  11.9473  0.205846  -0.202404  0.0032252  nan  nan  nan  nan  nan  nan  -1  0  1  0.0403771  -0.0618675  -0.00249779  0  0  0  0  0  0  0  0  0  0.0432075  0.0164361  -0.0341287  -0.0136518  0.0170002  0.00419552  -0.0507786  0.0532569  -0.00669357  0.0554699  -0.0851551  0.0266207 
1699974878.119253000  0  0  11.9781  0.207686  -0.201842  0.0030648  nan  nan  nan  nan  nan  nan  -1  0  1  0.0406511  -0.0614484  -0.00249774  0  0  0  0  0  0  0  0  0  0.0431409  0.0165206  -0.0341361  -0.0138524  0.0173151  0.00166729  -0.0508114  0.0524808  -0.00655062  0.052093  -0.07914  0.0271962 
1699974878.124283000  0  0  12.0291  0.194879  -0.230293  0.00384028  nan  nan  nan  nan  nan  nan  -1  0  1  0.0398087  -0.0613668  -0.00244269  0  0  0  0  0  0  0  0  0  0.0431734  0.0163728  -0.0340771  -0.0136918  0.0167475  -0.00268977  -0.0495049  0.0526835  -0.00658514  0.0656876  -0.0241034  0.017848 
1699974878.129291000  0  0  12.0541  0.237314  -0.233264  0.00484072  nan  nan  nan  nan  nan  nan  -1  0  1  0.0404184  -0.0614904  -0.00248513  0  0  0  0  0  0  0  0  0  0.0431118  0.016459  -0.0340961  -0.0132112  0.0174839  -0.00476375  -0.0506382  0.0527537  -0.00661049  -0.00875618  -0.0188056  0.00559591 
1699974878.133321000  0  0  12.0439  0.268154  -0.254786  0.00529224  nan  nan  nan  nan  nan  nan  -1  0  1  0.0399863  -0.0620756  -0.00248189  0  0  0  0  0  0  0  0  0  0.043141  0.0163539  -0.0340466  -0.0125576  0.0170941  -0.00406469  -0.0509267  0.0536946  -0.00663267  -0.0677829  0.0155807  0.000173699 
1699974878.138299000  0  0  12.0546  0.270257  -0.28901  0.00610477  nan  nan  nan  nan  nan  nan  -1  0  1  0.0409213  -0.0616532  -0.00252273  0  0  0  0  0  0  0  0  0  0.0430761  0.016444  -0.0340663  -0.0128958  0.0181989  -0.00498809  -0.0521454  0.0541177  -0.00672227  -0.0607766  0.0801376  -0.0090869 
1699974878.144291000  0  0  12.0221  0.277515  -0.27618  0.00685468  nan  nan  nan  nan  nan  nan  -1  0  1  0.0405375  -0.0623825  -0.00252857  0  0  0  0  0  0  0  0  0  0.0430955  0.0163703  -0.0340103  -0.012183  0.0177016  -0.0024234  -0.052261  0.0549944  -0.0068791  -0.0742291  0.046412  -0.0168925 
1699974878.149288000  0  0  11.9609  0.284994  -0.264859  0.00554052  nan  nan  nan  nan  nan  nan  -1  0  1  0.0403308  -0.0628741  -0.00253546  0  0  0  0  0  0  0  0  0  0.0431179  0.0163072  -0.0339442  -0.0120013  0.0172908  0.00252471  -0.0526093  0.0554289  -0.00678309  -0.0859824  0.0197732  -0.00142563 
1699974878.154297000  0  0  11.9675  0.247647  -0.250534  0.00447912  nan  nan  nan  nan  nan  nan  -1  0  1  0.0411133  -0.0619921  -0.0025485  0  0  0  0  0  0  0  0  0  0.0430502  0.0163974  -0.0339479  -0.0129802  0.0181626  0.00199786  -0.0529186  0.0544366  -0.00664804  -0.00844187  0.000250789  0.0104915 
1699974878.159286000  0  0  11.9462  0.224723  -0.213382  0.0036899  nan  nan  nan  nan  nan  nan  -1  0  1  0.0403905  -0.0622259  -0.00251307  0  0  0  0  0  0  0  0  0  0.0430717  0.0163291  -0.033886  -0.0128735  0.0172534  0.00371241  -0.0518159  0.0539201  -0.00652518  0.0272601  -0.0693014  0.0191281 
1699974878.163300000  0  0  11.931  0.223658  -0.185243  0.00288842  nan  nan  nan  nan  nan  nan  -1  0  1  0.0409684  -0.0617823  -0.00253092  0  0  0  0  0  0  0  0  0  0.0430175  0.0164003  -0.0338664  -0.0134491  0.0177924  0.00497562  -0.05221  0.0526911  -0.00633331  0.0330166  -0.114272  0.0272278 
1699974878.169238000  0  0  11.9836  0.207356  -0.196066  0.00253157  nan  nan  nan  nan  nan  nan  -1  0  1  0.0404947  -0.0614341  -0.00248755  0  0  0  0  0  0  0  0  0  0.0430285  0.0163247  -0.0338343  -0.0135849  0.0175672  0.000576241  -0.0512493  0.0520182  -0.00618014  0.056782  -0.0864354  0.0301568 
1699974878.174300000  0  0  12  0.206401  -0.198784  0.00347603  nan  nan  nan  nan  nan  nan  -1  0  1  0.0395949  -0.0616678  -0.00244146  0  0  0  0  0  0  0  0  0  0.0430633  0.016216  -0.0338056  -0.0132459  0.0166804  -0.000809027  -0.0501706  0.051858  -0.00620794  0.0487676  -0.0795262  0.018629 
1699974878.179310000  0  0  12.0287  0.232144  -0.218293  0.00449973  nan  nan  nan  nan  nan  nan  -1  0  1  0.0402722  -0.0616025  -0.00248064  0  0  0  0  0  0  0  0  0  0.043002  0.0163037  -0.0338236  -0.0129941  0.0175177  -0.00318303  -0.0510746  0.0517979  -0.00623547  0.00559735  -0.0399556  0.00610816 
1699974878.184306000  0  0  12.0486  0.250702  -0.259241  0.00596618  nan  nan  nan  nan  nan  nan  -1  0  1  0.0399895  -0.0618723  -0.00247398  0  0  0  0  0  0  0  0  0  0.0430189  0.0162076  -0.0337866  -0.0125298  0.0174437  -0.00496913  -0.0512073  0.0526969  -0.00641247  -0.0302972  0.0336713  -0.0104525 
1699974878.188307000  0  0  12.0551  0.25746  -0.275237  0.0070418  nan  nan  nan  nan  nan  nan  -1  0  1  0.0405151  -0.0615148  -0.00249207  0  0  0  0  0  0  0  0  0  0.042967  0.016278  -0.0338018  -0.0128434  0.0180236  -0.00552766  -0.051931  0.0528212  -0.00658647  -0.0371542  0.0645184  -0.0221578 
1699974878.193280000  0  0  12.0416  0.265497  -0.277722  0.00749627  nan  nan  nan  nan  nan  nan  -1  0  1  0.0400522  -0.0623164  -0.00249562  0  0  0  0  0  0  0  0  0  0.0429809  0.0162164  -0.0337754  -0.0118901  0.017479  -0.00447605  -0.0518667  0.0539239  -0.0067547  -0.0538206  0.0593447  -0.0261564 
1699974878.199287000  0  0  12.014  0.25084  -0.281563  0.00666818  nan  nan  nan  nan  nan  nan  -1  -0  1  0.0399669  -0.0625009  -0.00249767  6e-07  -6e-07  6e-07  0  0  0  0  0  0  0.0429849  0.0161785  -0.0337494  -0.0118412  0.0173277  -0.00225911  -0.0518489  0.0545027  -0.00680967  -0.0246698  0.0617002  -0.0152556 
1699974878.204309000  0  0  11.9974  0.221811  -0.256736  0.00535375  nan  nan  nan  nan  nan  nan  -1  -0  1  0.0405284  -0.0616407  -0.00249798  5e-06  -5e-06  5e-06  0  0  0  0  0  0  0.0429171  0.0162658  -0.0337514  -0.012958  0.0178097  -0.000841694  -0.0518319  0.0535161  -0.00671413  0.0332327  0.0211234  0.000219364 
1699974878.209243000  0  0  11.9548  0.209012  -0.21574  0.00379329  nan  nan  nan  nan  nan  nan  -1  -1e-07  1  0.0396039  -0.062246  -0.00246488  1.69e-05  -1.69e-05  1.69e-05  0  0  0  0  0  0  0.0429539  0.0161719  -0.0336918  -0.0125357  0.0165933  0.00265305  -0.0505874  0.0533412  -0.00652771  0.0473793  -0.0592595  0.0178609 
1699974878.214281000  0  0  11.9331  0.1838  -0.201562  0.00247583  nan  nan  nan  nan  nan  nan  -1  -2e-07  1  0.0387833  -0.0624718  -0.0024224  4e-05  -4e-05  4e-05  0  0  0  0  0  0  0.0429921  0.0160463  -0.0336244  -0.0124819  0.0156849  0.00439788  -0.0490737  0.052975  -0.00630824  0.0838782  -0.0842465  0.0321345 
1699974878.219312000  0  0  11.9861  0.17387  -0.198214  0.00265337  nan  nan  nan  nan  nan  nan  -1  -5e-07  1  0.0393661  -0.0614194  -0.00241736  7.81e-05  -7.81e-05  7.81e-05  0  0  0  0  0  0  0.0429251  0.0161298  -0.0336506  -0.0133719  0.0165047  6.99485e-05  -0.048962  0.0516015  -0.00619091  0.10271  -0.0783052  0.028742 
1699974878.224304000  0  0  11.9762  0.195092  -0.186221  0.00399428  nan  nan  nan  nan  nan  nan  -0.999999  -1e-06  1  0.039022  -0.0618369  -0.00241228  0.000135  -0.000135  0.000135  0  0  0  0  0  0  0.0429207  0.0160831  -0.03361  -0.0128773  0.0161041  0.000854065  -0.048623  0.0513801  -0.00621189  0.0571467  -0.100255  0.0121904 
1699974878.229300000  0  0  12.011  0.222865  -0.211075  0.00555282  nan  nan  nan  nan  nan  nan  -0.999998  -1.9e-06  1  0.0399519  -0.0613875  -0.00245171  0.0002141  -0.0002144  0.0002134  0  0  0  0  0  0  0.0428569  0.0161705  -0.0336276  -0.0130904  0.0173039  -0.00203668  -0.0498153  0.0509989  -0.00633695  0.012571  -0.0470391  -0.0060407 
1699974878.233291000  0  0  12.0715  0.230204  -0.248541  0.00662382  nan  nan  nan  nan  nan  nan  -0.999997  -3.2e-06  1  0.0396794  -0.061099  -0.00242333  0.0003149  -0.00032  0.0003113  0  0  0  0  0  0  0.042879  0.0160795  -0.0336366  -0.0131128  0.0174122  -0.00710318  -0.0496615  0.0513369  -0.00651285  -0.00352245  0.0247826  -0.0176693 
1699974878.239230000  0  0  12.0525  0.26709  -0.253511  0.00747954  nan  nan  nan  nan  nan  nan  -0.999995  -5.1e-06  1.00001  0.0405451  -0.0611396  -0.00247772  0.0004338  -0.0004556  0.0004249  0  0  0  0  0  0  0.0428054  0.0161827  -0.0336539  -0.0130133  0.0182613  -0.00554508  -0.0512819  0.0516238  -0.00669463  -0.0623862  0.0320824  -0.0265479 
1699974878.244299000  0  0  12.0451  0.289868  -0.274595  0.00732079  nan  nan  nan  nan  nan  nan  -0.999992  -7.8e-06  1.00001  0.0404892  -0.0611993  -0.00247652  0.0005669  -0.000625  0.0005504  0  0  0  0  0  0  0.0428256  0.0161095  -0.0336391  -0.0130235  0.0183191  -0.0050231  -0.0520206  0.0522727  -0.00680383  -0.101147  0.0682806  -0.0234716 
1699974878.249289000  0  0  12.0645  0.262758  -0.277435  0.00716311  nan  nan  nan  nan  nan  nan  -0.999989  -1.14e-05  1.00001  0.0401942  -0.0612242  -0.00245924  0.0007105  -0.0008319  0.0006841  0  0  0  0  0  0  0.0428489  0.016036  -0.0336439  -0.0129098  0.018175  -0.00664721  -0.0516851  0.0527334  -0.0069135  -0.0500139  0.0697231  -0.0204039 
1699974878.253288000  0  0  12.0105  0.256424  -0.243472  0.00617806  nan  nan  nan  nan  nan  nan  -0.999985  -1.62e-05  1.00001  0.0409763  -0.0606943  -0.00248529  0.000861  -0.00108  0.0008222  0  0  0  0  0  0  0.0427908  0.0161094  -0.0336242  -0.0138559  0.0188159  -0.00217946  -0.0524356  0.0518111  -0.00684134  -0.0304411  0.0102817  -0.0088123 
1699974878.259233000  0  0  11.9428  0.249115  -0.207499  0.00466646  nan  nan  nan  nan  nan  nan  -0.999981  -2.23e-05  1.00002  0.0408198  -0.0609479  -0.00248602  0.0010145  -0.0013731  0.000961  0  0  0  0  0  0  0.0427942  0.0160666  -0.0335611  -0.0139872  0.0183925  0.00337288  -0.0523015  0.0512976  -0.00668305  -0.0170565  -0.056939  0.00849971 
1699974878.264289000  0  0  12.0067  0.201277  -0.184095  0.00414231  nan  nan  nan  nan  nan  nan  -0.999975  -3e-05  1.00002  0.0414257  -0.0596103  -0.00246755  0.0011672  -0.001715  0.0010968  0  0  0  0  0  0  0.0427165  0.0161622  -0.0335988  -0.0151754  0.0192788  -0.00181337  -0.0519212  0.0493326  -0.00659406  0.0751201  -0.0856694  0.0141617 
1699974878.269281000  0  0  12.0166  0.194708  -0.170259  0.00393449  nan  nan  nan  nan  nan  nan  -0.999969  -3.96e-05  1.00003  0.0409227  -0.0592598  -0.0024233  0.0013155  -0.0021094  0.0012257  0  0  0  0  0  0  0.0427295  0.0160826  -0.0335672  -0.0156167  0.0188275  -0.00264554  -0.0509991  0.0483241  -0.00653443  0.0797749  -0.104064  0.0161631 
1699974878.274289000  0  0  12.0318  0.211323  -0.158552  0.00506647  nan  nan  nan  nan  nan  nan  -0.999962  -5.12e-05  1.00004  0.0410288  -0.0594859  -0.00243916  0.0014556  -0.0025587  0.0013441  0  0  0  0  0  0  0.0427127  0.0160564  -0.0335496  -0.0151775  0.019094  -0.00391278  -0.0510749  0.0477715  -0.00658332  0.0472423  -0.122394  0.00250228 
1699974878.279232000  0  0  12.0959  0.228888  -0.184897  0.00585391  nan  nan  nan  nan  nan  nan  -0.999954  -6.52e-05  1.00004  0.0421919  -0.0586283  -0.00247278  0.0015837  -0.0030604  0.0014482  0  0  0  0  0  0  0.0426355  0.0161592  -0.0336022  -0.0157295  0.0207248  -0.00917417  -0.0523019  0.0470023  -0.00666093  0.0234008  -0.0626272  -0.00656458 
1699974878.284290000  0  0  12.1345  0.252534  -0.234469  0.00668432  nan  nan  nan  nan  nan  nan  -0.999946  -8.19e-05  1.00005  0.0422309  -0.0584004  -0.00246636  0.0016961  -0.0036108  0.0015342  0  0  0  0  0  0  0.0426109  0.016131  -0.0336198  -0.015727  0.0210244  -0.0124072  -0.0527085  0.0475559  -0.00681464  -0.0201501  0.0314231  -0.0154076 
1699974878.288291000  0  0  12.1069  0.284426  -0.242297  0.00637789  nan  nan  nan  nan  nan  nan  -0.999938  -0.0001014  1.00006  0.0430565  -0.0590174  -0.00254247  0.001789  -0.0042061  0.0015988  0  0  0  0  0  0  0.0425559  0.0162184  -0.0336401  -0.0149401  0.0218123  -0.0101194  -0.0541795  0.0483893  -0.00678594  -0.0704005  0.0394126  -0.0118642 
1699974878.294291000  0  0  12.1302  0.292633  -0.293793  0.00543975  nan  nan  nan  nan  nan  nan  -0.999928  -0.000124  1.00007  0.0437644  -0.0589984  -0.00258528  0.0018593  -0.0048425  0.0016434  0  0  0  0  0  0  0.0425497  0.016185  -0.0336695  -0.0147859  0.022958  -0.0121011  -0.0553994  0.0497062  -0.00670964  -0.075592  0.13029  -0.000900477 
1699974878.299231000  0  0  12.1266  0.284152  -0.302614  0.00501444  nan  nan  nan  nan  nan  nan  -0.999919  -0.0001499  1.00007  0.043583  -0.0591948  -0.00258551  0.0019086  -0.0055164  0.0016716  0  0  0  0  0  0  0.0425589  0.0161434  -0.0336634  -0.0145609  0.0227905  -0.0118637  -0.0553985  0.0506967  -0.00666959  -0.0586373  0.138818  0.00401541 
1699974878.304289000  0  0  12.009  0.263755  -0.244548  0.00522192  nan  nan  nan  nan  nan  nan  -0.999909  -0.0001792  1.00008  0.0449797  -0.0595044  -0.00268541  0.0019405  -0.0062239  0.0016872  0  0  0  0  0  0  0.0424842  0.0162589  -0.033635  -0.0147488  0.0238254  -0.0020822  -0.0564985  0.0503749  -0.00661585  -0.00772288  0.0256466  0.000884488 
1699974878.309280000  0  0  12.0372  0.236187  -0.247829  0.00420508  nan  nan  nan  nan  nan  nan  -0.9999  -0.0002122  1.00009  0.0446582  -0.0593223  -0.00266213  0.0019589  -0.0069612  0.0016939  0  0  0  0  0  0  0.0425192  0.0161823  -0.033614  -0.0148881  0.0237055  -0.0044559  -0.0556646  0.05043  -0.00652306  0.0397399  0.0317018  0.0126671 
1699974878.313280000  0  0  12.0569  0.210158  -0.228696  0.00415703  nan  nan  nan  nan  nan  nan  -0.99989  -0.0002489  1.0001  0.0454692  -0.0587091  -0.00268756  0.0019674  -0.0077248  0.0016954  0  0  0  0  0  0  0.042455  0.0162852  -0.0336528  -0.0154381  0.0246607  -0.00597814  -0.0557234  0.04962  -0.00646235  0.092339  0.000887093  0.0126606 
1699974878.319230000  0  0  11.994  0.197698  -0.189451  0.00490655  nan  nan  nan  nan  nan  nan  -0.99988  -0.0002895  1.00011  0.0453078  -0.0590676  -0.00270049  0.0019699  -0.0085107  0.0016955  0  0  0  0  0  0  0.0424662  0.0162464  -0.0335842  -0.0154022  0.0242072  -0.000789152  -0.054767  0.0490521  -0.00647573  0.108461  -0.0723776  0.00342549 
1699974878.324288000  0  0  12.0728  0.194709  -0.207557  0.00528143  nan  nan  nan  nan  nan  nan  -0.99987  -0.000334  1.00012  0.0456385  -0.0589353  -0.00272153  0.0019701  -0.0093153  0.0016955  0  0  0  0  0  0  0.0424697  0.0162264  -0.033598  -0.0150687  0.0250897  -0.00729924  -0.054497  0.0489269  -0.00651102  0.111954  -0.035014  -0.000907688 
1699974878.329292000  0  0  12.1353  0.211744  -0.228666  0.00559799  nan  nan  nan  nan  nan  nan  -0.99986  -0.0003826  1.00013  0.0466304  -0.0581806  -0.00275391  0.0019701  -0.0101348  0.0016955  0  0  0  0  0  0  0.0423927  0.0163554  -0.0336707  -0.0155016  0.0264604  -0.012368  -0.0552167  0.0485398  -0.00656089  0.084507  0.010765  -0.00436595 
1699974878.334287000  0  0  12.0925  0.24677  -0.247179  0.00558218  nan  nan  nan  nan  nan  nan  -0.99985  -0.0004354  1.00013  0.0470708  -0.0588676  -0.00282249  0.0019701  -0.0109655  0.0016955  0  0  0  0  0  0  0.0423905  0.0163385  -0.0336212  -0.0148389  0.0268675  -0.00894499  -0.0559483  0.0496068  -0.0065491  0.021184  0.0379755  -0.0042863 
1699974878.338290000  0  0  12.1139  0.275023  -0.266404  0.00547131  nan  nan  nan  nan  nan  nan  -0.999841  -0.0004923  1.00014  0.0481417  -0.0591158  -0.00290997  0.0019701  -0.0118035  0.0016955  0  0  0  0  0  0  0.042336  0.01646  -0.0336707  -0.0142282  0.0281529  -0.0106794  -0.0574192  0.0503365  -0.0065032  -0.0217881  0.0697121  -0.0033594 
1699974878.344279000  0  0  12.1332  0.292192  -0.314895  0.00500797  nan  nan  nan  nan  nan  nan  -0.999831  -0.0005534  1.00015  0.0491281  -0.0588499  -0.00296984  0.0019701  -0.0126452  0.0016955  0  0  0  0  0  0  0.0423153  0.0164834  -0.0336891  -0.0143984  0.0295414  -0.012356  -0.0587954  0.0515167  -0.00645654  -0.0434664  0.155836  0.00196572 
1699974878.349279000  0  0  12.0489  0.296173  -0.295271  0.00535504  nan  nan  nan  nan  nan  nan  -0.999821  -0.0006188  1.00016  0.049219  -0.0596901  -0.0030333  0.0019701  -0.0134869  0.0016955  0  0  0  0  0  0  0.0423436  0.0164506  -0.033627  -0.0138794  0.0292732  -0.0054826  -0.0591772  0.0526334  -0.00648325  -0.0479158  0.106314  -0.00210546 
1699974878.354298000  0  0  11.9895  0.289317  -0.26268  0.00531354  nan  nan  nan  nan  nan  nan  -0.999811  -0.0006883  1.00017  0.0507007  -0.0596778  -0.0031405  0.0019701  -0.0143246  0.0016955  0  0  0  0  0  0  0.0422727  0.0166  -0.0336227  -0.0141203  0.030591  -0.000542177  -0.0606149  0.0523706  -0.00642468  -0.0209772  0.0435498  -0.00217245 
1699974878.359299000  0  0  12.0329  0.246944  -0.264982  0.00546149  nan  nan  nan  nan  nan  nan  -0.999801  -0.000762  1.00018  0.0507017  -0.0594125  -0.00314892  0.0019701  -0.0151548  0.0016955  0  0  0  0  0  0  0.0422906  0.0165949  -0.0336033  -0.0142287  0.0308451  -0.00416977  -0.0598385  0.0524033  -0.00648711  0.0566249  0.047854  -0.00339753 
1699974878.364307000  0  0  11.9882  0.220131  -0.230058  0.00537856  nan  nan  nan  nan  nan  nan  -0.999791  -0.0008398  1.00018  0.0507211  -0.0593405  -0.00317122  0.0019701  -0.0159736  0.0016955  0  0  0  0  0  0  0.042287  0.0166074  -0.0335136  -0.0146176  0.0305851  -0.000559996  -0.0589943  0.0518919  -0.00648057  0.102486  -0.0172894  -0.00242623 
1699974878.369287000  0  0  11.9573  0.214099  -0.188392  0.00495825  nan  nan  nan  nan  nan  nan  -0.999781  -0.0009217  1.00019  0.0517679  -0.0592703  -0.00325783  0.0019701  -0.0167773  0.0016955  0  0  0  0  0  0  0.0422164  0.016761  -0.0335027  -0.0147549  0.0314542  0.00207454  -0.0593359  0.0508158  -0.00637058  0.117693  -0.0907219  0.0017277 
1699974878.374321000  0  0  12.0274  0.20598  -0.222538  0.00361459  nan  nan  nan  nan  nan  nan  -0.999772  -0.0010076  1.0002  0.0517597  -0.0590317  -0.00327631  0.0019701  -0.0175622  0.0016955  0  0  0  0  0  0  0.0422214  0.0167652  -0.0334796  -0.0146233  0.0318337  -0.00379047  -0.0586047  0.0508946  -0.00620319  0.127203  -0.0231545  0.0168495 
1699974878.379283000  0  0  12.0581  0.210864  -0.232531  0.00382163  nan  nan  nan  nan  nan  nan  -0.999762  -0.0010973  1.00021  0.052399  -0.0588308  -0.00333861  0.0019701  -0.0183245  0.0016955  0  0  0  0  0  0  0.042152  0.0169227  -0.033515  -0.0145316  0.0325137  -0.00625071  -0.0586791  0.0508636  -0.00612212  0.118119  -0.00288338  0.0134509 
1699974878.384312000  0  0  12.03  0.244048  -0.234429  0.00482514  nan  nan  nan  nan  nan  nan  -0.999752  -0.0011908  1.00022  0.0527274  -0.0594862  -0.0034314  0.0019701  -0.0190604  0.0016955  0  0  0  0  0  0  0.0421719  0.0169168  -0.0334429  -0.0138728  0.032797  -0.00406413  -0.0591007  0.0514404  -0.00613527  0.0556306  -0.00439288  0.00103841 
1699974878.388308000  0  0  12.0772  0.268795  -0.275808  0.00570555  nan  nan  nan  nan  nan  nan  -0.999742  -0.0012879  1.00023  0.0538872  -0.0593122  -0.00353418  0.0019701  -0.0197662  0.0016955  0  0  0  0  0  0  0.0421167  0.0170735  -0.0334929  -0.0136539  0.0342842  -0.0079497  -0.0604596  0.0520925  -0.00618763  0.0186383  0.0723657  -0.00944307 
1699974878.394304000  0  0  12.0552  0.276266  -0.306175  0.00763198  nan  nan  nan  nan  nan  nan  -0.999732  -0.0013884  1.00024  0.0542667  -0.0597362  -0.00362694  0.0019701  -0.0204382  0.0016955  0  0  0  0  0  0  0.0421008  0.0171123  -0.0334426  -0.0131807  0.034574  -0.00628248  -0.0608577  0.0535857  -0.00646421  0.00735931  0.119361  -0.0307576 
1699974878.399244000  0  0  12.001  0.281671  -0.301273  0.00793462  nan  nan  nan  nan  nan  nan  -0.999722  -0.0014922  1.00024  0.0541804  -0.0606677  -0.00372389  0.0019701  -0.0210726  0.0016955  0  0  0  0  0  0  0.0421574  0.0170683  -0.0333338  -0.0124133  0.0342226  -0.00200936  -0.0608557  0.0548617  -0.00661115  -0.0034685  0.0978182  -0.0330712 
1699974878.404305000  0  0  12.0122  0.279233  -0.28952  0.00690751  nan  nan  nan  nan  nan  nan  -0.999712  -0.001599  1.00025  0.0551073  -0.0603139  -0.00381718  0.0019701  -0.0216656  0.0016955  0  0  0  0  0  0  0.0420926  0.0172413  -0.0333591  -0.0126545  0.0351426  -0.00290591  -0.0616969  0.0547465  -0.00655883  0.00914561  0.0753718  -0.0207555 
1699974878.409289000  0  0  11.9437  0.235342  -0.272646  0.00584238  nan  nan  nan  nan  nan  nan  -0.999703  -0.0017087  1.00026  0.0551691  -0.0604598  -0.00389005  0.0019701  -0.0222136  0.0016955  0  0  0  0  0  0  0.0421309  0.017244  -0.0332668  -0.0130061  0.0347894  0.00267331  -0.0607655  0.0548906  -0.00649504  0.0883594  0.0402995  -0.0080793 
1699974878.413291000  0  0  11.9163  0.22616  -0.239698  0.00447609  nan  nan  nan  nan  nan  nan  -0.999693  -0.0018211  1.00027  0.0555083  -0.0605172  -0.00398  0.0019701  -0.0227126  0.0016955  0  0  0  0  0  0  0.042079  0.0174003  -0.0332501  -0.0129959  0.0347141  0.00498079  -0.0605532  0.0544362  -0.00627233  0.104768  -0.0214179  0.00677222 
1699974878.419246000  0  0  11.9528  0.203712  -0.208375  0.00317308  nan  nan  nan  nan  nan  nan  -0.999683  -0.0019358  1.00028  0.0549946  -0.0601696  -0.00400113  0.0019701  -0.0231591  0.0016955  0  0  0  0  0  0  0.0420836  0.0174333  -0.0331908  -0.0132327  0.0341709  0.00192306  -0.0589837  0.0532876  -0.00602485  0.135226  -0.0734949  0.020585 
1699974878.423295000  0  0  11.97  0.18565  -0.213899  0.00283223  nan  nan  nan  nan  nan  nan  -0.999673  -0.0020526  1.00029  0.0557228  -0.0595319  -0.00408615  0.0019701  -0.0235507  0.0016955  0  0  0  0  0  0  0.0420251  0.0175974  -0.0331999  -0.0138319  0.0348742  0.000559495  -0.0587512  0.0525626  -0.005855  0.169211  -0.0557773  0.0231472 
1699974878.429293000  0  0  11.9813  0.204201  -0.200893  0.00490043  nan  nan  nan  nan  nan  nan  -0.999663  -0.0021712  1.0003  0.0554305  -0.0597321  -0.00416179  0.0019701  -0.0238899  0.0016955  0  0  0  0  0  0  0.0420154  0.0176306  -0.0331362  -0.0134693  0.0344681  -0.000448284  -0.0579564  0.0521552  -0.0059211  0.124797  -0.0780427  -0.00204435 
1699974878.434306000  0  0  12.032  0.228689  -0.223919  0.00658295  nan  nan  nan  nan  nan  nan  -0.999653  -0.0022914  1.0003  0.0548826  -0.0600646  -0.00423482  0.0019701  -0.0241806  0.0016955  0  0  0  0  0  0  0.042029  0.0176257  -0.0330925  -0.0127132  0.0340486  -0.00476318  -0.0573763  0.0525458  -0.00608281  0.0704834  -0.0355824  -0.0214588 
1699974878.438309000  0  0  12.0679  0.249361  -0.263675  0.00744602  nan  nan  nan  nan  nan  nan  -0.999643  -0.0024129  1.00031  0.0557453  -0.059611  -0.0043548  0.0019701  -0.0244265  0.0016955  0  0  0  0  0  0  0.0419746  0.017792  -0.0331285  -0.0129437  0.0350541  -0.00772961  -0.0583322  0.0528119  -0.00618342  0.0379335  0.0414808  -0.0312411 
1699974878.444307000  0  0  12.0126  0.266082  -0.266102  0.00681746  nan  nan  nan  nan  nan  nan  -0.999634  -0.0025356  1.00032  0.0552859  -0.060484  -0.00447457  0.0019701  -0.0246313  0.0016955  0  0  0  0  0  0  0.0419826  0.0177822  -0.0330521  -0.0121531  0.0341082  -0.00329658  -0.0580313  0.0539084  -0.00619254  0.00172435  0.0362476  -0.0232928 
1699974878.448309000  0  0  12.0117  0.286242  -0.264898  0.00541009  nan  nan  nan  nan  nan  nan  -0.999624  -0.0026592  1.00033  0.0558858  -0.0606288  -0.00462393  0.0019701  -0.0247989  0.0016955  0  0  0  0  0  0  0.0419342  0.0179445  -0.0330678  -0.0118411  0.0345357  -0.00321163  -0.058971  0.0541388  -0.00597563  -0.0299513  0.0317188  -0.00786985 
1699974878.454304000  0  0  12.0467  0.26784  -0.292809  0.0037392  nan  nan  nan  nan  nan  nan  -0.999614  -0.0027835  1.00034  0.0554038  -0.0600973  -0.00467601  0.0019701  -0.0249328  0.0016955  0  0  0  0  0  0  0.0419488  0.017936  -0.0330471  -0.0123466  0.034123  -0.00620918  -0.0583217  0.054536  -0.00574816  0.000879757  0.0838872  0.0107417 
1699974878.459243000  0  0  11.946  0.236425  -0.253131  0.00392728  nan  nan  nan  nan  nan  nan  -0.999604  -0.0029085  1.00035  0.0543849  -0.0608706  -0.00477355  0.0019701  -0.025037  0.0016955  0  0  0  0  0  0  0.0419879  0.0178552  -0.0329205  -0.0120845  0.0323109  0.00198701  -0.056665  0.0548217  -0.00564726  0.0484688  0.00190264  0.00738152 
1699974878.463291000  0  0  11.9356  0.225402  -0.218572  0.00345515  nan  nan  nan  nan  nan  nan  -0.999594  -0.0030339  1.00035  0.0546924  -0.0604569  -0.00489261  0.0019701  -0.0251151  0.0016955  0  0  0  0  0  0  0.0419346  0.0180089  -0.0329081  -0.0125813  0.0323034  0.0028862  -0.0565256  0.0537448  -0.00545226  0.0692322  -0.0573093  0.0113332 
1699974878.469287000  0  0  11.996  0.180252  -0.211819  0.0036025  nan  nan  nan  nan  nan  nan  -0.999584  -0.0031596  1.00036  0.0533897  -0.0601748  -0.00492772  0.0019701  -0.0251709  0.0016955  0  0  0  0  0  0  0.0419671  0.017949  -0.0328859  -0.0126355  0.0310503  -0.00211221  -0.0539736  0.0531185  -0.0053703  0.136052  -0.0650531  0.00867165 
1699974878.474309000  0  0  11.9415  0.157967  -0.186236  0.00442989  nan  nan  nan  nan  nan  nan  -0.999575  -0.0032855  1.00037  0.0522707  -0.0602247  -0.00499804  0.0019701  -0.0252082  0.0016955  0  0  0  0  0  0  0.0419899  0.0178923  -0.0328084  -0.0129965  0.0293504  0.00236652  -0.0518163  0.0523534  -0.0053611  0.160776  -0.10918  -0.00176259 
1699974878.479246000  0  0  11.9704  0.168718  -0.176719  0.00471654  nan  nan  nan  nan  nan  nan  -0.999565  -0.0034116  1.00038  0.0525238  -0.0600678  -0.00514648  0.0019701  -0.0252306  0.0016955  0  0  0  0  0  0  0.0419306  0.0180407  -0.032824  -0.0128725  0.0295103  5.07324e-05  -0.0515479  0.0515159  -0.00527177  0.136805  -0.120509  -0.00623904 
1699974878.484310000  0  0  12.0395  0.193379  -0.221034  0.00481878  nan  nan  nan  nan  nan  nan  -0.999555  -0.0035378  1.00039  0.05179  -0.0596991  -0.00523094  0.0019701  -0.025242  0.0016955  0  0  0  0  0  0  0.0419148  0.0180238  -0.032826  -0.0128665  0.0289592  -0.00571528  -0.0507416  0.0515505  -0.00520292  0.080066  -0.0321964  -0.00820552 
1699974878.489287000  0  0  12.0093  0.206157  -0.243904  0.0044686  nan  nan  nan  nan  nan  nan  -0.999545  -0.003664  1.0004  0.0512782  -0.0600127  -0.00537029  0.0019701  -0.0252461  0.0016955  0  0  0  0  0  0  0.0419121  0.0179887  -0.0327734  -0.0126346  0.0281678  -0.0033294  -0.0501418  0.0522555  -0.00506224  0.0489894  0.00705686  -0.005235 
1699974878.494303000  0  0  12.0177  0.245573  -0.251134  0.00413144  nan  nan  nan  nan  nan  nan  -0.999535  -0.0037903  1.00041  0.0514424  -0.0602422  -0.00555216  0.0019701  -0.0252466  0.0016955  0  0  0  0  0  0  0.0418548  0.0181275  -0.0327933  -0.0121274  0.0281141  -0.00402063  -0.0508772  0.0526551  -0.00488242  -0.0230759  0.0178407  -0.00281879 
1699974878.499243000  0  0  12.0476  0.265616  -0.278213  0.0038631  nan  nan  nan  nan  nan  nan  -0.999525  -0.0039165  1.00041  0.0513143  -0.0603579  -0.00571675  0.0019701  -0.0252462  0.0016955  0  0  0  0  0  0  0.0418532  0.0181253  -0.0327956  -0.011752  0.0281073  -0.00656635  -0.0512821  0.0534744  -0.0046917  -0.0594363  0.0644614  -0.00137166 
1699974878.504308000  0  0  11.9907  0.258792  -0.27906  0.00445921  nan  nan  nan  nan  nan  nan  -0.999515  -0.0040427  1.00042  0.0516461  -0.0601122  -0.00589684  0.0019701  -0.0252424  0.0016955  0  0  0  0  0  0  0.041789  0.018262  -0.0327814  -0.0123043  0.0279127  -0.0018857  -0.0517088  0.0536209  -0.00461727  -0.0418631  0.064808  -0.00956744 
1699974878.509278000  0  0  11.9487  0.241033  -0.241495  0.00499343  nan  nan  nan  nan  nan  nan  -0.999506  -0.0041689  1.00043  0.0506271  -0.0607615  -0.00604721  0.0019701  -0.0252316  0.0016955  0  0  0  0  0  0  0.0418591  0.0182037  -0.0327142  -0.0118784  0.0264268  0.00151131  -0.050583  0.0537244  -0.00461039  -0.0167012  -0.0112751  -0.016314 
1699974878.513279000  0  0  11.9331  0.225872  -0.229057  0.00461156  nan  nan  nan  nan  nan  nan  -0.999496  -0.004295  1.00044  0.0511478  -0.0603111  -0.00624109  0.0019701  -0.02521  0.0016955  0  0  0  0  0  0  0.0418061  0.018337  -0.0327087  -0.0124507  0.0267207  0.00282662  -0.0507953  0.0530099  -0.00445422  0.0155724  -0.0295762  -0.0131023 
1699974878.519243000  0  0  11.9231  0.197596  -0.213986  0.00330398  nan  nan  nan  nan  nan  nan  -0.999486  -0.004421  1.00045  0.0500196  -0.059939  -0.00634572  0.0019701  -0.0251737  0.0016955  0  0  0  0  0  0  0.0417932  0.0183003  -0.0326695  -0.0129897  0.025236  0.0036175  -0.0491053  0.0522682  -0.00421004  0.056578  -0.0528945  0.000800565 
1699974878.524302000  0  0  11.9198  0.161285  -0.169159  0.00259419  nan  nan  nan  nan  nan  nan  -0.999476  -0.0045467  1.00046  0.0490922  -0.0599558  -0.00648856  0.0019701  -0.0251192  0.0016955  0  0  0  0  0  0  0.0418009  0.0182831  -0.0326002  -0.0130139  0.0240045  0.00385593  -0.0471824  0.0511224  -0.00398451  0.111507  -0.132007  0.00741769 
1699974878.529294000  0  0  11.9613  0.179525  -0.180632  0.00123863  nan  nan  nan  nan  nan  nan  -0.999466  -0.0046722  1.00046  0.0493084  -0.0593572  -0.00667595  0.0019701  -0.0250426  0.0016955  0  0  0  0  0  0  0.0417361  0.0184062  -0.0326049  -0.0133769  0.0242311  0.000426609  -0.0472368  0.0502095  -0.00359312  0.0755284  -0.100662  0.0204484 
1699974878.534302000  0  0  11.9882  0.186686  -0.208791  0.000641954  nan  nan  nan  nan  nan  nan  -0.999456  -0.0047971  1.00047  0.0487823  -0.0593104  -0.00685249  0.0019701  -0.0249402  0.0016955  0  0  0  0  0  0  0.0417447  0.0183888  -0.0325741  -0.0132735  0.0236991  -0.00187643  -0.046496  0.0503209  -0.00327501  0.0543909  -0.0453708  0.0247257 
1699974878.538315000  0  0  12.0184  0.207711  -0.216514  0.00112984  nan  nan  nan  nan  nan  nan  -0.999446  -0.0049215  1.00048  0.0487583  -0.0591516  -0.00705973  0.0019701  -0.0248082  0.0016955  0  0  0  0  0  0  0.0416927  0.0185069  -0.0325981  -0.0131563  0.0235521  -0.00435046  -0.0466841  0.0501829  -0.00305406  0.0140722  -0.028655  0.0164175 
1699974878.544308000  0  0  12.036  0.25157  -0.258453  0.00346927  nan  nan  nan  nan  nan  nan  -0.999437  -0.0050451  1.00049  0.0483697  -0.0595204  -0.00727722  0.0019701  -0.0246429  0.0016955  0  0  0  0  0  0  0.0417062  0.0184739  -0.0325769  -0.0125592  0.0231839  -0.00593527  -0.0471484  0.0511801  -0.00309421  -0.0693738  0.0460487  -0.0124238 
1699974878.549286000  0  0  12.0359  0.258443  -0.285634  0.00527798  nan  nan  nan  nan  nan  nan  -0.999427  -0.0051679  1.0005  0.0480312  -0.0597145  -0.00749526  0.0019701  -0.0244405  0.0016955  0  0  0  0  0  0  0.0417072  0.0184659  -0.0325629  -0.0122865  0.0227319  -0.00601281  -0.0472762  0.0521579  -0.00322061  -0.0819446  0.0914152  -0.0337686 
1699974878.554305000  0  0  11.9914  0.261746  -0.273151  0.00580227  nan  nan  nan  nan  nan  nan  -0.999417  -0.0052895  1.00051  0.0484151  -0.0596195  -0.00774883  0.0019701  -0.0241973  0.0016955  0  0  0  0  0  0  0.041644  0.0185783  -0.0325542  -0.0125481  0.0227416  -0.00234968  -0.048046  0.0522434  -0.0032275  -0.0814691  0.0656618  -0.0402535 
1699974878.559242000  0  0  11.9805  0.262027  -0.260329  0.00509664  nan  nan  nan  nan  nan  nan  -0.999407  -0.0054098  1.00052  0.0472262  -0.0599315  -0.00793394  0.0019701  -0.0239095  0.0016955  0  0  0  0  0  0  0.0416582  0.0185417  -0.0325205  -0.0122348  0.0211608  -0.00153403  -0.0473319  0.0525682  -0.00314951  -0.0885997  0.0370305  -0.032213 
1699974878.564307000  0  0  11.9506  0.219108  -0.236401  0.00315065  nan  nan  nan  nan  nan  nan  -0.999397  -0.0055285  1.00052  0.0477505  -0.0591771  -0.00817713  0.0019701  -0.0235734  0.0016955  0  0  0  0  0  0  0.0415887  0.018651  -0.0325019  -0.0132672  0.0214451  0.000947415  -0.0473198  0.0515829  -0.00283545  -0.00287455  -0.00176002  -0.0110286 
1699974878.569289000  0  0  11.9214  0.200268  -0.195939  0.0016137  nan  nan  nan  nan  nan  nan  -0.999387  -0.0056454  1.00053  0.046567  -0.0590036  -0.00835281  0.0019701  -0.0231852  0.0016955  0  0  0  0  0  0  0.0415919  0.0186205  -0.0324437  -0.0137046  0.01977  0.00331173  -0.0458054  0.0505977  -0.00251323  0.0208724  -0.0736211  0.00496113 
1699974878.574303000  0  0  11.9224  0.193685  -0.168373  -0.000222893  nan  nan  nan  nan  nan  nan  -0.999378  -0.0057603  1.00054  0.0455523  -0.0590036  -0.00855304  0.0019701  -0.0227412  0.0016955  0  0  0  0  0  0  0.0415919  0.0185937  -0.0323929  -0.0137014  0.0184672  0.00317344  -0.0446312  0.0496657  -0.00204929  0.0232373  -0.120179  0.0232791 
1699974878.579242000  0  0  11.9486  0.179133  -0.17284  -0.000987122  nan  nan  nan  nan  nan  nan  -0.999368  -0.0058727  1.00055  0.0454352  -0.0582591  -0.00877873  0.0019701  -0.0222377  0.0016955  0  0  0  0  0  0  0.0415218  0.0186872  -0.0324032  -0.0143539  0.0182213  0.00104211  -0.0440814  0.0485715  -0.00162317  0.0472831  -0.101179  0.0285707 
1699974878.584303000  0  0  12.0124  0.188766  -0.183771  -8.52032e-05  nan  nan  nan  nan  nan  nan  -0.999358  -0.0059825  1.00056  0.044384  -0.05799  -0.00897807  0.0019701  -0.0216708  0.0016955  0  0  0  0  0  0  0.0415148  0.0186495  -0.0323979  -0.0142836  0.0172029  -0.00427516  -0.0430738  0.0481073  -0.00141445  0.0187475  -0.0750442  0.0152095 
1699974878.588306000  0  0  12.0332  0.216892  -0.193451  0.000743002  nan  nan  nan  nan  nan  nan  -0.999348  -0.0060893  1.00057  0.044316  -0.0579668  -0.0092521  0.0019701  -0.0210368  0.0016955  0  0  0  0  0  0  0.0414601  0.018741  -0.0324206  -0.0140415  0.01699  -0.00597979  -0.0435022  0.0480077  -0.00120575  -0.0335647  -0.05477  0.00276996 
1699974878.594303000  0  0  12.0285  0.25097  -0.247697  0.00237738  nan  nan  nan  nan  nan  nan  -0.999338  -0.0061928  1.00057  0.0438189  -0.0583476  -0.00952501  0.0019701  -0.0203326  0.0016955  0  0  0  0  0  0  0.0414543  0.018684  -0.0323842  -0.0135329  0.016407  -0.00574285  -0.0439818  0.0492454  -0.00117754  -0.097308  0.0423373  -0.0179419 
1699974878.598304000  0  0  12.0445  0.250821  -0.266931  0.00345301  nan  nan  nan  nan  nan  nan  -0.999328  -0.0062925  1.00058  0.0435972  -0.0578483  -0.00978171  0.0019701  -0.0195595  0.0016955  0  0  0  0  0  0  0.0413952  0.0187681  -0.0324149  -0.0139509  0.0159876  -0.00706786  -0.0441299  0.0493514  -0.00113212  -0.0956473  0.0798287  -0.0318414 
1699974878.604312000  0  0  12.0361  0.266634  -0.255927  0.00285552  nan  nan  nan  nan  nan  nan  -0.999318  -0.0063883  1.00059  0.0426841  -0.0588153  -0.0100678  0.0019701  -0.0187213  0.0016955  0  0  0  0  0  0  0.0414091  0.0187073  -0.03242  -0.0127323  0.0148273  -0.00639044  -0.0441024  0.0504043  -0.000982743  -0.127527  0.0481348  -0.0258666 
1699974878.609295000  0  0  12.0046  0.258922  -0.27275  0.000501205  nan  nan  nan  nan  nan  nan  -0.999309  -0.0064796  1.0006  0.0415651  -0.0588259  -0.0103062  0.0019701  -0.0178216  0.0016955  0  0  0  0  0  0  0.0414348  0.0186449  -0.032388  -0.0129813  0.0133046  -0.00387725  -0.0434716  0.0509863  -0.000603103  -0.117906  0.0764264  -0.000234036 
1699974878.613294000  0  0  11.9824  0.228047  -0.246387  -0.000422906  nan  nan  nan  nan  nan  nan  -0.999299  -0.0065664  1.00061  0.0412519  -0.0582097  -0.0105726  0.0019701  -0.0168643  0.0016955  0  0  0  0  0  0  0.0413751  0.0187139  -0.0323938  -0.0138086  0.0126167  -0.0020032  -0.0429762  0.0501997  -0.000225392  -0.0607126  0.0309374  0.00754024 
1699974878.619235000  0  0  11.9611  0.194354  -0.201021  -0.0011828  nan  nan  nan  nan  nan  nan  -0.999289  -0.0066482  1.00062  0.0395098  -0.058241  -0.0107887  0.0019701  -0.0158531  0.0016955  0  0  0  0  0  0  0.0413854  0.0186252  -0.0323551  -0.0139464  0.0103754  -0.000254815  -0.0408986  0.049361  0.000139167  -0.012441  -0.0520786  0.0133933 
1699974878.624249000  0  0  11.9239  0.177315  -0.187422  -0.00140939  nan  nan  nan  nan  nan  nan  -0.999279  -0.0067248  1.00063  0.0382324  -0.0584078  -0.0110433  0.0019701  -0.0147918  0.0016955  0  0  0  0  0  0  0.0413931  0.0185275  -0.0322738  -0.013993  0.00871092  0.00271071  -0.0394428  0.0489818  0.00045826  0.0082435  -0.0757883  0.0130348 
1699974878.629286000  0  0  11.9792  0.149898  -0.175125  0.000585504  nan  nan  nan  nan  nan  nan  -0.999269  -0.006796  1.00063  0.0375234  -0.0573372  -0.0112906  0.0019701  -0.0136841  0.0016955  0  0  0  0  0  0  0.041318  0.0185694  -0.0322992  -0.0148946  0.00789474  -0.00180548  -0.0381958  0.0474252  0.000514989  0.0516046  -0.0860623  -0.0124687 
1699974878.634428000  0  0  11.9829  0.17551  -0.170013  0.00219546  nan  nan  nan  nan  nan  nan  -0.999259  -0.0068616  1.00064  0.0361163  -0.0577526  -0.0115601  0.0019701  -0.0125337  0.0016955  0  0  0  0  0  0  0.0413315  0.0184467  -0.0322404  -0.0143564  0.00627751  -0.00221397  -0.0371609  0.0472399  0.000493247  -0.00913869  -0.0945814  -0.0323758 
1699974878.639237000  0  0  11.998  0.191092  -0.201067  0.0026772  nan  nan  nan  nan  nan  nan  -0.999249  -0.0069213  1.00065  0.0345222  -0.0581302  -0.0118223  0.0019701  -0.0113444  0.0016955  0  0  0  0  0  0  0.0413775  0.0182765  -0.0322002  -0.0138676  0.00456069  -0.00357287  -0.0360738  0.0477397  0.000515808  -0.0503059  -0.0370703  -0.0386231 
1699974878.644298000  0  0  12.0226  0.213261  -0.241856  0.00240701  nan  nan  nan  nan  nan  nan  -0.99924  -0.006975  1.00066  0.0341481  -0.0578781  -0.0121396  0.0019701  -0.01012  0.0016955  0  0  0  0  0  0  0.0413101  0.0182992  -0.0322298  -0.0138822  0.00408353  -0.00562533  -0.0364464  0.0482204  0.000671335  -0.0912143  0.0400841  -0.036801 
1699974878.649285000  0  0  12.0361  0.232269  -0.256849  0.00143564  nan  nan  nan  nan  nan  nan  -0.99923  -0.0070225  1.00067  0.0324175  -0.0583895  -0.0124099  0.0019701  -0.0088642  0.0016955  0  0  0  0  0  0  0.0413438  0.0181364  -0.0321969  -0.0131967  0.00214962  -0.006864  -0.0356324  0.0491767  0.000856718  -0.13672  0.0612723  -0.0265126 
1699974878.654302000  0  0  12.0092  0.264074  -0.274404  -0.000259861  nan  nan  nan  nan  nan  nan  -0.99922  -0.0070636  1.00068  0.0321232  -0.0586119  -0.01276  0.0019701  -0.0075807  0.0016955  0  0  0  0  0  0  0.0412806  0.0181469  -0.0322035  -0.0129184  0.00161035  -0.00468789  -0.0366819  0.0500397  0.00130811  -0.190675  0.0884415  -0.00983287 
1699974878.659234000  0  0  11.9866  0.246883  -0.279657  -0.000596325  nan  nan  nan  nan  nan  nan  -0.99921  -0.0070982  1.00069  0.0310336  -0.0587161  -0.0129537  0.0019701  -0.0062733  0.0016955  0  0  0  0  0  0  0.0413136  0.0179937  -0.0321493  -0.0130082  0.000402233  -0.00296057  -0.0361659  0.0506432  0.00146535  -0.16104  0.0933975  -0.00719947 
1699974878.663236000  0  0  11.9807  0.226816  -0.256252  -1.63215e-05  nan  nan  nan  nan  nan  nan  -0.9992  -0.0071263  1.00069  0.0298783  -0.0585378  -0.0128805  0.0019701  -0.0049458  0.0016954  0  0  0  0  0  0  0.0412589  0.0179923  -0.0321526  -0.0131862  -0.00114738  -0.00246409  -0.0352972  0.0503761  0.00133636  -0.128897  0.0490432  -0.0131595 
1699974878.669285000  0  0  11.8911  0.202688  -0.2142  0.000639637  nan  nan  nan  nan  nan  nan  -0.99919  -0.0071477  1.0007  0.0283814  -0.0591444  -0.0128101  0.0019701  -0.0036019  0.0016932  0  0  0  0  0  0  0.0413142  0.0177914  -0.0320468  -0.0131237  -0.00297874  0.00482137  -0.0341535  0.0502083  0.00110124  -0.0911637  -0.0335168  -0.0190079 
1699974878.674430000  0  0  11.8921  0.169667  -0.198816  0.00114205  nan  nan  nan  nan  nan  nan  -0.999181  -0.0071623  1.00071  0.0269697  -0.0586285  -0.0127127  0.0019701  -0.0022454  0.0016853  0  0  0  0  0  0  0.0413262  0.0176593  -0.0319954  -0.0138573  -0.00453708  0.00466208  -0.0326704  0.0492532  0.0008749  -0.0387673  -0.0554976  -0.0230246 
1699974878.679236000  0  0  11.9214  0.155444  -0.179325  0.00156315  nan  nan  nan  nan  nan  nan  -0.999171  -0.0071701  1.00072  0.0261859  -0.0579451  -0.0126488  0.0019701  -0.0008799  0.001668  0  0  0  0  0  0  0.0412584  0.0176357  -0.032004  -0.0144398  -0.00542538  0.00226487  -0.0318377  0.0479828  0.0006946  -0.0179811  -0.0827924  -0.0264854 
1699974878.684297000  0  0  11.9038  0.176374  -0.180956  0.000871554  nan  nan  nan  nan  nan  nan  -0.999161  -0.0071711  1.00073  0.0245658  -0.0586189  -0.0125715  0.0019701  0.0004907  0.0016374  0  0  0  0  0  0  0.0412926  0.0174588  -0.0319311  -0.0137673  -0.00723359  0.00360025  -0.0308793  0.0481512  0.000615876  -0.0686586  -0.0810798  -0.0170532 
1699974878.688296000  0  0  11.9288  0.186701  -0.210659  0.000382993  nan  nan  nan  nan  nan  nan  -0.999151  -0.0071652  1.00074  0.0241746  -0.0581964  -0.0125384  0.0019701  0.0018626  0.0015898  0  0  0  0  0  0  0.0412352  0.0174318  -0.0319394  -0.0140426  -0.00761674  0.00150201  -0.0309956  0.0480806  0.000608602  -0.0882419  -0.0210245  -0.0108734 
1699974878.694299000  0  0  12.0278  0.207226  -0.240988  0.000451426  nan  nan  nan  nan  nan  nan  -0.999141  -0.0071525  1.00074  0.022759  -0.0582388  -0.0124569  0.0019701  0.0032323  0.0015215  0  0  0  0  0  0  0.0412518  0.0172347  -0.0319553  -0.0134008  -0.00880868  -0.00676347  -0.0306054  0.0486569  0.000472512  -0.132881  0.0343333  -0.0103679 
1699974878.699235000  0  0  11.9678  0.254676  -0.268016  0.00113905  nan  nan  nan  nan  nan  nan  -0.999131  -0.0071329  1.00075  0.0218942  -0.0593327  -0.0124305  0.0019701  0.0045958  0.0014287  0  0  0  0  0  0  0.0412941  0.0170545  -0.0319025  -0.0124369  -0.00971984  -0.00192942  -0.0314246  0.0503053  0.000323541  -0.220247  0.0732224  -0.0174735 
1699974878.703234000  0  0  11.9691  0.270144  -0.292762  0.00260512  nan  nan  nan  nan  nan  nan  -0.999121  -0.0071065  1.00076  0.0214988  -0.0590892  -0.0124018  0.0019701  0.0059495  0.0013081  0  0  0  0  0  0  0.0412407  0.0170103  -0.0319146  -0.0126354  -0.0101374  -0.00209429  -0.0322082  0.0508544  8.14631e-05  -0.243973  0.117663  -0.0333786 
1699974878.709284000  0  0  11.9664  0.249298  -0.279036  0.00484833  nan  nan  nan  nan  nan  nan  -0.999112  -0.0070734  1.00076  0.020581  -0.0593647  -0.0123532  0.0019701  0.0072895  0.0011611  0  0  0  0  0  0  0.0412691  0.0168131  -0.0318732  -0.0123628  -0.0109275  -0.00198563  -0.0323158  0.05143  -0.000444391  -0.20129  0.0849162  -0.0561603 
1699974878.714302000  0  0  11.9056  0.263034  -0.259538  0.00454579  nan  nan  nan  nan  nan  nan  -0.999102  -0.0070336  1.00077  0.0199002  -0.0594068  -0.0123137  0.0019701  0.0086123  0.0009912  0  0  0  0  0  0  0.041206  0.016752  -0.0318448  -0.0125797  -0.0118251  0.00299086  -0.032905  0.0514246  -0.000657656  -0.223341  0.0459702  -0.0502458 
1699974878.719235000  0  0  11.8513  0.244084  -0.243376  0.00336335  nan  nan  nan  nan  nan  nan  -0.999092  -0.0069873  1.00077  0.0190602  -0.0593578  -0.0122628  0.0019701  0.0099139  0.0008024  0  0  0  0  0  0  0.041228  0.016568  -0.0317588  -0.0130679  -0.0126357  0.00733089  -0.0328059  0.0512159  -0.000767743  -0.186355  0.0155663  -0.0343644 
1699974878.724298000  0  0  11.8749  0.194548  -0.196741  0.00187246  nan  nan  nan  nan  nan  nan  -0.999082  -0.0069346  1.00078  0.0174905  -0.0590007  -0.0121635  0.0019701  0.0111906  0.0005983  0  0  0  0  0  0  0.0412439  0.0163702  -0.0317229  -0.0134521  -0.0142114  0.00535181  -0.0311998  0.0499776  -0.000806533  -0.102059  -0.0663126  -0.0153404 
1699974878.729289000  0  0  11.887  0.20183  -0.177262  -0.0004027  nan  nan  nan  nan  nan  nan  -0.999072  -0.0068755  1.00078  0.0168078  -0.05867  -0.0121176  0.0019701  0.0124388  0.0003827  0  0  0  0  0  0  0.0411786  0.0162957  -0.0317076  -0.013679  -0.0149184  0.00433108  -0.0311865  0.0489491  -0.000577796  -0.116745  -0.0958087  0.0108117 
1699974878.734301000  0  0  11.8793  0.195776  -0.186611  -0.0017103  nan  nan  nan  nan  nan  nan  -0.999062  -0.0068102  1.00078  0.0160309  -0.0585654  -0.0120704  0.0019701  0.0136546  0.0001593  0  0  0  0  0  0  0.0411789  0.0160964  -0.0316417  -0.0138828  -0.0155117  0.0048443  -0.0309159  0.048613  -0.000399444  -0.107126  -0.0740166  0.0253732 
1699974878.738306000  0  0  11.9399  0.202265  -0.201774  -0.00165172  nan  nan  nan  nan  nan  nan  -0.999052  -0.006739  1.00078  0.0154734  -0.0579988  -0.012029  0.0019701  0.0148343  -6.81e-05  0  0  0  0  0  0  0.0411221  0.0160189  -0.0316655  -0.0141225  -0.0159647  -0.000178095  -0.0309186  0.0481421  -0.000326163  -0.120079  -0.0393598  0.0239081 
1699974878.744298000  0  0  11.9793  0.241628  -0.226457  0.000171169  nan  nan  nan  nan  nan  nan  -0.999043  -0.0066619  1.00078  0.0145903  -0.0584968  -0.0119851  0.0019701  0.0159741  -0.0002958  0  0  0  0  0  0  0.0411297  0.015798  -0.0316551  -0.0132316  -0.0165899  -0.00352049  -0.0316266  0.048836  -0.000445846  -0.192292  0.00362249  0.00231884 
1699974878.749285000  0  0  11.9792  0.267282  -0.269218  0.00225202  nan  nan  nan  nan  nan  nan  -0.999033  -0.0065793  1.00078  0.0141222  -0.0589536  -0.0119641  0.0019701  0.0170704  -0.00052  0  0  0  0  0  0  0.0411399  0.0155871  -0.0316308  -0.0126465  -0.0167491  -0.00364328  -0.032624  0.0501048  -0.000701671  -0.234424  0.0774708  -0.0211336 
1699974878.754339000  0  0  11.9934  0.277234  -0.287658  0.00457814  nan  nan  nan  nan  nan  nan  -0.999023  -0.0064913  1.00077  0.0145127  -0.0582621  -0.0119771  0.0019701  0.0181193  -0.000737  0  0  0  0  0  0  0.0410705  0.015508  -0.0316435  -0.0133095  -0.0160199  -0.00489434  -0.0342793  0.0502507  -0.00109266  -0.239098  0.113009  -0.0463002 
1699974878.759258000  0  0  11.9845  0.286585  -0.273689  0.00544567  nan  nan  nan  nan  nan  nan  -0.999013  -0.0063982  1.00077  0.0138086  -0.0588567  -0.0119443  0.0019701  0.019117  -0.000943  0  0  0  0  0  0  0.0410737  0.0153166  -0.0316212  -0.0125888  -0.0165531  -0.00423592  -0.0349454  0.0509621  -0.0014156  -0.251672  0.0785258  -0.0539149 
1699974878.764300000  0  0  11.9057  0.279495  -0.269514  0.00442661  nan  nan  nan  nan  nan  nan  -0.999003  -0.0063002  1.00077  0.0129702  -0.0591618  -0.0118989  0.0019701  0.02006  -0.0011342  0  0  0  0  0  0  0.0410696  0.0150693  -0.0315916  -0.0127032  -0.0172301  0.00223429  -0.0352964  0.0515348  -0.00153515  -0.234263  0.0649067  -0.0399812 
1699974878.769294000  0  0  11.906  0.244448  -0.249858  0.00291795  nan  nan  nan  nan  nan  nan  -0.998993  -0.0061977  1.00076  0.0132771  -0.058139  -0.0119035  0.0019701  0.0209443  -0.001307  0  0  0  0  0  0  0.0409973  0.0149858  -0.0315883  -0.0138923  -0.0166223  0.00218521  -0.0358907  0.0505078  -0.00151844  -0.158702  0.0350451  -0.0212901 
1699974878.774313000  0  0  11.8883  0.230556  -0.202368  0.000632763  nan  nan  nan  nan  nan  nan  -0.998984  -0.0060909  1.00075  0.0118984  -0.0584845  -0.0118275  0.0019701  0.0217663  -0.0014575  0  0  0  0  0  0  0.041043  0.0147437  -0.0315431  -0.0136773  -0.0179338  0.00361642  -0.0350703  0.0499761  -0.00134612  -0.138465  -0.0550433  0.00555164 
1699974878.779307000  0  0  11.8599  0.222248  -0.186559  -0.000889265  nan  nan  nan  nan  nan  nan  -0.998974  -0.0059802  1.00074  0.0121293  -0.0582382  -0.011838  0.0019703  0.0225221  -0.0015821  0  0  0  0  0  0  0.0409749  0.0146562  -0.0315083  -0.0140342  -0.0174673  0.00592432  -0.0357296  0.0491437  -0.00109626  -0.115784  -0.0790038  0.0220784 
1699974878.784310000  0  0  11.9593  0.190105  -0.198095  -0.000869812  nan  nan  nan  nan  nan  nan  -0.998964  -0.0058658  1.00074  0.0112136  -0.057733  -0.0117791  0.0019731  0.0232082  -0.0016769  0  0  0  0  0  0  0.0410157  0.0143599  -0.0315334  -0.0141701  -0.0178896  -0.00228293  -0.0347245  0.0485397  -0.00110787  -0.0607443  -0.0503754  0.0219513 
1699974878.788310000  0  0  11.9663  0.20946  -0.189581  -0.000147088  nan  nan  nan  nan  nan  nan  -0.998954  -0.0057482  1.00073  0.0112034  -0.0575724  -0.0117767  0.0019823  0.0238206  -0.0017383  0  0  0  0  0  0  0.0409598  0.0142638  -0.0315333  -0.0142144  -0.0176789  -0.00287684  -0.0352968  0.0480423  -0.00109849  -0.0941892  -0.062827  0.0128235 
1699974878.794286000  0  0  11.9611  0.255319  -0.218714  0.00204662  nan  nan  nan  nan  nan  nan  -0.998944  -0.0056277  1.00072  0.0106442  -0.0584473  -0.0117538  0.0020015  0.0243556  -0.0017624  0  0  0  0  0  0  0.0409939  0.0139543  -0.0315074  -0.0131632  -0.0177523  -0.00253442  -0.0362605  0.0490464  -0.00137319  -0.177042  -0.0137988  -0.0118509 
1699974878.799237000  0  0  12.0358  0.262109  -0.266934  0.00350393  nan  nan  nan  nan  nan  nan  -0.998934  -0.0055048  1.00071  0.0103126  -0.0584297  -0.0117342  0.0020346  0.0248096  -0.0017455  0  0  0  0  0  0  0.0410096  0.0136759  -0.0315834  -0.0127344  -0.0174923  -0.00867818  -0.0369459  0.0499475  -0.00167534  -0.184316  0.0743519  -0.0270457 
1699974878.804429000  0  0  12.0149  0.300368  -0.277935  0.00445683  nan  nan  nan  nan  nan  nan  -0.998924  -0.0053798  1.0007  0.011012  -0.0586251  -0.0117772  0.0020853  0.0251787  -0.0016839  0  0  0  0  0  0  0.0409475  0.0135917  -0.0315962  -0.0124513  -0.0163969  -0.00700975  -0.0391994  0.0507129  -0.00188985  -0.240101  0.0893108  -0.0368119 
1699974878.809238000  0  0  11.9764  0.316398  -0.287229  0.00381694  nan  nan  nan  nan  nan  nan  -0.998913  -0.0052531  1.00069  0.0112022  -0.0592232  -0.0117951  0.0021573  0.0254592  -0.0015738  0  0  0  0  0  0  0.0409643  0.0133797  -0.0316008  -0.0119312  -0.0157256  -0.00387979  -0.040769  0.0518332  -0.00198707  -0.257722  0.0975938  -0.027841 
1699974878.813281000  0  0  11.9893  0.30217  -0.291028  0.00342977  nan  nan  nan  nan  nan  nan  -0.998902  -0.0051253  1.00069  0.0120775  -0.0587207  -0.0118408  0.0022544  0.0256473  -0.0014115  0  0  0  0  0  0  0.0409105  0.013296  -0.031634  -0.0123776  -0.0143508  -0.00496451  -0.0422347  0.0518101  -0.00201913  -0.21578  0.105403  -0.0226809 
1699974878.819278000  0  0  11.9617  0.273458  -0.258667  0.00247129  nan  nan  nan  nan  nan  nan  -0.99889  -0.0049968  1.00068  0.0120998  -0.0585828  -0.0118405  0.0023803  0.0257393  -0.0011932  0  0  0  0  0  0  0.0409095  0.0130909  -0.0316358  -0.0127386  -0.013898  -0.00267813  -0.0428249  0.0516387  -0.00206878  -0.152927  0.042258  -0.0102034 
1699974878.824309000  0  0  11.9025  0.255391  -0.218155  0.00110185  nan  nan  nan  nan  nan  nan  -0.998878  -0.0048681  1.00067  0.0120822  -0.0590235  -0.0118448  0.0025388  0.0257315  -0.0009152  0  0  0  0  0  0  0.0409298  0.0128937  -0.0316061  -0.0125875  -0.0135655  0.00221863  -0.0431272  0.0513896  -0.00197286  -0.114012  -0.0364747  0.00595554 
1699974878.829304000  0  0  11.9408  0.225842  -0.200985  0.000593557  nan  nan  nan  nan  nan  nan  -0.998865  -0.0047397  1.00067  0.0130364  -0.0579471  -0.011887  0.0027337  0.0256201  -0.0005737  0  0  0  0  0  0  0.0408614  0.0128294  -0.0316389  -0.0136003  -0.0120925  -0.000916107  -0.0438883  0.0498662  -0.00186832  -0.0479115  -0.0567993  0.0112637 
1699974878.834310000  0  0  11.9951  0.20712  -0.188746  0.00184242  nan  nan  nan  nan  nan  nan  -0.998851  -0.0046121  1.00067  0.0130511  -0.0575273  -0.0118824  0.0029687  0.0254013  -0.0001649  0  0  0  0  0  0  0.0408665  0.0126306  -0.0316819  -0.0138244  -0.0115503  -0.00532446  -0.0437104  0.0489641  -0.00203447  -0.0121034  -0.0729782  -0.00268551 
1699974878.838310000  0  0  11.985  0.227046  -0.180719  0.00311346  nan  nan  nan  nan  nan  nan  -0.998835  -0.0044858  1.00067  0.0141142  -0.0574506  -0.0119425  0.0032475  0.0250714  0.0003148  0  0  0  0  0  0  0.0408117  0.0125633  -0.0316871  -0.01385  -0.00999885  -0.00449541  -0.0451107  0.0484456  -0.00215594  -0.0390743  -0.0842603  -0.0173588 
1699974878.844428000  0  0  12.0477  0.265741  -0.236117  0.00499842  nan  nan  nan  nan  nan  nan  -0.998818  -0.0043615  1.00067  0.0151317  -0.0571772  -0.0119968  0.0035738  0.0246267  0.0008692  0  0  0  0  0  0  0.040796  0.0124038  -0.0317373  -0.0137542  -0.00818351  -0.00973395  -0.0471263  0.0488246  -0.00249946  -0.0979205  0.0230481  -0.0374857 
1699974878.849459000  0  0  12.116  0.285672  -0.261219  0.00573076  nan  nan  nan  nan  nan  nan  -0.998799  -0.0042398  1.00068  0.0160632  -0.0568533  -0.0120448  0.0039516  0.0240634  0.0015022  0  0  0  0  0  0  0.0407686  0.0122747  -0.0318204  -0.0136713  -0.0065264  -0.0153583  -0.0488486  0.0491234  -0.00274633  -0.121937  0.0705023  -0.0441712 
1699974878.854309000  0  0  12.0599  0.326727  -0.270222  0.00531086  nan  nan  nan  nan  nan  nan  -0.998779  -0.0041211  1.00069  0.0178955  -0.0572129  -0.0121554  0.0043844  0.0233777  0.0022173  0  0  0  0  0  0  0.040708  0.0122462  -0.0318344  -0.0133658  -0.00410836  -0.0107945  -0.0518785  0.0499336  -0.00281515  -0.176172  0.0810556  -0.0382343 
1699974878.859235000  0  0  12.0672  0.341312  -0.294517  0.00467453  nan  nan  nan  nan  nan  nan  -0.998755  -0.0040062  1.0007  0.0189275  -0.0569155  -0.0122088  0.004876  0.0225659  0.0030185  0  0  0  0  0  0  0.0406838  0.0120826  -0.0318932  -0.0136367  -0.0023396  -0.0114232  -0.0539593  0.0505876  -0.00287743  -0.186199  0.123628  -0.0296573 
1699974878.863273000  0  0  12.0958  0.322633  -0.29382  0.00485326  nan  nan  nan  nan  nan  nan  -0.99873  -0.0038957  1.00072  0.0206601  -0.0559799  -0.0122881  0.0054303  0.0216242  0.0039094  0  0  0  0  0  0  0.0406199  0.0120572  -0.0319604  -0.0145372  0.000120878  -0.013769  -0.0558406  0.0501921  -0.00298699  -0.131533  0.125873  -0.0307958 
1699974878.869237000  0  0  12.0149  0.310426  -0.252303  0.0043991  nan  nan  nan  nan  nan  nan  -0.998701  -0.0037902  1.00074  0.0214042  -0.0561531  -0.0123335  0.0060509  0.020549  0.0048937  0  0  0  0  0  0  0.040607  0.0118993  -0.0319759  -0.0147657  0.00128334  -0.00703449  -0.0569901  0.0502414  -0.00307153  -0.0965433  0.0423853  -0.0242735 
1699974878.874428000  0  0  12.0191  0.270979  -0.225023  0.00325632  nan  nan  nan  nan  nan  nan  -0.998669  -0.0036904  1.00077  0.0231173  -0.0553789  -0.0124118  0.0067415  0.0193364  0.0059753  0  0  0  0  0  0  0.0405726  0.0118259  -0.0320116  -0.0156691  0.00375724  -0.00733124  -0.0583083  0.0491747  -0.00301222  -0.00552164  -0.00236204  -0.0105818 
1699974878.879293000  0  0  12.0772  0.245099  -0.20619  0.002824  nan  nan  nan  nan  nan  nan  -0.998633  -0.0035971  1.0008  0.0247015  -0.0537595  -0.0124596  0.0075047  0.0179827  0.0071579  0  0  0  0  0  0  0.0404876  0.0118429  -0.0320876  -0.0172724  0.00601853  -0.0120414  -0.0592161  0.0473206  -0.00301239  0.0545906  -0.022969  -0.00517617 
1699974878.884291000  0  0  12.0578  0.245784  -0.175218  0.00309716  nan  nan  nan  nan  nan  nan  -0.998594  -0.0035108  1.00084  0.0258803  -0.0534756  -0.0125156  0.0083378  0.0164841  0.0084452  0  0  0  0  0  0  0.0404537  0.0117706  -0.0321084  -0.0176751  0.00771127  -0.0103636  -0.0600665  0.0463226  -0.00302748  0.0610433  -0.0757319  -0.00843967 
1699974878.889243000  0  0  12.0988  0.248822  -0.187476  0.003579  nan  nan  nan  nan  nan  nan  -0.99855  -0.0034325  1.00088  0.0271613  -0.0531981  -0.0125766  0.009237  0.0148369  0.009841  0  0  0  0  0  0  0.0404643  0.0116301  -0.032137  -0.0178027  0.00986652  -0.0137411  -0.0609839  0.0459051  -0.00310166  0.0634082  -0.0473737  -0.0137209 
1699974878.894315000  0  0  12.2085  0.268881  -0.227765  0.00448222  nan  nan  nan  nan  nan  nan  -0.998501  -0.0033627  1.00094  0.029343  -0.0518997  -0.0126546  0.0101986  0.0130374  0.011349  0  0  0  0  0  0  0.0403736  0.0116885  -0.032279  -0.018667  0.0130479  -0.0227094  -0.0630644  0.0453517  -0.00328813  0.0424313  0.038295  -0.0231465 
1699974878.899284000  0  0  12.2246  0.290378  -0.253609  0.00599882  nan  nan  nan  nan  nan  nan  -0.998448  -0.0033023  1.001  0.0284919  -0.0527691  -0.0126352  0.0112189  0.0110818  0.012973  0  0  0  0  0  0  0.0405303  0.0112732  -0.0323384  -0.017751  0.0128506  -0.0239325  -0.062309  0.0468508  -0.00365399  -0.00751393  0.0761918  -0.0384453 
1699974878.904300000  0  0  12.2296  0.328241  -0.275183  0.00696288  nan  nan  nan  nan  nan  nan  -0.998389  -0.0032522  1.00107  0.0313226  -0.0526015  -0.0127794  0.012294  0.0089663  0.0147168  0  0  0  0  0  0  0.0404478  0.0113482  -0.0324399  -0.0176996  0.0165587  -0.0243154  -0.0656996  0.0474485  -0.00389521  -0.0520452  0.113839  -0.0480838 
1699974878.909287000  0  0  12.2911  0.334955  -0.318015  0.00754182  nan  nan  nan  nan  nan  nan  -0.998325  -0.003213  1.00115  0.0335576  -0.0517364  -0.012868  0.0134203  0.0066872  0.016584  0  0  0  0  0  0  0.0404297  0.0113205  -0.0325693  -0.0184282  0.0199081  -0.0293402  -0.0681097  0.0480421  -0.00419257  -0.0433017  0.194043  -0.052347 
1699974878.914274000  0  0  12.2912  0.332833  -0.299029  0.00846951  nan  nan  nan  nan  nan  nan  -0.998255  -0.0031856  1.00123  0.0364365  -0.0508  -0.012983  0.0145941  0.0042408  0.0185784  0  0  0  0  0  0  0.0403347  0.0114267  -0.0326856  -0.0194352  0.0236321  -0.0292351  -0.0708701  0.0476707  -0.00453006  -0.0136599  0.159487  -0.0605682 
1699974878.919445000  0  0  12.2137  0.328095  -0.268015  0.00697311  nan  nan  nan  nan  nan  nan  -0.998179  -0.0031708  1.00133  0.0387182  -0.0504982  -0.0130873  0.0158114  0.0016233  0.0207039  0  0  0  0  0  0  0.0402986  0.0114417  -0.0327689  -0.020159  0.0264001  -0.0226563  -0.0728922  0.0475006  -0.00460056  0.0144184  0.0990251  -0.0411583 
1699974878.924311000  0  0  12.2689  0.296118  -0.261135  0.00547703  nan  nan  nan  nan  nan  nan  -0.998097  -0.0031696  1.00144  0.0413824  -0.0491907  -0.013168  0.0170687  -0.0011691  0.022964  0  0  0  0  0  0  0.0402305  0.0115053  -0.0329228  -0.0214284  0.0301583  -0.0269928  -0.0746131  0.0466388  -0.00461586  0.0942045  0.0931933  -0.0223043 
1699974878.929419000  0  0  12.2755  0.276271  -0.210297  0.00353772  nan  nan  nan  nan  nan  nan  -0.998008  -0.0031828  1.00156  0.0439501  -0.0476271  -0.0132258  0.0183621  -0.0041401  0.0253627  0  0  0  0  0  0  0.040115  0.0116601  -0.0330533  -0.0232278  0.0333819  -0.0272527  -0.0760384  0.0446388  -0.00446498  0.147011  0.00991584  0.000428305 
1699974878.934289000  0  0  12.26  0.280271  -0.178995  0.00349436  nan  nan  nan  nan  nan  nan  -0.997913  -0.0032113  1.00169  0.0466262  -0.0468756  -0.0133184  0.0196879  -0.0072916  0.0279036  0  0  0  0  0  0  0.0400424  0.0117495  -0.0331601  -0.0241231  0.0367774  -0.0257401  -0.07789  0.0433718  -0.0044239  0.156045  -0.0410295  0.000559444 
1699974878.939234000  0  0  12.3293  0.275915  -0.184619  0.00442246  nan  nan  nan  nan  nan  nan  -0.997811  -0.003256  1.00184  0.0491131  -0.0458348  -0.0133841  0.0210424  -0.0106205  0.0305904  0  0  0  0  0  0  0.0399981  0.0118114  -0.0333152  -0.0250399  0.0404308  -0.0311949  -0.0792754  0.0423374  -0.00455051  0.177502  -0.0202667  -0.00977563 
1699974878.944286000  0  0  12.4137  0.304425  -0.218799  0.00894763  nan  nan  nan  nan  nan  nan  -0.997703  -0.0033178  1.002  0.0525002  -0.0443342  -0.0134609  0.0224217  -0.0141232  0.033427  0  0  0  0  0  0  0.0398712  0.0120276  -0.0335163  -0.0263241  0.0451284  -0.0379202  -0.0821147  0.0415669  -0.00521608  0.146606  0.0551815  -0.0596845 
1699974878.949282000  0  0  12.4217  0.341047  -0.226173  0.0111847  nan  nan  nan  nan  nan  nan  -0.997587  -0.0033976  1.00217  0.0553449  -0.0442484  -0.0135826  0.0238222  -0.0177958  0.0364171  0  0  0  0  0  0  0.0398382  0.0121296  -0.0336356  -0.026262  0.0488965  -0.0384232  -0.084714  0.0418067  -0.00576291  0.0972747  0.0677255  -0.0821793 
