ts fx fy fz tx ty tz exfx exfy exfz extx exty extz xd yd zd rolld pitchd yawd vxd vyd vzd wxd wyd wzd axd ayd azd e_x e_y e_z e_vx e_vy e_vz e_rx e_ry e_rz e_wx e_wy e_wz
1703168622.005739000  0  0  11.9384  0.0549091  -0.167878  0.0284578  nan  nan  nan  nan  nan  nan  -2.5  -0.3  1  0.0173333  -0.0254969  -0.000441942  0  0  0  0  0  0  0  0  0  0.0150774  0.0125305  -0.0230475  -0.00749432  -0.0115683  -0.00506478  -0.0121745  0.0269042  -0.0293145  0.0223211  0.050457  -0.0047098 
1703168622.010120000  0  0  12.0164  0.0670412  -0.189373  0.0266134  nan  nan  nan  nan  nan  nan  -2.5  -0.3  1  0.01761  -0.0259739  -0.000457396  0  0  0  0  0  0  0  0  0  0.0151949  0.0126086  -0.0231858  -0.00693323  -0.0112494  -0.010328  -0.0127327  0.027933  -0.0290587  0.0027282  0.0847135  0.0154134 
1703168622.014751000  0  0  12.0445  0.0449985  -0.174047  0.0276996  nan  nan  nan  nan  nan  nan  -2.5  -0.3  1  0.0170323  -0.0251617  -0.000428557  0  0  0  0  0  0  0  0  0  0.0151549  0.0125532  -0.0232437  -0.00786762  -0.0118387  -0.0122065  -0.0117444  0.027243  -0.029128  0.0386236  0.0597873  0.00258323 
1703168622.019735000  0  0  11.9793  0.0575327  -0.173895  0.029059  nan  nan  nan  nan  nan  nan  -2.5  -0.3  1  0.0180632  -0.0259705  -0.000469108  0  0  0  0  0  0  0  0  0  0.0152498  0.0126025  -0.0233295  -0.00720416  -0.0106802  -0.00739358  -0.01289  0.0281046  -0.0292591  0.024926  0.0495511  -0.0129415 
1703168622.024751000  0  0  11.9914  0.0644118  -0.17573  0.0280108  nan  nan  nan  nan  nan  nan  -2.5  -0.3  1  0.0172544  -0.0253807  -0.000437926  0  0  0  0  0  0  0  0  0  0.0152089  0.0125418  -0.0233785  -0.00787052  -0.0116029  -0.00816572  -0.0122307  0.0279023  -0.0291712  0.00259061  0.0558131  -0.00081234 
1703168622.029727000  0  0  12.0474  0.0430453  -0.167944  0.0298675  nan  nan  nan  nan  nan  nan  -2.5  -0.3  1  0.0171878  -0.0258847  -0.000444894  0  0  0  0  0  0  0  0  0  0.0152823  0.0125673  -0.0235239  -0.00721192  -0.0116566  -0.0118425  -0.0118679  0.028326  -0.0293856  0.0442328  0.0342417  -0.0215896 
1703168622.035099000  0  0  12.0001  0.080785  -0.165484  0.0282165  nan  nan  nan  nan  nan  nan  -2.5  -0.3  1  0.018924  -0.0250275  -0.000473627  0  0  0  0  0  0  0  0  0  0.0153311  0.0125959  -0.0236248  -0.00867918  -0.00942364  -0.00826903  -0.014104  0.0275494  -0.0292402  -0.0109661  0.0379026  -0.00256864 
1703168622.039726000  0  0  11.942  0.07163  -0.143629  0.0284782  nan  nan  nan  nan  nan  nan  -2.5  -0.3  1  0.0170372  -0.0248626  -0.000423587  0  0  0  0  0  0  0  0  0  0.0152921  0.0125301  -0.023632  -0.00896669  -0.0119677  -0.00413019  -0.0123363  0.0271362  -0.0292723  -0.0116723  -0.00420756  -0.00547573 
1703168622.044727000  0  0  12.0476  0.0536459  -0.143535  0.0305  nan  nan  nan  nan  nan  nan  -2.5  -0.3  1  0.0171549  -0.0257977  -0.000442551  0  0  0  0  0  0  0  0  0  0.0153384  0.0125565  -0.0238043  -0.00749194  -0.0116715  -0.0112633  -0.0122372  0.0278158  -0.0295524  0.0257504  -0.0122275  -0.0275377 
1703168622.049730000  0  0  11.999  0.0966479  -0.144551  0.0259294  nan  nan  nan  nan  nan  nan  -2.5  -0.3  1  0.018345  -0.0240558  -0.000441312  0  0  0  0  0  0  0  0  0  0.0152802  0.0125173  -0.0238291  -0.00988767  -0.0100057  -0.00776265  -0.0140643  0.0262636  -0.0290997  -0.045437  0.00780806  0.0245142 
1703168622.054722000  0  0  11.9747  0.0631183  -0.102491  0.028935  nan  nan  nan  nan  nan  nan  -2.5  -0.3  1  0.0170187  -0.0244759  -0.000416547  0  0  0  0  0  0  0  0  0  0.0152685  0.012536  -0.0240022  -0.00934239  -0.0119461  -0.00565963  -0.0123925  0.0256644  -0.0293678  0.00722571  -0.0754854  -0.0100705 
1703168622.060164000  0  0  12.1944  0.0696018  -0.120192  0.0298005  nan  nan  nan  nan  nan  nan  -2.5  -0.3  1  0.0190024  -0.024969  -0.000474479  0  0  0  0  0  0  0  0  0  0.0152356  0.0127821  -0.0245859  -0.00793078  -0.00941681  -0.0200326  -0.0139878  0.025695  -0.0295883  0.0116769  -0.0378821  -0.0183033 
1703168622.064826000  0  0  12.1001  0.101971  -0.108177  0.0247207  nan  nan  nan  nan  nan  nan  -2.5  -0.3  1  0.0194918  -0.0227674  -0.000443795  0  0  0  0  0  0  0  0  0  0.0151677  0.0127458  -0.0246044  -0.011091  -0.00883538  -0.0132966  -0.0151215  0.023447  -0.0289846  -0.0446891  -0.0377832  0.0383351 
1703168622.069860000  0  0  12.1688  0.0549607  -0.0814673  0.0291176  nan  nan  nan  nan  nan  nan  -2.5  -0.3  1  0.0185855  -0.023432  -0.000435507  0  0  0  0  0  0  0  0  0  0.0151382  0.0126972  -0.0247438  -0.00989285  -0.00981833  -0.0178729  -0.0136454  0.0232228  -0.0293303  0.0391315  -0.0924762  -0.0128201 
1703168622.074816000  0  0  12.2298  0.0910564  -0.130419  0.0252526  nan  nan  nan  nan  nan  nan  -2.5  -0.3  1  0.0191407  -0.0233037  -0.000446063  0  0  0  0  0  0  0  0  0  0.0150903  0.0126598  -0.0248584  -0.00977261  -0.0087964  -0.0219822  -0.0146707  0.0236877  -0.0289703  -0.0264711  0.00714005  0.0314703 
1703168622.079744000  0  0  12.1325  0.0953522  -0.114266  0.0226802  nan  nan  nan  nan  nan  nan  -2.5  -0.3  1  0.0189974  -0.0215354  -0.000409133  0  0  0  0  0  0  0  0  0  0.015029  0.0126179  -0.0249298  -0.0123421  -0.00909278  -0.0149204  -0.0147847  0.0217746  -0.028506  -0.0343708  -0.00548657  0.0582399 
1703168622.085190000  0  0  12.1595  0.0600185  -0.0872778  0.0263765  nan  nan  nan  nan  nan  nan  -2.5  -0.3  1  0.0184859  -0.021097  -0.000390013  0  0  0  0  0  0  0  0  0  0.0150191  0.0125989  -0.025164  -0.0128644  -0.00969858  -0.0163331  -0.0137404  0.0204707  -0.0287686  0.0293795  -0.0483566  0.0148985 
1703168622.089733000  0  0  12.2196  0.0711822  -0.127802  0.0269265  nan  nan  nan  nan  nan  nan  -2.5  -0.3  1  0.0182542  -0.0224536  -0.000409884  0  0  0  0  0  0  0  0  0  0.0149839  0.0125564  -0.0252775  -0.0107016  -0.00977778  -0.0203765  -0.0136709  0.022334  -0.0288177  0.00464166  0.0171008  0.00856929 
1703168622.094736000  0  0  12.1881  0.0638012  -0.121686  0.0257829  nan  nan  nan  nan  nan  nan  -2.5  -0.3  1  0.0184107  -0.0210033  -0.000386701  0  0  0  0  0  0  0  0  0  0.0149474  0.0125286  -0.0254742  -0.0127238  -0.00954442  -0.0177257  -0.0136792  0.020811  -0.0286435  0.0205644  0.0215076  0.0208588 
1703168622.099733000  0  0  12.1727  0.0392615  -0.107172  0.0290294  nan  nan  nan  nan  nan  nan  -2.5  -0.3  1  0.0181223  -0.0201499  -0.000365178  0  0  0  0  0  0  0  0  0  0.0148777  0.0124795  -0.0255552  -0.0137656  -0.00984348  -0.016456  -0.0127466  0.0198059  -0.0289971  0.0624546  0.00194989  -0.0157261 
1703168622.104740000  0  0  12.1994  0.0409865  -0.140111  0.0301257  nan  nan  nan  nan  nan  nan  -2.5  -0.3  1  0.0171041  -0.0219571  -0.000375563  0  0  0  0  0  0  0  0  0  0.0148505  0.0124243  -0.0256916  -0.0110779  -0.0110671  -0.0180815  -0.0117235  0.0220982  -0.0292381  0.0469861  0.046208  -0.026616 
1703168622.110155000  0  0  12.2007  0.0442604  -0.160433  0.028621  nan  nan  nan  nan  nan  nan  -2.5  -0.3  1  0.0178465  -0.0206606  -0.000368731  0  0  0  0  0  0  0  0  0  0.0147865  0.0123832  -0.0258274  -0.0127213  -0.00990073  -0.0179003  -0.0122368  0.0215979  -0.029187  0.0458712  0.0955377  -0.00829999 
1703168622.114735000  0  0  12.1275  0.0361528  -0.142092  0.0286448  nan  nan  nan  nan  nan  nan  -2.5  -0.3  1  0.0172971  -0.0199767  -0.000345551  0  0  0  0  0  0  0  0  0  0.0147194  0.0123321  -0.0258649  -0.0136655  -0.0106765  -0.0126283  -0.0113784  0.0209817  -0.0292152  0.0533796  0.0632997  -0.00825943 
1703168622.119744000  0  0  12.1703  0.0194649  -0.173682  0.0312792  nan  nan  nan  nan  nan  nan  -2.5  -0.3  1  0.0158327  -0.0228291  -0.000361445  0  0  0  0  0  0  0  0  0  0.0147043  0.0122719  -0.0260037  -0.00951099  -0.0124808  -0.0153951  -0.00963169  0.024378  -0.0296323  0.0690684  0.0919645  -0.036377 
1703168622.124744000  0  0  12.2133  0.0381069  -0.191651  0.0284926  nan  nan  nan  nan  nan  nan  -2.5  -0.3  1  0.0168234  -0.021338  -0.000358984  0  0  0  0  0  0  0  0  0  0.0146312  0.0122313  -0.0261096  -0.0112948  -0.0108882  -0.0182454  -0.0105882  0.0238794  -0.029436  0.0400998  0.136231  -0.00368222 
1703168622.129751000  0  0  12.1067  0.0320166  -0.154726  0.0277246  nan  nan  nan  nan  nan  nan  -2.5  -0.3  1  0.0162385  -0.0209736  -0.000340585  0  0  0  0  0  0  0  0  0  0.0146577  0.0121791  -0.0262771  -0.0121435  -0.0117656  -0.010318  -0.00985959  0.0231358  -0.029345  0.0447763  0.065608  0.00488308 
1703168622.135126000  0  0  12.2099  0.0177388  -0.193165  0.0306583  nan  nan  nan  nan  nan  nan  -2.5  -0.3  1  0.015286  -0.023615  -0.000360973  0  0  0  0  0  0  0  0  0  0.0146781  0.0121496  -0.0264927  -0.00822211  -0.012833  -0.0172249  -0.00859599  0.0264088  -0.0297816  0.0608545  0.110378  -0.0267659 
1703168622.139749000  0  0  12.2443  0.0604589  -0.202867  0.0253893  nan  nan  nan  nan  nan  nan  -2.5  -0.3  1  0.0172893  -0.0205378  -0.000355095  0  0  0  0  0  0  0  0  0  0.0145961  0.0121226  -0.0265899  -0.0122506  -0.00985995  -0.0194722  -0.0110172  0.0243683  -0.0292098  -0.00289341  0.154657  0.0326373 
1703168622.144734000  0  0  12.1258  0.0486708  -0.160163  0.0263697  nan  nan  nan  nan  nan  nan  -2.5  -0.3  1  0.0166576  -0.0199918  -0.000333023  0  0  0  0  0  0  0  0  0  0.0146246  0.0120576  -0.0266888  -0.013379  -0.0107976  -0.0108411  -0.0103085  0.0233371  -0.0292152  0.0142296  0.0749516  0.0203669 
1703168622.149729000  0  0  12.2472  0.0274265  -0.191451  0.0305036  nan  nan  nan  nan  nan  nan  -2.5  -0.3  1  0.015449  -0.0222205  -0.000343285  0  0  0  0  0  0  0  0  0  0.0145923  0.011994  -0.0268277  -0.00985127  -0.0120946  -0.0192031  -0.00875672  0.0262899  -0.0297181  0.0419308  0.108071  -0.0255855 
1703168622.154725000  0  0  12.209  0.0588273  -0.175725  0.0273291  nan  nan  nan  nan  nan  nan  -2.5  -0.3  1  0.0171289  -0.0204154  -0.000349702  0  0  0  0  0  0  0  0  0  0.0145561  0.0119844  -0.0269433  -0.0123941  -0.00976533  -0.016236  -0.0107642  0.0246546  -0.0294352  -0.00230583  0.093163  0.0109473 
1703168622.160150000  0  0  12.1049  0.0508427  -0.140814  0.0288085  nan  nan  nan  nan  nan  nan  -2.5  -0.3  1  0.0162836  -0.0198911  -0.000323906  0  0  0  0  0  0  0  0  0  0.0145256  0.0119515  -0.026976  -0.013288  -0.0110603  -0.00876622  -0.0098413  0.0237788  -0.029587  0.00419801  0.0283801  -0.00583798 
1703168622.164735000  0  0  12.1668  0.0380543  -0.154852  0.0310184  nan  nan  nan  nan  nan  nan  -2.5  -0.3  1  0.0152098  -0.0209664  -0.000318896  0  0  0  0  0  0  0  0  0  0.0144839  0.0118925  -0.0270703  -0.0115155  -0.0122865  -0.0129893  -0.00862183  0.0251706  -0.0299401  0.0175905  0.0424705  -0.0293875 
1703168622.169729000  0  0  12.1144  0.0738075  -0.141778  0.0266437  nan  nan  nan  nan  nan  nan  -2.5  -0.3  1  0.0173106  -0.0192554  -0.000333334  0  0  0  0  0  0  0  0  0  0.0144259  0.0118952  -0.0271153  -0.0138735  -0.00944501  -0.00915522  -0.0110495  0.0234672  -0.0295399  -0.0311451  0.0340336  0.020834 
1703168622.174730000  0  0  12.0636  0.0708451  -0.117093  0.0275726  nan  nan  nan  nan  nan  nan  -2.5  -0.3  1  0.0160673  -0.0181105  -0.000290997  0  0  0  0  0  0  0  0  0  0.0143486  0.0118316  -0.0271399  -0.0153655  -0.0110994  -0.00549259  -0.0100401  0.0220914  -0.0295506  -0.0364052  -0.00307036  0.00927419 
1703168622.179727000  0  0  12.1009  0.0399191  -0.111693  0.0315443  nan  nan  nan  nan  nan  nan  -2.5  -0.3  1  0.0148958  -0.0197303  -0.000293902  0  0  0  0  0  0  0  0  0  0.0143341  0.0118079  -0.0272021  -0.0129811  -0.0126015  -0.00801908  -0.00846181  0.0233343  -0.0300816  0.0117508  -0.0289477  -0.0342978 
1703168622.184735000  0  0  12.0983  0.0699901  -0.122721  0.0275008  nan  nan  nan  nan  nan  nan  -2.5  -0.3  1  0.0165205  -0.0187707  -0.000310111  0  0  0  0  0  0  0  0  0  0.0142583  0.0117719  -0.0272442  -0.0141135  -0.0102325  -0.00774255  -0.0104764  0.0225758  -0.0296907  -0.0295518  0.00342583  0.0118666 
1703168622.189727000  0  0  12.0213  0.0652409  -0.0905295  0.0267876  nan  nan  nan  nan  nan  nan  -2.5  -0.3  1  0.0150172  -0.0171319  -0.00025728  0  0  0  0  0  0  0  0  0  0.0141943  0.0117241  -0.0272284  -0.0163784  -0.0123322  -0.00229495  -0.00915837  0.0204736  -0.0295537  -0.0345318  -0.0414176  0.0191887 
1703168622.194727000  0  0  12.0615  0.031405  -0.0932797  0.0322964  nan  nan  nan  nan  nan  nan  -2.5  -0.3  1  0.0143426  -0.0188209  -0.000269943  0  0  0  0  0  0  0  0  0  0.0141704  0.0117103  -0.0272725  -0.0138765  -0.0131641  -0.00505917  -0.00795051  0.0217413  -0.0302426  0.024125  -0.0501041  -0.0418198 
1703168622.199727000  0  0  12.0874  0.095134  -0.133909  0.0274556  nan  nan  nan  nan  nan  nan  -2.5  -0.3  1  0.0166002  -0.0169249  -0.00028097  0  0  0  0  0  0  0  0  0  0.0140789  0.0116801  -0.0273165  -0.0162086  -0.0098817  -0.00681416  -0.0111991  0.0207069  -0.029837  -0.0751534  0.0489152  0.0141983 
1703168622.204734000  0  0  12.0043  0.0844625  -0.103763  0.0263612  nan  nan  nan  nan  nan  nan  -2.5  -0.3  1  0.0155455  -0.0152421  -0.000236956  0  0  0  0  0  0  0  0  0  0.0140009  0.0116451  -0.0272888  -0.0184865  -0.0114044  -0.000967069  -0.0103127  0.0187797  -0.0296335  -0.0624686  0.00644497  0.0255159 
1703168622.209729000  0  0  12.0938  0.0404037  -0.122892  0.032824  nan  nan  nan  nan  nan  nan  -2.5  -0.3  1  0.0149764  -0.017712  -0.000265268  0  0  0  0  0  0  0  0  0  0.0139459  0.0115856  -0.0273537  -0.0147201  -0.0118712  -0.00719896  -0.0091664  0.0213386  -0.0303673  0.0188177  0.0180238  -0.0469557 
1703168622.214728000  0  0  12.0799  0.10813  -0.154835  0.0255264  nan  nan  nan  nan  nan  nan  -2.5  -0.3  1  0.0169719  -0.0157024  -0.000266515  0  0  0  0  0  0  0  0  0  0.0138634  0.0116144  -0.0273702  -0.0173198  -0.00919017  -0.00618781  -0.0122324  0.0203213  -0.0296948  -0.0911308  0.0982212  0.0367578 
1703168622.219728000  0  0  11.955  0.0757302  -0.118631  0.0283986  nan  nan  nan  nan  nan  nan  -2.5  -0.3  1  0.014819  -0.0151203  -0.000224074  0  0  0  0  0  0  0  0  0  0.0138151  0.0115739  -0.0273122  -0.0182158  -0.0122947  0.0025648  -0.0100481  0.0194894  -0.0299088  -0.0467876  0.0301606  0.00319916 
1703168622.224734000  0  0  12.0258  0.0463247  -0.135331  0.0331832  nan  nan  nan  nan  nan  nan  -2.5  -0.3  1  0.014438  -0.0166737  -0.00024074  0  0  0  0  0  0  0  0  0  0.0137498  0.0115169  -0.0273622  -0.0157476  -0.0125417  -0.00237014  -0.00924917  0.0213197  -0.0305929  0.00707382  0.0449153  -0.0487558 
1703168622.229727000  0  0  11.9434  0.112928  -0.167813  0.0264287  nan  nan  nan  nan  nan  nan  -2.5  -0.3  1  0.0161032  -0.0150895  -0.000243001  0  0  0  0  0  0  0  0  0  0.0136694  0.0115323  -0.0273225  -0.0178648  -0.0104234  0.00338434  -0.0120243  0.0207979  -0.0299897  -0.103814  0.120566  0.0289602 
1703168622.235100000  0  0  11.9172  0.078157  -0.148961  0.0289302  nan  nan  nan  nan  nan  nan  -2.5  -0.3  1  0.0149256  -0.0149946  -0.000223813  0  0  0  0  0  0  0  0  0  0.013635  0.0115107  -0.0272826  -0.0179444  -0.0120328  0.00516376  -0.0106841  0.020855  -0.0302018  -0.0446746  0.0794872  4.31412e-05 
1703168622.239725000  0  0  12.0094  0.0535144  -0.167936  0.0327865  nan  nan  nan  nan  nan  nan  -2.5  -0.3  1  0.0152055  -0.016406  -0.00024947  0  0  0  0  0  0  0  0  0  0.0135741  0.0114638  -0.0273249  -0.0156521  -0.0113528  -0.00131667  -0.0105331  0.0227996  -0.0307569  0.00642799  0.0978031  -0.0417868 
1703168622.244733000  0  0  11.9702  0.0898795  -0.184668  0.0282524  nan  nan  nan  nan  nan  nan  -2.5  -0.3  1  0.0160897  -0.0161742  -0.000260249  0  0  0  0  0  0  0  0  0  0.0135257  0.0114564  -0.027292  -0.0159093  -0.0101768  0.00138235  -0.012088  0.023405  -0.0303371  -0.0536596  0.126716  0.0102022 
1703168622.249726000  0  0  12.0007  0.0481005  -0.160016  0.0315912  nan  nan  nan  nan  nan  nan  -2.5  -0.3  1  0.0148889  -0.015324  -0.000228165  0  0  0  0  0  0  0  0  0  0.0134378  0.0113916  -0.0273037  -0.0167837  -0.0116019  -0.000757254  -0.0103805  0.0227189  -0.0307129  0.016281  0.0817478  -0.0272784 
1703168622.254727000  0  0  11.9885  0.0473197  -0.174  0.0328921  nan  nan  nan  nan  nan  nan  -2.5  -0.3  1  0.0151199  -0.0165397  -0.000250087  0  0  0  0  0  0  0  0  0  0.0134342  0.0113899  -0.0272784  -0.0151097  -0.011298  4.07289e-05  -0.0104675  0.0244342  -0.0310436  0.0189562  0.0919992  -0.0396602 
1703168622.260100000  0  0  12.0053  0.0775561  -0.199493  0.0275758  nan  nan  nan  nan  nan  nan  -2.5  -0.3  1  0.0155833  -0.0166308  -0.000259172  0  0  0  0  0  0  0  0  0  0.0134078  0.0113703  -0.0272691  -0.0148752  -0.0105696  -0.00119741  -0.0114524  0.0255294  -0.0305298  -0.034547  0.134064  0.0210383 
1703168622.264734000  0  0  12.0344  0.0580209  -0.177655  0.0280126  nan  nan  nan  nan  nan  nan  -2.5  -0.3  1  0.0149052  -0.0150754  -0.00022471  0  0  0  0  0  0  0  0  0  0.0133205  0.0113145  -0.0272894  -0.0167369  -0.0113021  -0.00321606  -0.0105198  0.0242336  -0.0305049  -0.00338821  0.102145  0.0152407 
1703168622.269725000  0  0  11.965  0.0455229  -0.172483  0.0298311  nan  nan  nan  nan  nan  nan  -2.5  -0.3  1  0.0149187  -0.0165997  -0.000247654  0  0  0  0  0  0  0  0  0  0.0132575  0.0112593  -0.0272578  -0.0145707  -0.0112469  0.00164127  -0.0103048  0.0258789  -0.0306877  0.0209378  0.0721279  -0.00543542 
1703168622.274727000  0  0  12.0233  0.0673613  -0.187585  0.027595  nan  nan  nan  nan  nan  nan  -2.5  -0.3  1  0.015394  -0.0167046  -0.000257159  0  0  0  0  0  0  0  0  0  0.0132573  0.0112611  -0.0272771  -0.0143117  -0.0104909  -0.00247834  -0.0110989  0.0266272  -0.0304214  -0.0167544  0.0959009  0.0194899 
1703168622.279730000  0  0  12.0195  0.0469835  -0.155926  0.0285458  nan  nan  nan  nan  nan  nan  -2.5  -0.3  1  0.0146833  -0.0154451  -0.000226793  0  0  0  0  0  0  0  0  0  0.0132313  0.0112347  -0.0272702  -0.0159966  -0.0114098  -0.00221143  -0.0100552  0.0252772  -0.0304497  0.0149344  0.0435481  0.00786714 
1703168622.285183000  0  0  11.964  0.0359315  -0.154104  0.0313199  nan  nan  nan  nan  nan  nan  -2.5  -0.3  1  0.014851  -0.0166639  -0.000247483  0  0  0  0  0  0  0  0  0  0.0132296  0.0112195  -0.0272296  -0.0144045  -0.0112293  0.00163904  -0.00984144  0.026443  -0.03084  0.0361729  0.0262286  -0.0223319 
1703168622.289726000  0  0  12.0237  0.0663057  -0.166071  0.0273398  nan  nan  nan  nan  nan  nan  -2.5  -0.3  1  0.0150536  -0.0155436  -0.000233995  0  0  0  0  0  0  0  0  0  0.0131536  0.011174  -0.0272622  -0.0156318  -0.0107161  -0.00253631  -0.0105046  0.0258267  -0.0304434  -0.0213282  0.0589788  0.0229658 
1703168622.294728000  0  0  12.0297  0.0491466  -0.145467  0.0287239  nan  nan  nan  nan  nan  nan  -2.5  -0.3  1  0.0144102  -0.0152606  -0.000219915  0  0  0  0  0  0  0  0  0  0.0131473  0.0111442  -0.0272584  -0.0159972  -0.0115159  -0.00296808  -0.0096127  0.0253611  -0.0305381  0.00520513  0.0201556  0.00669126 
1703168622.299725000  0  0  11.9685  0.0455688  -0.140185  0.0309285  nan  nan  nan  nan  nan  nan  -2.5  -0.3  1  0.0152001  -0.0156925  -0.000238536  0  0  0  0  0  0  0  0  0  0.0130766  0.0110982  -0.0272314  -0.0153069  -0.0103952  0.00133258  -0.0101832  0.0256572  -0.0308251  0.0194398  0.00542219  -0.0175881 
1703168622.304732000  0  0  11.9733  0.0654053  -0.140384  0.0285383  nan  nan  nan  nan  nan  nan  -2.5  -0.3  1  0.0152456  -0.0158156  -0.000241128  0  0  0  0  0  0  0  0  0  0.0130642  0.0110852  -0.0272216  -0.0150926  -0.0102869  0.000965017  -0.0105762  0.0257825  -0.030582  -0.0185731  0.0044066  0.00955664 
1703168622.309725000  0  0  12.0353  0.050171  -0.123214  0.0300627  nan  nan  nan  nan  nan  nan  -2.5  -0.3  1  0.0150903  -0.0153574  -0.000231756  0  0  0  0  0  0  0  0  0  0.0129868  0.0110334  -0.0272562  -0.0153981  -0.0102471  -0.00335534  -0.0101824  0.0250247  -0.030728  0.00956249  -0.0236906  -0.00786451 
1703168622.314728000  0  0  11.981  0.0640244  -0.118923  0.0296291  nan  nan  nan  nan  nan  nan  -2.5  -0.3  1  0.0158253  -0.0150421  -0.000238056  0  0  0  0  0  0  0  0  0  0.012979  0.011036  -0.0272185  -0.015909  -0.00933184  0.000435639  -0.0110539  0.0245207  -0.0307212  -0.0101165  -0.0270941  -0.00249136 
1703168622.319727000  0  0  12.0022  0.0593599  -0.110964  0.0298947  nan  nan  nan  nan  nan  nan  -2.5  -0.3  1  0.0151276  -0.0157035  -0.000237564  0  0  0  0  0  0  0  0  0  0.0129107  0.0109815  -0.0272289  -0.0147614  -0.0101067  -0.00105462  -0.0104334  0.0248038  -0.0307618  -0.00725313  -0.0474152  -0.00534354 
1703168622.324733000  0  0  12.0848  0.0654382  -0.122518  0.0291681  nan  nan  nan  nan  nan  nan  -2.5  -0.3  1  0.01553  -0.0155383  -0.00024132  0  0  0  0  0  0  0  0  0  0.0129043  0.0109753  -0.0272727  -0.0148239  -0.00938245  -0.00683112  -0.0109059  0.0246813  -0.030712  -0.0148504  -0.0212327  0.00319865 
1703168622.329725000  0  0  11.9443  0.0715482  -0.0991696  0.0286632  nan  nan  nan  nan  nan  nan  -2.5  -0.3  1  0.0157297  -0.0148715  -0.000233935  0  0  0  0  0  0  0  0  0  0.0128804  0.0109825  -0.0272188  -0.0159294  -0.0093795  0.00305329  -0.0112312  0.0235118  -0.0306406  -0.02421  -0.0578435  0.00869108 
1703168622.335056000  0  0  11.9515  0.0633896  -0.105188  0.0307829  nan  nan  nan  nan  nan  nan  -2.5  -0.3  1  0.0156794  -0.0160919  -0.00025232  0  0  0  0  0  0  0  0  0  0.0128787  0.0109811  -0.02721  -0.0142263  -0.0094323  0.00252314  -0.0111053  0.0243775  -0.0309033  -0.00816402  -0.0548986  -0.0148141 
1703168622.339726000  0  0  12.0689  0.0952317  -0.136772  0.0275732  nan  nan  nan  nan  nan  nan  -2.5  -0.3  1  0.016388  -0.0143734  -0.000235564  0  0  0  0  0  0  0  0  0  0.0127938  0.0109496  -0.0272768  -0.0161646  -0.0081415  -0.00567956  -0.012433  0.0233434  -0.0305596  -0.0611668  0.0247243  0.0214304 
1703168622.344734000  0  0  11.9519  0.0804588  -0.113183  0.0283072  nan  nan  nan  nan  nan  nan  -2.5  -0.3  1  0.0162866  -0.0141201  -0.000229981  0  0  0  0  0  0  0  0  0  0.0127819  0.0109492  -0.0272211  -0.0166757  -0.0085023  0.00252335  -0.0122338  0.0226676  -0.0305678  -0.0317825  -0.018082  0.0122924 
1703168622.349728000  0  0  12.0129  0.0840348  -0.139358  0.0298946  nan  nan  nan  nan  nan  nan  -2.5  -0.3  1  0.01664  -0.0155085  -0.000258075  0  0  0  0  0  0  0  0  0  0.01272  0.0109123  -0.0272502  -0.0144719  -0.00779226  -0.00176564  -0.012757  0.024312  -0.0307389  -0.033431  0.0191257  -0.00561752 
1703168622.354725000  0  0  12.0548  0.102963  -0.152646  0.027478  nan  nan  nan  nan  nan  nan  -2.5  -0.3  1  0.0169039  -0.0150205  -0.000253919  0  0  0  0  0  0  0  0  0  0.0126916  0.0109307  -0.0272835  -0.0149965  -0.00739579  -0.00467907  -0.0135295  0.024286  -0.0304451  -0.0651294  0.0479154  0.0212472 
1703168622.360099000  0  0  11.9476  0.0720761  -0.12243  0.0313478  nan  nan  nan  nan  nan  nan  -2.5  -0.3  1  0.0169552  -0.0154219  -0.000261496  0  0  0  0  0  0  0  0  0  0.0127026  0.0109368  -0.0272233  -0.0146591  -0.00755217  0.00282189  -0.0131692  0.0241341  -0.0308639  -0.00304606  -0.0151247  -0.0223947 
1703168622.364727000  0  0  11.9853  0.095076  -0.153347  0.0306373  nan  nan  nan  nan  nan  nan  -2.5  -0.3  1  0.0178426  -0.0158465  -0.00028276  0  0  0  0  0  0  0  0  0  0.0126418  0.0109139  -0.0272431  -0.0138306  -0.00618382  0.000167725  -0.0144681  0.025109  -0.030889  -0.0374209  0.039953  -0.0131537 
1703168622.369726000  0  0  12.0016  0.0957437  -0.159571  0.0289192  nan  nan  nan  nan  nan  nan  -2.5  -0.3  1  0.0171818  -0.0158999  -0.000273205  0  0  0  0  0  0  0  0  0  0.0126356  0.0109217  -0.0272576  -0.013709  -0.00708838  -0.00097375  -0.0140396  0.0255017  -0.0307297  -0.0437823  0.0487792  0.00654464 
1703168622.374731000  0  0  11.9887  0.0785793  -0.149809  0.0310229  nan  nan  nan  nan  nan  nan  -2.5  -0.3  1  0.0177348  -0.0156251  -0.000277125  0  0  0  0  0  0  0  0  0  0.0125644  0.0108942  -0.0272528  -0.0139122  -0.00627009  -5.64992e-05  -0.0142852  0.0252128  -0.0309915  -0.00415203  0.0311716  -0.0167698 
1703168622.379727000  0  0  11.9393  0.105809  -0.16404  0.0284071  nan  nan  nan  nan  nan  nan  -2.5  -0.3  1  0.0184638  -0.0160825  -0.000296965  0  0  0  0  0  0  0  0  0  0.0125856  0.0109159  -0.0272133  -0.0134287  -0.00542637  0.00335131  -0.0155399  0.0260432  -0.030738  -0.0481057  0.0521331  0.0130883 
1703168622.385235000  0  0  11.9961  0.0917616  -0.167088  0.0291848  nan  nan  nan  nan  nan  nan  -2.5  -0.3  1  0.0175449  -0.0170181  -0.000298597  0  0  0  0  0  0  0  0  0  0.0125979  0.0109323  -0.0272453  -0.0120607  -0.00662567  -0.000630359  -0.0146285  0.0271964  -0.0307957  -0.0284691  0.0454021  0.00399797 
1703168622.389731000  0  0  11.9955  0.0891302  -0.164155  0.0287298  nan  nan  nan  nan  nan  nan  -2.5  -0.3  1  0.0190588  -0.0157571  -0.000300336  0  0  0  0  0  0  0  0  0  0.0125286  0.0109224  -0.0272476  -0.0136138  -0.00449956  -0.000572935  -0.0159609  0.0261526  -0.0307537  -0.00749797  0.0511223  0.00921702 
1703168622.394725000  0  0  11.8836  0.0952301  -0.15549  0.0273215  nan  nan  nan  nan  nan  nan  -2.5  -0.3  1  0.0191038  -0.0161999  -0.000309504  0  0  0  0  0  0  0  0  0  0.0125566  0.0109307  -0.0271723  -0.013288  -0.00470785  0.00721547  -0.0161766  0.0265505  -0.0305174  -0.0180962  0.027963  0.0240885 
1703168622.399725000  0  0  12.0176  0.0657371  -0.156231  0.0296741  nan  nan  nan  nan  nan  nan  -2.5  -0.3  1  0.0176761  -0.0174193  -0.000307922  0  0  0  0  0  0  0  0  0  0.0125089  0.0108932  -0.0272323  -0.0112085  -0.00628913  -0.00219101  -0.0143817  0.0277616  -0.0307164  0.0244948  0.0156182  -0.00311456 
1703168622.404741000  0  0  12.0218  0.0757057  -0.159972  0.0281303  nan  nan  nan  nan  nan  nan  -2.5  -0.3  1  0.0190217  -0.0166373  -0.000316492  0  0  0  0  0  0  0  0  0  0.0125153  0.0109426  -0.0272453  -0.0123043  -0.00455052  -0.00245611  -0.0155934  0.0272097  -0.0305497  0.0170595  0.0299902  0.0143003 
1703168622.410154000  0  0  11.9145  0.063389  -0.14178  0.0280023  nan  nan  nan  nan  nan  nan  -2.5  -0.3  1  0.0184448  -0.0172954  -0.000319031  0  0  0  0  0  0  0  0  0  0.0125543  0.010946  -0.0271835  -0.0117151  -0.00559118  0.00504855  -0.0147387  0.0275336  -0.0304573  0.0336365  -0.0127437  0.0147971 
1703168622.414745000  0  0  12.0223  0.0533621  -0.152175  0.029369  nan  nan  nan  nan  nan  nan  -2.5  -0.3  1  0.0175601  -0.0178561  -0.000313571  0  0  0  0  0  0  0  0  0  0.0125099  0.0109154  -0.0272376  -0.010595  -0.00650407  -0.00250833  -0.0136147  0.0282109  -0.0306016  0.0422059  0.00175402  -0.000658655 
1703168622.419742000  0  0  11.9836  0.0695604  -0.161273  0.0271064  nan  nan  nan  nan  nan  nan  -2.5  -0.3  1  0.0189379  -0.0174777  -0.000331013  0  0  0  0  0  0  0  0  0  0.0125331  0.0109471  -0.0272328  -0.0112639  -0.00476383  0.000237885  -0.0149184  0.028083  -0.0303209  0.0224717  0.022733  0.0244256 
1703168622.424729000  0  0  11.9199  0.0634486  -0.146723  0.0275235  nan  nan  nan  nan  nan  nan  -2.5  -0.3  1  0.0184743  -0.0169029  -0.00031229  0  0  0  0  0  0  0  0  0  0.0124711  0.0109166  -0.0271927  -0.01201  -0.00545558  0.00468929  -0.0142797  0.0273481  -0.0302745  0.0282285  -1.22558e-05  0.0186182 
1703168622.429730000  0  0  11.9994  0.0493379  -0.146745  0.030423  nan  nan  nan  nan  nan  nan  -2.5  -0.3  1  0.0181065  -0.0181945  -0.000329457  0  0  0  0  0  0  0  0  0  0.0125219  0.0109298  -0.0272273  -0.0102064  -0.00583395  -0.000891037  -0.0135199  0.0284859  -0.0305741  0.0497443  -0.013054  -0.0142528 
1703168622.435162000  0  0  11.9673  0.0609247  -0.156604  0.0289663  nan  nan  nan  nan  nan  nan  -2.5  -0.3  1  0.0189277  -0.0186272  -0.000352591  0  0  0  0  0  0  0  0  0  0.0125461  0.0109479  -0.0272192  -0.00974263  -0.00481659  0.00136538  -0.014216  0.029026  -0.0304581  0.0329078  0.00187313  0.00267767 
1703168622.439739000  0  0  11.9155  0.0663824  -0.138068  0.0274118  nan  nan  nan  nan  nan  nan  -2.5  -0.3  1  0.0185702  -0.0167936  -0.00031188  0  0  0  0  0  0  0  0  0  0.0124798  0.0109217  -0.0271811  -0.012194  -0.00534777  0.00498459  -0.013875  0.0270518  -0.030238  0.0172822  -0.0151608  0.0195842 
1703168622.444740000  0  0  11.9547  0.0426568  -0.130208  0.0304283  nan  nan  nan  nan  nan  nan  -2.5  -0.3  1  0.017776  -0.0182024  -0.000323582  0  0  0  0  0  0  0  0  0  0.0125393  0.0109253  -0.0271967  -0.0103394  -0.00637193  0.00223542  -0.0125447  0.0280399  -0.0305783  0.0528514  -0.0433813  -0.0142688 
1703168622.449739000  0  0  11.9737  0.073167  -0.165466  0.0283321  nan  nan  nan  nan  nan  nan  -2.5  -0.3  1  0.0190345  -0.0178904  -0.000340559  0  0  0  0  0  0  0  0  0  0.0124866  0.0109122  -0.0271968  -0.0105809  -0.00455383  0.000879349  -0.0140471  0.0282875  -0.030406  0.00471376  0.0293716  0.0100301 
1703168622.454734000  0  0  11.9075  0.0780369  -0.143023  0.02607  nan  nan  nan  nan  nan  nan  -2.5  -0.3  1  0.0188961  -0.0159346  -0.000301124  0  0  0  0  0  0  0  0  0  0.0124908  0.0109204  -0.0271761  -0.0134234  -0.00491262  0.00555381  -0.0139362  0.0262244  -0.0300616  -0.00700351  0.00498137  0.03434 
1703168622.460160000  0  0  11.9397  0.0297126  -0.124859  0.0322177  nan  nan  nan  nan  nan  nan  -2.5  -0.3  1  0.0178091  -0.019052  -0.000339314  0  0  0  0  0  0  0  0  0  0.012547  0.0109339  -0.0272019  -0.0092201  -0.00638189  0.00332049  -0.0119288  0.028525  -0.0307583  0.0735212  -0.060431  -0.0346133 
1703168622.464739000  0  0  11.9829  0.0656211  -0.170458  0.0295775  nan  nan  nan  nan  nan  nan  -2.5  -0.3  1  0.0190959  -0.0194305  -0.000371066  0  0  0  0  0  0  0  0  0  0.0125073  0.0109266  -0.0272148  -0.00848619  -0.00448985  0.000260107  -0.0135955  0.0296315  -0.0305742  0.015699  0.0246144  -0.00361264 
1703168622.469751000  0  0  11.8819  0.0682183  -0.128167  0.0281353  nan  nan  nan  nan  nan  nan  -2.5  -0.3  1  0.0179479  -0.0174389  -0.000313009  0  0  0  0  0  0  0  0  0  0.0125276  0.0109101  -0.0271782  -0.0115088  -0.00624221  0.00738097  -0.0125185  0.0271595  -0.0303832  -0.00225974  -0.0376299  0.0122306 
1703168622.474745000  0  0  11.9181  0.0197719  -0.118423  0.0332383  nan  nan  nan  nan  nan  nan  -2.5  -0.3  1  0.0169103  -0.0196181  -0.000331757  0  0  0  0  0  0  0  0  0  0.0125023  0.0108726  -0.0271765  -0.00836201  -0.00749135  0.00480677  -0.0105313  0.0286323  -0.0310674  0.0787601  -0.0754672  -0.0437286 
1703168622.479749000  0  0  11.99  0.092474  -0.199043  0.0262378  nan  nan  nan  nan  nan  nan  -2.5  -0.3  1  0.0189845  -0.0198563  -0.000376982  0  0  0  0  0  0  0  0  0  0.0125282  0.0109291  -0.0272562  -0.00793872  -0.00463539  -0.000171598  -0.0135503  0.0303392  -0.030405  -0.0424001  0.0777667  0.0363676 
1703168622.484731000  0  0  11.8906  0.0819976  -0.157249  0.0245918  nan  nan  nan  nan  nan  nan  -2.5  -0.3  1  0.0183307  -0.0177731  -0.000325813  0  0  0  0  0  0  0  0  0  0.0124593  0.0108969  -0.0271868  -0.0108379  -0.00566074  0.00677276  -0.0129265  0.0279294  -0.0299988  -0.0271121  0.0158715  0.0521822 
1703168622.489748000  0  0  11.9864  0.0556581  -0.173829  0.0311473  nan  nan  nan  nan  nan  nan  -2.5  -0.3  1  0.0178768  -0.02113  -0.000377748  0  0  0  0  0  0  0  0  0  0.0125761  0.0108878  -0.0272422  -0.00631799  -0.00606155  5.1929e-05  -0.012098  0.0312258  -0.0306429  0.0198348  0.0135019  -0.0225374 
1703168622.494747000  0  0  12.0125  0.0915166  -0.213943  0.0266278  nan  nan  nan  nan  nan  nan  -2.5  -0.3  1  0.0185453  -0.0215739  -0.000400109  0  0  0  0  0  0  0  0  0  0.0125792  0.0108707  -0.0272589  -0.00564424  -0.00503034  -0.00180419  -0.0134488  0.0326122  -0.0301306  -0.0415149  0.083565  0.028154 
1703168622.499746000  0  0  11.9322  0.066971  -0.163471  0.0263927  nan  nan  nan  nan  nan  nan  -2.5  -0.3  1  0.0181384  -0.0195613  -0.000354827  0  0  0  0  0  0  0  0  0  0.0125196  0.0108405  -0.0272054  -0.00845499  -0.00567826  0.00382925  -0.0127403  0.0301132  -0.0299201  0.00296601  0.00409056  0.0285747 
1703168622.504743000  0  0  11.9715  0.0611233  -0.172552  0.029281  nan  nan  nan  nan  nan  nan  -2.5  -0.3  1  0.0176786  -0.0216282  -0.000382365  0  0  0  0  0  0  0  0  0  0.0126673  0.0108293  -0.0272607  -0.00592256  -0.00620067  0.00113119  -0.01223  0.0321049  -0.0301932  0.0096345  0.000648402  -0.00447583 
1703168622.510177000  0  0  11.9765  0.079265  -0.198398  0.0274757  nan  nan  nan  nan  nan  nan  -2.5  -0.3  1  0.0180493  -0.0228521  -0.000412472  0  0  0  0  0  0  0  0  0  0.0127541  0.0108239  -0.0273111  -0.00445905  -0.00566204  0.000855283  -0.0129029  0.0337643  -0.0299673  -0.0215246  0.0369789  0.0155163 
1703168622.514747000  0  0  11.9488  0.0762206  -0.179712  0.0275662  nan  nan  nan  nan  nan  nan  -2.5  -0.3  1  0.0183745  -0.0210176  -0.000386203  0  0  0  0  0  0  0  0  0  0.0127095  0.0108022  -0.0272888  -0.00694153  -0.00520876  0.0027972  -0.0131499  0.0318687  -0.0299171  -0.0121558  0.0187181  0.0137721 
1703168622.519746000  0  0  11.9495  0.0618472  -0.174933  0.028844  nan  nan  nan  nan  nan  nan  -2.5  -0.3  1  0.017019  -0.0229311  -0.000390268  0  0  0  0  0  0  0  0  0  0.0128842  0.0107519  -0.0273643  -0.00479071  -0.00693773  0.00289431  -0.0118375  0.0334137  -0.0300205  0.00356652  -0.00930318  -0.00105846 
1703168622.524748000  0  0  11.966  0.0576199  -0.187267  0.029039  nan  nan  nan  nan  nan  nan  -2.5  -0.3  1  0.017037  -0.0244023  -0.00041574  0  0  0  0  0  0  0  0  0  0.0128777  0.0107219  -0.0273638  -0.00269185  -0.0067958  0.00170465  -0.0117655  0.0349335  -0.0300607  0.0118029  -0.000339264  -0.00302736 
1703168622.529752000  0  0  11.9649  0.0750846  -0.178027  0.0248557  nan  nan  nan  nan  nan  nan  -2.5  -0.3  1  0.0176881  -0.0221053  -0.000391009  0  0  0  0  0  0  0  0  0  0.0129389  0.0107234  -0.0274087  -0.00604685  -0.00590117  0.00189358  -0.0125591  0.0326765  -0.0295515  -0.0165162  0.00581421  0.0434708 
1703168622.534733000  0  0  11.9034  0.0479752  -0.150121  0.0279252  nan  nan  nan  nan  nan  nan  -2.5  -0.3  1  0.0159725  -0.0226428  -0.000361662  0  0  0  0  0  0  0  0  0  0.0129189  0.0106735  -0.0273621  -0.0054098  -0.00824648  0.00617904  -0.0105563  0.0325371  -0.0297937  0.0185724  -0.05242  0.00776838 
1703168622.539749000  0  0  12.0054  0.045237  -0.177465  0.0288072  nan  nan  nan  nan  nan  nan  -2.5  -0.3  1  0.0166658  -0.0255507  -0.000425816  0  0  0  0  0  0  0  0  0  0.0131006  0.0106464  -0.027488  -0.00161793  -0.0070207  -0.000821898  -0.0111232  0.0352722  -0.0299193  0.0309655  -0.0252534  -0.00181482 
1703168622.545192000  0  0  11.9819  0.0672727  -0.164202  0.023757  nan  nan  nan  nan  nan  nan  -2.5  -0.3  1  0.0171476  -0.0240126  -0.000411758  0  0  0  0  0  0  0  0  0  0.0131491  0.0106412  -0.0275337  -0.00395654  -0.00638374  0.000961754  -0.0118128  0.0334813  -0.0292387  -0.0083512  -0.03309  0.053523 
1703168622.549702000  0  0  11.9254  0.0114983  -0.119165  0.030488  nan  nan  nan  nan  nan  nan  -2.5  -0.3  1  0.0151118  -0.0252501  -0.000381563  0  0  0  0  0  0  0  0  0  0.0131452  0.0105898  -0.0274949  -0.00239843  -0.0091571  0.00491911  -0.00892844  0.0334733  -0.0298959  0.0780603  -0.129569  -0.023246 
1703168622.554698000  0  0  12.0219  0.0288801  -0.140951  0.0301855  nan  nan  nan  nan  nan  nan  -2.5  -0.3  1  0.0160152  -0.0265951  -0.000425912  0  0  0  0  0  0  0  0  0  0.0132827  0.0105856  -0.0276276  -0.00063515  -0.00772275  -0.001654  -0.00987927  0.0344257  -0.0299814  0.0517281  -0.0938098  -0.0184093 
1703168622.560176000  0  0  11.9428  0.0642393  -0.124827  0.0236116  nan  nan  nan  nan  nan  nan  -2.5  -0.3  1  0.0165707  -0.0250183  -0.000414565  0  0  0  0  0  0  0  0  0  0.0133538  0.0105551  -0.0276355  -0.00325849  -0.00701597  0.0040117  -0.0109654  0.0321245  -0.0291457  -0.0115955  -0.101911  0.0542323 
1703168622.564694000  0  0  11.9452  0.029241  -0.102483  0.0268426  nan  nan  nan  nan  nan  nan  -2.5  -0.3  1  0.0151198  -0.0250761  -0.000379135  0  0  0  0  0  0  0  0  0  0.0133439  0.0105073  -0.0276271  -0.00314594  -0.0088791  0.00384183  -0.0089488  0.0312678  -0.0293804  0.0402499  -0.139966  0.0164075 
1703168622.569747000  0  0  11.9769  0.047575  -0.118248  0.0264641  nan  nan  nan  nan  nan  nan  -2.5  -0.3  1  0.016333  -0.0259609  -0.000424011  0  0  0  0  0  0  0  0  0  0.0134332  0.0105253  -0.0277133  -0.00208043  -0.00719666  0.00178267  -0.0101785  0.0316715  -0.0292625  0.0150844  -0.110806  0.0197485 
1703168622.574747000  0  0  11.9506  0.0621599  -0.117929  0.023757  nan  nan  nan  nan  nan  nan  -2.5  -0.3  1  0.0163989  -0.0251517  -0.000412453  0  0  0  0  0  0  0  0  0  0.0134131  0.0104897  -0.0276875  -0.00322139  -0.00705445  0.00361169  -0.0105082  0.0304757  -0.0287948  -0.0123966  -0.0977335  0.0481734 
1703168622.579875000  0  0  11.9546  0.0268626  -0.101369  0.0282559  nan  nan  nan  nan  nan  nan  -2.5  -0.3  1  0.0158546  -0.0255267  -0.000404705  0  0  0  0  0  0  0  0  0  0.0134931  0.0104751  -0.0277591  -0.00291928  -0.00775805  0.0034991  -0.00935256  0.0299659  -0.0290847  0.0499949  -0.127376  -0.00493868 
1703168622.585102000  0  0  11.9553  0.0387281  -0.110765  0.0283259  nan  nan  nan  nan  nan  nan  -2.5  -0.3  1  0.0162729  -0.026658  -0.000433788  0  0  0  0  0  0  0  0  0  0.0135653  0.0104726  -0.0278264  -0.00155788  -0.00717307  0.00360781  -0.00973216  0.0305075  -0.0291037  0.0289192  -0.113461  -0.00559011 
1703168622.589752000  0  0  12.0118  0.0718791  -0.141129  0.0251845  nan  nan  nan  nan  nan  nan  -2.5  -0.3  1  0.0163399  -0.0252492  -0.000412563  0  0  0  0  0  0  0  0  0  0.0135422  0.0104414  -0.027847  -0.00327462  -0.00688447  -0.000376415  -0.0103853  0.0294804  -0.0287203  -0.0346506  -0.036537  0.0293147 
1703168622.595176000  0  0  11.9935  0.0477579  -0.11457  0.0266288  nan  nan  nan  nan  nan  nan  -2.5  -0.3  1  0.0152673  -0.0242753  -0.000370612  0  0  0  0  0  0  0  0  0  0.0135948  0.0104237  -0.027908  -0.00482969  -0.00835513  0.00106671  -0.00898179  0.0278032  -0.0287937  0.000924579  -0.0741904  0.0120264 
1703168622.599749000  0  0  11.9833  0.0496962  -0.124981  0.0276917  nan  nan  nan  nan  nan  nan  -2.5  -0.3  1  0.0155229  -0.0252524  -0.000391981  0  0  0  0  0  0  0  0  0  0.0135911  0.010392  -0.0278945  -0.0034937  -0.0079301  0.00176826  -0.00923024  0.028563  -0.02892  -0.000373317  -0.0606077  0.000174007 
1703168622.604748000  0  0  12.082  0.105918  -0.177402  0.021943  nan  nan  nan  nan  nan  nan  -2.5  -0.3  1  0.0163023  -0.024459  -0.000398732  0  0  0  0  0  0  0  0  0  0.0135895  0.0103689  -0.0279601  -0.00430738  -0.00659853  -0.00513991  -0.0112241  0.028833  -0.0281115  -0.097989  0.0486889  0.0627603 
1703168622.610173000  0  0  12.0161  0.0449849  -0.124025  0.0284172  nan  nan  nan  nan  nan  nan  -2.5  -0.3  1  0.0150933  -0.0250262  -0.000377718  0  0  0  0  0  0  0  0  0  0.0136774  0.0103714  -0.0280415  -0.0039569  -0.00840906  -0.000256451  -0.00915223  0.0282356  -0.0287097  0.00883133  -0.0588905  -0.011489 
1703168622.614743000  0  0  12.0209  0.0494262  -0.144257  0.0306099  nan  nan  nan  nan  nan  nan  -2.5  -0.3  1  0.0160743  -0.0268712  -0.000431921  0  0  0  0  0  0  0  0  0  0.0136832  0.0103487  -0.0280475  -0.00139357  -0.0069752  -0.000582769  -0.0100617  0.0300055  -0.0290934  0.00977083  -0.0358699  -0.0344534 
1703168622.619790000  0  0  12.0616  0.100068  -0.180485  0.0242975  nan  nan  nan  nan  nan  nan  -2.5  -0.3  1  0.0162306  -0.0254032  -0.0004123  0  0  0  0  0  0  0  0  0  0.0136789  0.0103203  -0.0280973  -0.00330152  -0.00660002  -0.00339732  -0.0113113  0.0294224  -0.0283903  -0.0844419  0.0485204  0.0364975 
1703168622.624740000  0  0  12.0481  0.0554925  -0.146699  0.0189002  nan  nan  nan  nan  nan  nan  -2.5  -0.3  1  0.015138  -0.0247039  -0.010374  2e-07  2e-07  2e-07  0  0  0  0.000125  0.000125  0.000125  0.0136572  0.0102702  -0.0280992  -0.00403017  -0.00833296  -0.00241612  -0.00948093  0.0283804  -0.0188031  -0.00991799  -0.011937  -0.011156 
1703168622.629687000  0  0  12.0424  0.0643902  -0.168685  0.0200617  nan  nan  nan  nan  nan  nan  -2.5  -0.3  1  0.0166569  -0.0263802  -0.0104394  1.7e-06  1.7e-06  1.7e-06  0  0  0  0.0005  0.0005  0.0005  0.0137636  0.0102981  -0.028154  -0.00194102  -0.00628315  -0.001867  -0.0110128  0.0301972  -0.0190291  -0.0113735  0.0143034  -0.0230466 
1703168622.635157000  0  0  12.0518  0.0978653  -0.185851  0.0146668  nan  nan  nan  nan  nan  nan  -2.5  -0.3  1  0.0159873  -0.02588  -0.0104137  5.6e-06  5.6e-06  5.6e-06  0  0  0  0.001125  0.001125  0.001125  0.0137924  0.0102546  -0.0282242  -0.00261745  -0.00698418  -0.00236477  -0.0113515  0.0302191  -0.0183728  -0.0792558  0.05086  0.036923 
1703168622.639740000  0  0  12.0941  0.0436544  -0.155776  0.020496  nan  nan  nan  nan  nan  nan  -2.5  -0.3  1  0.014776  -0.0253904  -0.0103753  1.33e-05  1.33e-05  1.33e-05  0  0  0  0.002  0.002  0.002  0.013777  0.0102105  -0.0282607  -0.00303495  -0.0083531  -0.00520765  -0.00937632  0.0292917  -0.0190187  0.0142623  -0.00295787  -0.0286362 
1703168622.644731000  0  0  12.0369  0.0665352  -0.170979  0.0222582  nan  nan  nan  nan  nan  nan  -2.5  -0.3  1  0.0162058  -0.025502  -0.0104136  2.6e-05  2.6e-05  2.6e-05  0  0  0  0.003125  0.003125  0.003125  0.0137646  0.0101909  -0.0282455  -0.00284358  -0.00625854  -0.00108464  -0.0110777  0.0296837  -0.0193949  -0.015227  0.0251305  -0.0462736 
1703168622.649738000  0  0  12.0789  0.0599139  -0.169563  0.0233057  nan  nan  nan  nan  nan  nan  -2.5  -0.3  1  0.0143595  -0.0256488  -0.0103688  4.5e-05  4.5e-05  4.5e-05  0  0  0  0.0045  0.0045  0.0045  0.0137945  0.0101471  -0.0283119  -0.00244409  -0.00845408  -0.00383752  -0.00946512  0.0299066  -0.0197274  -0.0195804  0.0195296  -0.0554458 
1703168622.654732000  0  0  12.1439  0.0276372  -0.162158  0.0274089  nan  nan  nan  nan  nan  nan  -2.5  -0.299999  1  0.0139328  -0.0251898  -0.0103519  7.15e-05  7.15e-05  7.15e-05  0  0  0  0.006125  0.006125  0.006125  0.0138247  0.0101144  -0.0284031  -0.00277323  -0.00863347  -0.00812193  -0.00844364  0.0293696  -0.020568  0.0378773  0.00982869  -0.0969411 
1703168622.660201000  0  0  11.9973  0.0631969  -0.167215  0.0247242  nan  nan  nan  nan  nan  nan  -2.5  -0.299999  1  0.0146159  -0.0251694  -0.0103696  0.0001067  0.0001067  0.0001067  0  0  0  0.008  0.008  0.008  0.0138703  0.0100849  -0.0283936  -0.00310216  -0.00758739  0.00241905  -0.00971354  0.0294505  -0.020683  -0.0237621  0.019742  -0.0617752 
1703168622.664738000  0  0  12.0427  0.0482975  -0.166208  0.0249784  nan  nan  nan  nan  nan  nan  -2.5  -0.299998  1  0.0131076  -0.0256773  -0.0103392  0.0001519  0.0001519  0.0001519  0  0  0  0.010125  0.010125  0.010125  0.0138674  0.0100371  -0.0284247  -0.00199597  -0.00920221  -0.000574598  -0.00819167  0.0299628  -0.0209582  -0.00932223  0.0116902  -0.0616556 
1703168622.669727000  0  0  12.1274  0.0449853  -0.165995  0.0254848  nan  nan  nan  nan  nan  nan  -2.5  -0.299997  1  0.0136726  -0.0242185  -0.0103353  0.0002083  0.0002083  0.0002083  0  0  0  0.0125  0.0125  0.0125  0.013898  0.0100183  -0.0285233  -0.00355411  -0.00789733  -0.0061955  -0.00864843  0.0286743  -0.0213104  0.00303451  0.0260549  -0.0637831 
1703168622.674728000  0  0  12.0161  0.0503471  -0.151635  0.0246915  nan  nan  nan  nan  nan  nan  -2.5  -0.299996  1  0.0132809  -0.0238695  -0.0103231  0.0002773  0.0002773  0.0002773  0  0  0  0.015125  0.015125  0.015125  0.01388  0.00997786  -0.0284739  -0.00396106  -0.00814837  0.0018238  -0.00843631  0.028155  -0.021485  -0.0109026  0.00123976  -0.0516964 
1703168622.679727000  0  0  12.1411  0.037454  -0.155277  0.0253364  nan  nan  nan  nan  nan  nan  -2.49999  -0.299995  1.00001  0.0121799  -0.0248298  -0.010311  0.00036  0.00036  0.00036  0  0  0  0.018  0.018  0.018  0.0139319  0.00994068  -0.0285977  -0.00205044  -0.00903416  -0.00656804  -0.00727963  0.0290365  -0.0218148  0.00343648  -0.0010925  -0.0558357 
1703168622.685140000  0  0  12.1926  0.0449508  -0.160573  0.0239193  nan  nan  nan  nan  nan  nan  -2.49999  -0.299993  1.00001  0.012341  -0.0235591  -0.0103026  0.0004577  0.0004577  0.0004577  0  0  0  0.021125  0.021125  0.021125  0.0139751  0.00991465  -0.0286975  -0.00340106  -0.0082321  -0.00976901  -0.00758901  0.0280345  -0.021875  -0.00907928  0.0217892  -0.0372786 
1703168622.689733000  0  0  12.0741  0.0428124  -0.135269  0.0246877  nan  nan  nan  nan  nan  nan  -2.49999  -0.29999  1.00001  0.0119215  -0.0231402  -0.0102919  0.0005717  0.0005717  0.0005717  0  0  0  0.0245  0.0245  0.0245  0.0139589  0.00987621  -0.0286526  -0.00382596  -0.00842359  -0.00115898  -0.007223  0.027192  -0.0221142  -0.00870462  -0.0227749  -0.0440645 
1703168622.694747000  0  0  12.1882  0.041563  -0.137649  0.0260052  nan  nan  nan  nan  nan  nan  -2.49999  -0.299987  1.00001  0.0109429  -0.0235019  -0.0102783  0.0007031  0.0007031  0.0007031  0  0  0  0.028125  0.028125  0.028125  0.0140261  0.00984458  -0.0287821  -0.00273614  -0.00908525  -0.00871009  -0.00641369  0.027433  -0.0224994  -0.0153362  -0.0204451  -0.0559985 
1703168622.699748000  0  0  12.1845  0.0512092  -0.135546  0.0246819  nan  nan  nan  nan  nan  nan  -2.49998  -0.299983  1.00002  0.0108479  -0.0222469  -0.0102686  0.0008533  0.0008533  0.0008533  0  0  0  0.032  0.032  0.032  0.0139958  0.00980621  -0.0288199  -0.00391897  -0.00858625  -0.00804947  -0.00660609  0.0262244  -0.0225643  -0.0338065  -0.0110507  -0.038565 
1703168622.704742000  0  0  12.1457  0.0545271  -0.123013  0.0253157  nan  nan  nan  nan  nan  nan  -2.49998  -0.299978  1.00002  0.0112075  -0.0225851  -0.0102879  0.0010235  0.0010235  0.0010235  0  0  0  0.036125  0.036125  0.036125  0.0142448  0.00989075  -0.0290161  -0.00370003  -0.00782992  -0.00454685  -0.00712061  0.0261926  -0.022821  -0.0350018  -0.0375577  -0.0434465 
1703168622.710125000  0  0  12.2668  0.0575487  -0.12299  0.0260028  nan  nan  nan  nan  nan  nan  -2.49997  -0.299973  1.00003  0.0106211  -0.0230523  -0.0102885  0.001215  0.001215  0.001215  0  0  0  0.0405  0.0405  0.0405  0.014303  0.00996395  -0.0294668  -0.00231624  -0.0081448  -0.0118657  -0.00679795  0.0267011  -0.0231118  -0.0451928  -0.0434562  -0.0485876 
1703168622.714754000  0  0  12.2689  0.0618592  -0.130553  0.0266362  nan  nan  nan  nan  nan  nan  -2.49997  -0.299966  1.00003  0.0102298  -0.0225413  -0.0102849  0.001429  0.001429  0.001429  0  0  0  0.045125  0.045125  0.045125  0.0142989  0.00992902  -0.0295049  -0.00241972  -0.00798104  -0.0115652  -0.00674113  0.0262595  -0.0233889  -0.0550894  -0.0221611  -0.0532164 
1703168622.719744000  0  0  12.227  0.0787982  -0.116498  0.0252364  nan  nan  nan  nan  nan  nan  -2.49996  -0.299958  1.00004  0.0108859  -0.0212947  -0.0102985  0.0016667  0.0016667  0.0016667  0  0  0  0.05  0.05  0.05  0.0144709  0.00997787  -0.0296365  -0.00412588  -0.00658072  -0.00791344  -0.0078716  0.0247848  -0.023441  -0.0784054  -0.0353313  -0.0349747 
1703168622.724746000  0  0  12.2685  0.072891  -0.114277  0.0264287  nan  nan  nan  nan  nan  nan  -2.49995  -0.299949  1.00005  0.00957809  -0.0216557  -0.0102884  0.0019294  0.0019294  0.0019294  0  0  0  0.055125  0.055125  0.055125  0.0144677  0.00993482  -0.029704  -0.00284573  -0.00759134  -0.010307  -0.00693842  0.0249086  -0.0237358  -0.0764746  -0.0415185  -0.0464241 
1703168622.729745000  0  0  12.3533  0.08237  -0.147718  0.0265506  nan  nan  nan  nan  nan  nan  -2.49994  -0.299939  1.00006  0.0103161  -0.020997  -0.0103142  0.0022183  0.0022183  0.0022183  0  0  0  0.0605  0.0605  0.0605  0.0145033  0.0100148  -0.0300828  -0.00295352  -0.00595483  -0.0151251  -0.0080455  0.0251155  -0.0239526  -0.0840636  0.0278083  -0.045345 
1703168622.735168000  0  0  12.2735  0.0967194  -0.123817  0.0255657  nan  nan  nan  nan  nan  nan  -2.49993  -0.299927  1.00007  0.010624  -0.0190997  -0.0103195  0.0025348  0.0025348  0.0025348  0  0  0  0.066125  0.066125  0.066125  0.0146114  0.0100593  -0.0301443  -0.00540004  -0.00496832  -0.00887103  -0.00897066  0.0230694  -0.0240302  -0.104189  9.73186e-05  -0.0320168 
1703168622.739741000  0  0  12.3567  0.0739677  -0.126116  0.0293131  nan  nan  nan  nan  nan  nan  -2.49991  -0.299914  1.00009  0.00855861  -0.0206854  -0.0103152  0.00288  0.00288  0.00288  0  0  0  0.072  0.072  0.072  0.0146118  0.0100187  -0.0302404  -0.00220735  -0.00695124  -0.0141087  -0.00710892  0.0245118  -0.0246238  -0.0768219  -0.0115678  -0.0720114 
1703168622.744743000  0  0  12.4358  0.0903826  -0.161368  0.028354  nan  nan  nan  nan  nan  nan  -2.4999  -0.299898  1.0001  0.00921209  -0.0199524  -0.0103466  0.0032552  0.0032552  0.003255  0  0  0  0.078125  0.078125  0.0779792  0.0146889  0.0101075  -0.0304213  -0.00247125  -0.00536951  -0.0188887  -0.00827472  0.0247165  -0.0248351  -0.0986076  0.0616663  -0.0573979 
1703168622.749742000  0  0  12.2958  0.0767666  -0.113739  0.028081  nan  nan  nan  nan  nan  nan  -2.49988  -0.299881  1.00012  0.00856261  -0.0173997  -0.0103394  0.0036617  0.0036617  0.0036594  0  0  0  0.0845  0.0845  0.0837224  0.0146475  0.0100812  -0.0304183  -0.00547614  -0.00548655  -0.00846387  -0.0078337  0.0217387  -0.0250139  -0.0744852  -0.006204  -0.0518073 
1703168622.754752000  0  0  12.3344  0.0565022  -0.125337  0.0315467  nan  nan  nan  nan  nan  nan  -2.49986  -0.299862  1.00014  0.00705162  -0.0192997  -0.0103575  0.0041006  0.0041006  0.0040918  0  0  0  0.091125  0.091125  0.0892156  0.0148043  0.0101001  -0.0305066  -0.0022812  -0.00681112  -0.0105923  -0.00633552  0.0236809  -0.0257312  -0.0482688  -0.00367946  -0.0867672 
1703168622.760229000  0  0  12.3952  0.0871911  -0.176515  0.0274147  nan  nan  nan  nan  nan  nan  -2.49984  -0.29984  1.00016  0.00705981  -0.0179103  -0.0103824  0.0045733  0.0045733  0.0045511  0  0  0  0.098  0.098  0.0944588  0.0149031  0.0101205  -0.0306098  -0.00350813  -0.00588262  -0.0143004  -0.00718933  0.0237043  -0.025606  -0.104251  0.105791  -0.0362863 
1703168622.764747000  0  0  12.2785  0.0680356  -0.137521  0.0274001  nan  nan  nan  nan  nan  nan  -2.49982  -0.299816  1.00018  0.00638521  -0.0157363  -0.010395  0.005081  0.005081  0.005036  0  0  0  0.105125  0.105125  0.099452  0.0148718  0.0100942  -0.0305925  -0.00581837  -0.00588758  -0.00562269  -0.00654696  0.0213204  -0.0257049  -0.0705668  0.0496025  -0.0349108 
1703168622.770206000  0  0  12.3418  0.0678296  -0.175569  0.0292037  nan  nan  nan  nan  nan  nan  -2.49979  -0.299789  1.00021  0.00461001  -0.0177921  -0.010419  0.005625  0.005625  0.0055452  0  0  0  0.1125  0.1125  0.104195  0.0150135  0.010097  -0.0306638  -0.00222407  -0.00744039  -0.00962048  -0.00529913  0.02421  -0.0261003  -0.0844805  0.0979449  -0.0528388 
1703168622.774728000  0  0  12.3622  0.0682023  -0.178592  0.0268208  nan  nan  nan  nan  nan  nan  -2.49976  -0.299759  1.00024  0.00389758  -0.0162854  -0.0104472  0.0062065  0.0062065  0.0060775  0  0  0  0.120125  0.120125  0.108688  0.0149902  0.0100662  -0.0307195  -0.00327426  -0.00733375  -0.0105926  -0.00499682  0.0233869  -0.0259489  -0.0887577  0.113895  -0.0246804 
1703168622.779742000  0  0  12.2675  0.0516869  -0.136909  0.0273513  nan  nan  nan  nan  nan  nan  -2.49973  -0.299727  1.00027  0.00384872  -0.0144183  -0.0104904  0.0068267  0.0068267  0.0066317  0  0  0  0.128  0.128  0.112932  0.0150873  0.0100754  -0.030692  -0.00533765  -0.00640495  -0.00356094  -0.00486055  0.0212823  -0.0260865  -0.0549122  0.048728  -0.0296971 
1703168622.785197000  0  0  12.2749  0.0431533  -0.158272  0.0276663  nan  nan  nan  nan  nan  nan  -2.49969  -0.299691  1.00031  0.00172007  -0.01518  -0.0105168  0.0074869  0.0074869  0.0072064  0  0  0  0.136125  0.136125  0.116925  0.0151979  0.0100682  -0.0307073  -0.00351786  -0.00834165  -0.00374904  -0.00300306  0.0227328  -0.0262398  -0.0579832  0.0778491  -0.0318135 
1703168622.789749000  0  0  12.3002  0.0339168  -0.159396  0.0278228  nan  nan  nan  nan  nan  nan  -2.49965  -0.299652  1.00034  0.000906507  -0.0139217  -0.0105639  0.0081883  0.0081883  0.0078005  0  0  0  0.1445  0.1445  0.120668  0.0151753  0.0100323  -0.0307402  -0.00410621  -0.00827002  -0.00517547  -0.00229453  0.0219933  -0.026346  -0.0463291  0.088767  -0.032501 
1703168622.794748000  0  0  12.2569  0.0488395  -0.147881  0.0260357  nan  nan  nan  nan  nan  nan  -2.49961  -0.299609  1.00038  0.0011416  -0.0115527  -0.0106301  0.0089323  0.0089323  0.0084127  0  0  0  0.153125  0.153125  0.124161  0.0152691  0.0100318  -0.0307147  -0.00665697  -0.00676799  -0.00185901  -0.00292703  0.0200322  -0.0261928  -0.0710505  0.0866363  -0.0118625 
1703168622.799746000  0  0  12.2247  0.0178412  -0.139167  0.0293515  nan  nan  nan  nan  nan  nan  -2.49956  -0.299563  1.00043  -0.00239936  -0.0120468  -0.0106587  0.00972  0.00972  0.0090417  0  0  0  0.162  0.162  0.127404  0.0152555  0.00996787  -0.0307163  -0.00484647  -0.0104311  0.000690605  0.000509901  0.0207395  -0.0266012  -0.0441221  0.0598143  -0.0486608 
1703168622.804739000  0  0  12.2924  0.00688756  -0.155784  0.0307791  nan  nan  nan  nan  nan  nan  -2.49951  -0.299512  1.00047  -0.00295576  -0.0125661  -0.0107265  0.0105527  0.0105527  0.0096863  0  0  0  0.171125  0.171125  0.130398  0.0153543  0.00998196  -0.0307431  -0.00309985  -0.0100873  -0.0038348  0.00114449  0.0218592  -0.0269802  -0.0279352  0.0825645  -0.0620535 
1703168622.810118000  0  0  12.1954  0.0502739  -0.144431  0.0254731  nan  nan  nan  nan  nan  nan  -2.49946  -0.299457  1.00052  -0.00335417  -0.00909264  -0.0108145  0.0114317  0.0114317  0.0103453  0  0  0  0.1805  0.1805  0.133141  0.0154446  0.00995861  -0.0306606  -0.00716241  -0.00926047  0.00312909  0.000522378  0.018969  -0.0264887  -0.113809  0.0914704  -0.00121656 
1703168622.814741000  0  0  12.1474  -0.00164151  -0.117322  0.0315684  nan  nan  nan  nan  nan  nan  -2.4994  -0.299398  1.00058  -0.00718832  -0.00980433  -0.0108614  0.0123581  0.0123581  0.0110173  0  0  0  0.190125  0.190125  0.135634  0.0154337  0.00988266  -0.0306357  -0.00497262  -0.013151  0.00669748  0.00451687  0.0193876  -0.0272377  -0.0484437  0.0285265  -0.0688812 
1703168622.819740000  0  0  12.2504  0.0147918  -0.150741  0.0312682  nan  nan  nan  nan  nan  nan  -2.49933  -0.299333  1.00063  -0.00685875  -0.00945429  -0.0109597  0.0133333  0.0133333  0.0117012  0  0  0  0.2  0.2  0.137877  0.0155026  0.00990876  -0.0306682  -0.00424125  -0.0115394  -0.000385505  0.00376133  0.0199396  -0.027465  -0.0749888  0.0938343  -0.0623648 
1703168622.824808000  0  0  12.1326  0.0553768  -0.129953  0.024869  nan  nan  nan  nan  nan  nan  -2.49926  -0.299264  1.00069  -0.00761747  -0.00540369  -0.0110816  0.0143585  0.0143585  0.0123957  0  0  0  0.210125  0.210125  0.13987  0.0154438  0.00986301  -0.0305937  -0.00856005  -0.0109819  0.00802941  0.00324211  0.0163749  -0.0267898  -0.15604  0.0902705  0.0100134 
1703168622.829744000  0  0  12.1348  -0.0148553  -0.10537  0.0331201  nan  nan  nan  nan  nan  nan  -2.49919  -0.29919  1.00076  -0.0114451  -0.0081225  -0.0111339  0.015435  0.015435  0.0130995  0  0  0  0.2205  0.2205  0.141613  0.0155958  0.00979994  -0.030544  -0.00386916  -0.0148482  0.00790819  0.00742035  0.0186086  -0.0277287  -0.0535127  0.011859  -0.0824858 
1703168622.835166000  0  0  12.3559  0.0372663  -0.16462  0.0311754  nan  nan  nan  nan  nan  nan  -2.49911  -0.29911  1.00083  -0.00999125  -0.00721027  -0.011265  0.016564  0.016564  0.0138114  0  0  0  0.231125  0.231125  0.143107  0.0156646  0.00981879  -0.0306323  -0.0037399  -0.0117065  -0.00751208  0.00476075  0.0192104  -0.027823  -0.134677  0.131984  -0.0568812 
1703168622.839744000  0  0  12.1948  0.0579264  -0.125315  0.0266819  nan  nan  nan  nan  nan  nan  -2.49902  -0.299024  1.0009  -0.0110598  -0.00336562  -0.0114159  0.0177467  0.0177467  0.0145301  0  0  0  0.242  0.242  0.14435  0.0155969  0.0097678  -0.0305437  -0.00768382  -0.0113854  0.00389698  0.00468344  0.0155578  -0.0273324  -0.178088  0.0897254  -0.0062575 
1703168622.844740000  0  0  12.2053  0.0211563  -0.111535  0.0317936  nan  nan  nan  nan  nan  nan  -2.49893  -0.298932  1.00097  -0.0140816  -0.0043798  -0.0115136  0.0189844  0.0189844  0.0152545  0  0  0  0.253125  0.253125  0.145343  0.0157289  0.00975089  -0.030518  -0.00520721  -0.0141634  0.00318247  0.00737585  0.0165561  -0.0279296  -0.130218  0.0486934  -0.0633756 
1703168622.849744000  0  0  12.2825  0.0747487  -0.158143  0.0283541  nan  nan  nan  nan  nan  nan  -2.49883  -0.298834  1.00105  -0.013518  -0.002723  -0.0116667  0.0202783  0.0202783  0.0159831  0  0  0  0.2645  0.2645  0.146086  0.0156967  0.00970821  -0.0305544  -0.00592404  -0.0118421  -0.00215668  0.00520184  0.0163076  -0.0276818  -0.220123  0.15149  -0.0230851 
1703168622.854741000  0  0  12.1648  0.0894303  -0.135791  0.0249784  nan  nan  nan  nan  nan  nan  -2.49873  -0.298729  1.00113  -0.0137178  0.000487766  -0.0118447  0.0216298  0.0216298  0.0167149  0  0  0  0.276125  0.276125  0.146579  0.0157509  0.00970719  -0.0304679  -0.0090992  -0.0103498  0.00609871  0.00416617  0.013632  -0.0271738  -0.23969  0.134343  0.0132656 
1703168622.860207000  0  0  12.2183  0.0536253  -0.130699  0.0310637  nan  nan  nan  nan  nan  nan  -2.49862  -0.298618  1.00122  -0.0164779  -6.67809e-05  -0.0119775  0.02304  0.02304  0.0174485  0  0  0  0.288  0.288  0.146823  0.0158549  0.0097145  -0.0304591  -0.00709861  -0.0127957  0.00231351  0.00624269  0.0146338  -0.0277766  -0.186804  0.1119  -0.0560346 
1703168622.864742000  0  0  12.2795  0.0754096  -0.15131  0.0303145  nan  nan  nan  nan  nan  nan  -2.4985  -0.298499  1.00131  -0.0169479  0.000840616  -0.0121397  0.0245102  0.0245102  0.0181827  0  0  0  0.300125  0.300125  0.146816  0.0158189  0.00966077  -0.0304933  -0.00669809  -0.0118126  -0.00195249  0.00542716  0.0147748  -0.0277783  -0.224133  0.154472  -0.046588 
1703168622.870163000  0  0  12.2171  0.0934499  -0.142325  0.0271409  nan  nan  nan  nan  nan  nan  -2.49837  -0.298372  1.0014  -0.0176214  0.00371522  -0.0123442  0.0260417  0.0260417  0.0189163  0  0  0  0.3125  0.3125  0.146559  0.0158872  0.009661  -0.0304233  -0.00932643  -0.010959  0.00236142  0.00460752  0.0127978  -0.0274075  -0.253386  0.157949  -0.011127 
1703168622.874740000  0  0  12.2212  0.0428329  -0.132405  0.0327346  nan  nan  nan  nan  nan  nan  -2.49824  -0.298238  1.00149  -0.0212623  0.00354796  -0.0125134  0.0276356  0.0276356  0.0196479  0  0  0  0.325125  0.325125  0.146052  0.015861  0.00957435  -0.0304182  -0.00742184  -0.0142009  0.00205058  0.00787366  0.0134205  -0.0279889  -0.182426  0.129516  -0.0745006 
1703168622.879720000  0  0  12.2874  0.0824799  -0.173592  0.0310708  nan  nan  nan  nan  nan  nan  -2.4981  -0.298096  1.00159  -0.0204963  0.00403312  -0.0126864  0.0292933  0.0292933  0.0203764  0  0  0  0.338  0.338  0.145295  0.0159334  0.00961326  -0.0304364  -0.00663872  -0.0116789  -0.00268379  0.00555913  0.0144328  -0.0279793  -0.240811  0.206186  -0.0536807 
1703168622.885099000  0  0  12.2282  0.100789  -0.166258  0.0263515  nan  nan  nan  nan  nan  nan  -2.49795  -0.297945  1.0017  -0.0214995  0.00702908  -0.0129266  0.031016  0.031016  0.0211004  0  0  0  0.351125  0.351125  0.144289  0.0160663  0.00957103  -0.0302786  -0.00951218  -0.0110495  0.00116612  0.00475205  0.0127124  -0.0273405  -0.270785  0.210251  -0.00200166 
1703168622.889747000  0  0  12.2383  0.0313378  -0.137352  0.0320435  nan  nan  nan  nan  nan  nan  -2.49779  -0.297786  1.00181  -0.0252955  0.00642996  -0.0131164  0.032805  0.032805  0.0218188  0  0  0  0.3645  0.3645  0.143032  0.0160401  0.0094825  -0.030288  -0.0069119  -0.0144373  0.000408585  0.00846762  0.0135032  -0.0278727  -0.16461  0.139171  -0.0672044 
