ts fx fy fz tx ty tz exfx exfy exfz extx exty extz xd yd zd rolld pitchd yawd vxd vyd vzd wxd wyd wzd axd ayd azd e_x e_y e_z e_vx e_vy e_vz e_rx e_ry e_rz e_wx e_wy e_wz
1700579794.176573000  0  0  14.8853  0.0149159  0.0600489  0.00574287  nan  nan  nan  nan  nan  nan  -1.5  0  1  -0.0123863  0.0124165  -0.000153799  0  0  0  0  0  0  0  0  0  -0.00871784  -0.0159517  -0.0188854  -0.00116664  0.0149632  -0.000972555  0.00145378  -0.0156567  -0.00610599  -0.0432066  0.0239436  -0.010726 
1700579794.179604000  0  0  14.8839  0.0220344  0.0631076  0.00548602  nan  nan  nan  nan  nan  nan  -1.5  0  1  -0.0124245  0.0120056  -0.000149168  0  0  0  0  0  0  0  0  0  -0.00871633  -0.0159106  -0.0188852  -0.000488256  0.0148108  -0.000852883  0.00125624  -0.0152635  -0.00610981  -0.0556261  0.014209  -0.00747719 
1700579794.185607000  0  0  14.8713  0.0262674  0.0537996  0.00537522  nan  nan  nan  nan  nan  nan  -1.5  0  1  -0.0118475  0.012236  -0.000144969  0  0  0  0  0  0  0  0  0  -0.00872543  -0.0158495  -0.0188549  -0.000831797  0.0156459  0.000128756  0.000320329  -0.0152199  -0.00614484  -0.0554819  0.0324241  -0.00574189 
1700579794.190606000  0  0  14.8721  0.00714422  0.0574672  0.00588771  nan  nan  nan  nan  nan  nan  -1.5  0  1  -0.0116551  0.0118632  -0.000138269  0  0  0  0  0  0  0  0  0  -0.00872548  -0.0158094  -0.0188297  -0.000216443  0.0158736  1.44391e-05  0.000331463  -0.0147586  -0.00625231  -0.0173379  0.0208447  -0.0110733 
1700579794.195491000  0  0  14.8695  0.0191573  0.0564339  0.0056907  nan  nan  nan  nan  nan  nan  -1.5  0  1  -0.0115276  0.0116476  -0.000134271  0  0  0  0  0  0  0  0  0  -0.00872511  -0.0157352  -0.0188273  0.000142649  0.0159227  0.000229468  -0.000102346  -0.0144563  -0.00627633  -0.0373731  0.0201302  -0.00837038 
1700579794.200514000  0  0  14.8774  0.0103247  0.040335  0.00526612  nan  nan  nan  nan  nan  nan  -1.5  0  1  -0.0109751  0.0117525  -0.000128987  0  0  0  0  0  0  0  0  0  -0.00872944  -0.015693  -0.0188017  -3.12392e-05  0.016732  -0.000487028  -0.000593228  -0.0141044  -0.00626498  -0.0151918  0.0490908  -0.00317665 
1700579794.205512000  0  0  14.8874  0.00669388  0.0470121  0.00465989  nan  nan  nan  nan  nan  nan  -1.5  0  1  -0.0108877  0.0111802  -0.000121729  0  0  0  0  0  0  0  0  0  -0.00872305  -0.0156135  -0.0188083  0.000888283  0.0166877  -0.00130488  -0.000626181  -0.0134842  -0.00620635  -0.00762689  0.0300307  0.00381493 
1700579794.209472000  0  0  14.8751  0.0246768  0.0411863  0.00446975  nan  nan  nan  nan  nan  nan  -1.5  0  1  -0.01105  0.0110946  -0.000122598  0  0  0  0  0  0  0  0  0  -0.00871588  -0.0155998  -0.0187779  0.00102936  0.0164039  -0.000333199  -0.00080602  -0.0131757  -0.00618112  -0.0419383  0.038844  0.00593937 
1700579794.215531000  0  0  14.8868  -0.0124952  0.0299178  0.00565373  nan  nan  nan  nan  nan  nan  -1.5  0  1  -0.0107516  0.0108439  -0.000116592  0  0  0  0  0  0  0  0  0  -0.00870592  -0.0155564  -0.0187592  0.00140759  0.0167868  -0.0013458  -0.000497681  -0.012434  -0.00630245  0.0295691  0.0545569  -0.00764713 
1700579794.221564000  0  0  14.88  0.00391729  0.036705  0.00520206  nan  nan  nan  nan  nan  nan  -1.5  0  1  -0.0107534  0.0105328  -0.000113266  0  0  0  0  0  0  0  0  0  -0.00869523  -0.0154603  -0.0187596  0.00190644  0.0165782  -0.000780513  -0.000652918  -0.0120341  -0.0062868  -0.00182772  0.037304  -0.00215772 
1700579794.226573000  0  0  14.8986  -0.0108592  0.0262138  0.00523082  nan  nan  nan  nan  nan  nan  -1.5  0  1  -0.0103755  0.0108311  -0.000112379  0  0  0  0  0  0  0  0  0  -0.0086884  -0.0154353  -0.0187488  0.00137588  0.0171261  -0.0023522  -0.000675878  -0.0118662  -0.00629671  0.0279365  0.0567418  -0.00241812 
1700579794.230933000  0  0  14.8941  -0.029714  0.0394672  0.0059207  nan  nan  nan  nan  nan  nan  -1.5  0  1  -0.0109642  0.010221  -0.000112067  0  0  0  0  0  0  0  0  0  -0.00866492  -0.0154453  -0.0187277  0.00233888  0.0161794  -0.00200719  0.000443866  -0.0113164  -0.00640006  0.0553444  0.0251768  -0.0100081 
1700579794.236566000  0  0  14.8989  -0.0130975  0.0319798  0.00520705  nan  nan  nan  nan  nan  nan  -1.5  0  1  -0.0106638  0.0104496  -0.000111435  0  0  0  0  0  0  0  0  0  -0.00865739  -0.0153535  -0.0187394  0.00193827  0.0164668  -0.00238146  5.56883e-05  -0.0112669  -0.00636057  0.0256827  0.0396962  -0.00148241 
1700579794.241522000  0  0  14.8904  -0.036312  0.0443474  0.00546329  nan  nan  nan  nan  nan  nan  -1.5  0  1  -0.0109441  0.010224  -0.000111894  0  0  0  0  0  0  0  0  0  -0.00863902  -0.0153654  -0.018711  0.00228064  0.0160397  -0.00173157  0.000968522  -0.011058  -0.00640317  0.0637136  0.0130388  -0.00425938 
1700579794.246533000  0  0  14.8761  -0.0125951  0.0586904  0.00487589  nan  nan  nan  nan  nan  nan  -1.5  0  1  -0.0111429  0.0101832  -0.000113474  0  0  0  0  0  0  0  0  0  -0.00862779  -0.0152904  -0.0187098  0.00233917  0.0155617  -0.000544812  0.000991797  -0.0112783  -0.00635366  0.0160657  -0.0136205  0.00258799 
1700579794.251535000  0  0  14.8945  -0.0221174  0.0473307  0.00469898  nan  nan  nan  nan  nan  nan  -1.5  0  1  -0.0116666  0.0105079  -0.000122595  0  0  0  0  0  0  0  0  0  -0.00860696  -0.0154095  -0.018722  0.00173461  0.014937  -0.00204188  0.00172145  -0.011444  -0.00629966  0.0283974  0.0106233  0.00425934 
1700579794.255475000  0  0  14.8887  -0.0372285  0.0611127  0.00479002  nan  nan  nan  nan  nan  nan  -1.5  0  1  -0.0129438  0.0102101  -0.000132162  0  0  0  0  0  0  0  0  0  -0.00857757  -0.0155931  -0.0187222  0.00216837  0.0132398  -0.00155086  0.00330015  -0.0114823  -0.00628444  0.0440955  -0.0165882  0.00296917 
1700579794.261606000  0  0  14.8776  -0.0159603  0.0687477  0.00410868  nan  nan  nan  nan  nan  nan  -1.5  0  1  -0.0127639  0.0104085  -0.000132858  0  0  0  0  0  0  0  0  0  -0.00856703  -0.0155124  -0.0187234  0.00182953  0.0133737  -0.000625  0.00291069  -0.0119669  -0.00618085  0.00514221  -0.0274002  0.01045 
1700579794.265507000  0  0  14.8933  -0.0417131  0.0627945  0.00426357  nan  nan  nan  nan  nan  nan  -1.5  0  1  -0.0134006  0.0105934  -0.000141964  0  0  0  0  0  0  0  0  0  -0.00855903  -0.0156588  -0.0187284  0.00148731  0.0126232  -0.00192483  0.00402545  -0.0121839  -0.00613712  0.046392  -0.013497  0.00807667 
1700579794.270512000  0  0  14.8862  -0.0401739  0.0843296  0.00425397  nan  nan  nan  nan  nan  nan  -1.5  0  1  -0.0135354  0.0101831  -0.000137838  0  0  0  0  0  0  0  0  0  -0.00854479  -0.0156009  -0.018731  0.00214261  0.0122818  -0.00133321  0.0043679  -0.0123263  -0.00610882  0.0401631  -0.055257  0.00791353 
1700579794.275460000  0  0  14.8845  -0.020799  0.0738145  0.00356671  nan  nan  nan  nan  nan  nan  -1.5  0  1  -0.0141003  0.0105132  -0.000148246  0  0  0  0  0  0  0  0  0  -0.00853818  -0.0157214  -0.0187232  0.00158366  0.011618  -0.00120385  0.00464091  -0.0127418  -0.00596962  -0.00109829  -0.0304045  0.0151123 
1700579794.280454000  0  0  14.8889  -0.0313107  0.0722549  0.00416415  nan  nan  nan  nan  nan  nan  -1.5  0  1  -0.0135488  0.0105036  -0.000142317  0  0  0  0  0  0  0  0  0  -0.00852967  -0.0156584  -0.018733  0.00157561  0.0123835  -0.00155936  0.00436206  -0.0128164  -0.00598506  0.0224904  -0.0265993  0.00779871 
1700579794.285508000  0  0  14.8752  -0.0154781  0.0836181  0.00512593  nan  nan  nan  nan  nan  nan  -1.5  0  1  -0.0145617  0.0105404  -0.000153494  0  0  0  0  0  0  0  0  0  -0.00852898  -0.0157965  -0.0187129  0.00152888  0.0110369  -0.000449668  0.00502688  -0.0134006  -0.00606548  -0.0152912  -0.0439504  -0.00341932 
1700579794.291530000  0  0  14.8975  -0.0232813  0.0681239  0.00507702  nan  nan  nan  nan  nan  nan  -1.5  0  1  -0.0144676  0.0109461  -0.000158372  0  0  0  0  0  0  0  0  0  -0.00854147  -0.0158843  -0.0187163  0.000858668  0.0113516  -0.00230832  0.00497119  -0.01378  -0.00606735  0.000827585  -0.00947163  -0.00278932 
1700579794.296521000  0  0  14.8746  -0.0147043  0.0833569  0.00479056  nan  nan  nan  nan  nan  nan  -1.5  0  1  -0.014311  0.0106686  -0.000152686  0  0  0  0  0  0  0  0  0  -0.00853209  -0.0158303  -0.0187079  0.00132452  0.0115269  -0.000423795  0.00468213  -0.0138942  -0.0060518  -0.013667  -0.0388872  0.000636012 
1700579794.301516000  0  0  14.8753  -0.00553164  0.0741781  0.00453937  nan  nan  nan  nan  nan  nan  -1.5  0  1  -0.014385  0.0109176  -0.000157057  0  0  0  0  0  0  0  0  0  -0.00852937  -0.0158866  -0.0187004  0.000905912  0.011529  -0.000492065  0.0044642  -0.0141802  -0.006005  -0.0300074  -0.017898  0.00330789 
1700579794.306532000  0  0  14.8771  -0.0161332  0.0790031  0.00472553  nan  nan  nan  nan  nan  nan  -1.5  0  1  -0.0147116  0.0107463  -0.000158104  0  0  0  0  0  0  0  0  0  -0.00852811  -0.0159689  -0.0186846  0.00118406  0.0111688  -0.000675247  0.00477285  -0.0143426  -0.00600603  -0.011644  -0.0260547  0.000991175 
1700579794.311533000  0  0  14.8624  0.0101336  0.0792462  0.00494943  nan  nan  nan  nan  nan  nan  -1.5  0  1  -0.0144491  0.0106851  -0.000154398  0  0  0  0  0  0  0  0  0  -0.0085219  -0.0159138  -0.0186782  0.00128893  0.011504  0.000533632  0.00395575  -0.0144249  -0.00603361  -0.05666  -0.0257832  -0.00153173 
1700579794.316588000  0  0  14.8823  -0.00487635  0.065925  0.00524018  nan  nan  nan  nan  nan  nan  -1.5  0  1  -0.0140697  0.0107715  -0.000151559  0  0  0  0  0  0  0  0  0  -0.00851962  -0.0159355  -0.0186722  0.00111738  0.0121475  -0.00114507  0.00362636  -0.0144037  -0.00606088  -0.0236098  0.000663643  -0.00489353 
1700579794.321572000  0  0  14.8756  0.00112631  0.0691932  0.0052775  nan  nan  nan  nan  nan  nan  -1.5  0  1  -0.0139343  0.0104963  -0.000146265  6e-07  6e-07  6e-07  0  0  0  0.000375  0.000375  0.000375  -0.00850984  -0.0158784  -0.0186699  0.00161993  0.012316  -0.000548341  0.00329278  -0.0142229  -0.00609256  -0.0325462  -0.0075357  -0.00504321 
1700579794.326500000  0  0  14.8717  0.0180992  0.0628442  0.0047797  nan  nan  nan  nan  nan  nan  -1.5  0  1  -0.0139104  0.0107758  -0.000149902  5e-06  5e-06  5e-06  0  0  0  0.0014996  0.0014996  0.0014996  -0.00850534  -0.0158989  -0.0186501  0.00133603  0.0125907  -0.000124884  0.00276396  -0.0144358  -0.00605522  -0.0616269  0.00712102  0.000805942 
1700579794.331524000  0  0  14.8706  0.00061601  0.0607329  0.00447169  nan  nan  nan  nan  nan  nan  -1.5  1e-07  1  -0.0141482  0.0106103  -0.000150124  1.55e-05  1.55e-05  1.55e-05  0  0  0  0.0025892  0.0025892  0.0025892  -0.0084885  -0.0159527  -0.0186255  0.00175102  0.0124969  5.54044e-05  0.00299752  -0.0142967  -0.00600775  -0.0288092  0.010064  0.00418142 
1700579794.336524000  0  0  14.8659  0.0204357  0.0557949  0.00404975  nan  nan  nan  nan  nan  nan  -1.5  2e-07  1  -0.0139505  0.0105056  -0.000146465  2.96e-05  2.96e-05  2.96e-05  0  0  0  0.0029289  0.0029289  0.0029289  -0.00847871  -0.0158922  -0.0186225  0.00196344  0.0127519  0.000487036  0.00228442  -0.0140701  -0.00593345  -0.0618881  0.0178551  0.0087127 
1700579794.341537000  0  0  14.876  0.00493441  0.0539536  0.00437838  nan  nan  nan  nan  nan  nan  -1.5  4e-07  1  -0.013559  0.010464  -0.000141688  4.36e-05  4.36e-05  4.36e-05  0  0  0  0.0025185  0.0025185  0.0025185  -0.0084643  -0.0159  -0.0186088  0.00192145  0.0133335  -0.00044246  0.0019015  -0.0139406  -0.00591491  -0.0273626  0.0203465  0.00441941 
1700579794.346519000  0  0  14.8745  0.00785261  0.0519461  0.00477967  nan  nan  nan  nan  nan  nan  -1.5  6e-07  1  -0.0131846  0.0100753  -0.000132444  5.36e-05  5.36e-05  5.36e-05  0  0  0  0.0013619  0.0013619  0.0013619  -0.00845154  -0.0158356  -0.0186089  0.00234902  0.0136228  -0.000460317  0.00139951  -0.0134685  -0.00594402  -0.0285807  0.0200177  -0.000305667 
1700579794.351529000  0  0  14.8688  0.0243691  0.0404242  0.00438874  nan  nan  nan  nan  nan  nan  -1.5  9e-07  1  -0.0131644  0.00985004  -0.000129076  5.74e-05  5.74e-05  5.74e-05  0  0  0  0.0003076  0.0003076  0.0003076  -0.00842189  -0.0158506  -0.0185784  0.00248978  0.0135256  -0.000175538  0.000892702  -0.0129981  -0.00588173  -0.0569511  0.038734  0.00395804 
1700579794.356515000  0  0  14.8648  0.000407355  0.0513754  0.00523121  nan  nan  nan  nan  nan  nan  -1.5  1.2e-06  1  -0.0129426  0.00952831  -0.000122526  5.79e-05  5.79e-05  5.79e-05  0  0  0  3.3e-06  -3.3e-06  3.3e-06  -0.00838953  -0.0158491  -0.0185495  0.00290415  0.0138438  5.66371e-05  0.000907284  -0.0127838  -0.00596769  -0.00916172  0.0148602  -0.00571322 
1700579794.361480000  0  0  14.8686  0.0107549  0.0491278  0.00518048  nan  nan  nan  nan  nan  nan  -1.5  1.5e-06  1  -0.0126423  0.00931151  -0.000116724  5.87e-05  5.71e-05  5.87e-05  0  0  0  0.0004491  -0.0004491  0.0004491  -0.00837286  -0.0157821  -0.0185511  0.00329416  0.0141129  -0.000202165  0.000372196  -0.0124803  -0.00598615  -0.024934  0.0165636  -0.00489446 
1700579794.366453000  0  0  14.889  0.0169435  0.0391055  0.00493024  nan  nan  nan  nan  nan  nan  -1.5  1.7e-06  1  -0.0123166  0.00951532  -0.000116  6.36e-05  5.22e-05  6.36e-05  0  0  0  0.0016448  -0.0016448  0.0016448  -0.0083462  -0.0157835  -0.0185339  0.00307171  0.0144313  -0.00179402  -0.000187732  -0.0124117  -0.005959  -0.0321598  0.0359767  -0.00203799 
1700579794.371554000  0  0  14.8808  0.00427944  0.0540617  0.00535658  nan  nan  nan  nan  nan  nan  -1.5  2e-06  1  -0.0119649  0.0093986  -0.000111057  7.64e-05  3.94e-05  7.64e-05  0  0  0  0.0035905  -0.0035905  0.0035905  -0.00832667  -0.015713  -0.0185294  0.00354748  0.0145497  -0.000883598  -0.000332472  -0.0124451  -0.00603349  -0.00550013  0.00637112  -0.00662229 
1700579794.376530000  0  0  14.8741  0.0235813  0.0430202  0.00468378  nan  nan  nan  nan  nan  nan  -1.5  2.1e-06  1  -0.0116942  0.00959533  -0.000110614  0.0001008  1.5e-05  0.0001008  0  0  0  0.0062863  -0.0062863  0.0062863  -0.00830058  -0.015674  -0.0184887  0.00361103  0.0144795  -8.79426e-05  -0.000965286  -0.0123322  -0.00598874  -0.0382819  0.0274158  0.00134015 
1700579794.381472000  0  0  14.8823  0.0144041  0.0437701  0.00498913  nan  nan  nan  nan  nan  nan  -1.5  2.1e-06  1  -0.0109506  0.00981122  -0.000105741  0.0001405  -2.47e-05  0.0001405  0  0  0  0.009732  -0.009732  0.009732  -0.00827479  -0.0156332  -0.0184625  0.00375012  0.015046  -0.000413334  -0.00155112  -0.0123758  -0.00603425  -0.0145378  0.0263169  -0.00202167 
1700579794.386521000  0  0  14.8855  0.00950268  0.0492308  0.00533358  nan  nan  nan  nan  nan  nan  -1.5  1.8e-06  1  -0.0105641  0.010019  -0.000104043  0.0001994  -8.36e-05  0.0001994  0  0  0  0.0139277  -0.0139277  0.0139277  -0.00825273  -0.0155623  -0.0184602  0.00403841  0.0148394  -0.000171312  -0.00178355  -0.0125768  -0.00609886  -0.00259672  0.0172451  -0.00568109 
1700579794.391533000  0  0  14.9014  0.0139  0.0436486  0.00520203  nan  nan  nan  nan  nan  nan  -1.49999  1.2e-06  1.00001  -0.0102549  0.0105693  -0.000106689  0.0002811  -0.0001653  0.0002811  0  0  0  0.0188734  -0.0188734  0.0188734  -0.00822006  -0.0156041  -0.0184411  0.0038435  0.0146188  -0.00094055  -0.00216305  -0.0129066  -0.00608743  -0.00789994  0.0314436  -0.00415102 
1700579794.396538000  0  0  14.9117  -0.0153629  0.0613819  0.00621173  nan  nan  nan  nan  nan  nan  -1.49999  1e-07  1.00001  -0.00934579  0.0109177  -0.000100635  0.0003894  -0.0002735  0.0003894  0  0  0  0.0245692  -0.0245692  0.0245692  -0.0081964  -0.0155302  -0.0184423  0.00413065  0.01502  -0.00111104  -0.00236616  -0.0134412  -0.00624677  0.0524945  0.000895742  -0.0151789 
1700579794.401535000  0  0  14.9257  0.00328198  0.0573436  0.0055476  nan  nan  nan  nan  nan  nan  -1.49999  -1.6e-06  1.00001  -0.00923545  0.0114603  -0.000104942  0.000528  -0.0004122  0.000528  0  0  0  0.0310149  -0.0310149  0.0310149  -0.00814924  -0.0155703  -0.0184287  0.00416007  0.0142262  -0.00151975  -0.00260379  -0.0138762  -0.00623116  0.0173909  0.012974  -0.0070335 
1700579794.406498000  0  0  14.9531  -0.0178824  0.0640736  0.00637792  nan  nan  nan  nan  nan  nan  -1.49999  -4e-06  1.00001  -0.00769319  0.0123298  -9.48551e-05  0.0007008  -0.0005849  0.0007008  0  0  0  0.0382106  -0.0382106  0.0382106  -0.00812809  -0.0154919  -0.0184424  0.00380712  0.0154125  -0.00291761  -0.00352904  -0.0147253  -0.00635922  0.0682319  0.00732549  -0.0161319 
1700579794.411566000  0  0  14.9644  -0.0162822  0.0729812  0.00636661  nan  nan  nan  nan  nan  nan  -1.49998  -7.5e-06  1.00002  -0.007668  0.0128044  -9.94834e-05  0.0009114  -0.0007956  0.0009114  0  0  0  0.0461564  -0.0461564  0.0461564  -0.00808092  -0.0155508  -0.0184279  0.00419354  0.0142796  -0.00291948  -0.00319646  -0.0153687  -0.00642319  0.0619719  -0.00457068  -0.0153507 
1700579794.416532000  0  0  14.9811  0.000898265  0.0686172  0.00551526  nan  nan  nan  nan  nan  nan  -1.49998  -1.21e-05  1.00002  -0.00763089  0.013848  -0.000108771  0.0011636  -0.0010478  0.0011636  0  0  0  0.0548521  -0.0548521  0.0548521  -0.00803669  -0.0156604  -0.0183969  0.00375222  0.0131526  -0.00331221  -0.00328062  -0.016322  -0.00636515  0.0283852  0.0129277  -0.00528924 
1700579794.421530000  0  0  14.9854  -0.0243342  0.0865472  0.00569232  nan  nan  nan  nan  nan  nan  -1.49997  -1.8e-05  1.00003  -0.00622939  0.0147484  -9.73718e-05  0.0014611  -0.0013453  0.0014611  0  0  0  0.0642978  -0.0642978  0.0642978  -0.00801963  -0.0155914  -0.0184058  0.00374876  0.0137886  -0.00251804  -0.00388275  -0.0174393  -0.00642019  0.0843897  -0.0126532  -0.00695204 
1700579794.426141000  0  0  14.9973  -0.00992336  0.0895201  0.00505899  nan  nan  nan  nan  nan  nan  -1.49996  -2.56e-05  1.00004  -0.00597607  0.0155771  -0.000101787  0.0018078  -0.001692  0.0018078  0  0  0  0.0744935  -0.0744935  0.0744935  -0.00797982  -0.0156826  -0.0184037  0.00392243  0.0127421  -0.00227838  -0.00407675  -0.0183595  -0.00634694  0.0573529  -0.0101329  0.000231999 
1700579794.431465000  0  0  15.0158  -0.0140394  0.0859435  0.004776  nan  nan  nan  nan  nan  nan  -1.49995  -3.5e-05  1.00005  -0.00506121  0.0169641  -9.85553e-05  0.0022073  -0.0020915  0.0022073  0  0  0  0.0854393  -0.0854393  0.0854393  -0.00794611  -0.0157652  -0.0183866  0.00328598  0.0126544  -0.00252888  -0.00454377  -0.0196598  -0.00627246  0.0698814  0.00898346  0.00302459 
1700579794.435482000  0  0  15.0281  -0.0272213  0.101939  0.00447952  nan  nan  nan  nan  nan  nan  -1.49994  -4.66e-05  1.00006  -0.00359741  0.0181135  -8.29586e-05  0.0026634  -0.0025476  0.0026634  0  0  0  0.097135  -0.097135  0.097135  -0.00793107  -0.0157126  -0.0183918  0.00321681  0.0130674  -0.00213599  -0.00530736  -0.0210066  -0.00623017  0.10327  -0.0106173  0.00630769 
1700579794.440641000  0  0  15.0466  0.00360847  0.0967877  0.00341997  nan  nan  nan  nan  nan  nan  -1.49993  -6.06e-05  1.00007  -0.00300463  0.019557  -8.27579e-05  0.0031799  -0.0030641  0.0031799  0  0  0  0.109581  -0.109581  0.109581  -0.00788871  -0.0158154  -0.0183669  0.00270109  0.0122495  -0.00221614  -0.00601264  -0.0223605  -0.00602039  0.0480994  0.0121414  0.0174543 
1700579794.446546000  0  0  15.0656  -0.0089048  0.101275  0.00401663  nan  nan  nan  nan  nan  nan  -1.49991  -7.74e-05  1.00009  -0.000798498  0.0210872  -4.83369e-05  0.0037605  -0.0036447  0.0037605  0  0  0  0.122776  -0.122776  0.122776  -0.00787367  -0.0157381  -0.0183788  0.00221577  0.0136121  -0.00217548  -0.00748036  -0.0237586  -0.0060085  0.0866289  0.0160292  0.00987713 
1700579794.451538000  0  0  15.0862  0.011562  0.10749  0.00364032  nan  nan  nan  nan  nan  nan  -1.49989  -9.72e-05  1.00011  0.000144808  0.022396  -3.72572e-05  0.0044089  -0.0042931  0.0044089  0  0  0  0.136722  -0.136722  0.136722  -0.00784123  -0.0157882  -0.0183825  0.00217471  0.0130281  -0.00219227  -0.00838853  -0.0250554  -0.00589891  0.0540504  0.0155299  0.0134851 
1700579794.456500000  0  0  15.1259  0.0181285  0.102924  0.00416159  nan  nan  nan  nan  nan  nan  -1.49987  -0.0001204  1.00013  0.00204439  0.0242683  -1.49095e-06  0.005129  -0.0050132  0.005129  0  0  0  0.151418  -0.151418  0.151418  -0.00781532  -0.0158425  -0.0183687  0.0012661  0.0139449  -0.00375203  -0.0100303  -0.0266705  -0.00588086  0.0560223  0.0395213  0.00678882 
1700579794.461485000  0  0  15.1547  0.0159907  0.106763  0.00505967  nan  nan  nan  nan  nan  nan  -1.49984  -0.0001474  1.00016  0.00415853  0.0257471  4.35591e-05  0.0059244  -0.0058085  0.0059244  0  0  0  0.166864  -0.166864  0.166864  -0.00780735  -0.0157732  -0.0183885  0.00119762  0.0148378  -0.00422688  -0.0115897  -0.0279059  -0.00599052  0.074644  0.0432094  -0.00334071 
1700579794.465447000  0  0  15.1744  0.0467048  0.108929  0.00512862  nan  nan  nan  nan  nan  nan  -1.49981  -0.0001786  1.00019  0.00565712  0.0275548  7.78626e-05  0.0067989  -0.0066831  0.0067989  0  0  0  0.183059  -0.183059  0.183059  -0.00778596  -0.0158251  -0.0183883  0.000684079  0.0148474  -0.00390238  -0.0133155  -0.0294694  -0.00600689  0.0290933  0.0532599  -0.00403883 
1700579794.470497000  0  0  15.2243  0.0431827  0.107111  0.00624674  nan  nan  nan  nan  nan  nan  -1.49977  -0.0002144  1.00023  0.00861561  0.0295585  0.000159833  0.0077562  -0.0076404  0.0077562  0  0  0  0.200005  -0.200005  0.200005  -0.0077883  -0.0157402  -0.0184256  -9.38356e-05  0.0169298  -0.00591368  -0.0157913  -0.0309988  -0.00619623  0.0589142  0.0709668  -0.0161219 
1700579794.475491000  0  0  15.247  0.0532952  0.113839  0.00642111  nan  nan  nan  nan  nan  nan  -1.49973  -0.0002552  1.00027  0.0100616  0.0309444  0.00019731  0.0088001  -0.0086844  0.0088001  0  0  0  0.217701  -0.217701  0.217701  -0.00774834  -0.0157732  -0.0184277  0.00027762  0.0165881  -0.0056413  -0.0170561  -0.0321219  -0.00628956  0.0503253  0.0678428  -0.0173683 
1700579794.481491000  0  0  15.2764  0.0708962  0.107881  0.00610122  nan  nan  nan  nan  nan  nan  -1.49968  -0.0003014  1.00032  0.0122617  0.0328982  0.000267536  0.0099345  -0.0098186  0.0099345  0  0  0  0.236147  -0.236147  0.236147  -0.00771721  -0.0157661  -0.0184415  -0.000205705  0.0173304  -0.00579259  -0.0191937  -0.0333894  -0.0063381  0.03479  0.0914208  -0.0128842 
1700579794.486499000  0  0  15.3139  0.0581507  0.10843  0.00598834  nan  nan  nan  nan  nan  nan  -1.49963  -0.0003535  1.00037  0.0145636  0.0344951  0.000341709  0.0111629  -0.0110471  0.0111629  0  0  0  0.255342  -0.255342  0.255342  -0.00770922  -0.015682  -0.0184686  4.76762e-05  0.0179795  -0.00649142  -0.0208074  -0.0344473  -0.00640565  0.0751268  0.100056  -0.0107977 
1700579794.490448000  0  0  15.3397  0.0864357  0.106227  0.00501241  nan  nan  nan  nan  nan  nan  -1.49957  -0.000412  1.00043  0.0170789  0.036843  0.000440555  0.0124891  -0.0123733  0.0124891  0  0  0  0.275288  -0.275288  0.275288  -0.00772503  -0.0155991  -0.0184997  -0.000774104  0.0188696  -0.00613418  -0.0233706  -0.0361927  -0.00636796  0.0421387  0.120519  0.00102446 
1700579794.496514000  0  0  15.3898  0.0609611  0.105346  0.00466531  nan  nan  nan  nan  nan  nan  -1.4995  -0.0004774  1.0005  0.0201961  0.0390003  0.000567661  0.013917  -0.0138012  0.013917  0  0  0  0.295984  -0.295984  0.295984  -0.00770449  -0.0155275  -0.0185078  -0.00134708  0.020757  -0.00769249  -0.0253292  -0.0373564  -0.00633849  0.111107  0.132986  0.00506852 
1700579794.501511000  0  0  15.432  0.0765366  0.103288  0.00446093  nan  nan  nan  nan  nan  nan  -1.49943  -0.0005502  1.00057  0.0222516  0.0408798  0.000654637  0.0154502  -0.0153344  0.0154502  0  0  0  0.317429  -0.317429  0.317429  -0.00767286  -0.015492  -0.0185002  -0.00133343  0.0207975  -0.0085568  -0.0269234  -0.0383832  -0.00632742  0.0946226  0.146549  0.00751267 
1700579794.505513000  0  0  15.4655  0.0869806  0.100568  0.00445701  nan  nan  nan  nan  nan  nan  -1.49935  -0.000631  1.00065  0.0253175  0.0435649  0.000809039  0.0170925  -0.0169767  0.0170925  0  0  0  0.339625  -0.339625  0.339625  -0.00769645  -0.0153892  -0.0185393  -0.0024427  0.022296  -0.00850464  -0.0295871  -0.0402402  -0.0063533  0.0982403  0.169073  0.00782035 
1700579794.511488000  0  0  15.4991  0.0611064  0.106733  0.00530397  nan  nan  nan  nan  nan  nan  -1.49926  -0.0007202  1.00074  0.0277683  0.0453659  0.000922827  0.0188477  -0.0187319  0.0188477  0  0  0  0.362571  -0.362571  0.362571  -0.00764896  -0.0153518  -0.0185144  -0.00207816  0.0227805  -0.00843958  -0.030645  -0.0410313  -0.00645094  0.159721  0.164021  -0.00179022 
1700579794.516501000  0  0  15.5346  0.0835718  0.0914136  0.00530283  nan  nan  nan  nan  nan  nan  -1.49916  -0.0008185  1.00084  0.0300726  0.0477119  0.00105071  0.0207195  -0.0206037  0.0207195  0  0  0  0.386267  -0.386267  0.386267  -0.00761718  -0.0153335  -0.0184973  -0.00252461  0.0229561  -0.0084372  -0.0324271  -0.0420335  -0.0065075  0.131185  0.203881  -0.00121034 
1700579794.521485000  0  0  15.6071  0.0727585  0.0942315  0.00599811  nan  nan  nan  nan  nan  nan  -1.49905  -0.0009264  1.00095  0.0334201  0.0502682  0.00124419  0.0227116  -0.0225958  0.0227116  0  0  0  0.410712  -0.410712  0.410712  -0.00763293  -0.0152123  -0.0185605  -0.0033389  0.0247383  -0.0112303  -0.034612  -0.0434967  -0.00666439  0.172913  0.211707  -0.00833237 
1700579794.526478000  0  0  15.6624  0.0676097  0.0935327  0.00559551  nan  nan  nan  nan  nan  nan  -1.49893  -0.0010446  1.00107  0.0353408  0.0524089  0.00135999  0.0248279  -0.0247121  0.0248279  0  0  0  0.435908  -0.435908  0.435908  -0.007579  -0.0152326  -0.0185668  -0.00339389  0.0242136  -0.0125997  -0.0353858  -0.0444631  -0.00667574  0.19033  0.221995  -0.00318656 
1700579794.531461000  0  0  15.7115  0.0722875  0.0830388  0.00547532  nan  nan  nan  nan  nan  nan  -1.4988  -0.0011738  1.0012  0.0387048  0.0553728  0.00158997  0.027072  -0.0269562  0.027072  0  0  0  0.461854  -0.461854  0.461854  -0.00760078  -0.0151069  -0.0186225  -0.00459793  0.025754  -0.0132297  -0.0376693  -0.0459269  -0.00675385  0.201982  0.25645  -0.000903027 
1700579794.536499000  0  0  15.7561  0.0454999  0.101325  0.00577833  nan  nan  nan  nan  nan  nan  -1.49866  -0.0013144  1.00134  0.0412602  0.0574933  0.00175282  0.0294477  -0.0293319  0.0294477  0  0  0  0.48855  -0.48855  0.48855  -0.00756109  -0.0150764  -0.0186176  -0.00433278  0.0259845  -0.0134952  -0.0383713  -0.0469959  -0.00681743  0.262016  0.229712  -0.00405484 
1700579794.541510000  0  0  15.8208  0.0578806  0.0943371  0.00501809  nan  nan  nan  nan  nan  nan  -1.49851  -0.0014673  1.00149  0.0437635  0.0602819  0.00194743  0.0319587  -0.0318429  0.0319587  0  0  0  0.515995  -0.515995  0.515995  -0.00754553  -0.015041  -0.0186494  -0.00522684  0.0261099  -0.0152545  -0.0396878  -0.0482632  -0.00678192  0.249366  0.255347  0.00509301 
1700579794.546547000  0  0  15.88  0.0218883  0.101353  0.00550427  nan  nan  nan  nan  nan  nan  -1.49834  -0.0016331  1.00166  0.0472017  0.0629059  0.0022021  0.0346089  -0.0344931  0.0346089  0  0  0  0.544191  -0.544191  0.544191  -0.00757141  -0.0149064  -0.0187293  -0.00562145  0.0275434  -0.0162985  -0.0409519  -0.0495763  -0.00686336  0.332981  0.253396  -0.000169782 
1700579794.551522000  0  0  15.941  0.0382491  0.103799  0.0042421  nan  nan  nan  nan  nan  nan  -1.49816  -0.0018125  1.00184  0.0499462  0.0659582  0.0024453  0.0374019  -0.0372861  0.0374019  0  0  0  0.573137  -0.573137  0.573137  -0.00757415  -0.0148299  -0.0187746  -0.0067531  0.0278082  -0.0174739  -0.0421224  -0.0512147  -0.00676797  0.311028  0.263577  0.0146535 
1700579794.556503000  0  0  15.9956  0.0274742  0.0961104  0.00462634  nan  nan  nan  nan  nan  nan  -1.49797  -0.0020062  1.00203  0.0532272  0.0691096  0.00274204  0.0403415  -0.0402257  0.0403415  0  0  0  0.602833  -0.602833  0.602833  -0.0075552  -0.0147777  -0.0187827  -0.00798308  0.0289493  -0.0180292  -0.0434148  -0.0526204  -0.00679609  0.344468  0.291887  0.0101316 
1700579794.561455000  0  0  16.0566  0.0216579  0.114464  0.0051445  nan  nan  nan  nan  nan  nan  -1.49776  -0.002215  1.00224  0.0567095  0.0722477  0.00306764  0.0434315  -0.0433156  0.0434315  0  0  0  0.633278  -0.633278  0.633278  -0.00759643  -0.0146322  -0.0188714  -0.00903195  0.0301977  -0.0188702  -0.0448211  -0.0545655  -0.00689453  0.369038  0.273075  0.00463908 
1700579794.566471000  0  0  16.0709  0.0393024  0.100831  0.00475306  nan  nan  nan  nan  nan  nan  -1.49753  -0.0024396  1.00247  0.0598236  0.0757385  0.0034027  0.0466755  -0.0465597  0.0466755  0  0  0  0.664474  -0.664474  0.664474  -0.00757469  -0.0146109  -0.0188437  -0.0103769  0.0306684  -0.0159093  -0.046201  -0.0561569  -0.00691402  0.346445  0.314981  0.00972701 
1700579794.571505000  0  0  16.1382  0.0208081  0.117836  0.00586532  nan  nan  nan  nan  nan  nan  -1.49729  -0.0026808  1.00271  0.0637539  0.0789167  0.0037986  0.0500774  -0.0499616  0.0500774  0  0  0  0.69642  -0.69642  0.69642  -0.00762121  -0.0144526  -0.0189303  -0.0113775  0.0325499  -0.0170028  -0.0477614  -0.057943  -0.00709344  0.397789  0.297404  -0.00238211 
1700579794.576526000  0  0  16.1654  0.0243754  0.123398  0.005566  nan  nan  nan  nan  nan  nan  -1.49703  -0.0029395  1.00297  0.0645077  0.0811634  0.00389213  0.053641  -0.0535252  0.053641  0  0  0  0.729115  -0.729115  0.729115  -0.00739102  -0.0148574  -0.0187869  -0.0108289  0.0296338  -0.0152472  -0.0466498  -0.0587726  -0.00698637  0.380427  0.293912  0.000288708 
1700579794.581520000  0  0  16.2092  0.0200625  0.114023  0.00534987  nan  nan  nan  nan  nan  nan  -1.49676  -0.0032164  1.00324  0.0669815  0.0841699  0.00417765  0.0573698  -0.057254  0.0573698  0  0  0  0.762457  -0.762457  0.762457  -0.00727821  -0.0150377  -0.0186674  -0.0114763  0.0293125  -0.0146081  -0.0469351  -0.0598606  -0.00696501  0.391678  0.322672  0.00277678 
1700579794.586505000  0  0  16.2483  0.0182065  0.134158  0.00559611  nan  nan  nan  nan  nan  nan  -1.49646  -0.0035123  1.00354  0.0707711  0.0875574  0.00461409  0.0612646  -0.0611488  0.0612646  0  0  0  0.795343  -0.795343  0.795343  -0.00733692  -0.0148912  -0.0187283  -0.0125204  0.0306893  -0.013232  -0.0484957  -0.0619028  -0.00708569  0.409747  0.30119  0.000905484 
1700579794.590490000  0  0  16.3207  0.0405262  0.124054  0.00525293  nan  nan  nan  nan  nan  nan  -1.49614  -0.0038281  1.00386  0.0748587  0.0915403  0.00514183  0.065322  -0.0652062  0.065322  0  0  0  0.827479  -0.827479  0.827479  -0.00746125  -0.0147012  -0.0188544  -0.0150101  0.0329258  -0.0145468  -0.0510984  -0.064315  -0.00722363  0.389053  0.34359  0.00657465 
1700579794.596442000  0  0  16.3749  0.018333  0.114958  0.00595186  nan  nan  nan  nan  nan  nan  -1.49581  -0.0041646  1.00419  0.0767859  0.0936802  0.00534773  0.0695381  -0.0694223  0.0695381  0  0  0  0.858866  -0.858866  0.858866  -0.00728332  -0.0149545  -0.0187162  -0.0147301  0.0322635  -0.0149496  -0.0502189  -0.0641655  -0.00721391  0.425348  0.360407  -0.0022591 
1700579794.601509000  0  0  16.4192  0.0306235  0.118323  0.00576432  nan  nan  nan  nan  nan  nan  -1.49545  -0.0045226  1.00455  0.0798576  0.0969921  0.00575925  0.0739094  -0.0737936  0.0739094  0  0  0  0.889502  -0.889502  0.889502  -0.00730613  -0.0149045  -0.0186839  -0.0162329  0.0330518  -0.014371  -0.0511121  -0.0655674  -0.0072899  0.408984  0.366574  0.000845009 
1700579794.606530000  0  0  16.473  0.0217336  0.114437  0.00612339  nan  nan  nan  nan  nan  nan  -1.49507  -0.0049028  1.00493  0.0833534  0.100013  0.00620348  0.0784319  -0.0783161  0.0784319  0  0  0  0.919388  -0.919388  0.919388  -0.0073427  -0.0148285  -0.0186562  -0.0174351  0.0347862  -0.0145888  -0.0521079  -0.0664694  -0.00741219  0.435926  0.382644  -0.0024204 
1700579794.611524000  0  0  16.5116  0.0197383  0.126052  0.00691301  nan  nan  nan  nan  nan  nan  -1.49466  -0.005306  1.00534  0.0869013  0.103219  0.00668417  0.083102  -0.0829862  0.083102  0  0  0  0.948525  -0.948525  0.948525  -0.00743601  -0.0146554  -0.0187189  -0.0188463  0.0364113  -0.0134524  -0.0532065  -0.0679317  -0.00763035  0.450024  0.372868  -0.0101091 
1700579794.616549000  0  0  16.5635  0.0284174  0.114941  0.00611881  nan  nan  nan  nan  nan  nan  -1.49423  -0.0057329  1.00577  0.090011  0.106381  0.00713072  0.0879159  -0.0878001  0.0879159  0  0  0  0.976911  -0.976911  0.976911  -0.00748256  -0.0145849  -0.0186843  -0.0205764  0.0377356  -0.0136585  -0.0540559  -0.0688079  -0.00766787  0.44048  0.40315  0.000193667 
1700579794.621540000  0  0  16.6213  0.0205491  0.122552  0.00697674  nan  nan  nan  nan  nan  nan  -1.49378  -0.0061842  1.00622  0.0936659  0.109378  0.00763552  0.0928699  -0.0927541  0.0928699  0  0  0  1.00455  -1.00455  1.00455  -0.00758425  -0.0143908  -0.0187524  -0.0221239  0.0400001  -0.0142021  -0.0551469  -0.0698928  -0.0078825  0.466253  0.39791  -0.00838423 
1700579794.626455000  0  0  16.6813  0.0329131  0.106652  0.00671407  nan  nan  nan  nan  nan  nan  -1.49331  -0.0066607  1.00669  0.0963795  0.112228  0.0080355  0.0979601  -0.0978443  0.0979601  0  0  0  1.03143  -1.03143  1.03143  -0.00762947  -0.0143297  -0.0186959  -0.0236861  0.0410138  -0.0152816  -0.0556453  -0.0703043  -0.00797281  0.44611  0.433495  -0.00419783 
1700579794.630516000  0  0  16.7509  0.0272346  0.112009  0.00655943  nan  nan  nan  nan  nan  nan  -1.4928  -0.0071629  1.0072  0.100252  0.115449  0.0086163  0.103183  -0.103067  0.103183  0  0  0  1.05757  -1.05757  1.05757  -0.00782885  -0.014063  -0.0188582  -0.0259297  0.0439637  -0.0167443  -0.0573975  -0.0717295  -0.00813145  0.473588  0.435893  -0.000678359 
1700579794.636510000  0  0  16.7772  0.0140629  0.103617  0.0052105  nan  nan  nan  nan  nan  nan  -1.49227  -0.0076916  1.00773  0.102266  0.11758  0.00888272  0.108535  -0.108419  0.108535  0  0  0  1.08296  -1.08296  1.08296  -0.00780551  -0.0140926  -0.0187618  -0.0261382  0.0438186  -0.0152443  -0.0563472  -0.0711079  -0.00792575  0.490269  0.44696  0.0141263 
1700579794.641550000  0  0  16.8243  0.0161166  0.0874132  0.00476848  nan  nan  nan  nan  nan  nan  -1.49172  -0.0082473  1.00828  0.10491  0.120151  0.00927352  0.114011  -0.113895  0.114011  0  0  0  1.10759  -1.10759  1.10759  -0.00786821  -0.014034  -0.0187179  -0.0274225  0.0450087  -0.015404  -0.0565503  -0.0709435  -0.00784741  0.488029  0.477854  0.0188681 
1700579794.645603000  0  0  16.8942  0.00106927  0.100272  0.00544152  nan  nan  nan  nan  nan  nan  -1.49113  -0.0088307  1.00887  0.108401  0.122986  0.00980518  0.119609  -0.119493  0.119609  0  0  0  1.13148  -1.13148  1.13148  -0.00809532  -0.0137381  -0.0188993  -0.0293479  0.0476603  -0.0170652  -0.0575596  -0.072046  -0.0079566  0.527409  0.46228  0.0115469 
1700579794.651521000  0  0  16.9084  0.0107849  0.0830503  0.00454496  nan  nan  nan  nan  nan  nan  -1.49052  -0.0094424  1.00948  0.110531  0.125148  0.0101037  0.125325  -0.125209  0.125325  0  0  0  1.15462  -1.15462  1.15462  -0.00804789  -0.0137196  -0.0187159  -0.0299181  0.0478781  -0.0149424  -0.0568857  -0.0711916  -0.00776363  0.501779  0.488862  0.0208244 
1700579794.656536000  0  0  16.9479  -0.00122034  0.079043  0.00510373  nan  nan  nan  nan  nan  nan  -1.48988  -0.010083  1.01012  0.113269  0.127346  0.0104877  0.131154  -0.131038  0.131154  0  0  0  1.177  -1.177  1.177  -0.00813931  -0.0135831  -0.0186754  -0.0307654  0.0494094  -0.0146761  -0.0567771  -0.0707473  -0.00775795  0.52479  0.492789  0.0137828 
1700579794.661568000  0  0  17.0003  0.0140785  0.0717852  0.00501983  nan  nan  nan  nan  nan  nan  -1.48921  -0.010753  1.01079  0.116115  0.129901  0.010933  0.137094  -0.136978  0.137094  0  0  0  1.19864  -1.19864  1.19864  -0.00829274  -0.0133377  -0.0187437  -0.0324944  0.0511964  -0.015322  -0.0571759  -0.0707395  -0.00780026  0.497861  0.507233  0.0152546 
1700579794.666524000  0  0  17.0296  0.0113472  0.0564812  0.0049497  nan  nan  nan  nan  nan  nan  -1.48851  -0.011453  1.01149  0.119076  0.13226  0.0113788  0.143139  -0.143023  0.143139  0  0  0  1.21952  -1.21952  1.21952  -0.00843365  -0.0131306  -0.0187492  -0.0336821  0.0531267  -0.0142158  -0.0575202  -0.070213  -0.00779697  0.506491  0.532997  0.0160985 
1700579794.670503000  0  0  17.0915  0.000296231  0.0650916  0.00628551  nan  nan  nan  nan  nan  nan  -1.48778  -0.0121834  1.01222  0.122458  0.134899  0.0119242  0.149288  -0.149172  0.149288  0  0  0  1.23966  -1.23966  1.23966  -0.00871594  -0.0127658  -0.0189545  -0.0357559  0.0560711  -0.0154907  -0.0584471  -0.070914  -0.00801934  0.537121  0.522226  0.00162449 
1700579794.676506000  0  0  17.0978  0.0130801  0.0429027  0.00579271  nan  nan  nan  nan  nan  nan  -1.48702  -0.0129448  1.01298  0.124501  0.136791  0.0122024  0.155535  -0.155419  0.155535  0  0  0  1.25905  -1.25905  1.25905  -0.00871109  -0.0126967  -0.018754  -0.0362526  0.0565556  -0.0131121  -0.0576198  -0.069309  -0.00796457  0.503942  0.551837  0.00723689 
1700579794.680973000  0  0  17.1343  0.00629865  0.0427889  0.00633996  nan  nan  nan  nan  nan  nan  -1.48622  -0.0137377  1.01378  0.127154  0.138938  0.0126002  0.161877  -0.161761  0.161877  0  0  0  1.27768  -1.27768  1.27768  -0.00888235  -0.0125089  -0.018722  -0.0374849  0.0584719  -0.0129801  -0.0577529  -0.0689308  -0.00804711  0.518729  0.548586  0.00122161 
1700579794.686530000  0  0  17.1536  0.0130184  0.038299  0.00541298  nan  nan  nan  nan  nan  nan  -1.4854  -0.0145626  1.0146  0.129558  0.141023  0.0129597  0.16831  -0.168194  0.16831  0  0  0  1.29557  -1.29557  1.29557  -0.008995  -0.0122776  -0.018684  -0.0385753  0.0597047  -0.0114897  -0.0573781  -0.0680284  -0.00799874  0.501842  0.549263  0.0123252 
1700579794.691516000  0  0  17.1579  0.0063765  0.0377358  0.00517515  nan  nan  nan  nan  nan  nan  -1.48454  -0.0154198  1.01546  0.131752  0.142909  0.0132669  0.174831  -0.174715  0.174831  0  0  0  1.31271  -1.31271  1.31271  -0.00910338  -0.0121332  -0.0185168  -0.039176  0.0606606  -0.00917025  -0.0568623  -0.0670369  -0.00788498  0.51038  0.541268  0.0141603 
1700579794.696485000  0  0  17.1918  0.000185052  0.0459196  0.00536921  nan  nan  nan  nan  nan  nan  -1.48365  -0.0163099  1.01635  0.134329  0.145029  0.0136636  0.181436  -0.18132  0.181436  0  0  0  1.32909  -1.32909  1.32909  -0.00930501  -0.0118245  -0.0185656  -0.0406462  0.0625207  -0.00888554  -0.0566973  -0.0667278  -0.00788894  0.521245  0.522057  0.0117743 
1700579794.700459000  0  0  17.2232  0.0103814  0.0384175  0.00499463  nan  nan  nan  nan  nan  nan  -1.48272  -0.0172332  1.01728  0.13653  0.147434  0.0140477  0.188121  -0.188005  0.188121  0  0  0  1.34473  -1.34473  1.34473  -0.0095518  -0.0116146  -0.0185259  -0.0426602  0.0639872  -0.0087263  -0.0569753  -0.0667261  -0.00778044  0.50341  0.537045  0.0153715 
1700579794.706472000  0  0  17.1912  -0.0101979  0.0464075  0.00538462  nan  nan  nan  nan  nan  nan  -1.48177  -0.0181901  1.01823  0.137615  0.148244  0.0140483  0.194882  -0.194766  0.194882  0  0  0  1.35961  -1.35961  1.35961  -0.00944073  -0.0116833  -0.0180745  -0.0413897  0.0632083  -0.00448328  -0.0548891  -0.0645889  -0.00747118  0.525376  0.501402  0.00740406 
1700579794.711506000  0  0  17.2285  0.00192416  0.0381724  0.00492712  nan  nan  nan  nan  nan  nan  -1.48078  -0.019181  1.01922  0.139956  0.1504  0.014422  0.201716  -0.2016  0.201716  0  0  0  1.37375  -1.37375  1.37375  -0.00964854  -0.0113687  -0.0180931  -0.0433537  0.0650459  -0.00480257  -0.0548325  -0.0641284  -0.00744113  0.500611  0.513637  0.0128224 
1700579794.716529000  0  0  17.2385  -0.0100785  0.0426331  0.00519655  nan  nan  nan  nan  nan  nan  -1.47975  -0.0202062  1.02025  0.141962  0.152061  0.0146779  0.208618  -0.208503  0.208618  0  0  0  1.38714  -1.38714  1.38714  -0.00980217  -0.0111955  -0.0178782  -0.0441365  0.0663048  -0.00354733  -0.0541869  -0.0632774  -0.00726264  0.518676  0.496886  0.0076695 
1700579794.721546000  0  0  17.2545  -0.00234708  0.0507942  0.00464912  nan  nan  nan  nan  nan  nan  -1.47869  -0.0212661  1.02131  0.144058  0.154016  0.0149907  0.215586  -0.21547  0.215586  0  0  0  1.39977  -1.39977  1.39977  -0.0100219  -0.0108686  -0.0178802  -0.0455839  0.067603  -0.0024027  -0.0538331  -0.0629885  -0.00714825  0.499959  0.477906  0.0133685 
1700579794.726509000  0  0  17.2731  -0.0110684  0.0490869  0.00511872  nan  nan  nan  nan  nan  nan  -1.47759  -0.022361  1.02241  0.146232  0.155836  0.015298  0.222615  -0.222499  0.222615  0  0  0  1.41166  -1.41166  1.41166  -0.0102263  -0.0105852  -0.0177595  -0.0469675  0.069308  -0.00177695  -0.0533214  -0.06235  -0.0070777  0.512693  0.475446  0.00679297 
1700579794.731523000  0  0  17.2654  -0.0162393  0.0593677  0.00496774  nan  nan  nan  nan  nan  nan  -1.47646  -0.0234912  1.02354  0.147667  0.157388  0.0154496  0.229701  -0.229585  0.229701  0  0  0  1.4228  -1.4228  1.4228  -0.0103897  -0.010395  -0.0175069  -0.0475639  0.0695603  0.000475145  -0.0522406  -0.0617024  -0.0068036  0.513092  0.448926  0.00593916 
1700579794.736490000  0  0  17.2796  -0.0063594  0.0547519  0.00442032  nan  nan  nan  nan  nan  nan  -1.4753  -0.0246569  1.0247  0.149786  0.159311  0.0157651  0.236842  -0.236726  0.236842  0  0  0  1.43318  -1.43318  1.43318  -0.0106323  -0.010039  -0.0174983  -0.0492447  0.0711807  0.00149101  -0.0520424  -0.0613438  -0.0067013  0.491509  0.454859  0.011759 
1700579794.741563000  0  0  17.2935  -0.0260589  0.0664128  0.00502388  nan  nan  nan  nan  nan  nan  -1.47409  -0.0258585  1.02591  0.151207  0.160724  0.0158918  0.244032  -0.243916  0.244032  0  0  0  1.44282  -1.44282  1.44282  -0.0108359  -0.00981382  -0.0173115  -0.0501051  0.0719337  0.00192548  -0.0507993  -0.0606756  -0.00643996  0.519471  0.42539  0.00160118 
1700579794.746482000  0  0  17.3215  -0.0144161  0.0628735  0.00440831  nan  nan  nan  nan  nan  nan  -1.47286  -0.0270962  1.02714  0.15297  0.162492  0.0161265  0.251268  -0.251153  0.251268  0  0  0  1.45171  -1.45171  1.45171  -0.0110999  -0.00943875  -0.0173153  -0.051923  0.0733368  0.0015923  -0.0502922  -0.060329  -0.00628619  0.491521  0.42928  0.00775801 
1700579794.751450000  0  0  17.3214  -0.023733  0.0643024  0.00440204  nan  nan  nan  nan  nan  nan  -1.47158  -0.0283701  1.02842  0.154831  0.164228  0.0163728  0.258548  -0.258432  0.258548  0  0  0  1.45984  -1.45984  1.45984  -0.0113659  -0.00910929  -0.0171803  -0.0532926  0.0746794  0.00320802  -0.0495276  -0.059919  -0.0061191  0.50312  0.42265  0.00616558 
1700579794.755446000  0  0  17.3608  -0.0232268  0.0795697  0.00499235  nan  nan  nan  nan  nan  nan  -1.47027  -0.0296806  1.02973  0.156871  0.166148  0.0166785  0.265866  -0.26575  0.265866  0  0  0  1.46723  -1.46723  1.46723  -0.0118418  -0.00854864  -0.0174291  -0.0554324  0.0766461  0.00228357  -0.0494877  -0.0604581  -0.00608187  0.50174  0.397075  -0.00158574 
1700579794.760601000  0  0  17.3748  -0.0222876  0.0727812  0.00457431  nan  nan  nan  nan  nan  nan  -1.46892  -0.0310277  1.03108  0.158269  0.167444  0.0167779  0.273219  -0.273103  0.273219  0  0  0  1.47386  -1.47386  1.47386  -0.0120663  -0.00824677  -0.0172729  -0.0565277  0.0777069  0.00238875  -0.0485598  -0.0596323  -0.00582333  0.491325  0.403055  0.00105434 
1700579794.766545000  0  0  17.3422  -0.0361668  0.0806985  0.00474345  nan  nan  nan  nan  nan  nan  -1.46754  -0.0324116  1.03246  0.158811  0.168093  0.0166252  0.280603  -0.280487  0.280603  0  0  0  1.47975  -1.47975  1.47975  -0.0121129  -0.00812356  -0.0168345  -0.0559569  0.0769129  0.00540491  -0.0462297  -0.0582224  -0.00544112  0.497646  0.374249  -0.00488194 
1700579794.771496000  0  0  17.3605  -0.029918  0.0664023  0.00367916  nan  nan  nan  nan  nan  nan  -1.46612  -0.0338326  1.03388  0.16033  0.169507  0.0167569  0.288015  -0.287899  0.288015  0  0  0  1.48489  -1.48489  1.48489  -0.0124079  -0.00772464  -0.0168221  -0.0574541  0.0782986  0.0052993  -0.0455186  -0.0575454  -0.00520266  0.478607  0.396613  0.00603721 
1700579794.776552000  0  0  17.3675  -0.0436223  0.0708295  0.0041188  nan  nan  nan  nan  nan  nan  -1.46466  -0.0352907  1.03534  0.161471  0.170615  0.016772  0.295451  -0.295335  0.295451  0  0  0  1.48927  -1.48927  1.48927  -0.0127256  -0.00739057  -0.0166141  -0.0581973  0.0790725  0.00551197  -0.0441642  -0.0567762  -0.00488584  0.493555  0.380682  -0.00262668 
1700579794.781568000  0  0  17.3516  -0.035678  0.062927  0.00311419  nan  nan  nan  nan  nan  nan  -1.46316  -0.036786  1.03684  0.162606  0.172016  0.0168296  0.302906  -0.302791  0.302906  0  0  0  1.49291  -1.49291  1.49291  -0.0130395  -0.00705117  -0.01639  -0.0592039  0.0795228  0.00750006  -0.0431948  -0.0561439  -0.00452173  0.468749  0.39067  0.00628985 
1700579794.786553000  0  0  17.361  -0.0460926  0.054847  0.00293473  nan  nan  nan  nan  nan  nan  -1.46163  -0.0383186  1.03837  0.163858  0.172834  0.0168101  0.310378  -0.310263  0.310378  0  0  0  1.4958  -1.4958  1.4958  -0.0133349  -0.00664708  -0.0163521  -0.0597216  0.0806541  0.00766826  -0.0420332  -0.054911  -0.0042504  0.478891  0.395488  0.00581992 
1700579794.791538000  0  0  17.3463  -0.0389455  0.0604267  0.00199714  nan  nan  nan  nan  nan  nan  -1.46006  -0.0398886  1.03994  0.164605  0.174073  0.0167655  0.317863  -0.317747  0.317863  0  0  0  1.49793  -1.49793  1.49793  -0.0137071  -0.0063043  -0.0161168  -0.0605313  0.080656  0.00922853  -0.0408321  -0.0543211  -0.00375596  0.453546  0.3789  0.0125953 
1700579794.795516000  0  0  17.3863  -0.0326086  0.0512475  0.0014344  nan  nan  nan  nan  nan  nan  -1.45845  -0.0414961  1.04155  0.166369  0.175723  0.0169669  0.325357  -0.325241  0.325357  0  0  0  1.49932  -1.49932  1.49932  -0.0142857  -0.00564946  -0.0164155  -0.062918  0.0829427  0.00760018  -0.0409142  -0.0542672  -0.00356067  0.441628  0.396763  0.0176768 
1700579794.800460000  0  0  17.3874  -0.0441407  0.0506898  0.00191198  nan  nan  nan  nan  nan  nan  -1.45681  -0.043141  1.04319  0.167385  0.176494  0.016886  0.332855  -0.332739  0.332855  0  0  0  1.49995  -1.49995  1.49995  -0.0146387  -0.00523937  -0.016257  -0.0634106  0.0838555  0.00785628  -0.0396364  -0.0530972  -0.00325088  0.452936  0.387114  0.00860916 
1700579794.805516000  0  0  17.3978  -0.0238889  0.0390593  0.00141279  nan  nan  nan  nan  nan  nan  -1.45512  -0.0448235  1.04488  0.168082  0.177085  0.0167127  0.340355  -0.340239  0.340355  0  0  0  1.5  -1.5  1.5  -0.0149484  -0.00483407  -0.0162081  -0.0639192  0.0844714  0.00739245  -0.0386407  -0.0516128  -0.00292662  0.403272  0.396719  0.0116063 
1700579794.811526000  0  0  17.3644  -0.0423241  0.0415376  0.00239385  nan  nan  nan  nan  nan  nan  -1.4534  -0.0465434  1.0466  0.168186  0.17701  0.0163152  0.347855  -0.347739  0.347855  0  0  0  1.5  -1.5  1.5  -0.0150413  -0.00469224  -0.0156678  -0.0627191  0.0838176  0.0092619  -0.0363122  -0.0493888  -0.0024877  0.418721  0.371301  -0.00504607 
1700579794.815512000  0  0  17.3996  -0.0277388  0.045063  0.00187188  nan  nan  nan  nan  nan  nan  -1.45164  -0.0483009  1.04836  0.169536  0.178265  0.0163607  0.355355  -0.355239  0.355355  0  0  0  1.5  -1.5  1.5  -0.0156526  -0.00400181  -0.0159898  -0.0643852  0.0854505  0.00773589  -0.0362845  -0.0492547  -0.00228195  0.389295  0.363017  -0.000578948 
1700579794.820451000  0  0  17.3995  -0.02646  0.0326854  0.00155555  nan  nan  nan  nan  nan  nan  -1.44985  -0.0500958  1.05015  0.170582  0.179247  0.0163013  0.362855  -0.362739  0.362855  0  0  0  1.5  -1.5  1.5  -0.0160564  -0.00356375  -0.0158212  -0.0652572  0.0864391  0.00799895  -0.0355876  -0.0481984  -0.00199389  0.380326  0.378054  0.000494515 
1700579794.826515000  0  0  17.3281  -0.019258  0.0379368  0.000855011  nan  nan  nan  nan  nan  nan  -1.44801  -0.0519283  1.05199  0.170223  0.179025  0.0157753  0.370355  -0.370239  0.370355  0  0  0  1.5  -1.5  1.5  -0.016031  -0.00351144  -0.0150966  -0.0632646  0.0844473  0.0123584  -0.0335602  -0.0462124  -0.00140298  0.34727  0.34928  0.00334217 
1700579794.830462000  0  0  17.3673  -0.0118619  0.0271977  0.000725203  nan  nan  nan  nan  nan  nan  -1.44614  -0.0537982  1.05386  0.171885  0.180437  0.0158917  0.377855  -0.377739  0.377855  0  0  0  1.5  -1.5  1.5  -0.0166804  -0.0027779  -0.0154463  -0.0652351  0.0866309  0.0106715  -0.0339639  -0.0460293  -0.00129173  0.336191  0.369074  0.00385228 
1700579794.836509000  0  0  17.3172  -0.0212918  0.0302089  0.00140701  nan  nan  nan  nan  nan  nan  -1.44424  -0.0557057  1.05576  0.171942  0.180267  0.0154382  0.385355  -0.385239  0.385355  0  0  0  1.5  -1.5  1.5  -0.0167623  -0.00262424  -0.0147254  -0.0635337  0.0855713  0.0134085  -0.0321198  -0.0439588  -0.000885617  0.338086  0.344003  -0.0087314 
1700579794.841532000  0  0  17.301  -0.00841536  0.0238483  0.000741698  nan  nan  nan  nan  nan  nan  -1.44229  -0.0576506  1.05771  0.17305  0.181471  0.0154081  0.392855  -0.392739  0.392855  0  0  0  1.5  -1.5  1.5  -0.0171815  -0.00217897  -0.014468  -0.0644706  0.0863474  0.0148025  -0.0319934  -0.0434471  -0.000599219  0.31117  0.352017  -0.00327904 
1700579794.846518000  0  0  17.3107  -0.0128074  0.0211568  0.000937012  nan  nan  nan  nan  nan  nan  -1.44031  -0.059633  1.05969  0.173685  0.181456  0.0150758  0.400355  -0.400239  0.400355  0  0  0  1.5  -1.5  1.5  -0.0175  -0.00174124  -0.0144015  -0.0637655  0.0868458  0.0141735  -0.031121  -0.0417309  -0.00033653  0.311928  0.341611  -0.00834735 
1700579794.851497000  0  0  17.2978  0.00893356  0.0191815  0.000336421  nan  nan  nan  nan  nan  nan  -1.43829  -0.061653  1.06171  0.174527  0.182225  0.0149115  0.407855  -0.407739  0.407855  0  0  0  1.5  -1.5  1.5  -0.0178406  -0.00130514  -0.014162  -0.064093  0.0872533  0.0151641  -0.0310482  -0.0410427  -3.89747e-05  0.267776  0.33923  -0.00381552 
1700579794.856460000  0  0  17.2977  0.00111628  0.0177889  0.000207375  nan  nan  nan  nan  nan  nan  -1.43623  -0.0637104  1.06377  0.175356  0.182686  0.0146864  0.415355  -0.415239  0.415355  0  0  0  1.5  -1.5  1.5  -0.0182226  -0.000841347  -0.0139904  -0.0639768  0.087837  0.0152308  -0.0304715  -0.0397717  0.000249835  0.278106  0.330322  -0.00509054 
1700579794.861533000  0  0  17.3012  0.00319862  0.0244484  0.000300719  nan  nan  nan  nan  nan  nan  -1.43413  -0.0658054  1.06587  0.17568  0.182707  0.0142843  0.422855  -0.422739  0.422855  0  0  0  1.5  -1.5  1.5  -0.0185172  -0.000429083  -0.0138879  -0.0632577  0.0877136  0.0149387  -0.0295689  -0.0383775  0.000557315  0.265636  0.304176  -0.00933213 
1700579794.866461000  0  0  17.3078  0.0183543  0.0184407  5.40884e-05  nan  nan  nan  nan  nan  nan  -1.432  -0.0679378  1.068  0.176883  0.184107  0.0142827  0.430355  -0.430239  0.430355  0  0  0  1.5  -1.5  1.5  -0.0189946  0.000105511  -0.0137271  -0.064899  0.0888967  0.0147296  -0.0298217  -0.0381439  0.000746603  0.237651  0.314042  -0.00814214 
1700579794.871468000  0  0  17.3153  0.0139429  0.0369959  0.000719128  nan  nan  nan  nan  nan  nan  -1.42983  -0.0701078  1.07017  0.176895  0.183802  0.0137524  0.437855  -0.437739  0.437855  0  0  0  1.5  -1.5  1.5  -0.0193047  0.000540148  -0.0136522  -0.063584  0.0882632  0.0140152  -0.0287063  -0.0367347  0.00107939  0.236212  0.263967  -0.019783 
1700579794.876511000  0  0  17.3174  0.0237978  0.0332173  0.000260501  nan  nan  nan  nan  nan  nan  -1.42762  -0.0723152  1.07238  0.177793  0.184842  0.01362  0.445355  -0.445239  0.445355  0  0  0  1.5  -1.5  1.5  -0.0197462  0.00102597  -0.0135211  -0.0645039  0.088944  0.0140832  -0.0288175  -0.036391  0.00134216  0.217526  0.268363  -0.0166779 
1700579794.881563000  0  0  17.3259  0.0148429  0.0376363  0.000989629  nan  nan  nan  nan  nan  nan  -1.42538  -0.0745602  1.07462  0.178248  0.185215  0.0132809  0.452855  -0.452739  0.452855  0  0  0  1.5  -1.5  1.5  -0.0201452  0.00149882  -0.013389  -0.0643371  0.089017  0.0134007  -0.0281435  -0.0355274  0.00159949  0.229234  0.25158  -0.0283653 
1700579794.886522000  0  0  17.2438  0.0133028  0.0350889  9.84676e-05  nan  nan  nan  nan  nan  nan  -1.42415  -0.0758489  1.07585  0.176288  0.183633  0.0121343  0.456943  -0.456943  0.456943  0  0  0  1.5  -1.5  1.5  -0.0194323  0.000961474  -0.0122819  -0.0609433  0.0852955  0.0170505  -0.0254765  -0.0327963  0.0023171  0.207778  0.231548  -0.0244018 
1700579794.891515000  0  0  17.0793  -0.0177536  0.0138076  -0.000584393  nan  nan  nan  nan  nan  nan  -1.42415  -0.0758489  1.07585  0.172223  0.180203  0.0105157  0.456943  -0.456943  0.456943  0  0  0  1.5  -1.5  1.5  -0.0176412  -0.00078188  -0.00980893  -0.0548306  0.0789396  0.023667  -0.0206047  -0.0282139  0.00328872  0.22507  0.231953  -0.0255823 
1700579794.896518000  0  0  17.095  -0.0209237  0.0302522  -0.000683893  nan  nan  nan  nan  nan  nan  -1.42185  -0.0781523  1.07815  0.171841  0.180121  0.00992433  0.464442  -0.464442  0.464442  0  0  0  1.49962  -1.49962  1.49962  -0.0179074  -0.000396793  -0.00969477  -0.0542694  0.0779125  0.0220737  -0.0192383  -0.0273629  0.00373088  0.21884  0.191234  -0.0287601 
1700579794.901536000  0  0  17.0839  -0.0265349  0.02583  -0.00123157  nan  nan  nan  nan  nan  nan  -1.41951  -0.0804933  1.08049  0.172236  0.180849  0.00960824  0.471938  -0.471938  0.471938  0  0  0  1.4985  -1.4985  1.4985  -0.0182195  -2.96269e-06  -0.00943221  -0.0547574  0.0778415  0.0225799  -0.0188032  -0.0272987  0.00415821  0.226059  0.199488  -0.0261875 
1700579794.905461000  0  0  17.1216  -0.0336156  0.0441652  -0.000437432  nan  nan  nan  nan  nan  nan  -1.41713  -0.0828717  1.08287  0.173424  0.182228  0.00954573  0.479426  -0.479426  0.479426  0  0  0  1.49662  -1.49662  1.49662  -0.0190789  0.000866911  -0.00981147  -0.0563882  0.0791619  0.020684  -0.0190892  -0.0283127  0.00439319  0.242852  0.172146  -0.038464 
1700579794.911511000  0  0  17.1036  -0.0267473  0.0402713  -0.00214322  nan  nan  nan  nan  nan  nan  -1.41471  -0.0852875  1.08529  0.172175  0.181527  0.00866703  0.486903  -0.486903  0.486903  0  0  0  1.494  -1.494  1.494  -0.0189191  0.000834373  -0.00919009  -0.055257  0.0772624  0.0201634  -0.016911  -0.0266155  0.00508693  0.209076  0.16432  -0.0240791 
1700579794.916499000  0  0  17.1142  -0.0366069  0.0544612  -0.000927981  nan  nan  nan  nan  nan  nan  -1.41226  -0.0877407  1.08774  0.171891  0.181845  0.00813663  0.494365  -0.494365  0.494365  0  0  0  1.49062  -1.49062  1.49062  -0.019334  0.00126855  -0.00906009  -0.0555171  0.076686  0.0186676  -0.0156685  -0.0265374  0.00552575  0.217364  0.135221  -0.0436577 
1700579794.921514000  0  0  17.1342  -0.0385881  0.0595004  -0.001232  nan  nan  nan  nan  nan  nan  -1.40977  -0.0902312  1.09023  0.171409  0.181669  0.00747872  0.501808  -0.501808  0.501808  0  0  0  1.4865  -1.4865  1.4865  -0.0196067  0.0016456  -0.0089707  -0.0554535  0.0762064  0.0162546  -0.0142754  -0.0258358  0.00599197  0.20851  0.118689  -0.0445197 
1700579794.926526000  0  0  17.1386  -0.0443974  0.0537053  -0.00219306  nan  nan  nan  nan  nan  nan  -1.40724  -0.0927588  1.09276  0.171072  0.181615  0.00686276  0.509228  -0.509228  0.509228  0  0  0  1.48162  -1.48162  1.48162  -0.0199302  0.00201157  -0.0088232  -0.0553243  0.0758411  0.0149437  -0.0131776  -0.0252402  0.00657647  0.210029  0.124799  -0.0383515 
1700579794.931501000  0  0  17.1304  -0.0397396  0.0768491  -0.00204255  nan  nan  nan  nan  nan  nan  -1.40468  -0.0953234  1.09532  0.17069  0.1819  0.00629002  0.516623  -0.516623  0.516623  0  0  0  1.476  -1.476  1.476  -0.0203624  0.00244002  -0.00871345  -0.0554754  0.0751254  0.0146807  -0.0120955  -0.0254237  0.00709962  0.190758  0.0801998  -0.0454644 
1700579794.936533000  0  0  17.1419  -0.0414966  0.0593099  -0.0026508  nan  nan  nan  nan  nan  nan  -1.40208  -0.0979249  1.09792  0.170243  0.181788  0.00563177  0.523987  -0.523987  0.523987  0  0  0  1.46962  -1.46962  1.46962  -0.0206304  0.002805  -0.00863063  -0.0557395  0.0749452  0.0127145  -0.0108706  -0.0245293  0.00755975  0.183003  0.107049  -0.0424624 
1700579794.941055000  0  0  17.1603  -0.0445329  0.062751  -0.00245635  nan  nan  nan  nan  nan  nan  -1.39944  -0.100563  1.10056  0.169973  0.182055  0.00506458  0.531318  -0.531318  0.531318  0  0  0  1.4625  -1.4625  1.4625  -0.0212223  0.0033927  -0.00880689  -0.0562745  0.0748252  0.0107389  -0.00992474  -0.0244475  0.00801317  0.180373  0.099415  -0.0494273 
1700579794.946501000  0  0  17.1443  -0.0365066  0.0607241  -0.00279743  nan  nan  nan  nan  nan  nan  -1.39676  -0.103238  1.10324  0.168945  0.181373  0.0041911  0.538611  -0.538611  0.538611  0  0  0  1.45462  -1.45462  1.45462  -0.0212964  0.00356096  -0.00851508  -0.0555713  0.0737962  0.0101056  -0.00838104  -0.0232947  0.00849457  0.150119  0.0928633  -0.0499778 
1700579794.950664000  0  0  17.1703  -0.0312908  0.0686759  -0.00283813  nan  nan  nan  nan  nan  nan  -1.39405  -0.105949  1.10595  0.168904  0.181791  0.00368023  0.545863  -0.545863  0.545863  0  0  0  1.446  -1.446  1.446  -0.0221011  0.00434417  -0.00895935  -0.0563181  0.0740395  0.00797023  -0.00799122  -0.0234049  0.00894154  0.136101  0.0779734  -0.0539388 
1700579794.956502000  0  0  17.1467  -0.0262566  0.0720862  -0.0034882  nan  nan  nan  nan  nan  nan  -1.3913  -0.108697  1.1087  0.167123  0.180763  0.00259982  0.55307  -0.55307  0.55307  0  0  0  1.43662  -1.43662  1.43662  -0.0220936  0.00434772  -0.00844264  -0.0552306  0.0721355  0.00702971  -0.00591719  -0.0221704  0.00961378  0.106951  0.0597955  -0.0525352 
1700579794.961532000  0  0  17.1465  -0.0332547  0.0533945  -0.00427949  nan  nan  nan  nan  nan  nan  -1.38852  -0.11148  1.11148  0.166104  0.179836  0.00167447  0.560228  -0.560228  0.560228  0  0  0  1.4265  -1.4265  1.4265  -0.0223498  0.00469349  -0.00839376  -0.0543408  0.0714013  0.00529401  -0.00447567  -0.020571  0.0101474  0.107686  0.0824645  -0.0479801 
1700579794.966535000  0  0  17.1427  -0.0171689  0.0627717  -0.00427057  nan  nan  nan  nan  nan  nan  -1.3857  -0.114299  1.1143  0.164939  0.179238  0.000773316  0.567333  -0.567333  0.567333  0  0  0  1.41562  -1.41562  1.41562  -0.0227702  0.00508307  -0.00837762  -0.0537745  0.0703488  0.00384969  -0.0034114  -0.0197026  0.0106785  0.0657227  0.0557205  -0.0534033 
1700579794.971527000  0  0  17.1394  -0.020345  0.0356125  -0.00492363  nan  nan  nan  nan  nan  nan  -1.38285  -0.117153  1.11715  0.164216  0.178451  -8.21814e-05  0.574383  -0.574383  0.574383  0  0  0  1.404  -1.404  1.404  -0.0230424  0.00544477  -0.00836258  -0.0533053  0.0702975  0.00234638  -0.00250145  -0.0181145  0.0110961  0.0637033  0.0954286  -0.049416 
1700579794.976512000  0  0  17.1198  -0.0221781  0.0329768  -0.00481092  nan  nan  nan  nan  nan  nan  -1.37996  -0.120043  1.12004  0.162582  0.176931  -0.00122458  0.581372  -0.581372  0.581372  0  0  0  1.39162  -1.39162  1.39162  -0.0233414  0.00578057  -0.00832763  -0.0511983  0.0685148  0.001637  -0.000859204  -0.0162244  0.0116461  0.0522608  0.0833111  -0.0563246 
1700579794.981568000  0  0  17.1112  -0.022718  0.0245155  -0.00535004  nan  nan  nan  nan  nan  nan  -1.37703  -0.122967  1.12297  0.161352  0.175638  -0.0022583  0.588298  -0.588298  0.588298  0  0  0  1.3785  -1.3785  1.3785  -0.0235737  0.00609602  -0.00829894  -0.0500106  0.067816  0.000111739  0.000390131  -0.0144522  0.0121333  0.0418469  0.083929  -0.0544573 
1700579794.986513000  0  0  17.0998  -0.0253392  0.0122421  -0.00548678  nan  nan  nan  nan  nan  nan  -1.37407  -0.125925  1.12593  0.159991  0.174832  -0.00323925  0.595156  -0.595156  0.595156  0  0  0  1.36462  -1.36462  1.36462  -0.0239774  0.00648721  -0.00829951  -0.0494449  0.0667653  -0.00114244  0.00182285  -0.0129781  0.0126489  0.0339081  0.0949139  -0.057904 
1700579794.991535000  0  0  17.0855  -0.0116635  0.0188602  -0.00549263  nan  nan  nan  nan  nan  nan  -1.37108  -0.128918  1.12892  0.158412  0.173579  -0.00433143  0.601943  -0.601943  0.601943  0  0  0  1.35  -1.35  1.35  -0.0242434  0.00677869  -0.00828799  -0.0484114  0.0656287  -0.00243226  0.00286705  -0.011595  0.0131584  -0.00304977  0.0689537  -0.0629263 
