ts fx fy fz tx ty tz exfx exfy exfz extx exty extz xd yd zd rolld pitchd yawd vxd vyd vzd wxd wyd wzd axd ayd azd e_x e_y e_z e_vx e_vy e_vz e_rx e_ry e_rz e_wx e_wy e_wz
1701696481.892228000  0  0  12.0401  0.053514  -0.0664823  0.0180003  nan  nan  nan  nan  nan  nan  -2  -1  1.5  0.0118883  -0.0196058  -0.000233075  0  0  0  0  0  0  0  0  0  0.00946478  0.00128472  -0.0234595  0.00520141  0.013046  -0.00366895  -0.0182309  0.0100889  -0.018903  0.0606967  0.0401462  -0.0359732 
1701696481.895170000  0  0  12.0629  0.0703617  -0.0671323  0.0177455  nan  nan  nan  nan  nan  nan  -2  -1  1.5  0.0120868  -0.0200655  -0.000242524  0  0  0  0  0  0  0  0  0  0.00948533  0.00132284  -0.0234869  0.00582213  0.0132574  -0.00551577  -0.0186178  0.0106183  -0.018961  0.0305607  0.0365759  -0.0322091 
1701696481.900146000  0  0  12.0513  0.0702376  -0.0812963  0.0168742  nan  nan  nan  nan  nan  nan  -2  -1  1.5  0.0124782  -0.0198838  -0.00024811  0  0  0  0  0  0  0  0  0  0.00953198  0.00129489  -0.023541  0.00544955  0.0138281  -0.00444232  -0.0188562  0.0109401  -0.0190013  0.0330015  0.0619437  -0.020915 
1701696481.905161000  0  0  12.0239  0.0725083  -0.0835921  0.0168007  nan  nan  nan  nan  nan  nan  -2  -1  1.5  0.0125597  -0.0201205  -0.000252704  0  0  0  0  0  0  0  0  0  0.00959125  0.00126797  -0.0235839  0.00557373  0.0139587  -0.00206565  -0.018826  0.0115331  -0.0191  0.0281828  0.0610792  -0.0190089 
1701696481.910162000  0  0  12.0521  0.0951975  -0.0648242  0.0174653  nan  nan  nan  nan  nan  nan  -2  -1  1.5  0.0127769  -0.0206833  -0.000264264  0  0  0  0  0  0  0  0  0  0.0096256  0.00133559  -0.0236187  0.00631457  0.0141384  -0.00434287  -0.0194238  0.0118655  -0.0192673  -0.0116965  0.0204857  -0.0256433 
1701696481.915176000  0  0  12.0822  0.0987951  -0.0759737  0.0171841  nan  nan  nan  nan  nan  nan  -2  -1  1.5  0.0136784  -0.0202403  -0.000276853  0  0  0  0  0  0  0  0  0  0.00967981  0.00132989  -0.0236987  0.00566946  0.0154045  -0.00670382  -0.0203756  0.0117961  -0.0193512  -0.010135  0.0434234  -0.0212893 
1701696481.920170000  0  0  12.0199  0.109984  -0.0695049  0.0174869  nan  nan  nan  nan  nan  nan  -2  -1  1.5  0.0142247  -0.020358  -0.000289586  0  0  0  0  0  0  0  0  0  0.00970785  0.00140597  -0.0236792  0.0056249  0.0158704  -0.0015605  -0.0211626  0.0119747  -0.0194763  -0.0252717  0.0288421  -0.0238239 
1701696481.925150000  0  0  12.063  0.112892  -0.0392604  0.0187269  nan  nan  nan  nan  nan  nan  -2  -1  1.5  0.0141752  -0.0206705  -0.000293008  0  0  0  0  0  0  0  0  0  0.00977485  0.00139503  -0.0237555  0.00599262  0.0158963  -0.00499159  -0.021328  0.0117187  -0.0197662  -0.029566  -0.0292909  -0.036424 
1701696481.930163000  0  0  12.1013  0.114097  -0.057492  0.0186945  nan  nan  nan  nan  nan  nan  -2  -1  1.5  0.0150358  -0.0200024  -0.000300753  0  0  0  0  0  0  0  0  0  0.009826  0.00140312  -0.0238393  0.00506914  0.0170964  -0.00802653  -0.0222605  0.0113868  -0.0199499  -0.023398  0.0102253  -0.0341824 
1701696481.935176000  0  0  12.0241  0.127113  -0.0408007  0.0191899  nan  nan  nan  nan  nan  nan  -2  -1  1.5  0.0155239  -0.02035  -0.000315915  0  0  0  0  0  0  0  0  0  0.00985516  0.00148606  -0.0238133  0.00529787  0.0174351  -0.00164548  -0.0231115  0.0114039  -0.0201578  -0.0416013  -0.0233142  -0.0382957 
1701696481.940159000  0  0  12.0287  0.121637  -0.0107569  0.0198089  nan  nan  nan  nan  nan  nan  -2  -1  1.5  0.0158628  -0.020546  -0.000325921  0  0  0  0  0  0  0  0  0  0.00991555  0.00149689  -0.0238596  0.00543639  0.0178719  -0.00193151  -0.0235079  0.0107431  -0.0204314  -0.0270018  -0.077323  -0.0432977 
1701696481.945543000  0  0  12.0813  0.12672  -0.0388187  0.0190358  nan  nan  nan  nan  nan  nan  -2  -1  1.5  0.0161534  -0.020198  -0.000326273  0  0  0  0  0  0  0  0  0  0.00996909  0.00153607  -0.0239292  0.0049707  0.0182681  -0.00618376  -0.0239791  0.0107032  -0.0205492  -0.0328322  -0.0208324  -0.0324559 
1701696481.950160000  0  0  11.9685  0.124549  -0.0183831  0.0186488  nan  nan  nan  nan  nan  nan  -2  -1  1.5  0.0166447  -0.020607  -0.000343004  0  0  0  0  0  0  0  0  0  0.00999571  0.00161827  -0.0238694  0.00520268  0.0185358  0.00310364  -0.0245339  0.0105596  -0.0206071  -0.0233865  -0.060382  -0.0270396 
1701696481.955161000  0  0  12.0095  0.117263  -0.00982985  0.0179017  nan  nan  nan  nan  nan  nan  -2  -1  1.5  0.0170766  -0.020381  -0.000348048  0  0  0  0  0  0  0  0  0  0.0100462  0.00165375  -0.0239107  0.00488306  0.0191093  -0.000224916  -0.0248201  0.00985359  -0.0206335  -0.00618063  -0.0709933  -0.0174371 
1701696481.960157000  0  0  12.0523  0.127469  -0.0334629  0.0161862  nan  nan  nan  nan  nan  nan  -2  -1  1.5  0.0172293  -0.0201532  -0.000347237  0  0  0  0  0  0  0  0  0  0.01007  0.00174516  -0.023948  0.00462241  0.0191924  -0.00372995  -0.0252177  0.0098972  -0.0204659  -0.0229355  -0.0241284  0.00233192 
1701696481.965160000  0  0  11.9758  0.105788  -0.0130007  0.016455  nan  nan  nan  nan  nan  nan  -2  -1  1.5  0.0176149  -0.0202941  -0.000357491  0  0  0  0  0  0  0  0  0  0.0101198  0.00178002  -0.0239173  0.00452789  0.0194812  0.00259503  -0.0251777  0.00947255  -0.0204907  0.0200597  -0.0611461  -0.000780332 
1701696481.970165000  0  0  12.0137  0.10553  -0.0124553  0.0169327  nan  nan  nan  nan  nan  nan  -2  -1  1.5  0.0183005  -0.0200797  -0.000367485  0  0  0  0  0  0  0  0  0  0.0101417  0.00188109  -0.0239422  0.00427894  0.0202461  -0.000508094  -0.0256565  0.00895311  -0.0205585  0.0249795  -0.057458  -0.0060739 
1701696481.975161000  0  0  12.0396  0.118106  -0.0265694  0.0165436  nan  nan  nan  nan  nan  nan  -2  -1  1.5  0.0182128  -0.0203146  -0.000370002  0  0  0  0  0  0  0  0  0  0.0101943  0.00191053  -0.0239846  0.00453423  0.0201159  -0.00257886  -0.0257608  0.0092672  -0.0205344  0.000788055  -0.0321195  -0.00145101 
1701696481.980111000  0  0  12.021  0.100283  -0.022888  0.0172652  nan  nan  nan  nan  nan  nan  -2  -1  1.5  0.018589  -0.0199959  -0.000371722  0  0  0  0  0  0  0  0  0  0.0102379  0.00194958  -0.023997  0.00396955  0.0204942  -0.00100069  -0.0256825  0.00877171  -0.0206489  0.035713  -0.0349238  -0.00932671 
1701696481.985223000  0  0  12.0721  0.0948002  -0.0222727  0.0176473  nan  nan  nan  nan  nan  nan  -2  -1  1.5  0.0185065  -0.0205639  -0.000380583  6e-07  6e-07  -6e-07  0  0  0  0.000375  0.000375  -0.000375  0.0102672  0.00204978  -0.0240378  0.00482851  0.0203139  -0.00518944  -0.0252851  0.00910609  -0.0207455  0.0430223  -0.0392307  -0.0131358 
1701696481.990161000  0  0  12.0758  0.0960728  -0.039702  0.0177295  nan  nan  nan  nan  nan  nan  -2  -1  1.5  0.0185681  -0.02072  -0.000384748  5e-06  5e-06  -5e-06  0  0  0  0.0015  0.0015  -0.0015  0.0103198  0.00208227  -0.0240779  0.0050751  0.0204774  -0.00552396  -0.0251886  0.00947545  -0.0208246  0.03959  -0.00777014  -0.0133722 
1701696481.995542000  0  0  12.0552  0.0735549  -0.0522454  0.0180689  nan  nan  nan  nan  nan  nan  -2  -1  1.5  0.0187491  -0.0201477  -0.000377769  1.69e-05  1.69e-05  -1.69e-05  0  0  0  0.003375  0.003375  -0.003375  0.0103733  0.00211443  -0.0241094  0.0043838  0.0208482  -0.00391452  -0.0246177  0.00925564  -0.0209512  0.0793726  0.0193389  -0.0163493 
1701696482.000159000  0  0  12.0362  0.0717087  -0.0309593  0.0179639  nan  nan  nan  nan  nan  nan  -2  -1  1.5  0.018372  -0.0205073  -0.000376676  4e-05  4e-05  -4e-05  0  0  0  0.006  0.006  -0.006  0.0104007  0.00220473  -0.024114  0.00509982  0.0204421  -0.00255577  -0.0238937  0.00920722  -0.0209919  0.0764048  -0.0227877  -0.0146293 
1701696482.005161000  0  0  12.0705  0.071287  -0.0501925  0.0178215  nan  nan  nan  nan  nan  nan  -2  -1  1.5  0.01806  -0.0201772  -0.000364114  7.81e-05  7.81e-05  -7.81e-05  0  0  0  0.009375  0.009375  -0.009375  0.0104616  0.00219437  -0.0242101  0.00503546  0.020553  -0.0055425  -0.023263  0.00919809  -0.0210847  0.0714457  0.0157626  -0.0119211 
1701696482.010158000  0  0  12.0322  0.0563089  -0.0698065  0.0180671  nan  nan  nan  nan  nan  nan  -2  -0.999999  1.5  0.0182128  -0.019396  -0.000352773  0.000135  0.000135  -0.000135  0  0  0  0.0135  0.0135  -0.0135  0.0104815  0.00229862  -0.0242109  0.00439344  0.0209822  -0.00274349  -0.0227345  0.00904477  -0.021182  0.0965392  0.0564012  -0.0140188 
1701696482.015159000  0  0  12.0003  0.0468952  -0.0358787  0.0191564  nan  nan  nan  nan  nan  nan  -2  -0.999998  1.5  0.0170111  -0.0200966  -0.000340874  0.0002144  0.0002144  -0.0002144  0  0  0  0.018375  0.018375  -0.018375  0.010551  0.0023126  -0.0242276  0.0057329  0.019913  -0.000493923  -0.020983  0.00917508  -0.021415  0.0992536  -0.0126533  -0.0253051 
1701696482.020159000  0  0  12.0421  0.0504864  -0.053493  0.0189609  nan  nan  nan  nan  nan  nan  -2  -0.999997  1.5  0.0172224  -0.0190233  -0.000325939  0.00032  0.00032  -0.00032  0  0  0  0.024  0.024  -0.024  0.0105738  0.00242046  -0.0242746  0.00506616  0.0207627  -0.00443557  -0.0207992  0.00846836  -0.0215223  0.0903794  0.0290771  -0.0217893 
1701696482.025160000  0  0  11.9917  0.0453705  -0.0629091  0.0181379  nan  nan  nan  nan  nan  nan  -1.99999  -0.999995  1.49999  0.0170945  -0.0178883  -0.000303104  0.0004556  0.0004556  -0.0004556  0  0  0  0.030375  0.030375  -0.030375  0.0105835  0.00252617  -0.0242558  0.00424845  0.0210853  -0.000895806  -0.0201493  0.00785372  -0.0215252  0.0946326  0.0535639  -0.0114717 
1701696482.030162000  0  0  11.9238  0.0364407  -0.0147926  0.018265  nan  nan  nan  nan  nan  nan  -1.99999  -0.999992  1.49999  0.0150612  -0.0186569  -0.000276801  0.000625  0.000625  -0.000625  0  0  0  0.0375  0.0375  -0.0375  0.0107031  0.00239497  -0.024307  0.00578495  0.0194739  0.00420792  -0.0176882  0.00772387  -0.0216509  0.0898504  -0.0414743  -0.0118039 
1701696482.035220000  0  0  11.9931  0.045855  -0.048715  0.0173906  nan  nan  nan  nan  nan  nan  -1.99999  -0.999989  1.49999  0.0150122  -0.0168379  -0.000246681  0.0008319  0.0008319  -0.0008319  0  0  0  0.045375  0.045375  -0.045375  0.0107239  0.00250174  -0.0243622  0.00447539  0.0203059  -0.00223043  -0.0174132  0.00658973  -0.0216009  0.0684916  0.0368045  -0.00137271 
1701696482.040159000  0  0  11.9128  0.0413217  -0.0453086  0.0174285  nan  nan  nan  nan  nan  nan  -1.99998  -0.999984  1.49998  0.0137187  -0.016025  -0.000211246  0.00108  0.00108  -0.00108  0  0  0  0.054  0.054  -0.054  0.0107804  0.00248484  -0.0243609  0.00423683  0.0196124  0.00361512  -0.0158338  0.00603734  -0.0216561  0.0630278  0.0350737  -0.00129575 
1701696482.045576000  0  0  11.836  0.0344404  0.0075392  0.0183061  nan  nan  nan  nan  nan  nan  -1.99998  -0.999978  1.49998  0.0124933  -0.015616  -0.000183198  0.0013731  0.0013731  -0.0013731  0  0  0  0.063375  0.063375  -0.063375  0.0108453  0.00249369  -0.0243398  0.00462844  0.0190757  0.00907078  -0.0142782  0.00456485  -0.0218404  0.0624788  -0.057075  -0.0104223 
1701696482.050163000  0  0  11.9259  0.0526995  -0.0215919  0.0175355  nan  nan  nan  nan  nan  nan  -1.99997  -0.99997  1.49997  0.0120052  -0.013346  -0.000144224  0.001715  0.001715  -0.001715  0  0  0  0.0735  0.0735  -0.0735  0.0108513  0.00258589  -0.0243918  0.00307082  0.0196581  0.000682703  -0.0139451  0.00293075  -0.0217946  0.0228957  0.0162209  -0.00124756 
1701696482.055631000  0  0  11.8747  0.0496848  -0.0165086  0.0172477  nan  nan  nan  nan  nan  nan  -1.99996  -0.99996  1.49996  0.0105858  -0.0123437  -0.000109569  0.0021094  0.0021094  -0.0021094  0  0  0  0.084375  0.084375  -0.084375  0.0109014  0.0026016  -0.0243909  0.00296583  0.0190879  0.0038796  -0.0125078  0.00208793  -0.0217986  0.015702  0.0138084  0.00239017 
1701696482.060159000  0  0  11.7937  0.0423962  0.0294818  0.0175937  nan  nan  nan  nan  nan  nan  -1.99995  -0.999949  1.49995  0.00989183  -0.0110773  -8.22757e-05  0.00256  0.00256  -0.00256  0  0  0  0.096  0.096  -0.096  0.010917  0.00269052  -0.0243269  0.00266217  0.0193883  0.00936226  -0.0116083  -7.28166e-05  -0.0218576  0.0220042  -0.0582937  -0.00134447 
1701696482.065136000  0  0  11.8908  0.067466  -0.0144  0.0172291  nan  nan  nan  nan  nan  nan  -1.99993  -0.999935  1.49993  0.00832726  -0.00907798  -4.07954e-05  0.0030706  0.0030706  -0.0030706  0  0  0  0.108375  0.108375  -0.108375  0.0109426  0.00270481  -0.024401  0.00168189  0.0189958  0.000199558  -0.0106507  -0.00108746  -0.0218493  -0.0369458  0.0388047  0.00313002 
1701696482.070585000  0  0  11.8077  0.0589932  0.00314226  0.0181717  nan  nan  nan  nan  nan  nan  -1.99992  -0.999918  1.49992  0.00695145  -0.00791401  -1.13142e-05  0.003645  0.003645  -0.003645  0  0  0  0.1215  0.1215  -0.1215  0.0109901  0.00273638  -0.0243745  0.00166116  0.0187399  0.00579244  -0.00941919  -0.00223619  -0.0219988  -0.0313299  0.0142885  -0.00715758 
1701696482.075157000  0  0  11.7744  0.0582596  0.0161418  0.0189626  nan  nan  nan  nan  nan  nan  -1.9999  -0.999898  1.4999  0.00617471  -0.00606719  1.68366e-05  0.0042869  0.0042869  -0.0042869  0  0  0  0.135375  0.135375  -0.135375  0.0109944  0.00282585  -0.0243384  0.00099895  0.0192924  0.00713117  -0.00875727  -0.00416779  -0.0221712  -0.0359524  0.00606001  -0.0153211 
1701696482.080159000  0  0  11.8392  0.0857651  -0.0161607  0.0181333  nan  nan  nan  nan  nan  nan  -1.99988  -0.999875  1.49988  0.00421288  -0.00451466  4.76802e-05  0.005  0.005  -0.005  0  0  0  0.15  0.15  -0.15  0.0110284  0.00284294  -0.0244027  0.000814475  0.0186081  0.000435627  -0.00778144  -0.00473639  -0.022163  -0.0999411  0.0758962  -0.00503634 
1701696482.085154000  0  0  11.7724  0.0667554  -0.00627491  0.0177255  nan  nan  nan  nan  nan  nan  -1.99985  -0.999848  1.49985  0.00309109  -0.00242712  7.34975e-05  0.0057881  0.0057881  -0.0057881  0  0  0  0.165375  0.165375  -0.165375  0.0110272  0.00293955  -0.0243534  3.97939e-05  0.0188815  0.00438988  -0.00678003  -0.00643735  -0.0221551  -0.0711345  0.0717734  -1.67372e-05 
1701696482.090261000  0  0  11.7449  0.0696657  -0.00531637  0.0174577  nan  nan  nan  nan  nan  nan  -1.99982  -0.999817  1.49982  0.00186597  -0.000280447  9.70767e-05  0.006655  0.006655  -0.006655  0  0  0  0.1815  0.1815  -0.1815  0.0110277  0.00303946  -0.0243286  -0.000686295  0.0191347  0.00505695  -0.00599679  -0.00804509  -0.0221473  -0.084161  0.0846475  0.00325164 
1701696482.095520000  0  0  11.766  0.0931524  -0.0189997  0.0170204  nan  nan  nan  nan  nan  nan  -1.99978  -0.999781  1.49978  -0.000478604  0.00115442  0.000116047  0.0076044  0.0076044  -0.0076044  0  0  0  0.198375  0.198375  -0.198375  0.0110805  0.00299738  -0.0244051  -0.000498151  0.0183477  0.00182436  -0.00484821  -0.00855042  -0.0221333  -0.141701  0.116663  0.00857875 
1701696482.100157000  0  0  11.7054  0.0741444  -0.0256048  0.0168883  nan  nan  nan  nan  nan  nan  -1.99974  -0.999741  1.49974  -0.00206424  0.00384668  0.00013026  0.00864  0.00864  -0.00864  0  0  0  0.216  0.216  -0.216  0.0110699  0.0030823  -0.0243635  -0.00169065  0.0183769  0.00508138  -0.00353151  -0.0102886  -0.0221079  -0.115799  0.145865  0.00997451 
1701696482.105141000  0  0  11.68  0.0728064  -0.026714  0.0168793  nan  nan  nan  nan  nan  nan  -1.99969  -0.999695  1.49969  -0.00435547  0.00601626  0.000136596  0.0097656  0.0097656  -0.0097656  0  0  0  0.234375  0.234375  -0.234375  0.0110935  0.00309694  -0.0243675  -0.00217325  0.0177505  0.00542821  -0.00192048  -0.0114719  -0.0221036  -0.127944  0.15897  0.0100447 
1701696482.110145000  0  0  11.6854  0.0840463  -0.020932  0.0169011  nan  nan  nan  nan  nan  nan  -1.99964  -0.999643  1.49964  -0.00647165  0.00813345  0.000137763  0.010985  0.010985  -0.0109839  0  0  0  0.2535  0.2535  -0.252793  0.0110883  0.00318348  -0.0243677  -0.00244255  0.0172787  0.00321039  -0.000833667  -0.0127568  -0.0220928  -0.160423  0.159226  0.00966491 
1701696482.115784000  0  0  11.6412  0.064348  -0.0320163  0.0173406  nan  nan  nan  nan  nan  nan  -1.99958  -0.999585  1.49958  -0.00828383  0.0110548  0.000129823  0.0123019  0.0123019  -0.0122923  0  0  0  0.273375  0.273375  -0.270462  0.0111002  0.00323723  -0.024369  -0.00363927  0.0174146  0.00520001  0.00047141  -0.0142457  -0.0221439  -0.133033  0.195093  0.00468156 
1701696482.120609000  0  0  11.6026  0.0582982  -0.027205  0.0180348  nan  nan  nan  nan  nan  nan  -1.99952  -0.99952  1.49952  -0.0111872  0.0133082  0.000107116  0.01372  0.01372  -0.0136872  0  0  0  0.294  0.294  -0.287381  0.0111239  0.00324766  -0.0243645  -0.00388407  0.0163487  0.0068024  0.00267118  -0.0154281  -0.0222547  -0.141171  0.196349  -0.00288828 
1701696482.125154000  0  0  11.6327  0.0567968  -0.0168407  0.0186429  nan  nan  nan  nan  nan  nan  -1.99945  -0.999447  1.49945  -0.0137946  0.016078  7.27067e-05  0.0152431  0.0152431  -0.0151649  0  0  0  0.315375  0.315375  -0.30355  0.0111014  0.00331215  -0.0243737  -0.00469663  0.0155595  0.00278104  0.00450108  -0.0173229  -0.0223746  -0.155004  0.193052  -0.00928983 
1701696482.130171000  0  0  11.5947  0.0430243  -0.0318324  0.0181141  nan  nan  nan  nan  nan  nan  -1.99937  -0.999367  1.49937  -0.0162293  0.0194035  2.20867e-05  0.016875  0.016875  -0.0167215  0  0  0  0.3375  0.3375  -0.318969  0.0111137  0.00332828  -0.024369  -0.00608183  0.0153042  0.0044946  0.00635258  -0.0190215  -0.0223709  -0.144492  0.238662  -0.00271752 
1701696482.135157000  0  0  11.5237  0.0403981  -0.0121616  0.0176603  nan  nan  nan  nan  nan  nan  -1.99928  -0.999278  1.49928  -0.019506  0.02217  -4.87671e-05  0.0186194  0.0186194  -0.0183533  0  0  0  0.360375  0.360375  -0.333638  0.0110867  0.00339704  -0.0243064  -0.00645618  0.0140405  0.0089234  0.00876915  -0.020788  -0.0223256  -0.161472  0.215572  0.00250274 
1701696482.140147000  0  0  11.5663  0.0330864  -0.000854555  0.0169889  nan  nan  nan  nan  nan  nan  -1.99918  -0.999181  1.49918  -0.022297  0.025183  -0.000126639  0.02048  0.02048  -0.0200566  0  0  0  0.384  0.384  -0.347557  0.0110886  0.00341673  -0.0243415  -0.00738607  0.0133712  0.0041656  0.0107132  -0.0227521  -0.022247  -0.164734  0.211028  0.0101085 
1701696482.145142000  0  0  11.5573  0.0291453  -0.0190116  0.0156725  nan  nan  nan  nan  nan  nan  -1.99907  -0.999073  1.49908  -0.0249382  0.0293058  -0.000240181  0.0224606  0.0224606  -0.0218276  0  0  0  0.408375  0.408375  -0.360726  0.0110385  0.00348542  -0.0243282  -0.00939719  0.0130013  0.00370298  0.0125262  -0.0250243  -0.0220098  -0.173532  0.268247  0.0241917 
1701696482.150158000  0  0  11.4794  0.0285636  0.014958  0.0158057  nan  nan  nan  nan  nan  nan  -1.99896  -0.998956  1.49897  -0.0289057  0.032135  -0.000377683  0.024565  0.024565  -0.0236626  0  0  0  0.4335  0.4335  -0.373145  0.0110554  0.00349623  -0.0243077  -0.00954693  0.0113825  0.00904831  0.0153217  -0.027001  -0.021921  -0.198087  0.218494  0.0216383 
1701696482.155167000  0  0  11.5229  0.0177586  0.0206965  0.0154396  nan  nan  nan  nan  nan  nan  -1.99883  -0.998828  1.49884  -0.0316493  0.03598  -0.000521977  0.0267969  0.0267969  -0.0255578  0  0  0  0.459375  0.459375  -0.384814  0.0109998  0.00355748  -0.0243089  -0.0111639  0.0109416  0.00439737  0.0171922  -0.029607  -0.0217648  -0.193685  0.230991  0.0246527 
1701696482.160152000  0  0  11.5273  0.0214367  -0.00487772  0.0146805  nan  nan  nan  nan  nan  nan  -1.99869  -0.998688  1.49871  -0.0352547  0.0399575  -0.000721298  0.02916  0.02916  -0.0275095  0  0  0  0.486  0.486  -0.395732  0.0109822  0.00356424  -0.0243362  -0.0128029  0.00974238  0.00320007  0.0195099  -0.0314439  -0.0215188  -0.222364  0.299039  0.0316821 
1701696482.165141000  0  0  11.4257  0.0176393  0.0375166  0.0153417  nan  nan  nan  nan  nan  nan  -1.99854  -0.998536  1.49857  -0.0395883  0.0434234  -0.000955814  0.0316581  0.0316581  -0.0295139  0  0  0  0.513375  0.513375  -0.405901  0.0109732  0.00355509  -0.0242755  -0.0132059  0.00820496  0.0106967  0.0225007  -0.0340426  -0.0214328  -0.242285  0.238158  0.0225566 
1701696482.170646000  0  0  11.4813  0.0109796  0.0336028  0.016148  nan  nan  nan  nan  nan  nan  -1.99837  -0.998371  1.49842  -0.0426305  0.0473948  -0.00117593  0.034295  0.034295  -0.0315673  0  0  0  0.5415  0.5415  -0.41532  0.0109442  0.00357518  -0.0243285  -0.0148519  0.00768121  0.00544516  0.0242077  -0.0363203  -0.0214077  -0.24467  0.266941  0.0122271 
1701696482.175169000  0  0  11.4813  0.0212852  0.0115037  0.0161269  nan  nan  nan  nan  nan  nan  -1.99819  -0.998193  1.49825  -0.0466154  0.0518287  -0.00148478  0.0370744  0.0370744  -0.0336659  0  0  0  0.570375  0.570375  -0.423989  0.0108553  0.00359031  -0.0242902  -0.0165952  0.00631375  0.00476363  0.0266262  -0.0386029  -0.0212758  -0.287531  0.332139  0.0111724 
1701696482.180151000  0  0  11.3935  0.0119094  0.0493227  0.0169389  nan  nan  nan  nan  nan  nan  -1.998  -0.998  1.49808  -0.0511051  0.0557698  -0.00182662  0.04  0.04  -0.0358059  0  0  0  0.6  0.6  -0.431908  0.0108188  0.00357791  -0.0242349  -0.0171904  0.00495976  0.0114147  0.0295909  -0.041382  -0.0212637  -0.296055  0.282069  0.000900922 
1701696482.185217000  0  0  11.4656  0.012382  0.0355977  0.0163846  nan  nan  nan  nan  nan  nan  -1.99779  -0.997792  1.49789  -0.0544222  0.0602512  -0.00215745  0.0430756  0.0430756  -0.0379837  0  0  0  0.630375  0.630306  -0.439077  0.0107238  0.00360757  -0.0242464  -0.0192301  0.0042006  0.0050102  0.0312938  -0.0438054  -0.0211197  -0.312667  0.331814  0.00638871 
1701696482.190174000  0  0  11.4268  0.0263734  0.0188329  0.0149191  nan  nan  nan  nan  nan  nan  -1.99757  -0.997569  1.4977  -0.0589175  0.0645238  -0.00257643  0.0463048  0.0463022  -0.0401954  0  0  0  0.661272  0.660227  -0.445496  0.0106772  0.00357114  -0.0242163  -0.0203236  0.0027101  0.00789918  0.0336477  -0.0456581  -0.0207628  -0.362305  0.382389  0.0211387 
1701696482.195598000  0  0  11.3608  0.0168  0.0426605  0.0148379  nan  nan  nan  nan  nan  nan  -1.99733  -0.997329  1.49749  -0.062889  0.0687829  -0.00299095  0.0496872  0.0496766  -0.0424374  0  0  0  0.691571  0.689397  -0.451165  0.0106364  0.00358052  -0.0241855  -0.0212479  0.00191335  0.0130985  0.0356462  -0.0480751  -0.0205459  -0.361545  0.35697  0.0199851 
1701696482.200172000  0  0  11.4446  0.0278812  0.020762  0.0146628  nan  nan  nan  nan  nan  nan  -1.99707  -0.997072  1.49727  -0.0663662  0.0731057  -0.00340142  0.0532192  0.053195  -0.0447058  0  0  0  0.721119  0.717818  -0.456084  0.0105088  0.0035663  -0.0241854  -0.0233105  0.000654822  0.0060204  0.0371065  -0.0499698  -0.0203442  -0.397143  0.418198  0.0201566 
1701696482.205159000  0  0  11.4182  0.0442868  0.00473186  0.0146628  nan  nan  nan  nan  nan  nan  -1.9968  -0.996797  1.49704  -0.0703329  0.0771188  -0.00385222  0.0568972  0.0568535  -0.046997  0  0  0  0.749918  0.745488  -0.460253  0.0104481  0.00354421  -0.0241714  -0.0243567  -0.000505437  0.0082177  0.0384799  -0.0512115  -0.020131  -0.442589  0.461682  0.0180259 
1701696482.210172000  0  0  11.3809  0.0373625  0.0122812  0.0151044  nan  nan  nan  nan  nan  nan  -1.9965  -0.996503  1.4968  -0.0741324  0.0815716  -0.00434791  0.0607172  0.0606486  -0.0493071  0  0  0  0.777966  0.772409  -0.463672  0.0103204  0.00354276  -0.0241042  -0.025793  -0.00147796  0.0112769  0.0401052  -0.0532548  -0.0199839  -0.443693  0.465382  0.0110348 
1701696482.215172000  0  0  11.4701  0.0568606  -0.0112972  0.0148843  nan  nan  nan  nan  nan  nan  -1.99619  -0.99619  1.49655  -0.077308  0.0849164  -0.00473183  0.0646756  0.0645764  -0.0516324  0  0  0  0.805265  0.79858  -0.466341  0.0102432  0.00350891  -0.0241523  -0.0271834  -0.00274127  0.0041721  0.0405432  -0.0535726  -0.0198174  -0.486718  0.515462  0.0121201 
1701696482.220599000  0  0  11.4681  0.074733  -0.0341515  0.0150753  nan  nan  nan  nan  nan  nan  -1.99586  -0.995857  1.49629  -0.0807974  0.0884481  -0.00517392  0.0687686  0.0686331  -0.0539693  0  0  0  0.831813  0.824  -0.46826  0.0101931  0.00349402  -0.0241743  -0.0281389  -0.00377874  0.0047436  0.0408392  -0.0536027  -0.0196712  -0.525187  0.561448  0.00827011 
1701696482.225158000  0  0  11.4283  0.0642868  -0.027769  0.0154578  nan  nan  nan  nan  nan  nan  -1.9955  -0.995504  1.49601  -0.0845871  0.0929491  -0.0057441  0.0729924  0.0728151  -0.0563138  0  0  0  0.857612  0.848671  -0.469428  0.0100275  0.0034481  -0.0240888  -0.0297993  -0.0048604  0.00828261  0.0423644  -0.0554349  -0.0195354  -0.518326  0.565539  0.00213121 
1701696482.230176000  0  0  11.4954  0.0826437  -0.0450455  0.0150131  nan  nan  nan  nan  nan  nan  -1.99513  -0.995129  1.49572  -0.0875951  0.0957906  -0.00612056  0.0773434  0.0771186  -0.0586623  0  0  0  0.88266  0.872591  -0.469847  0.00995557  0.00341165  -0.0241511  -0.0307353  -0.00608303  0.00334069  0.0422934  -0.0549938  -0.0193941  -0.554387  0.596034  0.00627723 
1701696482.235170000  0  0  11.4997  0.0980715  -0.0579635  0.0142208  nan  nan  nan  nan  nan  nan  -1.99473  -0.994732  1.49543  -0.0908933  0.0996891  -0.00663281  0.0818178  0.0815398  -0.061011  0  0  0  0.906958  0.895762  -0.469516  0.00979742  0.00338014  -0.0241332  -0.032292  -0.00717629  0.00359241  0.042398  -0.055495  -0.0191319  -0.586205  0.626481  0.0135596 
1701696482.240169000  0  0  11.47  0.0876773  -0.0498534  0.0141192  nan  nan  nan  nan  nan  nan  -1.99431  -0.994313  1.49511  -0.0941752  0.103241  -0.00713041  0.0864118  0.086075  -0.0633562  0  0  0  0.930507  0.918183  -0.468435  0.00972761  0.00334498  -0.0241379  -0.0333139  -0.00798828  0.00675061  0.0428715  -0.0559618  -0.0189393  -0.569773  0.614556  0.0129031 
1701696482.245157000  0  0  11.5113  0.102002  -0.0558518  0.0131974  nan  nan  nan  nan  nan  nan  -1.99386  -0.993871  1.49479  -0.0973907  0.10658  -0.00761729  0.0911216  0.0907204  -0.0656941  0  0  0  0.953305  0.939853  -0.466604  0.00955307  0.00329906  -0.0241355  -0.0347424  -0.00952395  0.00412585  0.0429104  -0.0560582  -0.0186512  -0.598779  0.62744  0.0215437 
1701696482.250172000  0  0  11.5432  0.107767  -0.0630257  0.0126058  nan  nan  nan  nan  nan  nan  -1.9934  -0.993406  1.49446  -0.100189  0.109691  -0.0080506  0.0959436  0.0954722  -0.068021  0  0  0  0.975354  0.960774  -0.464023  0.00944902  0.00323341  -0.0241479  -0.0360378  -0.010502  0.00238225  0.0425127  -0.0558311  -0.0183885  -0.60665  0.639698  0.0263118 
1701696482.255172000  0  0  11.5173  0.104314  -0.0541147  0.013333  nan  nan  nan  nan  nan  nan  -1.9929  -0.992916  1.49411  -0.103183  0.113272  -0.0085658  0.100874  0.100327  -0.0703331  0  0  0  0.996652  0.980944  -0.460692  0.00934703  0.00317532  -0.024125  -0.0373415  -0.0111943  0.00544692  0.042489  -0.0563068  -0.018257  -0.599526  0.626252  0.0159073 
1701696482.260226000  0  0  11.5592  0.115159  -0.0532492  0.0139465  nan  nan  nan  nan  nan  nan  -1.99239  -0.992402  1.49375  -0.106281  0.116058  -0.00902437  0.105909  0.10528  -0.0726267  0  0  0  1.0172  1.00036  -0.456611  0.00917317  0.00311685  -0.0241241  -0.038417  -0.0128955  0.00302469  0.0423162  -0.0559527  -0.0181777  -0.619627  0.621263  0.00744589 
1701696482.265162000  0  0  11.5883  0.112372  -0.0568774  0.0134083  nan  nan  nan  nan  nan  nan  -1.99184  -0.991864  1.49339  -0.108487  0.119133  -0.00941841  0.111045  0.110329  -0.074898  0  0  0  1.037  1.01904  -0.45178  0.00904529  0.00304821  -0.0241562  -0.0399078  -0.0133997  0.0017698  0.0415077  -0.0558504  -0.0180247  -0.606614  0.627579  0.0126433 
1701696482.270169000  0  0  11.5913  0.116284  -0.0578077  0.0129932  nan  nan  nan  nan  nan  nan  -1.99128  -0.991299  1.49301  -0.111349  0.122858  -0.00997278  0.116278  0.11547  -0.0771432  0  0  0  1.05605  1.03696  -0.446199  0.00884919  0.00297985  -0.0241339  -0.0418613  -0.0145101  0.00273791  0.0412629  -0.0563247  -0.0178075  -0.612187  0.633803  0.0156602 
1701696482.275171000  0  0  11.5953  0.117184  -0.0402077  0.0133385  nan  nan  nan  nan  nan  nan  -1.99068  -0.990709  1.49261  -0.114428  0.125157  -0.0104077  0.121604  0.120698  -0.0793587  0  0  0  1.07435  1.05413  -0.439868  0.00871733  0.00289182  -0.0241276  -0.0422294  -0.0159927  0.00364071  0.0411684  -0.0558742  -0.0176903  -0.613118  0.594458  0.0101725 
1701696482.280175000  0  0  11.6593  0.11731  -0.0464976  0.0129093  nan  nan  nan  nan  nan  nan  -1.99006  -0.990092  1.49221  -0.116204  0.127883  -0.0107324  0.12702  0.12601  -0.0815406  0  0  0  1.09189  1.07055  -0.432787  0.0085627  0.00279911  -0.0241846  -0.0440277  -0.0166614  -0.000228297  0.0399311  -0.0555213  -0.0175791  -0.601985  0.603791  0.0144238 
1701696482.285268000  0  0  11.6414  0.121761  -0.0486093  0.0124159  nan  nan  nan  nan  nan  nan  -1.98941  -0.989448  1.4918  -0.118862  0.131145  -0.0112403  0.132522  0.131402  -0.0836853  0  0  0  1.10869  1.08622  -0.424955  0.00834875  0.0027262  -0.0241628  -0.0453493  -0.0175339  0.00268345  0.0394392  -0.0555784  -0.0173717  -0.606363  0.60854  0.0185174 
1701696482.290261000  0  0  11.6689  0.114364  -0.0169204  0.0130006  nan  nan  nan  nan  nan  nan  -1.98873  -0.988778  1.49138  -0.121552  0.133188  -0.0116163  0.138105  0.13687  -0.0857889  0  0  0  1.12474  1.10114  -0.416374  0.00818577  0.0026159  -0.0241809  -0.0459651  -0.0190926  0.00188719  0.0392099  -0.055308  -0.0173093  -0.589458  0.542674  0.0105849 
1701696482.295155000  0  0  11.72  0.117459  -0.034612  0.0123028  nan  nan  nan  nan  nan  nan  -1.98803  -0.98808  1.49094  -0.123121  0.136503  -0.0119999  0.143768  0.142412  -0.0878478  0  0  0  1.14004  1.11531  -0.407043  0.00793837  0.00251284  -0.0241791  -0.0484963  -0.0196233  -0.000756903  0.0379644  -0.0555424  -0.0171968  -0.58419  0.580214  0.018183 
1701696482.300152000  0  0  11.7065  0.127734  -0.0437269  0.0116197  nan  nan  nan  nan  nan  nan  -1.9873  -0.987354  1.4905  -0.125527  0.139189  -0.0124273  0.149505  0.148022  -0.0898581  0  0  0  1.15459  1.12873  -0.396962  0.00777311  0.00240455  -0.0241979  -0.0495271  -0.020451  0.00206906  0.0371674  -0.0550904  -0.0169669  -0.597408  0.594286  0.0244228 
1701696482.305146000  0  0  11.7125  0.11348  -0.00240272  0.0124792  nan  nan  nan  nan  nan  nan  -1.98653  -0.986599  1.49004  -0.127891  0.140985  -0.0127422  0.155312  0.153698  -0.0918162  0  0  0  1.16839  1.1414  -0.386131  0.00758141  0.00228392  -0.0241949  -0.0497449  -0.0215986  0.00316543  0.0368462  -0.0549515  -0.0169642  -0.565946  0.51036  0.0136525 
1701696482.310155000  0  0  11.8017  0.122792  -0.0391441  0.0125296  nan  nan  nan  nan  nan  nan  -1.98574  -0.985816  1.48958  -0.128897  0.143776  -0.0129906  0.161187  0.159435  -0.0937182  0  0  0  1.18144  1.15332  -0.37455  0.00731853  0.0021787  -0.024237  -0.0524908  -0.0222761  -0.00233456  0.0350245  -0.0543811  -0.0170219  -0.567809  0.578594  0.0135989 
1701696482.315158000  0  0  11.7666  0.127986  -0.0446343  0.0116553  nan  nan  nan  nan  nan  nan  -1.98492  -0.985005  1.48911  -0.131236  0.145992  -0.0133614  0.167125  0.16523  -0.0955604  0  0  0  1.19373  1.16449  -0.362219  0.00711638  0.002051  -0.0242396  -0.0527715  -0.0229739  0.00241503  0.0343632  -0.0535723  -0.0167974  -0.572113  0.582134  0.0222823 
1701696482.320154000  0  0  11.7626  0.11149  -0.00128435  0.0118977  nan  nan  nan  nan  nan  nan  -1.98407  -0.984164  1.48862  -0.133132  0.147888  -0.0136273  0.173123  0.171079  -0.0973391  0  0  0  1.20528  1.17491  -0.349138  0.00685901  0.00193542  -0.0242025  -0.0531042  -0.0236878  0.00445967  0.0338722  -0.0536487  -0.0167686  -0.534605  0.496137  0.0189648 
1701696482.325145000  0  0  11.876  0.131637  -0.0593566  0.0110842  nan  nan  nan  nan  nan  nan  -1.98319  -0.983294  1.48813  -0.133921  0.149829  -0.0137325  0.179177  0.176978  -0.0990506  0  0  0  1.21608  1.18458  -0.335307  0.00663913  0.00177713  -0.0242792  -0.0555819  -0.0246881  -0.00277685  0.0316949  -0.0519104  -0.0167112  -0.554867  0.596289  0.0285596 
1701696482.330155000  0  0  11.8286  0.129088  -0.0558878  0.0117269  nan  nan  nan  nan  nan  nan  -1.98228  -0.982394  1.48763  -0.136037  0.151694  -0.0140282  0.185283  0.182923  -0.100691  0  0  0  1.22613  1.1935  -0.320726  0.00641318  0.00161372  -0.0242486  -0.0554155  -0.0251353  0.00307211  0.0310643  -0.0509146  -0.0166501  -0.543967  0.58019  0.0199147 
1701696482.335156000  0  0  11.8384  0.118369  -0.0244134  0.0131343  nan  nan  nan  nan  nan  nan  -1.98134  -0.981465  1.48713  -0.13715  0.153293  -0.014133  0.191437  0.188912  -0.102257  0  0  0  1.23543  1.20167  -0.305395  0.00614163  0.00149148  -0.0242335  -0.0558347  -0.025346  0.00416755  0.029904  -0.0504782  -0.0168919  -0.511854  0.513226  0.00474045 
1701696482.340153000  0  0  11.9614  0.1442  -0.0850606  0.012046  nan  nan  nan  nan  nan  nan  -1.98037  -0.980505  1.48661  -0.137791  0.154622  -0.0141242  0.197636  0.194939  -0.103744  0  0  0  1.24398  1.20909  -0.289314  0.00588013  0.00132292  -0.0242961  -0.0579311  -0.0266438  -0.00372082  0.0275845  -0.0480199  -0.0168829  -0.542178  0.611905  0.018254 
1701696482.345630000  0  0  11.8954  0.138102  -0.0799505  0.0122055  nan  nan  nan  nan  nan  nan  -1.97936  -0.979515  1.48609  -0.139024  0.155886  -0.0141955  0.203876  0.201001  -0.105148  0  0  0  1.25177  1.21576  -0.272482  0.00568891  0.00123846  -0.0242946  -0.0569785  -0.0261583  0.00377506  0.0261014  -0.0462078  -0.016912  -0.516335  0.585013  0.0165521 
1701696482.350156000  0  0  11.9141  0.12308  -0.0605914  0.0123861  nan  nan  nan  nan  nan  nan  -1.97833  -0.978495  1.48556  -0.140224  0.157657  -0.014329  0.210152  0.207095  -0.106467  0  0  0  1.25882  1.22169  -0.254901  0.00533862  0.00102551  -0.0242269  -0.0579146  -0.0267122  0.00427562  0.0254656  -0.0458918  -0.0169978  -0.480444  0.543387  0.0151507 
1701696482.355158000  0  0  12.0203  0.157349  -0.10344  0.0120369  nan  nan  nan  nan  nan  nan  -1.97726  -0.977444  1.48502  -0.140965  0.158311  -0.0142299  0.216463  0.213217  -0.107696  0  0  0  1.26512  1.22686  -0.23657  0.00506182  0.000815597  -0.0242673  -0.0591366  -0.0281582  -0.0021431  0.0231944  -0.0431078  -0.0170621  -0.528087  0.603471  0.0201598 
1701696482.360151000  0  0  11.9639  0.139021  -0.0933857  0.0125504  nan  nan  nan  nan  nan  nan  -1.97616  -0.976363  1.48448  -0.141741  0.159989  -0.0142753  0.222802  0.219362  -0.108833  0  0  0  1.27067  1.23128  -0.218113  0.00477125  0.00068535  -0.0242074  -0.0589493  -0.0274  0.00456097  0.021908  -0.0420683  -0.0172179  -0.479596  0.5738  0.0152986 
1701696482.365139000  0  0  11.9628  0.131562  -0.0735839  0.0123409  nan  nan  nan  nan  nan  nan  -1.97503  -0.975251  1.48394  -0.142489  0.161098  -0.0142319  0.229168  0.225528  -0.109879  0  0  0  1.27547  1.23495  -0.2004  0.00449774  0.000486604  -0.0241812  -0.0591123  -0.0274272  0.00666195  0.0206335  -0.040966  -0.0172954  -0.452951  0.524055  0.0186932 
1701696482.370153000  0  0  12.0562  0.165808  -0.0936338  0.0112869  nan  nan  nan  nan  nan  nan  -1.97387  -0.974107  1.48338  -0.14284  0.161431  -0.0140085  0.235556  0.231711  -0.110838  0  0  0  1.27952  1.23787  -0.183438  0.00420156  0.000340122  -0.0242016  -0.0599587  -0.028656  0.000985663  0.0181531  -0.038418  -0.017326  -0.498625  0.540713  0.0321746 
1701696482.375155000  0  0  12.0108  0.14369  -0.0847051  0.0111332  nan  nan  nan  nan  nan  nan  -1.97268  -0.972933  1.48283  -0.14306  0.162864  -0.0139138  0.241962  0.237906  -0.111714  0  0  0  1.28282  1.24004  -0.167225  0.0039195  0.000142547  -0.0241367  -0.0599274  -0.0275034  0.00644319  0.0165872  -0.0374705  -0.0174125  -0.439982  0.514139  0.0349596 
1701696482.380674000  0  0  12.0086  0.162208  -0.0805169  0.0110417  nan  nan  nan  nan  nan  nan  -1.97145  -0.971728  1.48227  -0.143244  0.163152  -0.0136446  0.248383  0.24411  -0.112511  0  0  0  1.28536  1.24146  -0.151762  0.00371694  3.79304e-05  -0.0241394  -0.0594078  -0.0273283  0.00830809  0.0142203  -0.0353045  -0.0174873  -0.455243  0.485836  0.0368526 
1701696482.385146000  0  0  12.0797  0.173777  -0.0712059  0.0114556  nan  nan  nan  nan  nan  nan  -1.97019  -0.970492  1.4817  -0.143812  0.16383  -0.0134886  0.254814  0.250319  -0.113233  0  0  0  1.28716  1.24213  -0.137049  0.00331365  -0.000221685  -0.0240833  -0.0604034  -0.0285413  0.00407843  0.0126332  -0.0341334  -0.0176457  -0.463779  0.456439  0.0332615 
1701696482.390156000  0  0  12.0699  0.147825  -0.0699488  0.0121733  nan  nan  nan  nan  nan  nan  -1.9689  -0.969225  1.48113  -0.143637  0.165158  -0.0132957  0.261253  0.25653  -0.113883  0  0  0  1.28821  1.24205  -0.123086  0.00300302  -0.000438188  -0.0240336  -0.0610943  -0.0276936  0.00636702  0.0109994  -0.0333287  -0.0179192  -0.396844  0.446522  0.027025 
1701696482.395154000  0  0  12.0453  0.165538  -0.0606669  0.0123164  nan  nan  nan  nan  nan  nan  -1.96758  -0.967927  1.48056  -0.143917  0.165614  -0.0130485  0.267695  0.262738  -0.114465  0  0  0  1.28851  1.24122  -0.109873  0.00270732  -0.000577106  -0.0239738  -0.0604789  -0.0275127  0.00970455  0.00913619  -0.0318749  -0.0181085  -0.41513  0.414583  0.0271296 
1701696482.400154000  0  0  12.0976  0.154428  -0.0416833  0.0127933  nan  nan  nan  nan  nan  nan  -1.96623  -0.966598  1.47999  -0.143753  0.165523  -0.0126424  0.274137  0.268941  -0.114983  0  0  0  1.28806  1.23964  -0.0974106  0.00240711  -0.000814693  -0.0239394  -0.0606216  -0.027871  0.0066096  0.00737831  -0.030409  -0.0183964  -0.376736  0.36313  0.024048 
1701696482.405149000  0  0  12.107  0.141984  -0.0590545  0.0126173  nan  nan  nan  nan  nan  nan  -1.96484  -0.965238  1.47941  -0.143341  0.166794  -0.0123819  0.280575  0.275134  -0.115441  0  0  0  1.28686  1.23731  -0.0856977  0.00207177  -0.00104369  -0.0238707  -0.0618219  -0.0272924  0.00702034  0.00565953  -0.0295894  -0.0186472  -0.336035  0.390332  0.0287558 
1701696482.410159000  0  0  12.0677  0.152961  -0.0413308  0.0126462  nan  nan  nan  nan  nan  nan  -1.96342  -0.963847  1.47884  -0.143495  0.166588  -0.0120006  0.287004  0.281313  -0.115841  0  0  0  1.2849  1.23423  -0.0747349  0.00177914  -0.00117861  -0.0238063  -0.0603435  -0.027058  0.0111877  0.00409286  -0.0279369  -0.0188496  -0.343576  0.339681  0.0304179 
1701696482.415154000  0  0  12.0827  0.147357  -0.0283363  0.0124044  nan  nan  nan  nan  nan  nan  -1.96197  -0.962425  1.47826  -0.142343  0.166588  -0.0114214  0.293422  0.287475  -0.116189  0  0  0  1.2822  1.2304  -0.0645221  0.00147685  -0.00130977  -0.0237618  -0.0601969  -0.026086  0.010743  0.00171344  -0.0267094  -0.0192003  -0.310477  0.302399  0.0369478 
1701696482.420628000  0  0  12.1313  0.158186  -0.0705397  0.0113538  nan  nan  nan  nan  nan  nan  -1.96049  -0.960972  1.47767  -0.14127  0.166528  -0.0108409  0.299825  0.293615  -0.116488  0  0  0  1.27875  1.22582  -0.0550592  0.00123228  -0.00145514  -0.0237591  -0.060811  -0.0257983  0.00759529  -0.000896839  -0.0242407  -0.0193559  -0.308122  0.364093  0.0516361 
1701696482.425149000  0  0  12.0595  0.159782  -0.0404993  0.0120547  nan  nan  nan  nan  nan  nan  -1.95897  -0.959488  1.47709  -0.141645  0.16666  -0.0105258  0.306209  0.299732  -0.116741  0  0  0  1.27455  1.22049  -0.0463464  0.000826257  -0.00170987  -0.0236091  -0.0592325  -0.0253727  0.0140657  -0.00182808  -0.0234539  -0.0195473  -0.302746  0.296775  0.0447886 
1701696482.430160000  0  0  12.0947  0.144818  -0.0417151  0.0126447  nan  nan  nan  nan  nan  nan  -1.95742  -0.957975  1.47651  -0.140668  0.166715  -0.00996518  0.312569  0.305819  -0.116953  0  0  0  1.2696  1.21441  -0.0383835  0.000462381  -0.00196596  -0.0235392  -0.0596915  -0.0249538  0.0117242  -0.00362886  -0.0222444  -0.0199126  -0.256251  0.288078  0.0410674 
1701696482.435158000  0  0  12.1231  0.162381  -0.0862468  0.01185  nan  nan  nan  nan  nan  nan  -1.95585  -0.95643  1.47592  -0.139439  0.166336  -0.00929546  0.318903  0.311874  -0.117126  0  0  0  1.2639  1.20759  -0.0311707  0.000168549  -0.00209414  -0.0234965  -0.0596874  -0.0244942  0.00983145  -0.00617753  -0.0195306  -0.0201648  -0.267929  0.352175  0.0535227 
1701696482.440153000  0  0  12.0624  0.14758  -0.0497603  0.0121826  nan  nan  nan  nan  nan  nan  -1.95424  -0.954856  1.47534  -0.139159  0.166025  -0.00878966  0.325207  0.317894  -0.117265  0  0  0  1.25745  1.20001  -0.0247079  -0.000183435  -0.00234706  -0.0233754  -0.0581263  -0.0237255  0.0150695  -0.0072524  -0.0184914  -0.0203455  -0.228438  0.269642  0.0511724 
1701696482.445622000  0  0  12.1177  0.148078  -0.065025  0.0121922  nan  nan  nan  nan  nan  nan  -1.95259  -0.953251  1.47475  -0.137317  0.164926  -0.00790802  0.331477  0.323873  -0.117374  0  0  0  1.25024  1.19168  -0.018995  -0.000425539  -0.00247334  -0.0233593  -0.0579578  -0.0231118  0.010672  -0.00984875  -0.0159532  -0.0207003  -0.205548  0.27682  0.0546003 
1701696482.450168000  0  0  12.1282  0.167275  -0.0971011  0.0115709  nan  nan  nan  nan  nan  nan  -1.95092  -0.951617  1.47416  -0.136608  0.164659  -0.00732506  0.337708  0.329809  -0.117457  0  0  0  1.24229  1.1826  -0.0140322  -0.000837001  -0.00272884  -0.0232587  -0.0578136  -0.0230566  0.00996436  -0.0116874  -0.0137677  -0.0208756  -0.227025  0.320865  0.0641195 
1701696482.455151000  0  0  12.0582  0.137439  -0.061188  0.0125673  nan  nan  nan  nan  nan  nan  -1.94922  -0.949953  1.47357  -0.135661  0.164444  -0.00670372  0.343898  0.335698  -0.117516  0  0  0  1.23359  1.17277  -0.0098193  -0.00119354  -0.00298708  -0.023112  -0.0565017  -0.0215853  0.0155991  -0.0128164  -0.0129634  -0.0212023  -0.156967  0.241639  0.0549314 
1701696482.460151000  0  0  12.1305  0.150154  -0.0724388  0.013024  nan  nan  nan  nan  nan  nan  -1.94748  -0.94826  1.47299  -0.133739  0.162931  -0.00574223  0.350043  0.341536  -0.117556  0  0  0  1.22414  1.16219  -0.0063565  -0.00148678  -0.00310277  -0.0231042  -0.0562566  -0.0214281  0.00952453  -0.0153714  -0.0102479  -0.0216785  -0.158891  0.239158  0.0539853 
1701696482.465150000  0  0  12.1247  0.166018  -0.098158  0.0125744  nan  nan  nan  nan  nan  nan  -1.94572  -0.946538  1.4724  -0.132775  0.162297  -0.00505259  0.356138  0.347319  -0.117581  0  0  0  1.21394  1.15086  -0.0036437  -0.00184776  -0.00335375  -0.0230199  -0.0557341  -0.0211179  0.00983941  -0.0172233  -0.00805336  -0.0218744  -0.173582  0.270407  0.0615632 
1701696482.470575000  0  0  12.0644  0.136055  -0.0790245  0.0133581  nan  nan  nan  nan  nan  nan  -1.94392  -0.944787  1.47181  -0.130812  0.161149  -0.00412801  0.362181  0.353043  -0.117594  0  0  0  1.20299  1.13878  -0.0016808  -0.0020875  -0.00348882  -0.0229319  -0.0539185  -0.0190976  0.0143038  -0.0190048  -0.00617345  -0.0222942  -0.0972656  0.214845  0.0559652 
1701696482.475157000  0  0  12.1132  0.153037  -0.0834068  0.0122893  nan  nan  nan  nan  nan  nan  -1.94209  -0.943008  1.47122  -0.12947  0.159899  -0.00328909  0.368167  0.358705  -0.117599  0  0  0  1.19128  1.12595  -0.000468  -0.00249337  -0.00373287  -0.0228583  -0.0536393  -0.0193156  0.00988722  -0.0208492  -0.00403733  -0.0225107  -0.114261  0.203957  0.0714906 
1701696482.480145000  0  0  12.1174  0.153711  -0.0925879  0.012266  nan  nan  nan  nan  nan  nan  -1.94024  -0.9412  1.47063  -0.12799  0.15917  -0.00249135  0.374093  0.364301  -0.1176  0  0  0  1.17883  1.11237  -5.1e-06  -0.00286758  -0.0040198  -0.0227576  -0.0534324  -0.0186927  0.0090474  -0.022599  -0.0023392  -0.0227669  -0.0995118  0.206697  0.0743442 
1701696482.485151000  0  0  12.0468  0.130125  -0.0828185  0.0131383  nan  nan  nan  nan  nan  nan  -1.93835  -0.939365  1.47005  -0.125737  0.157842  -0.00149093  0.379954  0.369828  -0.1176  0  0  0  1.16563  1.09804  -0  -0.00312808  -0.00410048  -0.0226685  -0.0514751  -0.0165949  0.014092  -0.0243974  -0.000366633  -0.0232642  -0.0357946  0.16901  0.0684131 
1701696482.490769000  0  0  12.0739  0.148879  -0.0817733  0.0128954  nan  nan  nan  nan  nan  nan  -1.93644  -0.937502  1.46946  -0.123451  0.154971  -0.000296203  0.385748  0.37528  -0.1176  0  0  0  1.15168  1.08296  -0  -0.00327787  -0.00412862  -0.0226611  -0.0495108  -0.0160769  0.0110649  -0.0268891  0.00297381  -0.023541  -0.0503774  0.136187  0.0742182 
1701696482.495625000  0  0  12.0959  0.141602  -0.0887407  0.012461  nan  nan  nan  nan  nan  nan  -1.9345  -0.935612  1.46887  -0.121575  0.154328  0.000559588  0.39147  0.380656  -0.1176  0  0  0  1.13698  1.06713  -0  -0.0037013  -0.00445985  -0.0225745  -0.049914  -0.0153682  0.00870942  -0.0284811  0.00419033  -0.0237994  -0.021178  0.13893  0.0822311 
1701696482.500155000  0  0  12.0181  0.126922  -0.0858043  0.0127166  nan  nan  nan  nan  nan  nan  -1.93252  -0.933696  1.46828  -0.120012  0.153358  0.00140953  0.397116  0.385951  -0.1176  0  0  0  1.12153  1.05055  -0  -0.00411233  -0.00470289  -0.0224193  -0.0483173  -0.0140249  0.0143787  -0.0295297  0.00564686  -0.0241377  0.01783  0.119658  0.08242 
1701696482.505146000  0  0  12.0181  0.133369  -0.0629407  0.0127893  nan  nan  nan  nan  nan  nan  -1.93053  -0.931753  1.46769  -0.11851  0.151092  0.00240557  0.402684  0.39116  -0.1176  0  0  0  1.10533  1.03322  -0  -0.00445033  -0.00495001  -0.022328  -0.0465795  -0.0139259  0.0136227  -0.0308181  0.00765257  -0.024345  0.0167888  0.0554777  0.0835841 
1701696482.510156000  0  0  12.0614  0.13031  -0.0874758  0.0125394  nan  nan  nan  nan  nan  nan  -1.9285  -0.929784  1.46711  -0.114757  0.149327  0.00368218  0.408168  0.396282  -0.1176  0  0  0  1.08837  1.01514  -0  -0.00469631  -0.0050091  -0.0223125  -0.0465468  -0.0119699  0.00922551  -0.0339205  0.0100571  -0.0248752  0.051448  0.082426  0.0920102 
1701696482.515151000  0  0  11.9856  0.132119  -0.0851625  0.0119617  nan  nan  nan  nan  nan  nan  -1.92644  -0.92779  1.46652  -0.113142  0.147667  0.00462146  0.413566  0.40131  -0.1176  0  0  0  1.07067  0.996314  -0  -0.00504218  -0.00524542  -0.0221777  -0.0445623  -0.0109534  0.0146712  -0.0350092  0.0118566  -0.0249802  0.0578472  0.0612447  0.10028 
1701696482.520628000  0  0  11.9479  0.139113  -0.0521772  0.0122326  nan  nan  nan  nan  nan  nan  -1.92436  -0.925771  1.46593  -0.110479  0.144479  0.00588349  0.418874  0.406243  -0.1176  0  0  0  1.05222  0.976735  -0  -0.00519897  -0.00529836  -0.0220938  -0.0417308  -0.00960897  0.0167342  -0.0371229  0.0141312  -0.0252283  0.0633051  -0.0256527  0.0993751 
1701696482.525147000  0  0  12.0324  0.135361  -0.0924948  0.0117957  nan  nan  nan  nan  nan  nan  -1.92225  -0.923728  1.46534  -0.107272  0.143259  0.00700256  0.424087  0.411077  -0.1176  0  0  0  1.03302  0.956405  -0  -0.00561558  -0.0055386  -0.0220373  -0.0429726  -0.00870027  0.0090424  -0.0395369  0.016037  -0.025654  0.0930185  0.0374494  0.109093 
1701696482.530154000  0  0  11.9496  0.140072  -0.0806466  0.0117282  nan  nan  nan  nan  nan  nan  -1.92012  -0.921661  1.46475  -0.10526  0.140602  0.00809891  0.429203  0.415806  -0.1176  0  0  0  1.01307  0.935326  -0  -0.00591586  -0.00575005  -0.0218904  -0.04003  -0.00749235  0.0148528  -0.0408806  0.0183503  -0.0257854  0.0959577  -0.00752957  0.111251 
1701696482.535153000  0  0  11.9121  0.141095  -0.0528115  0.0126054  nan  nan  nan  nan  nan  nan  -1.91796  -0.91957  1.46417  -0.101522  0.137724  0.00945292  0.434217  0.420429  -0.1176  0  0  0  0.992366  0.913497  -0  -0.00611283  -0.00578037  -0.0218091  -0.0378888  -0.00511214  0.016838  -0.0437241  0.02027  -0.0263054  0.120071  -0.0808606  0.105486 
1701696482.540152000  0  0  11.9868  0.144829  -0.091568  0.0125331  nan  nan  nan  nan  nan  nan  -1.91578  -0.917457  1.46358  -0.0987752  0.135849  0.0105585  0.439125  0.42494  -0.1176  0  0  0  0.970915  0.890917  -0  -0.00647385  -0.00603603  -0.0217551  -0.0384795  -0.00486119  0.00993583  -0.045537  0.0223244  -0.0266019  0.129282  -0.0222483  0.109356 
1701696482.545623000  0  0  11.8962  0.152966  -0.0748672  0.0124842  nan  nan  nan  nan  nan  nan  -1.91357  -0.915321  1.46299  -0.0954431  0.132257  0.0119016  0.443924  0.429336  -0.1176  0  0  0  0.948713  0.867588  -0  -0.00661744  -0.00607074  -0.0216601  -0.0349539  -0.002606  0.0162305  -0.0479173  0.0249846  -0.0268325  0.134907  -0.0801243  0.112273 
1701696482.550153000  0  0  11.9064  0.150944  -0.066167  0.0126157  nan  nan  nan  nan  nan  nan  -1.91134  -0.913163  1.4624  -0.092004  0.129998  0.0131187  0.448611  0.433615  -0.1176  0  0  0  0.925762  0.843508  -0  -0.00698999  -0.00628362  -0.02155  -0.0342719  -0.00101013  0.0143946  -0.0502931  0.0264768  -0.0272627  0.160808  -0.111252  0.114932 
1701696482.555143000  0  0  11.9588  0.166094  -0.0904242  0.0128218  nan  nan  nan  nan  nan  nan  -1.90909  -0.910985  1.46181  -0.0880837  0.126329  0.0145117  0.453181  0.43777  -0.1176  0  0  0  0.90206  0.818679  -0  -0.00716291  -0.00629737  -0.0215248  -0.0328771  0.000264091  0.00895795  -0.0533413  0.029866  -0.0276747  0.158551  -0.0939189  0.116474 
1701696482.560157000  0  0  11.8895  0.164086  -0.0768204  0.0132302  nan  nan  nan  nan  nan  nan  -1.90681  -0.908786  1.46123  -0.0847308  0.12361  0.0157319  0.45763  0.4418  -0.1176  0  0  0  0.877609  0.793099  -0  -0.00747242  -0.00648027  -0.0214216  -0.0308333  0.00231371  0.0136763  -0.0554674  0.0314898  -0.0280172  0.182129  -0.136065  0.114795 
1701696482.565144000  0  0  11.9358  0.160029  -0.0790661  0.0124959  nan  nan  nan  nan  nan  nan  -1.90451  -0.906567  1.46064  -0.0814264  0.120849  0.0169377  0.461956  0.4457  -0.1176  0  0  0  0.852407  0.76677  -0  -0.00780093  -0.00669179  -0.021371  -0.0303627  0.00315884  0.00898258  -0.0573417  0.0332772  -0.0282066  0.207486  -0.148018  0.125868 
1701696482.570150000  0  0  11.9543  0.179096  -0.0908251  0.0115935  nan  nan  nan  nan  nan  nan  -1.90219  -0.904329  1.46005  -0.0773931  0.116439  0.0183446  0.466153  0.449467  -0.1176  0  0  0  0.826455  0.739691  -0  -0.00794186  -0.00667681  -0.0213405  -0.0278768  0.00465663  0.00624895  -0.0603995  0.0368709  -0.0283839  0.197483  -0.157562  0.13892 
1701696482.575157000  0  0  11.9277  0.165813  -0.0924921  0.0111034  nan  nan  nan  nan  nan  nan  -1.89985  -0.902073  1.45946  -0.0735959  0.113856  0.0195618  0.470219  0.453096  -0.1176  0  0  0  0.799754  0.711861  -0  -0.00825446  -0.00684881  -0.0212713  -0.0269356  0.00657008  0.00754704  -0.0625107  0.0384025  -0.0285585  0.243473  -0.168319  0.146792 
1701696482.580158000  0  0  11.9595  0.158687  -0.0928443  0.0107392  nan  nan  nan  nan  nan  nan  -1.89749  -0.899798  1.45887  -0.0704002  0.110267  0.0207688  0.474149  0.456584  -0.1176  0  0  0  0.772302  0.683282  -0  -0.00854725  -0.00703401  -0.0212444  -0.0255176  0.00716626  0.00404495  -0.0639676  0.0407645  -0.0286148  0.271127  -0.189345  0.151908 
1701696482.585142000  0  0  11.9541  0.175487  -0.0981474  0.0104379  nan  nan  nan  nan  nan  nan  -1.89511  -0.897507  1.45829  -0.0659678  0.10544  0.0221727  0.477941  0.459927  -0.1176  0  0  0  0.744101  0.653952  -0  -0.00867079  -0.00700361  -0.0212251  -0.0225341  0.0091464  0.00327473  -0.0670834  0.0443582  -0.0287741  0.266193  -0.211801  0.157268 
1701696482.590152000  0  0  11.9532  0.161671  -0.111407  0.0104563  nan  nan  nan  nan  nan  nan  -1.89271  -0.895199  1.4577  -0.0620493  0.102484  0.0233726  0.481589  0.463122  -0.1176  0  0  0  0.715149  0.623873  -0  -0.00895276  -0.00715371  -0.0211846  -0.0218052  0.0107159  0.00249926  -0.0689531  0.0462388  -0.0289391  0.311026  -0.202583  0.158687 
1701696482.595629000  0  0  11.9313  0.157865  -0.103737  0.0106849  nan  nan  nan  nan  nan  nan  -1.89029  -0.892876  1.45711  -0.0581301  0.0975426  0.0246705  0.485091  0.466166  -0.1176  0  0  0  0.685448  0.593663  -0  -0.00901539  -0.00710064  -0.0212004  -0.018814  0.0120191  0.00335951  -0.0707163  0.0493586  -0.0289651  0.334859  -0.246625  0.156089 
1701696482.600156000  0  0  11.9515  0.161074  -0.102532  0.0111712  nan  nan  nan  nan  nan  nan  -1.88786  -0.890538  1.45652  -0.0540533  0.0932951  0.0259131  0.488442  0.46906  -0.1176  0  0  0  0.654996  0.564197  -0  -0.00932456  -0.00726459  -0.0211487  -0.0167607  0.0138259  0.000628617  -0.0730757  0.0520865  -0.0292318  0.350149  -0.274132  0.152677 
1701696482.605147000  0  0  11.9354  0.1506  -0.127306  0.0113959  nan  nan  nan  nan  nan  nan  -1.88541  -0.888186  1.45593  -0.0504853  0.0900995  0.0270291  0.49164  0.471809  -0.1176  0  0  0  0.624115  0.535481  -0  -0.00960399  -0.00743538  -0.0211073  -0.0158263  0.0153023  0.00120704  -0.0743647  0.0541315  -0.0293992  0.382956  -0.243398  0.151543 
1701696482.610154000  0  0  11.8746  0.135427  -0.100695  0.0122305  nan  nan  nan  nan  nan  nan  -1.88294  -0.88582  1.45535  -0.0464444  0.0842079  0.0282944  0.494685  0.474416  -0.1176  0  0  0  0.593893  0.507515  -0  -0.00966336  -0.007356  -0.0210709  -0.0113558  0.0172665  0.0051689  -0.0759443  0.057763  -0.0295867  0.427834  -0.330029  0.142985 
1701696482.615154000  0  0  11.9251  0.129854  -0.0956496  0.0118295  nan  nan  nan  nan  nan  nan  -1.88046  -0.883442  1.45476  -0.0430751  0.0806703  0.0293648  0.49758  0.476885  -0.1176  0  0  0  0.564421  0.480298  -0  -0.00992228  -0.00750534  -0.0210863  -0.0104626  0.0182952  0.000407455  -0.076812  0.0590977  -0.0296537  0.446962  -0.3524  0.148669 
1701696482.620159000  0  0  11.9275  0.128071  -0.130749  0.010262  nan  nan  nan  nan  nan  nan  -1.87797  -0.881052  1.45417  -0.0383665  0.0767288  0.0305362  0.50033  0.47922  -0.1176  0  0  0  0.535699  0.453832  -0  -0.00997606  -0.00740489  -0.0210871  -0.00902466  0.0209187  -0.000624255  -0.0789582  0.0618562  -0.0296967  0.470273  -0.307579  0.168692 
1701696482.625154000  0  0  11.8671  0.110333  -0.0750518  0.0105146  nan  nan  nan  nan  nan  nan  -1.87546  -0.87865  1.45358  -0.0357356  0.0718889  0.0315576  0.502938  0.481425  -0.1176  0  0  0  0.507727  0.428116  -0  -0.010188  -0.00753424  -0.0210264  -0.00534427  0.0217345  0.0037434  -0.078759  0.0635694  -0.0295612  0.503916  -0.434735  0.16418 
1701696482.630158000  0  0  11.9389  0.101394  -0.0855946  0.0102147  nan  nan  nan  nan  nan  nan  -1.87294  -0.876237  1.45299  -0.0324457  0.0693748  0.0325287  0.505409  0.483503  -0.1176  0  0  0  0.480505  0.40315  -0  -0.010433  -0.00766766  -0.0210548  -0.00565158  0.0228969  -0.00252606  -0.0791108  0.0638202  -0.0295718  0.525032  -0.415956  0.168034 
1701696482.635148000  0  0  11.9147  0.102931  -0.102093  0.00930849  nan  nan  nan  nan  nan  nan  -1.8704  -0.873815  1.45241  -0.0285473  0.0649572  0.0335844  0.507745  0.485458  -0.1176  0  0  0  0.454033  0.378934  -0  -0.0104695  -0.00755754  -0.021057  -0.00310571  0.0248892  -0.00117181  -0.080287  0.0663505  -0.029496  0.532778  -0.40624  0.178603 
1701696482.640147000  0  0  11.8081  0.0907373  -0.0360236  0.00900116  nan  nan  nan  nan  nan  nan  -1.86786  -0.871383  1.45182  -0.0245572  0.0591408  0.0346518  0.50995  0.487293  -0.1176  0  0  0  0.428311  0.355468  -0  -0.0104564  -0.00742809  -0.0209842  0.00178918  0.0273611  0.00691723  -0.0812435  0.0682238  -0.0293327  0.565965  -0.555612  0.180813 
1701696482.645141000  0  0  11.9107  0.0921207  -0.0523762  0.00743162  nan  nan  nan  nan  nan  nan  -1.8653  -0.868942  1.45123  -0.0206951  0.0559152  0.0356188  0.512029  0.489014  -0.1176  0  0  0  0.403339  0.332751  -0  -0.0104757  -0.00729676  -0.0210427  0.00205592  0.0290384  -0.0019321  -0.0821382  0.0689108  -0.0291091  0.57143  -0.529227  0.198196 
1701696482.650143000  0  0  11.8974  0.0937154  -0.0620803  0.00728763  nan  nan  nan  nan  nan  nan  -1.86274  -0.866493  1.45064  -0.017051  0.0513601  0.0365782  0.513985  0.490622  -0.1176  0  0  0  0.379117  0.310785  -0  -0.0104523  -0.00715084  -0.0210397  0.00483144  0.0308958  -0.00133952  -0.0828929  0.0709193  -0.0289213  0.575184  -0.528297  0.198117 
1701696482.655149000  0  0  11.8189  0.080197  -0.0105896  0.00882399  nan  nan  nan  nan  nan  nan  -1.86017  -0.864036  1.45005  -0.0127099  0.0464406  0.0375479  0.515821  0.492123  -0.1176  0  0  0  0.355645  0.289569  -0  -0.0104064  -0.00698237  -0.0209832  0.00842267  0.0338518  0.00466442  -0.0839298  0.071734  -0.0289643  0.61176  -0.638774  0.179343 
1701696482.660164000  0  0  11.9336  0.0909187  -0.028396  0.00864931  nan  nan  nan  nan  nan  nan  -1.85758  -0.861572  1.44947  -0.0114447  0.0448443  0.0383155  0.517543  0.493519  -0.1176  0  0  0  0.332923  0.269103  -0  -0.010687  -0.00718212  -0.0210662  0.00760968  0.0331908  -0.00462916  -0.0823534  0.0704923  -0.0287579  0.575814  -0.591737  0.179463 
1701696482.665156000  0  0  11.9013  0.0757959  -0.0160195  0.00855278  nan  nan  nan  nan  nan  nan  -1.85499  -0.859101  1.44888  -0.00976011  0.0419992  0.0391157  0.519152  0.494815  -0.1176  0  0  0  0.310951  0.249387  -0  -0.010936  -0.00736121  -0.0210362  0.00919581  0.0334305  -0.00197187  -0.0808088  0.0700078  -0.0285408  0.59185  -0.612033  0.178498 
1701696482.670164000  0  0  11.8547  0.0610822  0.00342002  0.00864446  nan  nan  nan  nan  nan  nan  -1.85239  -0.856624  1.44829  -0.00555254  0.0378478  0.0400185  0.520653  0.496014  -0.1176  0  0  0  0.28973  0.230421  -0  -0.0108804  -0.00717813  -0.021008  0.0118214  0.0363707  0.00158258  -0.081574  0.0704732  -0.0285027  0.628316  -0.655194  0.176971 
1701696482.675168000  0  0  11.9469  0.081287  -0.0225052  0.00745268  nan  nan  nan  nan  nan  nan  -1.84978  -0.854141  1.4477  -0.00295271  0.0338904  0.040838  0.522051  0.49712  -0.1176  0  0  0  0.269258  0.212205  -0  -0.0108222  -0.0070034  -0.0210756  0.0137971  0.037198  -0.00623748  -0.0815371  0.0716744  -0.0281907  0.587567  -0.614394  0.188749 
1701696482.680167000  0  0  11.9176  0.0477715  -0.00458255  0.00703761  nan  nan  nan  nan  nan  nan  -1.84717  -0.851653  1.44711  -0.00300078  0.0331264  0.0415542  0.523347  0.498137  -0.1176  0  0  0  0.249536  0.194738  -0  -0.0113363  -0.0074881  -0.0210652  0.013546  0.0359812  -0.00333893  -0.0778215  0.0689052  -0.027864  0.620415  -0.624762  0.19067 
1701696482.685160000  0  0  11.889  0.0372468  -0.00957836  0.00742537  nan  nan  nan  nan  nan  nan  -1.84455  -0.84916  1.44653  0.000543093  0.0292028  0.0423914  0.524547  0.499069  -0.1176  0  0  0  0.230564  0.178022  -0  -0.0112683  -0.00730476  -0.0210662  0.0160554  0.0383143  -0.00113198  -0.0779768  0.0697009  -0.0277893  0.642893  -0.622092  0.185076 
1701696482.690167000  0  0  11.9373  0.0501324  -0.00952383  0.00676495  nan  nan  nan  nan  nan  nan  -1.84192  -0.846662  1.44594  0.00161431  0.0265943  0.0431465  0.525654  0.499919  -0.1176  0  0  0  0.212342  0.162056  -0  -0.0114646  -0.00744527  -0.0211228  0.0173994  0.0381074  -0.00494906  -0.0761882  0.069097  -0.0274654  0.600667  -0.616644  0.190092 
1701696482.695166000  0  0  11.93  0.0410678  -0.0170838  0.00615006  nan  nan  nan  nan  nan  nan  -1.83929  -0.844161  1.44535  0.00460868  0.0230731  0.0439443  0.526672  0.500691  -0.1176  0  0  0  0.19487  0.14684  -0  -0.0113774  -0.00725243  -0.0211347  0.0194797  0.0398766  -0.00441496  -0.0760033  0.0696433  -0.0272303  0.617095  -0.606551  0.195427 
1701696482.700162000  0  0  11.906  0.0303539  -0.0195296  0.00629959  nan  nan  nan  nan  nan  nan  -1.83666  -0.841656  1.44476  0.00610522  0.0207824  0.0447055  0.527604  0.501389  -0.1176  0  0  0  0.178148  0.132374  -0  -0.011531  -0.00733978  -0.0211484  0.0206781  0.0402913  -0.00223089  -0.0741909  0.0689056  -0.0270408  0.621848  -0.594873  0.191664 
1701696482.705164000  0  0  11.9396  0.0457696  -0.0212061  0.0060782  nan  nan  nan  nan  nan  nan  -1.83402  -0.839147  1.44417  0.00851525  0.0167138  0.0454678  0.528455  0.502016  -0.1176  0  0  0  0.162176  0.118658  -0  -0.0114179  -0.00713939  -0.0211866  0.0235504  0.041529  -0.00507858  -0.0739285  0.0699179  -0.0267869  0.588603  -0.600832  0.191892 
