ts fx fy fz tx ty tz exfx exfy exfz extx exty extz xd yd zd rolld pitchd yawd vxd vyd vzd wxd wyd wzd axd ayd azd e_x e_y e_z e_vx e_vy e_vz e_rx e_ry e_rz e_wx e_wy e_wz
1699964409.553668000  0  0  11.3495  0.0995241  -0.0183029  0.00111371  nan  nan  nan  nan  nan  nan  -1  0  1  0.00856053  -0.0131899  -0.000112912  0  0  0  0  0  0  0  0  0  0.0124474  -0.00595302  -0.00508778  -0.0110247  0.0240241  -0.00655857  -0.0172547  0.00718128  -0.00257663  -0.0403053  -0.0294619  0.0118449 
1699964409.557636000  0  0  11.2938  0.109071  -0.0190388  0.000830709  nan  nan  nan  nan  nan  nan  -1  0  1  0.0080992  -0.0133777  -0.000108348  0  0  0  0  0  0  0  0  0  0.012462  -0.00600853  -0.00504076  -0.0109033  0.0235155  -0.00201342  -0.0172061  0.00726373  -0.0024966  -0.0598456  -0.0287487  0.0145821 
1699964409.562592000  0  0  11.332  0.0998865  -0.0149867  0.000860787  nan  nan  nan  nan  nan  nan  -1  0  1  0.0090624  -0.0127121  -0.000115202  0  0  0  0  0  0  0  0  0  0.0124041  -0.00588782  -0.00507822  -0.0115554  0.0244948  -0.00513662  -0.0181489  0.00644441  -0.00243211  -0.0328029  -0.0293151  0.0135612 
1699964409.567675000  0  0  11.385  0.0913522  -0.0222095  0.00112482  nan  nan  nan  nan  nan  nan  -1  0  1  0.00794571  -0.0135294  -0.0001075  0  0  0  0  0  0  0  0  0  0.0124539  -0.00601068  -0.00511272  -0.0105577  0.0234082  -0.0094645  -0.0170791  0.00724738  -0.00240348  -0.0255767  -0.0222569  0.00997451 
1699964409.572740000  0  0  11.2937  0.0999829  -0.0310022  0.000891942  nan  nan  nan  nan  nan  nan  -1  0  1  0.00724069  -0.013893  -0.000100594  0  0  0  0  0  0  0  0  0  0.0124676  -0.00607137  -0.00505152  -0.0102692  0.0225777  -0.00198405  -0.0167884  0.00768964  -0.00230671  -0.0455128  -0.00874019  0.0119178 
1699964409.577628000  0  0  11.3245  0.0846535  -0.0336473  0.00165354  nan  nan  nan  nan  nan  nan  -1  0  1  0.00819231  -0.0132834  -0.000108821  0  0  0  0  0  0  0  0  0  0.012413  -0.0059556  -0.00509017  -0.0108671  0.0235427  -0.00447416  -0.0175194  0.00715796  -0.00235064  -0.00812842  0.00144129  0.00283719 
1699964409.592761000  0  0  11.4416  0.0292884  -0.0443904  0.00420023  nan  nan  nan  nan  nan  nan  -1  0  1  0.00763585  -0.0136336  -0.000104103  0  0  0  0  0  0  0  0  0  0.01241  -0.00597548  -0.00518198  -0.010243  0.0229858  -0.014021  -0.0155631  0.00784132  -0.00277968  0.0846034  0.0166406  -0.0247061 
1699964409.597896000  0  0  11.4347  0.0413449  -0.054018  0.00365177  nan  nan  nan  nan  nan  nan  -1  0  1  0.00659659  -0.0143789  -9.48498e-05  0  0  0  0  0  0  0  0  0  0.0124239  -0.00603161  -0.00518875  -0.00933748  0.0217842  -0.0134264  -0.0146948  0.00882905  -0.00278294  0.0525022  0.0268088  -0.0178177 
1699964409.602651000  0  0  11.3722  0.0625865  -0.0686567  0.00290294  nan  nan  nan  nan  nan  nan  -1  0  1  0.00711614  -0.0144798  -0.000103039  0  0  0  0  0  0  0  0  0  0.0123806  -0.00592697  -0.00519033  -0.00921341  0.0221623  -0.00821905  -0.0154745  0.00939029  -0.00273715  0.0171924  0.0509226  -0.00891522 
1699964409.607636000  0  0  11.3961  0.0317429  -0.0751646  0.00263267  nan  nan  nan  nan  nan  nan  -1  -0  1  0.00647815  -0.0143151  -9.27334e-05  6e-07  -6e-07  6e-07  0  0  0  0  0  0  0.0124303  -0.00606136  -0.00521235  -0.00949422  0.021672  -0.0101572  -0.0140628  0.00967066  -0.00274536  0.0658919  0.0613591  -0.00545484 
1699964409.612593000  0  0  11.4027  0.0308356  -0.0640499  0.00229101  nan  nan  nan  nan  nan  nan  -1  -0  1  0.00669539  -0.0145665  -9.75264e-05  5e-06  -5e-06  5e-06  0  0  0  0  0  0  0.0123893  -0.00595774  -0.00526455  -0.00907405  0.0217216  -0.0105945  -0.0139236  0.00989392  -0.00271587  0.0664256  0.0370758  -0.00147886 
1699964409.617640000  0  0  11.3634  0.0457216  -0.0710913  0.00137402  nan  nan  nan  nan  nan  nan  -1  -1e-07  1  0.0059178  -0.0150214  -8.88916e-05  1.69e-05  -1.69e-05  1.69e-05  0  0  0  0  0  0  0.0124405  -0.00607971  -0.00523904  -0.0086772  0.0209816  -0.00736713  -0.0132692  0.010631  -0.00259753  0.0306335  0.044377  0.00879997 
1699964409.622664000  0  0  11.3654  0.0370828  -0.0688687  0.00120083  nan  nan  nan  nan  nan  nan  -1  -2e-07  1  0.0067955  -0.0144677  -9.82135e-05  4e-05  -4e-05  4e-05  0  0  0  0  0  0  0.0123922  -0.00596981  -0.0052818  -0.00926564  0.0218472  -0.00745357  -0.0137154  0.0103042  -0.00253263  0.0520158  0.0429388  0.0103159 
1699964409.627665000  0  0  11.3457  0.0420951  -0.0582298  0.000836199  nan  nan  nan  nan  nan  nan  -1  -5e-07  1  0.0059625  -0.0148835  -8.85408e-05  7.81e-05  -7.81e-05  7.81e-05  0  0  0  0  0  0  0.0124286  -0.00606585  -0.00526741  -0.00885428  0.0209955  -0.00582938  -0.0128095  0.0106386  -0.00244303  0.0336571  0.018585  0.0139778 
1699964409.632613000  0  0  11.3261  0.0573217  -0.0603993  0.000618789  nan  nan  nan  nan  nan  nan  -0.999999  -1e-06  1  0.00491965  -0.0153981  -7.53509e-05  0.000135  -0.000135  0.000135  0  0  0  0  0  0  0.0124839  -0.00621064  -0.0052234  -0.00836213  0.0199919  -0.00428238  -0.0120663  0.0112598  -0.00235051  -0.00363317  0.0172085  0.0157703 
1699964409.637661000  0  0  11.3185  0.0568264  -0.0471611  0.00161637  nan  nan  nan  nan  nan  nan  -0.999998  -1.9e-06  1  0.00638753  -0.0145924  -9.2607e-05  0.0002141  -0.0002144  0.0002134  0  0  0  0  0  0  0.0124348  -0.00609918  -0.00524423  -0.00927902  0.0215862  -0.00362009  -0.0133868  0.0103405  -0.00241187  0.00950551  -0.000810531  0.00391399 
1699964409.642605000  0  0  11.2905  0.0688097  -0.0342443  0.00182917  nan  nan  nan  nan  nan  nan  -0.999997  -3.2e-06  1  0.00578524  -0.0148269  -8.49752e-05  0.0003149  -0.00032  0.0003113  0  0  0  0  0  0  0.0124601  -0.00617414  -0.00518998  -0.00908646  0.0209773  -0.00139646  -0.0130553  0.0102778  -0.00241703  -0.0175108  -0.0260674  0.00130561 
1699964409.647664000  0  0  11.3007  0.0993414  -0.0326259  0.00206963  nan  nan  nan  nan  nan  nan  -0.999995  -5.1e-06  1.00001  0.00667608  -0.0142418  -9.40775e-05  0.0004338  -0.0004556  0.0004249  0  0  0  0  0  0  0.0124115  -0.00606554  -0.0052176  -0.0096961  0.0218612  -0.00220123  -0.0146616  0.00957455  -0.00243454  -0.0637958  -0.022834  -0.00152495 
1699964409.652661000  0  0  11.3092  0.0854137  -0.0232163  0.00204402  nan  nan  nan  nan  nan  nan  -0.999992  -7.8e-06  1.00001  0.00670054  -0.0142522  -9.42959e-05  0.0005669  -0.000625  0.0005504  0  0  0  0  0  0  0.0124395  -0.00615159  -0.00518668  -0.00973184  0.0220894  -0.00297053  -0.0146414  0.00932358  -0.00242768  -0.0361264  -0.0393443  -0.00127337 
1699964409.658135000  0  0  11.273  0.103222  -0.0101312  0.0013282  nan  nan  nan  nan  nan  nan  -0.999989  -1.14e-05  1.00001  0.0064135  -0.0144134  -9.10387e-05  0.0007105  -0.0008319  0.0006841  0  0  0  0  0  0  0.0124686  -0.00621992  -0.00512237  -0.0096519  0.0218548  -9.18e-05  -0.0149292  0.00895779  -0.0023202  -0.0690964  -0.0621494  0.00659941 
1699964409.662602000  0  0  11.3119  0.126349  -0.0122882  0.000909036  nan  nan  nan  nan  nan  nan  -0.999985  -1.62e-05  1.00001  0.00756885  -0.0136246  -0.000101522  0.000861  -0.00108  0.0008222  0  0  0  0  0  0  0.0124209  -0.00611728  -0.00515058  -0.0104744  0.0231069  -0.00329934  -0.0167663  0.00804447  -0.00222438  -0.0984482  -0.0494328  0.0108808 
1699964409.667661000  0  0  11.3263  0.109006  0.000907747  0.00143923  nan  nan  nan  nan  nan  nan  -0.999981  -2.23e-05  1.00002  0.00764997  -0.0133915  -0.000100744  0.0010145  -0.0013731  0.000961  0  0  0  0  0  0  0.0124199  -0.00615193  -0.00514054  -0.0107439  0.0232981  -0.00451819  -0.0169051  0.0073167  -0.00224304  -0.0624857  -0.0691291  0.00443996 
1699964409.672664000  0  0  11.282  0.119044  0.0036403  0.00157923  nan  nan  nan  nan  nan  nan  -0.999975  -3e-05  1.00002  0.00882185  -0.0132222  -0.000114844  0.0011672  -0.001715  0.0010968  0  0  0  0  0  0  0.0123681  -0.00603285  -0.00511938  -0.0109065  0.0244651  -0.000886994  -0.0184467  0.0067617  -0.00222956  -0.068379  -0.0694882  0.0025552 
1699964409.677662000  0  0  11.313  0.127338  -0.00910961  0.00105489  nan  nan  nan  nan  nan  nan  -0.999969  -3.96e-05  1.00003  0.00892215  -0.0129352  -0.000113709  0.0013155  -0.0021094  0.0012257  0  0  0  0  0  0  0.012366  -0.006085  -0.00511025  -0.011217  0.0247376  -0.00349789  -0.0190888  0.00648859  -0.00214243  -0.0790584  -0.0414758  0.00823818 
1699964409.682603000  0  0  11.3386  0.113019  -0.00417862  0.00149035  nan  nan  nan  nan  nan  nan  -0.999962  -5.12e-05  1.00004  0.00912964  -0.0126275  -0.000113885  0.0014556  -0.0025587  0.0013441  0  0  0  0  0  0  0.0123591  -0.00610769  -0.00511414  -0.0115525  0.0250749  -0.0056267  -0.0193063  0.00592455  -0.00216698  -0.0484205  -0.0461487  0.00304038 
1699964409.687676000  0  0  11.3093  0.114191  -0.00361481  0.00154152  nan  nan  nan  nan  nan  nan  -0.999954  -6.52e-05  1.00004  0.0100197  -0.012484  -0.000124187  0.0015837  -0.0030604  0.0014482  0  0  0  0  0  0  0.0123027  -0.00598216  -0.0051064  -0.0116483  0.0258849  -0.00320923  -0.0203373  0.00554463  -0.00215513  -0.0412781  -0.043781  0.00228238 
1699964409.692611000  0  0  11.3498  0.11561  -0.0189929  0.00115015  nan  nan  nan  nan  nan  nan  -0.999946  -8.19e-05  1.00005  0.010182  -0.0125523  -0.000127809  0.0016961  -0.0036108  0.0015342  0  0  0  0  0  0  0.0123077  -0.00603202  -0.00512324  -0.0115168  0.0262456  -0.00656043  -0.0207008  0.00577852  -0.00208011  -0.040774  -0.0151765  0.00642413 
1699964409.698041000  0  0  11.3712  0.0962294  -0.0197708  0.00183142  nan  nan  nan  nan  nan  nan  -0.999938  -0.0001014  1.00006  0.0100696  -0.0126422  -0.000128603  0.001789  -0.0042061  0.0015988  0  0  0  0  0  0  0.0123263  -0.00609144  -0.00512131  -0.0114147  0.0262597  -0.00834145  -0.0203167  0.00587214  -0.00213878  -0.00554465  -0.0144822  -0.00150503 
1699964409.702653000  0  0  11.3445  0.0963044  -0.0244751  0.00230029  nan  nan  nan  nan  nan  nan  -0.999928  -0.000124  1.00007  0.0109739  -0.0126212  -0.000141605  0.0018593  -0.0048425  0.0016434  0  0  0  0  0  0  0.0122742  -0.00596911  -0.00513676  -0.0113627  0.0270981  -0.006088  -0.0211518  0.00587668  -0.00220146  0.00198803  -0.00511534  -0.00673897 
1699964409.707664000  0  0  11.4053  0.0909613  -0.0462252  0.00184643  nan  nan  nan  nan  nan  nan  -0.999919  -0.0001499  1.00007  0.0108703  -0.0129059  -0.000145793  0.0019086  -0.0055164  0.0016716  0  0  0  0  0  0  0.0122937  -0.00604074  -0.00514991  -0.0109597  0.0272  -0.0111232  -0.0209197  0.00665001  -0.00216519  0.0105389  0.0312702  -0.00142846 
1699964409.712615000  0  0  11.4198  0.0803265  -0.0432985  0.00199948  nan  nan  nan  nan  nan  nan  -0.999909  -0.0001792  1.00008  0.0119131  -0.0124811  -0.000157392  0.0019405  -0.0062239  0.0016872  0  0  0  0  0  0  0.0122359  -0.00590494  -0.00520505  -0.0113493  0.0282392  -0.0122233  -0.0215412  0.00634876  -0.00219066  0.0375262  0.0281885  -0.00308694 
1699964409.717647000  0  0  11.3955  0.0744457  -0.0426098  0.00196929  nan  nan  nan  nan  nan  nan  -0.9999  -0.0002122  1.00009  0.0116754  -0.012934  -0.000163712  0.0019589  -0.0069612  0.0016939  0  0  0  0  0  0  0.0122531  -0.00595688  -0.00518579  -0.0108478  0.0280211  -0.0102285  -0.0209977  0.00689811  -0.00220886  0.0442876  0.021757  -0.00252756 
1699964409.722648000  0  0  11.4341  0.0732606  -0.0532376  0.0016492  nan  nan  nan  nan  nan  nan  -0.99989  -0.0002489  1.0001  0.0131865  -0.0127437  -0.000185851  0.0019674  -0.0077248  0.0016954  0  0  0  0  0  0  0.0121987  -0.00580982  -0.0052617  -0.0109124  0.0296646  -0.0132941  -0.022132  0.00705164  -0.00216169  0.0570934  0.0416002  0.00100191 
1699964409.727646000  0  0  11.4193  0.061541  -0.0550197  0.00163999  nan  nan  nan  nan  nan  nan  -0.99988  -0.0002895  1.00011  0.0131389  -0.0128603  -0.000192975  0.0019699  -0.0085107  0.0016955  0  0  0  0  0  0  0.0122184  -0.00586261  -0.00525961  -0.0108291  0.0296995  -0.0120554  -0.0215409  0.00739085  -0.00214848  0.0750942  0.0420437  0.000984948 
1699964409.732596000  0  0  11.3882  0.0604201  -0.0511705  0.00177111  nan  nan  nan  nan  nan  nan  -0.99987  -0.000334  1.00012  0.0129866  -0.0131991  -0.000202916  0.0019701  -0.0093153  0.0016955  0  0  0  0  0  0  0.0122442  -0.00591645  -0.00524344  -0.010502  0.0295806  -0.00949165  -0.0210185  0.0078129  -0.00215484  0.0725304  0.0304624  -0.000590519 
1699964409.737691000  0  0  11.3979  0.0660134  -0.053671  0.00171686  nan  nan  nan  nan  nan  nan  -0.99986  -0.0003826  1.00013  0.0143453  -0.0130546  -0.00022778  0.0019701  -0.0101348  0.0016955  0  0  0  0  0  0  0.0121915  -0.00576259  -0.00530086  -0.010553  0.0309737  -0.01018  -0.0220382  0.00786635  -0.00213083  0.0707244  0.0349715  -0.00015242 
1699964409.742646000  0  0  11.3869  0.0576288  -0.0557296  0.00164696  nan  nan  nan  nan  nan  nan  -0.99985  -0.0004354  1.00013  0.0142966  -0.0131083  -0.000238511  0.0019701  -0.0109655  0.0016955  0  0  0  0  0  0  0.0122124  -0.00580521  -0.00528389  -0.0105473  0.0309889  -0.00929473  -0.0214535  0.00815339  -0.00211655  0.0821148  0.036448  0.000578568 
1699964409.748093000  0  0  11.3758  0.0602031  -0.0483045  0.00171938  nan  nan  nan  nan  nan  nan  -0.999841  -0.0004923  1.00014  0.0141407  -0.0133933  -0.000252898  0.0019701  -0.0118035  0.0016955  0  0  0  0  0  0  0.0122367  -0.00584402  -0.00526687  -0.0102573  0.03086  -0.00839301  -0.0209261  0.00844331  -0.00211768  0.0721139  0.0189306  -0.000315405 
1699964409.752619000  0  0  11.3603  0.0707045  -0.0438584  0.00108872  nan  nan  nan  nan  nan  nan  -0.999831  -0.0005534  1.00015  0.0156499  -0.0132602  -0.000285531  0.0019701  -0.0126452  0.0016955  0  0  0  0  0  0  0.0121899  -0.00569271  -0.00529651  -0.0103431  0.0324045  -0.00704301  -0.0222329  0.00828851  -0.00200316  0.063134  0.0114625  0.00642254 
1699964409.757663000  0  0  11.3467  0.0702534  -0.0408578  0.000905502  nan  nan  nan  nan  nan  nan  -0.999821  -0.0006188  1.00016  0.0169143  -0.0129055  -0.000313102  0.0019701  -0.0134869  0.0016955  0  0  0  0  0  0  0.0121357  -0.00552762  -0.00532677  -0.010689  0.0336084  -0.00584579  -0.0230559  0.00796799  -0.00192463  0.0716073  0.00841013  0.00792757 
1699964409.762604000  0  0  11.3572  0.0715458  -0.0354698  0.000769949  nan  nan  nan  nan  nan  nan  -0.999811  -0.0006883  1.00017  0.0169327  -0.0130677  -0.000335286  0.0019701  -0.0143246  0.0016955  0  0  0  0  0  0  0.0121618  -0.00556418  -0.00531612  -0.0105268  0.0337322  -0.00673955  -0.0227644  0.00805226  -0.0018497  0.0663409  -0.0031411  0.00887268 
1699964409.767661000  0  0  11.3239  0.0834025  -0.029496  0.000881949  nan  nan  nan  nan  nan  nan  -0.999801  -0.000762  1.00018  0.01717  -0.0131414  -0.000361454  0.0019701  -0.0151548  0.0016955  0  0  0  0  0  0  0.0121868  -0.00560067  -0.00526695  -0.0105373  0.0340487  -0.00405919  -0.022924  0.00797982  -0.0017909  0.0440963  -0.0144223  0.00688461 
1699964409.773132000  0  0  11.3123  0.0794436  -0.0235253  0.00140652  nan  nan  nan  nan  nan  nan  -0.999791  -0.0008398  1.00018  0.0171425  -0.0131546  -0.000386118  0.0019701  -0.0159736  0.0016955  0  0  0  0  0  0  0.012217  -0.00564054  -0.00522241  -0.0106047  0.03408  -0.00317607  -0.0225407  0.0077874  -0.00179798  0.0484872  -0.0245936  0.000398333 
1699964409.777662000  0  0  11.3488  0.0825327  -0.0207154  0.00143759  nan  nan  nan  nan  nan  nan  -0.999781  -0.0009217  1.00019  0.0184012  -0.0129027  -0.000426046  0.0019701  -0.0167773  0.0016955  0  0  0  0  0  0  0.012169  -0.00547539  -0.00527211  -0.0107606  0.0353699  -0.00611905  -0.0235302  0.00740165  -0.00176799  0.0514124  -0.0266645  -0.000290047 
1699964409.782654000  0  0  11.32  0.0920566  -0.0157431  0.00143538  nan  nan  nan  nan  nan  nan  -0.999772  -0.0010076  1.0002  0.0185807  -0.0129992  -0.000461455  0.0019701  -0.0175622  0.0016955  0  0  0  0  0  0  0.0121995  -0.00550261  -0.0052202  -0.0107474  0.0355966  -0.00382483  -0.0236397  0.0072366  -0.00172937  0.0333716  -0.0350905  -0.000648591 
1699964409.787666000  0  0  11.3225  0.0931255  -0.0122668  0.00181091  nan  nan  nan  nan  nan  nan  -0.999762  -0.0010973  1.00021  0.019917  -0.0126467  -0.000506811  0.0019701  -0.0183245  0.0016955  0  0  0  0  0  0  0.0121451  -0.00532163  -0.00524187  -0.0110646  0.036881  -0.0039874  -0.0247142  0.00668279  -0.00173776  0.0411194  -0.0369481  -0.00525878 
1699964409.792660000  0  0  11.3614  0.0866308  -0.0189281  0.00182158  nan  nan  nan  nan  nan  nan  -0.999752  -0.0011908  1.00022  0.0194605  -0.0129671  -0.000546172  0.0019701  -0.0190604  0.0016955  0  0  0  0  0  0  0.0121681  -0.00536263  -0.00522497  -0.010656  0.0364806  -0.00725009  -0.0238995  0.006945  -0.00174422  0.046614  -0.0260377  -0.00532755 
1699964409.798114000  0  0  11.3229  0.0908467  -0.0232861  0.00113983  nan  nan  nan  nan  nan  nan  -0.999742  -0.0012879  1.00023  0.0196114  -0.0130688  -0.000593122  0.0019701  -0.0197662  0.0016955  0  0  0  0  0  0  0.0121734  -0.00535882  -0.00517759  -0.0105941  0.0365779  -0.00414222  -0.0238937  0.00699123  -0.00164297  0.0381286  -0.0177471  0.00218181 
1699964409.802652000  0  0  11.3305  0.0929124  -0.0199871  0.000786936  nan  nan  nan  nan  nan  nan  -0.999732  -0.0013884  1.00024  0.0208226  -0.0125703  -0.000645778  0.0019701  -0.0204382  0.0016955  0  0  0  0  0  0  0.0121214  -0.00518057  -0.00520141  -0.0110928  0.0377233  -0.00472027  -0.02487  0.00640914  -0.00153568  0.0429793  -0.0189898  0.00552011 
1699964409.807800000  0  0  11.3523  0.0846791  -0.0218342  0.00111458  nan  nan  nan  nan  nan  nan  -0.999722  -0.0014922  1.00024  0.0204603  -0.0130756  -0.00070326  0.0019701  -0.0210726  0.0016955  0  0  0  0  0  0  0.0121324  -0.00519368  -0.00517043  -0.0104484  0.037344  -0.00658835  -0.0240853  0.00682742  -0.00151116  0.0522267  -0.0191439  0.00117933 
1699964409.812609000  0  0  11.3337  0.0937909  -0.0239297  0.00116569  nan  nan  nan  nan  nan  nan  -0.999712  -0.001599  1.00025  0.0216085  -0.0128704  -0.000770245  0.0019701  -0.0216656  0.0016955  0  0  0  0  0  0  0.0120808  -0.00500734  -0.00518542  -0.0106163  0.0383336  -0.00501443  -0.0250989  0.00660256  -0.0014557  0.0433278  -0.0128842  -1.41411e-05 
1699964409.817661000  0  0  11.3358  0.0821353  -0.0357498  0.00123352  nan  nan  nan  nan  nan  nan  -0.999703  -0.0017087  1.00026  0.0214145  -0.0128253  -0.000827883  0.0019701  -0.0222136  0.0016955  0  0  0  0  0  0  0.0120986  -0.00503244  -0.00515777  -0.0107084  0.0381487  -0.00523342  -0.0244353  0.00677069  -0.00142014  0.0605337  0.00920923  -0.00121759 
1699964409.822656000  0  0  11.3558  0.0792911  -0.0357231  0.00119494  nan  nan  nan  nan  nan  nan  -0.999693  -0.0018211  1.00027  0.0221893  -0.0128221  -0.000903954  0.0019701  -0.0227126  0.0016955  0  0  0  0  0  0  0.0120477  -0.00484215  -0.00519741  -0.010568  0.0387502  -0.00681002  -0.0247831  0.00682003  -0.00135636  0.0694222  0.00870195  -0.00137315 
1699964409.827663000  0  0  11.2989  0.085888  -0.0397342  0.000776413  nan  nan  nan  nan  nan  nan  -0.999683  -0.0019358  1.00028  0.0218215  -0.0131948  -0.000978767  0.0019701  -0.0231591  0.0016955  0  0  0  0  0  0  0.012072  -0.00485472  -0.00512599  -0.0102339  0.038174  -0.00220903  -0.0242654  0.00726291  -0.00123589  0.0514654  0.0126496  0.00265376 
1699964409.832660000  0  0  11.3364  0.0668762  -0.0557154  0.00061079  nan  nan  nan  nan  nan  nan  -0.999673  -0.0020526  1.00029  0.0213188  -0.0131982  -0.0010488  0.0019701  -0.0235507  0.0016955  0  0  0  0  0  0  0.0121066  -0.00489557  -0.00511752  -0.0102502  0.0377208  -0.00534583  -0.0231198  0.00769377  -0.00113973  0.07895  0.040648  0.00376241 
1699964409.837663000  0  0  11.3504  0.0649505  -0.0532299  0.000818965  nan  nan  nan  nan  nan  nan  -0.999663  -0.0021712  1.0003  0.021842  -0.0133685  -0.00114143  0.0019701  -0.0238899  0.0016955  0  0  0  0  0  0  0.0120601  -0.00470896  -0.00515233  -0.00990841  0.0379973  -0.00642422  -0.0231584  0.0079923  -0.00107688  0.0831568  0.0329306  0.000531726 
1699964409.842644000  0  0  11.3032  0.0728472  -0.0578363  0.000914023  nan  nan  nan  nan  nan  nan  -0.999653  -0.0022914  1.0003  0.0215828  -0.0136829  -0.00123235  0.0019701  -0.0241806  0.0016955  0  0  0  0  0  0  0.0120842  -0.0046848  -0.00510104  -0.00963531  0.0375014  -0.00259586  -0.0226902  0.00849668  -0.00101252  0.0630559  0.0375031  -0.00130004 
1699964409.848111000  0  0  11.351  0.0511472  -0.0729673  0.00113168  nan  nan  nan  nan  nan  nan  -0.999643  -0.0024129  1.00031  0.0212813  -0.0134687  -0.00131697  0.0019701  -0.0244265  0.0016955  0  0  0  0  0  0  0.0121042  -0.00467212  -0.00510509  -0.00987559  0.0372058  -0.00656003  -0.0215819  0.00884615  -0.000982248  0.0962594  0.06455  -0.00432349 
1699964409.852644000  0  0  11.3585  0.0465354  -0.0670557  0.00138149  nan  nan  nan  nan  nan  nan  -0.999634  -0.0025356  1.00032  0.0215274  -0.0137436  -0.0014252  0.0019701  -0.0246313  0.0016955  0  0  0  0  0  0  0.0120652  -0.00449576  -0.00513903  -0.00942757  0.0371398  -0.00710015  -0.0212823  0.00924866  -0.000949392  0.102726  0.0490237  -0.0077747 
1699964409.857645000  0  0  11.3202  0.0565286  -0.0736391  0.00109007  nan  nan  nan  nan  nan  nan  -0.999624  -0.0026592  1.00033  0.020983  -0.0140286  -0.00152859  0.0019701  -0.0247989  0.0016955  0  0  0  0  0  0  0.0120921  -0.00449961  -0.00510004  -0.00918579  0.0363695  -0.00398908  -0.0205347  0.00985745  -0.000865846  0.0758616  0.0565897  -0.00496748 
1699964409.862646000  0  0  11.3708  0.0460789  -0.085069  0.00128857  nan  nan  nan  nan  nan  nan  -0.999614  -0.0027835  1.00034  0.0217158  -0.013591  -0.00164018  0.0019701  -0.0249328  0.0016955  0  0  0  0  0  0  0.0120433  -0.00431385  -0.00516118  -0.00954679  0.0369995  -0.00807604  -0.0206269  0.00999243  -0.000817375  0.0976096  0.0782077  -0.00793342 
1699964409.867648000  0  0  11.365  0.0377981  -0.0742582  0.00162651  nan  nan  nan  nan  nan  nan  -0.999604  -0.0029085  1.00035  0.0205876  -0.0143502  -0.00175737  0.0019701  -0.025037  0.0016955  0  0  0  0  0  0  0.0120843  -0.004337  -0.00514413  -0.00868755  0.0356076  -0.00761013  -0.0189289  0.010799  -0.000815063  0.0985493  0.0491655  -0.0121807 
1699964409.873123000  0  0  11.3421  0.0436996  -0.0798289  0.00113408  nan  nan  nan  nan  nan  nan  -0.999594  -0.0030339  1.00035  0.0198659  -0.0145307  -0.00187349  0.0019701  -0.0251151  0.0016955  0  0  0  0  0  0  0.0121163  -0.00436255  -0.00511706  -0.00856629  0.0347  -0.00576296  -0.0179181  0.0113059  -0.000712332  0.0774471  0.0556438  -0.00705264 
1699964409.877652000  0  0  11.3778  0.0346162  -0.0770166  0.0012946  nan  nan  nan  nan  nan  nan  -0.999584  -0.0031596  1.00036  0.0204551  -0.0139507  -0.00199929  0.0019701  -0.0251709  0.0016955  0  0  0  0  0  0  0.0120719  -0.00419063  -0.00517203  -0.00913859  0.0351405  -0.00861387  -0.0179354  0.0109767  -0.000648263  0.0957737  0.0530471  -0.00969992 
1699964409.882597000  0  0  11.3694  0.0284147  -0.0660303  0.00141657  nan  nan  nan  nan  nan  nan  -0.999575  -0.0032855  1.00037  0.0189415  -0.0148246  -0.00212992  0.0019701  -0.0252082  0.0016955  0  0  0  0  0  0  0.01216  -0.00429787  -0.00516644  -0.00824413  0.0334424  -0.00792008  -0.0159675  0.0117493  -0.000595109  0.0900713  0.0239673  -0.0117561 
1699964409.887657000  0  0  11.3723  0.0456785  -0.0660032  0.00161858  nan  nan  nan  nan  nan  nan  -0.999565  -0.0034116  1.00038  0.019409  -0.0144858  -0.00227168  0.0019701  -0.0252306  0.0016955  0  0  0  0  0  0  0.0121164  -0.00412905  -0.00520602  -0.0085659  0.0336624  -0.00807777  -0.016372  0.0115328  -0.000548778  0.0592656  0.0259047  -0.0147445 
1699964409.892636000  0  0  11.3897  0.0380923  -0.062924  0.00203248  nan  nan  nan  nan  nan  nan  -0.999555  -0.0035378  1.00039  0.0186472  -0.0144102  -0.00240693  0.0019701  -0.025242  0.0016955  0  0  0  0  0  0  0.0121676  -0.00418696  -0.00522286  -0.00874631  0.0328618  -0.00949039  -0.0152418  0.0115158  -0.00054472  0.0640403  0.0199022  -0.0199588 
1699964409.898122000  0  0  11.3408  0.0359736  -0.0400627  0.0015993  nan  nan  nan  nan  nan  nan  -0.999545  -0.003664  1.0004  0.0171011  -0.0151899  -0.00255188  0.0019701  -0.0252461  0.0016955  0  0  0  0  0  0  0.0122506  -0.00430022  -0.00519389  -0.00802837  0.0310585  -0.00547207  -0.0134603  0.0117469  -0.000461635  0.0518881  -0.027946  -0.0153749 
1699964409.902648000  0  0  11.353  0.0519156  -0.0417014  0.00086445  nan  nan  nan  nan  nan  nan  -0.999535  -0.0037903  1.00041  0.0176297  -0.0147516  -0.00271238  0.0019701  -0.0252466  0.0016955  0  0  0  0  0  0  0.0122107  -0.00414525  -0.00523303  -0.00846682  0.0314025  -0.00640253  -0.0140938  0.0112601  -0.000281188  0.0258317  -0.0201903  -0.00799374 
1699964409.907650000  0  0  11.3629  0.0442183  -0.0366884  0.000416177  nan  nan  nan  nan  nan  nan  -0.999525  -0.0039165  1.00041  0.0167103  -0.0148298  -0.00286652  0.0019701  -0.0252462  0.0016955  0  0  0  0  0  0  0.0122644  -0.00423804  -0.00523666  -0.00847106  0.0304637  -0.0072237  -0.0130073  0.0111358  -0.000114379  0.0312307  -0.0290722  -0.00405842 
1699964409.912657000  0  0  11.3134  0.0529875  -0.0158016  -0.000412959  nan  nan  nan  nan  nan  nan  -0.999515  -0.0040427  1.00042  0.0168472  -0.0148654  -0.00304186  0.0019701  -0.0252424  0.0016955  0  0  0  0  0  0  0.0122248  -0.00408975  -0.0052363  -0.00841606  0.0302112  -0.00309388  -0.0131665  0.0105701  0.000138127  0.0151571  -0.0656416  0.00378072 
1699964409.917654000  0  0  11.3415  0.0575572  -0.027523  -0.0009715  nan  nan  nan  nan  nan  nan  -0.999506  -0.0041689  1.00043  0.0163791  -0.014785  -0.00321248  0.0019701  -0.0252316  0.0016955  0  0  0  0  0  0  0.0122595  -0.00411961  -0.00526377  -0.00854623  0.029737  -0.0053743  -0.0127764  0.0104296  0.000378971  0.002428  -0.0409063  0.00835405 
1699964409.923119000  0  0  11.3656  0.0519471  -0.0241297  -0.000580115  nan  nan  nan  nan  nan  nan  -0.999496  -0.004295  1.00044  0.0157744  -0.0147517  -0.00338821  0.0019701  -0.02521  0.0016955  0  0  0  0  0  0  0.0122881  -0.00415918  -0.00529486  -0.00861106  0.0291016  -0.00731667  -0.0121242  0.0101193  0.000516414  0.00764829  -0.0448385  0.0020873 
1699964409.927648000  0  0  11.3104  0.0572859  -0.00807493  -0.000404571  nan  nan  nan  nan  nan  nan  -0.999486  -0.004421  1.00045  0.0158854  -0.0147692  -0.00358153  0.0019701  -0.0251737  0.0016955  0  0  0  0  0  0  0.0122504  -0.00401958  -0.00528504  -0.00859194  0.0288309  -0.00273914  -0.0122911  0.00959229  0.000670629  -0.00149324  -0.0720992  -0.00164914 
1699964409.932605000  0  0  11.3421  0.0616295  -0.0224182  -0.000526972  nan  nan  nan  nan  nan  nan  -0.999476  -0.0045467  1.00046  0.0151975  -0.014728  -0.00376844  0.0019701  -0.0251192  0.0016955  0  0  0  0  0  0  0.0122791  -0.00408649  -0.0052865  -0.00865474  0.028165  -0.00538101  -0.0118269  0.00956517  0.000851584  -0.0144514  -0.0431632  -0.0019287 
1699964409.937665000  0  0  11.3689  0.0619739  -0.023931  -0.000172381  nan  nan  nan  nan  nan  nan  -0.999466  -0.0046722  1.00046  0.0156594  -0.0143262  -0.00397285  0.0019701  -0.0250426  0.0016955  0  0  0  0  0  0  0.0122342  -0.00394395  -0.00532295  -0.00901245  0.0284748  -0.00753488  -0.0123201  0.00906423  0.000982197  -0.0106031  -0.0355289  -0.00766721 
1699964409.942649000  0  0  11.3096  0.0638938  -0.0141836  0.000617025  nan  nan  nan  nan  nan  nan  -0.999456  -0.0047971  1.00047  0.0145122  -0.0148436  -0.00417402  0.0019701  -0.0249402  0.0016955  0  0  0  0  0  0  0.0122716  -0.00403621  -0.00527786  -0.00854215  0.027129  -0.00268527  -0.011422  0.00914678  0.00101819  -0.0227054  -0.0557833  -0.0178947 
1699964409.948116000  0  0  11.3672  0.0670897  -0.0357319  0.000479658  nan  nan  nan  nan  nan  nan  -0.999446  -0.0049215  1.00048  0.0138124  -0.0147459  -0.00437868  0.0019701  -0.0248082  0.0016955  0  0  0  0  0  0  0.0123037  -0.00411693  -0.00532338  -0.00864144  0.0265136  -0.00739934  -0.0110825  0.0092741  0.00113827  -0.0322204  -0.013858  -0.0173784 
1699964409.952655000  0  0  11.389  0.0650407  -0.0340076  0.000457822  nan  nan  nan  nan  nan  nan  -0.999437  -0.0050451  1.00049  0.014262  -0.0145321  -0.00460496  0.0019701  -0.0246429  0.0016955  0  0  0  0  0  0  0.0122651  -0.00398355  -0.00536965  -0.00878387  0.0268165  -0.00911835  -0.0115728  0.00901055  0.00127407  -0.0236119  -0.0148818  -0.0184635 
1699964409.957655000  0  0  11.3392  0.0710421  -0.0303801  0.00076857  nan  nan  nan  nan  nan  nan  -0.999427  -0.0051679  1.0005  0.0141613  -0.0147664  -0.00483572  0.0019701  -0.0244405  0.0016955  0  0  0  0  0  0  0.0122256  -0.00385536  -0.00537004  -0.00847806  0.0263206  -0.00497087  -0.0117036  0.00906048  0.00134931  -0.0344113  -0.0225962  -0.0231002 
1699964409.962649000  0  0  11.387  0.0727057  -0.051475  0.000615856  nan  nan  nan  nan  nan  nan  -0.999417  -0.0052895  1.00051  0.0133509  -0.0149263  -0.00506108  0.0019701  -0.0241973  0.0016955  0  0  0  0  0  0  0.0122763  -0.00395229  -0.00541716  -0.00831069  0.0255804  -0.00886799  -0.0112658  0.00957648  0.00147348  -0.041766  0.0148464  -0.022433 
1699964409.967649000  0  0  11.4087  0.0663085  -0.0550431  0.000248863  nan  nan  nan  nan  nan  nan  -0.999407  -0.0054098  1.00052  0.0118456  -0.0155814  -0.00528777  0.0019701  -0.0239095  0.0016955  0  0  0  0  0  0  0.0123709  -0.00410925  -0.00547364  -0.00766021  0.0240441  -0.0105621  -0.0100873  0.0103057  0.00163028  -0.0398136  0.0152743  -0.0194136 
1699964409.973125000  0  0  11.36  0.0685402  -0.0561807  3.55723e-05  nan  nan  nan  nan  nan  nan  -0.999397  -0.0055285  1.00052  0.010361  -0.0165813  -0.0055227  0.0019701  -0.0235734  0.0016955  0  0  0  0  0  0  0.012463  -0.00423757  -0.00544648  -0.00669408  0.0223801  -0.0065621  -0.00905034  0.0112987  0.00176984  -0.0538173  0.00841305  -0.0181431 
1699964409.977655000  0  0  11.4092  0.0656032  -0.0706193  -0.000803091  nan  nan  nan  nan  nan  nan  -0.999387  -0.0056454  1.00053  0.0107242  -0.0162614  -0.00577919  0.0019701  -0.0231852  0.0016955  0  0  0  0  0  0  0.0124295  -0.00412169  -0.0055169  -0.00692835  0.0226362  -0.0105214  -0.00953645  0.0113695  0.00204274  -0.043471  0.0366393  -0.0103887 
1699964409.982650000  0  0  11.4278  0.0555843  -0.0682546  -0.000607318  nan  nan  nan  nan  nan  nan  -0.999378  -0.0057603  1.00054  0.009599  -0.0165247  -0.00602362  0.0019701  -0.0227412  0.0016955  0  0  0  0  0  0  0.0124641  -0.0041837  -0.00557556  -0.00664229  0.02136  -0.0119495  -0.00851998  0.011798  0.00217639  -0.0327847  0.0279676  -0.0141724 
1699964409.987652000  0  0  11.3952  0.0641416  -0.0632954  -0.000955988  nan  nan  nan  nan  nan  nan  -0.999368  -0.0058727  1.00055  0.00942174  -0.0165506  -0.00628733  0.0019701  -0.0222377  0.0016955  0  0  0  0  0  0  0.012432  -0.00408012  -0.00560366  -0.00659642  0.0208652  -0.00917726  -0.00869003  0.0118278  0.00239374  -0.0483349  0.0177751  -0.0119876 
1699964409.992656000  0  0  11.4234  0.0579579  -0.0806303  -0.00147866  nan  nan  nan  nan  nan  nan  -0.999358  -0.0059825  1.00056  0.00878257  -0.0168182  -0.0065517  0.0019701  -0.0216708  0.0016955  0  0  0  0  0  0  0.0124676  -0.00412344  -0.00566777  -0.00628594  0.0201716  -0.0113961  -0.00825249  0.0125772  0.00263174  -0.039993  0.0455505  -0.00783406 
1699964409.997655000  0  0  11.4345  0.0529214  -0.0800125  -0.00168671  nan  nan  nan  nan  nan  nan  -0.999348  -0.0060893  1.00057  0.00855068  -0.016687  -0.00682568  0.0019701  -0.0210368  0.0016955  0  0  0  0  0  0  0.0124359  -0.00402537  -0.00573005  -0.00636011  0.0196651  -0.0122011  -0.00810561  0.0126656  0.00287524  -0.0312712  0.0435018  -0.00766853 
1699964410.002651000  0  0  11.4074  0.0510187  -0.0714778  -0.0014046  nan  nan  nan  nan  nan  nan  -0.999338  -0.0061928  1.00057  0.00743169  -0.0171457  -0.00709552  0.0019701  -0.0203326  0.0016955  0  0  0  0  0  0  0.0124747  -0.00406152  -0.00572584  -0.00592255  0.0182917  -0.0099464  -0.00724741  0.0130889  0.00303981  -0.0353614  0.0225382  -0.0128405 
1699964410.007656000  0  0  11.4304  0.0428551  -0.0799501  -0.000816356  nan  nan  nan  nan  nan  nan  -0.999328  -0.0062925  1.00058  0.00660498  -0.0174304  -0.00737462  0.0019701  -0.0195595  0.0016955  0  0  0  0  0  0  0.0125133  -0.00409445  -0.00577797  -0.00560767  0.0173248  -0.0117585  -0.00651489  0.013651  0.00314083  -0.0257733  0.0343113  -0.0212039 
1699964410.012657000  0  0  11.4367  0.0436649  -0.0748406  5.42653e-05  nan  nan  nan  nan  nan  nan  -0.999318  -0.0063883  1.00059  0.00629483  -0.0172158  -0.00766557  0.0019701  -0.0187213  0.0016955  0  0  0  0  0  0  0.0124838  -0.00400959  -0.00583941  -0.00580322  0.0167422  -0.0121622  -0.00636366  0.0135119  0.00319065  -0.0287841  0.0253713  -0.0325848 
1699964410.017655000  0  0  11.4136  0.0438694  -0.0656984  0.000576578  nan  nan  nan  nan  nan  nan  -0.999309  -0.0064796  1.0006  0.00510258  -0.0176236  -0.00795102  0.0019701  -0.0178216  0.0016955  0  0  0  0  0  0  0.0125342  -0.00406664  -0.005855  -0.00545221  0.0153307  -0.0102003  -0.00547724  0.0137969  0.00322239  -0.0373482  0.00446566  -0.0394311 
1699964410.022650000  0  0  11.4284  0.0456938  -0.0632495  0.000678717  nan  nan  nan  nan  nan  nan  -0.999299  -0.0065664  1.00061  0.00501892  -0.0173606  -0.00825843  0.0019701  -0.0168643  0.0016955  0  0  0  0  0  0  0.0125055  -0.00398806  -0.00591929  -0.00569224  0.0150539  -0.0113031  -0.00560448  0.0135222  0.00331215  -0.0398263  0.00209512  -0.0416055 
1699964410.027650000  0  0  11.4376  0.0420758  -0.0571188  0.000660475  nan  nan  nan  nan  nan  nan  -0.999289  -0.0066482  1.00062  0.00386671  -0.0173452  -0.00855477  0.0019701  -0.0158531  0.0016955  0  0  0  0  0  0  0.0125297  -0.00401572  -0.00597508  -0.0057586  0.0136496  -0.0119536  -0.00467717  0.0134196  0.00339849  -0.0411217  -0.00922242  -0.0422408 
1699964410.032657000  0  0  11.4264  0.0370631  -0.044169  -2.71917e-05  nan  nan  nan  nan  nan  nan  -0.999279  -0.0067248  1.00063  0.00281187  -0.017557  -0.00885977  0.0019701  -0.0147918  0.0016955  0  0  0  0  0  0  0.012561  -0.00404691  -0.00602689  -0.00559132  0.0123658  -0.0109077  -0.00379492  0.0133089  0.00357457  -0.039213  -0.0341043  -0.0354058 
1699964410.037658000  0  0  11.4138  0.0469311  -0.0442267  -0.00119169  nan  nan  nan  nan  nan  nan  -0.999269  -0.006796  1.00063  0.00254632  -0.0170128  -0.00918262  0.0019701  -0.0136841  0.0016955  0  0  0  0  0  0  0.0125288  -0.00398452  -0.0060637  -0.00623668  0.0118857  -0.00977637  -0.00394184  0.0126624  0.00386524  -0.0575973  -0.0280402  -0.0237563 
1699964410.042650000  0  0  11.4102  0.0452814  -0.0406299  -0.0016352  nan  nan  nan  nan  nan  nan  -0.999259  -0.0068616  1.00064  0.00078726  -0.0173754  -0.00948818  0.0019701  -0.0125337  0.0016955  0  0  0  0  0  0  0.0125816  -0.00409626  -0.00611439  -0.00592125  0.00989192  -0.00937264  -0.00251986  0.0128569  0.00410901  -0.0673802  -0.0370232  -0.0206501 
1699964410.048127000  0  0  11.397  0.0378919  -0.0263403  -0.0018675  nan  nan  nan  nan  nan  nan  -0.999249  -0.0069213  1.00065  -0.000536569  -0.0176821  -0.00980641  0.0019701  -0.0113444  0.0016955  0  0  0  0  0  0  0.0126126  -0.00417847  -0.00616392  -0.00564369  0.0083864  -0.00815308  -0.00143871  0.0126392  0.00431277  -0.0625477  -0.0636  -0.019784 
1699964410.052649000  0  0  11.3912  0.0476737  -0.0283856  -0.00260333  nan  nan  nan  nan  nan  nan  -0.99924  -0.006975  1.00066  -0.000819213  -0.0171763  -0.0101494  0.0019701  -0.01012  0.0016955  0  0  0  0  0  0  0.0125833  -0.0041338  -0.00620222  -0.00623421  0.00792868  -0.00759294  -0.00164667  0.0119643  0.00463986  -0.080198  -0.0533  -0.0138571 
1699964410.057658000  0  0  11.4053  0.0483134  -0.0251539  -0.00240654  nan  nan  nan  nan  nan  nan  -0.99923  -0.0070225  1.00067  -0.00269856  -0.0173598  -0.0104707  0.0019701  -0.0088642  0.0016955  0  0  0  0  0  0  0.0126336  -0.00427365  -0.00625929  -0.00611189  0.00584684  -0.00863992  -0.000303824  0.0118656  0.00485198  -0.0938316  -0.058856  -0.018438 
1699964410.062658000  0  0  11.4067  0.0464864  -0.0117435  -0.002054  nan  nan  nan  nan  nan  nan  -0.99922  -0.0070636  1.00068  -0.00306973  -0.0171478  -0.010825  0.0019701  -0.0075807  0.0016955  0  0  0  0  0  0  0.0126036  -0.00424408  -0.00630464  -0.00631794  0.00530542  -0.00865961  -0.000340896  0.0110964  0.00503818  -0.0898365  -0.0785994  -0.0247068 
1699964410.067653000  0  0  11.4051  0.0553457  -0.0268631  -0.00195188  nan  nan  nan  nan  nan  nan  -0.99921  -0.0070982  1.00069  -0.00432788  -0.0171182  -0.0110579  0.0019701  -0.0062733  0.0016955  0  0  0  0  0  0  0.0126298  -0.00434886  -0.00631907  -0.00643542  0.00393983  -0.00849195  0.000181299  0.0110496  0.00512432  -0.112359  -0.0479297  -0.0268446 
1699964410.073152000  0  0  11.4211  0.0518316  -0.0215729  -0.00128732  nan  nan  nan  nan  nan  nan  -0.9992  -0.0071263  1.00069  -0.00573855  -0.017159  -0.0110335  0.0019701  -0.0049458  0.0016954  0  0  0  0  0  0  0.0126591  -0.00447237  -0.00633908  -0.00643822  0.00241615  -0.00976874  0.000942773  0.0107813  0.00489842  -0.112337  -0.0560425  -0.0328927 
1699964410.077652000  0  0  11.4223  0.0485165  -0.0123698  -0.000796013  nan  nan  nan  nan  nan  nan  -0.99919  -0.0071477  1.0007  -0.00619779  -0.0171589  -0.0110257  0.0019701  -0.0036019  0.0016932  0  0  0  0  0  0  0.0126319  -0.00445969  -0.00638235  -0.00638191  0.00180452  -0.00977795  0.000983046  0.0103295  0.00469084  -0.106077  -0.0702919  -0.0369583 
1699964410.082655000  0  0  11.4138  0.065274  -0.0303753  -0.000847376  nan  nan  nan  nan  nan  nan  -0.999181  -0.0071623  1.00071  -0.00667241  -0.0166622  -0.0110208  0.0019701  -0.0022454  0.0016853  0  0  0  0  0  0  0.0125972  -0.00445168  -0.00642372  -0.00695768  0.00119795  -0.00898348  0.000566975  0.00996363  0.00453411  -0.135764  -0.0309148  -0.0347489 
1699964410.087748000  0  0  11.44  0.0582848  -0.0262831  -0.000290394  nan  nan  nan  nan  nan  nan  -0.999171  -0.0071701  1.00072  -0.00797729  -0.0168215  -0.0109978  0.0019701  -0.0008799  0.001668  0  0  0  0  0  0  0.0126181  -0.00457322  -0.00647355  -0.0067717  -0.000212196  -0.011045  0.00121063  0.00991965  0.00429486  -0.127707  -0.0386946  -0.0393187 
1699964410.092756000  0  0  11.4364  0.0588567  -0.0319434  -0.000257865  nan  nan  nan  nan  nan  nan  -0.999161  -0.0071711  1.00073  -0.00947448  -0.0173123  -0.010968  0.0019701  0.0004907  0.0016374  0  0  0  0  0  0  0.0126784  -0.00475483  -0.00651195  -0.00630943  -0.00171409  -0.0106564  0.00195145  0.0102825  0.00408645  -0.135667  -0.0307123  -0.0376411 
1699964410.098263000  0  0  11.4318  0.0669674  -0.0534941  -0.000270191  nan  nan  nan  nan  nan  nan  -0.999151  -0.0071652  1.00074  -0.0112123  -0.0176746  -0.0109338  0.0019701  0.0018626  0.0015898  0  0  0  0  0  0  0.0127197  -0.0049434  -0.00658476  -0.00597394  -0.00350177  -0.0101064  0.00265707  0.0109515  0.00387472  -0.15838  0.00623446  -0.0353698 
1699964410.102602000  0  0  11.4688  0.0576728  -0.0484577  0.00066546  nan  nan  nan  nan  nan  nan  -0.999141  -0.0071525  1.00074  -0.0116742  -0.0173736  -0.0109292  0.0019701  0.0032323  0.0015215  0  0  0  0  0  0  0.0126912  -0.00496062  -0.00664801  -0.0062286  -0.00409452  -0.0130518  0.00264087  0.0106061  0.00361466  -0.139642  -0.000660754  -0.0444648 
1699964410.107651000  0  0  11.4626  0.0527082  -0.0528719  0.00120182  nan  nan  nan  nan  nan  nan  -0.999131  -0.0071329  1.00075  -0.0128245  -0.0177953  -0.0109038  0.0019701  0.0045958  0.0014287  0  0  0  0  0  0  0.0127257  -0.00511454  -0.00670954  -0.00579581  -0.00521466  -0.0123909  0.00316003  0.0110808  0.00330261  -0.134489  0.00380006  -0.0480488 
1699964410.112665000  0  0  11.4208  0.0724389  -0.0727145  0.000753959  nan  nan  nan  nan  nan  nan  -0.999121  -0.0071065  1.00076  -0.0134  -0.0175713  -0.0108965  0.0019701  0.0059495  0.0013081  0  0  0  0  0  0  0.0126947  -0.00514298  -0.00673995  -0.00610101  -0.00581808  -0.00884544  0.00263776  0.0113421  0.00315137  -0.169145  0.0410814  -0.0409382 
1699964410.117651000  0  0  11.4584  0.0536179  -0.0642645  0.00113603  nan  nan  nan  nan  nan  nan  -0.999112  -0.0070734  1.00076  -0.0147681  -0.0178091  -0.010869  0.0019701  0.0072895  0.0011611  0  0  0  0  0  0  0.0127255  -0.00533007  -0.00680886  -0.00581289  -0.00720345  -0.0118169  0.00351165  0.0116042  0.00288148  -0.139543  0.0217699  -0.0430152 
1699964410.123122000  0  0  11.4465  0.0508308  -0.0678499  0.000760644  nan  nan  nan  nan  nan  nan  -0.999102  -0.0070336  1.00077  -0.0158436  -0.0182237  -0.0108433  0.0019701  0.0086123  0.0009912  0  0  0  0  0  0  0.0127565  -0.00550134  -0.00686211  -0.00539234  -0.00817612  -0.0106981  0.00387202  0.0121739  0.0026889  -0.137284  0.0236998  -0.036397 
1699964410.127650000  0  0  11.4102  0.074776  -0.0814483  -0.000189481  nan  nan  nan  nan  nan  nan  -0.999092  -0.0069873  1.00077  -0.0163295  -0.0178647  -0.0108403  0.0019701  0.0099139  0.0008024  0  0  0  0  0  0  0.0127275  -0.00554386  -0.00687956  -0.00586257  -0.00862795  -0.00763829  0.00321728  0.0122621  0.00267556  -0.179151  0.0500848  -0.0243871 
1699964410.132649000  0  0  11.4298  0.0574234  -0.0640995  -3.94715e-05  nan  nan  nan  nan  nan  nan  -0.999082  -0.0069346  1.00078  -0.0174082  -0.0180478  -0.0108178  0.0019701  0.0111906  0.0005983  0  0  0  0  0  0  0.0127562  -0.00572116  -0.00692917  -0.00567017  -0.00964166  -0.0091452  0.00375739  0.01234  0.00252825  -0.149415  0.0146713  -0.0247891 
1699964410.137648000  0  0  11.4114  0.0642494  -0.0646595  0.000132921  nan  nan  nan  nan  nan  nan  -0.999072  -0.0068755  1.00078  -0.0176637  -0.0180747  -0.0108127  0.0019701  0.0124388  0.0003827  0  0  0  0  0  0  0.0127297  -0.00576953  -0.00696031  -0.00561714  -0.00982233  -0.00754409  0.00319134  0.0124072  0.00239095  -0.157859  0.0151724  -0.025571 
1699964410.142660000  0  0  11.398  0.0790318  -0.0758459  -1.54044e-05  nan  nan  nan  nan  nan  nan  -0.999062  -0.0068102  1.00078  -0.0188659  -0.0183664  -0.0107855  0.0019701  0.0136546  0.0001593  0  0  0  0  0  0  0.0127873  -0.00597071  -0.0069742  -0.00541871  -0.0108745  -0.00637975  0.00321441  0.0129933  0.00228527  -0.187636  0.0321535  -0.0226601 
1699964410.148136000  0  0  11.4156  0.064935  -0.0579639  0.000886447  nan  nan  nan  nan  nan  nan  -0.999052  -0.006739  1.00078  -0.0196165  -0.0184511  -0.01077  0.0019701  0.0148343  -6.81e-05  0  0  0  0  0  0  0.0128127  -0.00613701  -0.00702811  -0.00534253  -0.0114949  -0.00771468  0.00327576  0.0128611  0.00202938  -0.160007  -0.00239433  -0.0313744 
1699964410.152663000  0  0  11.3814  0.0709666  -0.0581145  0.000720212  nan  nan  nan  nan  nan  nan  -0.999043  -0.0066619  1.00078  -0.0197419  -0.0183207  -0.0107703  0.0019701  0.0159741  -0.0002958  0  0  0  0  0  0  0.0127883  -0.00619494  -0.00703951  -0.00552418  -0.0114476  -0.00484186  0.00262134  0.0127076  0.00192507  -0.16605  -0.000680589  -0.0282533 
1699964410.157664000  0  0  11.3876  0.0780319  -0.066542  0.000591436  nan  nan  nan  nan  nan  nan  -0.999033  -0.0065793  1.00078  -0.020867  -0.0185841  -0.0107442  0.0019701  0.0170704  -0.00052  0  0  0  0  0  0  0.0128455  -0.00640767  -0.00706457  -0.00532054  -0.0124151  -0.00528726  0.00269218  0.0131697  0.00181352  -0.180832  0.0119225  -0.0255281 
1699964410.162664000  0  0  11.4034  0.0622085  -0.0469538  0.00113721  nan  nan  nan  nan  nan  nan  -0.999023  -0.0064913  1.00077  -0.0206806  -0.0183438  -0.0107526  0.0019701  0.0181193  -0.000737  0  0  0  0  0  0  0.0128187  -0.0064674  -0.00709916  -0.00553097  -0.0120798  -0.0065258  0.00206675  0.0125825  0.00162823  -0.143431  -0.0218514  -0.0304974 
1699964410.167676000  0  0  11.386  0.0692607  -0.0521509  0.000869454  nan  nan  nan  nan  nan  nan  -0.999013  -0.0063982  1.00077  -0.0216496  -0.0186605  -0.010728  0.0019701  0.019117  -0.000943  0  0  0  0  0  0  0.0128745  -0.00667371  -0.00710587  -0.00530239  -0.0128106  -0.00504643  0.00214166  0.0128847  0.00152055  -0.158225  -0.0142377  -0.0260737 
1699964410.172662000  0  0  11.3976  0.0724487  -0.0549194  0.000959907  nan  nan  nan  nan  nan  nan  -0.999003  -0.0063002  1.00077  -0.0222572  -0.0185172  -0.0107198  0.0019701  0.02006  -0.0011342  0  0  0  0  0  0  0.0129058  -0.00684898  -0.00714218  -0.00553804  -0.0132164  -0.00592407  0.00184778  0.0127652  0.00138898  -0.161897  -0.00760059  -0.0258886 
1699964410.177663000  0  0  11.4089  0.0564655  -0.0306239  0.00127087  nan  nan  nan  nan  nan  nan  -0.998993  -0.0061977  1.00076  -0.021971  -0.018191  -0.0107323  0.0019701  0.0209443  -0.001307  0  0  0  0  0  0  0.0128776  -0.00691286  -0.00717622  -0.00586233  -0.0127355  -0.00679604  0.00123771  0.0118986  0.00123479  -0.124318  -0.0482195  -0.0282338 
1699964410.182655000  0  0  11.3781  0.068694  -0.0355115  0.00109648  nan  nan  nan  nan  nan  nan  -0.998984  -0.0060909  1.00075  -0.0228053  -0.0183466  -0.0107136  0.0019701  0.0217663  -0.0014575  0  0  0  0  0  0  0.0129156  -0.00712001  -0.00719705  -0.00582288  -0.0132554  -0.00416485  0.00117094  0.011927  0.00110484  -0.148161  -0.0387053  -0.0247544 
1699964410.187665000  0  0  11.4033  0.0757693  -0.032929  0.00100831  nan  nan  nan  nan  nan  nan  -0.998974  -0.0059802  1.00074  -0.0223417  -0.0176474  -0.0107377  0.0019703  0.0225221  -0.0015821  0  0  0  0  0  0  0.0128821  -0.0071835  -0.00723762  -0.00657786  -0.012582  -0.00618595  -0.00010569  0.0110945  0.00102041  -0.150566  -0.0362113  -0.022808 
1699964410.192662000  0  0  11.4089  0.060381  -0.0155039  0.00126641  nan  nan  nan  nan  nan  nan  -0.998964  -0.0058658  1.00074  -0.0227326  -0.0178406  -0.0107264  0.0019731  0.0232082  -0.0016769  0  0  0  0  0  0  0.0129042  -0.00736051  -0.00728648  -0.00637628  -0.0127006  -0.00654271  -7.99769e-05  0.0107187  0.0008662  -0.120026  -0.0676046  -0.0244922 
1699964410.197661000  0  0  11.386  0.0796061  -0.0235874  0.000515477  nan  nan  nan  nan  nan  nan  -0.998954  -0.0057482  1.00073  -0.0222484  -0.0176099  -0.0107402  0.0019823  0.0238206  -0.0017383  0  0  0  0  0  0  0.0128726  -0.00742131  -0.00729778  -0.0066364  -0.0118917  -0.00462075  -0.00147855  0.0103663  0.000869536  -0.14561  -0.0481948  -0.0151388 
1699964410.203395000  0  0  11.424  0.0817571  -0.0300018  0.000696453  nan  nan  nan  nan  nan  nan  -0.998944  -0.0056277  1.00072  -0.0225148  -0.0173268  -0.0107418  0.0020015  0.0243556  -0.0017624  0  0  0  0  0  0  0.0129033  -0.00763638  -0.00734252  -0.00699441  -0.0118426  -0.007687  -0.00206035  0.0100403  0.000773233  -0.144559  -0.0323668  -0.016438 
1699964410.207799000  0  0  11.415  0.0666104  -0.0157292  0.00102968  nan  nan  nan  nan  nan  nan  -0.998934  -0.0055048  1.00071  -0.0230234  -0.0176739  -0.010725  0.0020346  0.0248096  -0.0017455  0  0  0  0  0  0  0.01294  -0.00785239  -0.00736703  -0.00665976  -0.011989  -0.00686665  -0.00180939  0.00990536  0.000646731  -0.116574  -0.059671  -0.0193383 
1699964410.212668000  0  0  11.4161  0.0829034  -0.0283574  0.000567344  nan  nan  nan  nan  nan  nan  -0.998924  -0.0053798  1.0007  -0.0224431  -0.0172386  -0.0107451  0.0020853  0.0251787  -0.0016839  0  0  0  0  0  0  0.012906  -0.00791272  -0.00739734  -0.00712636  -0.0111165  -0.00691393  -0.00319072  0.00951401  0.000632435  -0.136452  -0.0308141  -0.0134162 
1699964410.217646000  0  0  11.459  0.0827201  -0.0343765  0.000625744  nan  nan  nan  nan  nan  nan  -0.998913  -0.0052531  1.00069  -0.0224562  -0.0170452  -0.0107492  0.0021573  0.0254592  -0.0015738  0  0  0  0  0  0  0.0129298  -0.0081244  -0.00746268  -0.00734466  -0.010768  -0.0103565  -0.00378515  0.0093554  0.000569345  -0.130617  -0.0173167  -0.0135152 
1699964410.223124000  0  0  11.4465  0.074024  -0.024024  0.000933723  nan  nan  nan  nan  nan  nan  -0.998902  -0.0051253  1.00069  -0.0226266  -0.0173942  -0.0107384  0.0022544  0.0256473  -0.0014115  0  0  0  0  0  0  0.0129699  -0.00834945  -0.00751116  -0.00701541  -0.0104577  -0.00920486  -0.00402972  0.00935697  0.000454949  -0.110975  -0.0380362  -0.016221 
1699964410.227650000  0  0  11.4483  0.0940904  -0.0408318  0.000519143  nan  nan  nan  nan  nan  nan  -0.99889  -0.0049968  1.00068  -0.0219212  -0.0171079  -0.0107569  0.0023803  0.0257393  -0.0011932  0  0  0  0  0  0  0.0129368  -0.00840824  -0.00754572  -0.00729275  -0.0094314  -0.00931141  -0.00555776  0.00930291  0.000455896  -0.137049  -0.00392323  -0.0110482 
1699964410.232665000  0  0  11.4866  0.0875415  -0.053567  0.00123236  nan  nan  nan  nan  nan  nan  -0.998878  -0.0048681  1.00067  -0.0220549  -0.01715  -0.0107537  0.0025388  0.0257315  -0.0009152  0  0  0  0  0  0  0.0129934  -0.00867256  -0.00761096  -0.00729476  -0.00910925  -0.012367  -0.00588043  0.0096354  0.000300917  -0.120983  0.0184883  -0.0184137 
1699964410.238276000  0  0  11.4592  0.0836694  -0.0477428  0.0018869  nan  nan  nan  nan  nan  nan  -0.998865  -0.0047397  1.00067  -0.0218833  -0.0174909  -0.0107492  0.0027337  0.0256201  -0.0005737  0  0  0  0  0  0  0.013019  -0.00887016  -0.00765453  -0.00696652  -0.00838883  -0.0100016  -0.00650654  0.0099147  0.000108263  -0.107479  0.00427037  -0.0246689 
1699964410.242657000  0  0  11.4631  0.10322  -0.0612755  0.0015666  nan  nan  nan  nan  nan  nan  -0.998851  -0.0046121  1.00067  -0.0207848  -0.0171194  -0.0107761  0.0029687  0.0254013  -0.0001649  0  0  0  0  0  0  0.0129861  -0.00891972  -0.00770103  -0.00734394  -0.00688517  -0.010268  -0.00834087  0.00988252  6.50339e-05  -0.129703  0.0316319  -0.0202329 
1699964410.248135000  0  0  11.4962  0.0951812  -0.0686486  0.00160121  nan  nan  nan  nan  nan  nan  -0.998835  -0.0044858  1.00067  -0.020195  -0.0170102  -0.0107884  0.0032475  0.0250714  0.0003148  0  0  0  0  0  0  0.0130174  -0.00912623  -0.00776884  -0.00748252  -0.00574925  -0.0129087  -0.00934064  0.0101695  -5.44402e-05  -0.104429  0.0437377  -0.0194707 
1699964410.252664000  0  0  11.4839  0.0909862  -0.0584452  0.00210128  nan  nan  nan  nan  nan  nan  -0.998818  -0.0043615  1.00067  -0.0189641  -0.0167961  -0.0108135  0.0035738  0.0246267  0.0008692  0  0  0  0  0  0  0.0129836  -0.00916166  -0.00780742  -0.00768639  -0.00407014  -0.0118387  -0.0107591  0.00991784  -0.000193522  -0.0829888  0.0256462  -0.0243308 
1699964410.257664000  0  0  11.4829  0.103391  -0.0693501  0.00134973  nan  nan  nan  nan  nan  nan  -0.998799  -0.0042398  1.00068  -0.0188719  -0.0168947  -0.0108131  0.0039516  0.0240634  0.0015022  0  0  0  0  0  0  0.0130229  -0.00938793  -0.0078431  -0.00764807  -0.00344926  -0.0116954  -0.0114284  0.0104068  -0.000210742  -0.10164  0.0429581  -0.0147643 
1699964410.262659000  0  0  11.5142  0.0968262  -0.0679769  0.00145722  nan  nan  nan  nan  nan  nan  -0.998779  -0.0041211  1.00069  -0.0168018  -0.0160579  -0.0108622  0.0043844  0.0233777  0.0022173  0  0  0  0  0  0  0.012981  -0.00939607  -0.00792251  -0.00853864  -0.000839157  -0.0142065  -0.0136177  0.00983014  -0.000272152  -0.0683699  0.0455166  -0.0154938 
1699964410.267663000  0  0  11.5041  0.0893494  -0.0612149  0.00205713  nan  nan  nan  nan  nan  nan  -0.998755  -0.0040062  1.0007  -0.0163687  -0.0161228  -0.0108681  0.004876  0.0225659  0.0030185  0  0  0  0  0  0  0.0130168  -0.00959526  -0.00794557  -0.00854681  0.000174809  -0.0133317  -0.0141064  0.00998713  -0.000438954  -0.0489199  0.0305482  -0.0213246 
1699964410.273130000  0  0  11.5091  0.100876  -0.0642256  0.00198943  nan  nan  nan  nan  nan  nan  -0.99873  -0.0038957  1.00072  -0.0157307  -0.0160525  -0.0108795  0.0054303  0.0216242  0.0039094  0  0  0  0  0  0  0.013054  -0.00978213  -0.00799147  -0.00870118  0.00139719  -0.0136783  -0.0151383  0.0101708  -0.000541199  -0.0624791  0.0348798  -0.0194559 
1699964410.277656000  0  0  11.5294  0.0928447  -0.0606709  0.00192837  nan  nan  nan  nan  nan  nan  -0.998701  -0.0037902  1.00074  -0.0135827  -0.0150646  -0.0109274  0.0060509  0.020549  0.0048937  0  0  0  0  0  0  0.0130069  -0.00977797  -0.00806366  -0.00979592  0.00411609  -0.0152915  -0.0171587  0.00934985  -0.000599588  -0.0278291  0.0353231  -0.0181087 
1699964410.282662000  0  0  11.544  0.0885155  -0.0476972  0.00264391  nan  nan  nan  nan  nan  nan  -0.998669  -0.0036904  1.00077  -0.0127991  -0.0149338  -0.0109409  0.0067415  0.0193364  0.0059753  0  0  0  0  0  0  0.0130326  -0.00993485  -0.0081245  -0.00998554  0.00544907  -0.016398  -0.0178628  0.00913622  -0.000784307  -0.0126932  0.0113413  -0.0252058 
1699964410.287668000  0  0  11.545  0.102549  -0.0387657  0.00251218  nan  nan  nan  nan  nan  nan  -0.998633  -0.0035971  1.0008  -0.0105235  -0.0140201  -0.0109845  0.0075047  0.0179827  0.0071579  0  0  0  0  0  0  0.0129792  -0.00990039  -0.00819539  -0.0110048  0.00830186  -0.0164114  -0.0202803  0.00815574  -0.000869597  -0.0185197  0.00249866  -0.0227062 
1699964410.292656000  0  0  11.5678  0.0961437  -0.0373452  0.00239069  nan  nan  nan  nan  nan  nan  -0.998594  -0.0035108  1.00084  -0.0090224  -0.013273  -0.0110122  0.0083378  0.0164841  0.0084452  0  0  0  0  0  0  0.0129884  -0.0100192  -0.00826176  -0.0119287  0.0104781  -0.0182179  -0.0215451  0.00748663  -0.000961454  0.00592757  0.00581343  -0.0202691 
1699964410.298126000  0  0  11.6009  0.0936588  -0.0293341  0.002363  nan  nan  nan  nan  nan  nan  -0.99855  -0.0034325  1.00088  -0.0078942  -0.0126299  -0.0110323  0.009237  0.0148369  0.009841  0  0  0  0  0  0  0.0130009  -0.0101445  -0.00833013  -0.0127208  0.0121861  -0.0208665  -0.0224198  0.00677461  -0.00106401  0.0189446  -0.00365818  -0.0188974 
1699964410.302648000  0  0  11.6109  0.106351  -0.0195386  0.00208085  nan  nan  nan  nan  nan  nan  -0.998501  -0.0033627  1.00094  -0.00547199  -0.0117198  -0.0110679  0.0101986  0.0130374  0.011349  0  0  0  0  0  0  0.012938  -0.0100901  -0.00842958  -0.0137062  0.0151937  -0.021568  -0.0247974  0.00571463  -0.00109032  0.0154345  -0.0134974  -0.0151074 
1699964410.307656000  0  0  11.6142  0.10349  -0.0274207  0.00119078  nan  nan  nan  nan  nan  nan  -0.998448  -0.0033023  1.001  -0.00380056  -0.0108145  -0.0110909  0.0112189  0.0110818  0.012973  0  0  0  0  0  0  0.0129337  -0.0101901  -0.00849794  -0.0148365  0.017584  -0.0217437  -0.0261487  0.00502249  -0.00105717  0.0335883  0.00863449  -0.00431305 
1699964410.312663000  0  0  11.6605  0.106212  -0.0184232  0.000954074  nan  nan  nan  nan  nan  nan  -0.998389  -0.0032522  1.00107  -0.00115532  -0.00962619  -0.0111209  0.012294  0.0089663  0.0147168  0  0  0  0  0  0  0.0128569  -0.0100962  -0.0086316  -0.0161115  0.0208  -0.0254007  -0.0284283  0.00380916  -0.00103547  0.0491164  0.00180202  -0.00157128 
1699964410.317655000  0  0  11.6621  0.10997  -0.0119495  0.000777983  nan  nan  nan  nan  nan  nan  -0.998325  -0.003213  1.00115  0.000111248  -0.00923834  -0.011133  0.0134203  0.0066872  0.016584  0  0  0  0  0  0  0.0128751  -0.0102478  -0.0086899  -0.0166344  0.0227838  -0.0254428  -0.0293628  0.00333601  -0.00103928  0.050199  -0.00679221  0.000668028 
1699964410.322650000  0  0  11.6611  0.118225  -0.0231477  0.000700968  nan  nan  nan  nan  nan  nan  -0.998255  -0.0031856  1.00123  0.00341128  -0.00771474  -0.0111583  0.0145941  0.0042408  0.0185784  0  0  0  0  0  0  0.0127853  -0.0101224  -0.0087959  -0.0183621  0.0268046  -0.0252316  -0.0322889  0.00217837  -0.00102882  0.0606087  0.0262544  0.00152614 
1699964410.327665000  0  0  11.7225  0.109838  -0.0148339  0.00132621  nan  nan  nan  nan  nan  nan  -0.998179  -0.0031708  1.00133  0.00465663  -0.00715223  -0.0111653  0.0158114  0.0016233  0.0207039  0  0  0  0  0  0  0.0127953  -0.0102557  -0.00890717  -0.0190462  0.0287545  -0.0301299  -0.0328823  0.00165527  -0.00112072  0.0828409  0.0144393  -0.00537045 
1699964410.332656000  0  0  11.7233  0.112613  -0.0108193  0.0019456  nan  nan  nan  nan  nan  nan  -0.998097  -0.0031696  1.00144  0.00671171  -0.00670242  -0.011177  0.0170687  -0.0011691  0.022964  0  0  0  0  0  0  0.0127707  -0.0103061  -0.00899836  -0.0195467  0.0315519  -0.0300496  -0.0343644  0.00122347  -0.00124281  0.0909273  0.0103828  -0.0118919 
1699964410.337660000  0  0  11.7454  0.123925  -0.0329181  0.00200025  nan  nan  nan  nan  nan  nan  -0.998008  -0.0031828  1.00156  0.0102101  -0.00510315  -0.0111841  0.0183621  -0.0041401  0.0253627  0  0  0  0  0  0  0.0126652  -0.0101375  -0.00914896  -0.0213322  0.035786  -0.0316598  -0.0373513  0.000322156  -0.00132556  0.0957813  0.0628724  -0.0117475 
1699964410.342648000  0  0  11.8052  0.11261  -0.0227513  0.0032075  nan  nan  nan  nan  nan  nan  -0.997913  -0.0032113  1.00169  0.0118798  -0.00464366  -0.0111872  0.0196879  -0.0072916  0.0279036  0  0  0  0  0  0  0.0126607  -0.010219  -0.00928203  -0.0218657  0.0382333  -0.0363838  -0.0381106  1.28023e-05  -0.00155246  0.125397  0.0453848  -0.0245691 
1699964410.347656000  0  0  11.8003  0.12406  -0.0188921  0.0033293  nan  nan  nan  nan  nan  nan  -0.997811  -0.003256  1.00184  0.015628  -0.00356153  -0.0111877  0.0210424  -0.0106205  0.0305904  0  0  0  0  0  0  0.0125504  -0.0100166  -0.00944114  -0.0229875  0.0427127  -0.0357146  -0.0411431  -0.000891942  -0.00169542  0.130396  0.0459901  -0.0246621 
1699964410.352656000  0  0  11.8313  0.130798  -0.0452659  0.00278127  nan  nan  nan  nan  nan  nan  -0.997703  -0.0033178  1.002  0.0178652  -0.00262941  -0.011179  0.0224217  -0.0141232  0.033427  0  0  0  0  0  0  0.0125168  -0.0100198  -0.00957212  -0.0240934  0.0457316  -0.0380603  -0.0426648  -0.000905027  -0.00178387  0.13092  0.098858  -0.0169271 
1699964410.357655000  0  0  11.8824  0.115717  -0.0294362  0.00356832  nan  nan  nan  nan  nan  nan  -0.997587  -0.0033976  1.00217  0.0204289  -0.00193413  -0.0111715  0.0238222  -0.0177958  0.0364171  0  0  0  0  0  0  0.0124707  -0.00998572  -0.00972326  -0.0248556  0.0491561  -0.0420152  -0.0440168  -0.00139541  -0.00198885  0.173521  0.0717103  -0.0247154 
1699964410.362649000  0  0  11.8645  0.134965  -0.0295211  0.00256819  nan  nan  nan  nan  nan  nan  -0.997464  -0.0034961  1.00236  0.0245253  -0.000871894  -0.0111534  0.0252401  -0.0216346  0.0395644  0  0  0  0  0  0  0.0123457  -0.0097288  -0.00989714  -0.0259238  0.0539688  -0.0402169  -0.0473091  -0.00207085  -0.0019898  0.165314  0.078094  -0.0122044 
1699964410.367657000  0  0  11.9062  0.143514  -0.0559805  0.00158695  nan  nan  nan  nan  nan  nan  -0.997335  -0.0036142  1.00257  0.0271649  7.28973e-05  -0.01113  0.0266717  -0.0256359  0.0428717  0  0  0  0  0  0  0.012287  -0.00965958  -0.0100592  -0.0270005  0.0574404  -0.043379  -0.0490936  -0.00193878  -0.00196605  0.164634  0.129798  -0.00017642 
1699964410.373121000  0  0  11.9505  0.1184  -0.0375796  0.00268806  nan  nan  nan  nan  nan  nan  -0.997198  -0.0037527  1.00279  0.0292108  0.000122933  -0.0111284  0.0281131  -0.029796  0.0463367  0  0  0  0  0  0  0.0122909  -0.00969211  -0.0101777  -0.0270443  0.0603665  -0.0467849  -0.0494394  -0.00169294  -0.00216774  0.218043  0.0907343  -0.0119234 
1699964410.377647000  0  0  11.9346  0.144788  -0.0472058  0.001847  nan  nan  nan  nan  nan  nan  -0.997053  -0.0039124  1.00303  0.0333883  0.00120076  -0.0110919  0.0295607  -0.034111  0.0499558  0  0  0  0  0  0  0.0121531  -0.00939481  -0.0103753  -0.0281087  0.0652212  -0.0450925  -0.0528636  -0.00212464  -0.00214088  0.196769  0.113958  -0.00167865 
1699964410.382657000  0  0  11.9855  0.140824  -0.0646238  0.00142425  nan  nan  nan  nan  nan  nan  -0.996902  -0.0040941  1.00329  0.0359186  0.00216729  -0.0110541  0.0310107  -0.0385773  0.0537252  0  0  0  0  0  0  0.0121014  -0.00931468  -0.0105318  -0.0292511  0.0686218  -0.0489888  -0.0541095  -0.00203279  -0.00217142  0.216161  0.147949  0.00391111 
