ts x y z roll pitch yaw vx vy vz wx wy wz ax ay az dwx dwy dwz jx jy jz ddwx ddwy ddwz
1700491531.393330000  -1  -0  1  0  0  0  6e-07  -6e-07  -6e-07  0  0  0  0.000375  -0.000375  -0.000375  0  0  0  0  0  0  0  0  0 
1700491531.398314000  -1  -0  1  0  0  0  5e-06  -5e-06  -5e-06  0  0  0  0.0015  -0.0015  -0.0015  0  0  0  0  0  0  0  0  0 
1700491531.403320000  -1  -1e-07  1  0  0  0  1.69e-05  -1.69e-05  -1.69e-05  0  0  0  0.003375  -0.003375  -0.003375  0  0  0  0  0  0  0  0  0 
1700491531.408328000  -1  -2e-07  1  0  0  -1e-07  4e-05  -4e-05  -4e-05  0  0  0  0.006  -0.006  -0.006  0  0  0  0  0  0  0  0  0 
1700491531.413325000  -1  -5e-07  1  0  0  -3e-07  7.81e-05  -7.81e-05  -7.81e-05  0  0  0  0.009375  -0.009375  -0.009375  0  0  0  0  0  0  0  0  0 
1700491531.418337000  -0.999999  -1e-06  0.999999  0  0  -5e-07  0.000135  -0.000135  -0.000135  0  0  0  0.0135  -0.0135  -0.0135  0  0  0  0  0  0  0  0  0 
1700491531.423326000  -0.999998  -1.9e-06  0.999998  0  0  -1e-06  0.0002144  -0.0002144  -0.0002144  0  0  0  0.018375  -0.018375  -0.018375  0  0  0  0  0  0  0  0  0 
1700491531.428324000  -0.999997  -3.2e-06  0.999997  0  0  -1.7e-06  0.00032  -0.00032  -0.00032  0  0  0  0.024  -0.024  -0.024  0  0  0  0  0  0  0  0  0 
1700491531.433325000  -0.999995  -5.1e-06  0.999995  0  0  -2.7e-06  0.0004556  -0.0004556  -0.0004556  0  0  0  0.030375  -0.030375  -0.030375  0  0  0  0  0  0  0  0  0 
1700491531.438337000  -0.999992  -7.8e-06  0.999992  0  0  -4.2e-06  0.000625  -0.000625  -0.000625  0  0  0  0.0375  -0.0375  -0.0375  0  0  0  0  0  0  0  0  0 
1700491531.443330000  -0.999989  -1.14e-05  0.999989  0  0  -6.1e-06  0.0008319  -0.0008319  -0.0008319  0  0  0  0.045375  -0.045375  -0.045375  0  0  0  0  0  0  0  0  0 
1700491531.448332000  -0.999984  -1.62e-05  0.999984  0  0  -8.6e-06  0.00108  -0.00108  -0.00108  0  0  0  0.054  -0.054  -0.054  0  0  0  0  0  0  0  0  0 
1700491531.453330000  -0.999978  -2.23e-05  0.999978  0  0  -1.19e-05  0.0013731  -0.0013731  -0.0013731  0  0  0  0.063375  -0.063375  -0.063375  0  0  0  0  0  0  0  0  0 
1700491531.458331000  -0.99997  -3e-05  0.99997  0  0  -1.6e-05  0.001715  -0.001715  -0.001715  0  0  0  0.0735  -0.0735  -0.0735  0  0  0  0  0  0  0  0  0 
1700491531.463330000  -0.99996  -3.96e-05  0.99996  0  0  -2.11e-05  0.0021094  -0.0021094  -0.0021094  0  0  0  0.084375  -0.084375  -0.084375  0  0  0  0  0  0  0  0  0 
1700491531.468331000  -0.999949  -5.12e-05  0.999949  0  0  -2.73e-05  0.00256  -0.00256  -0.00256  0  0  0  0.096  -0.096  -0.096  0  0  0  0  0  0  0  0  0 
1700491531.473331000  -0.999935  -6.53e-05  0.999935  0  0  -3.48e-05  0.0030706  -0.0030706  -0.0030706  0  0  0  0.108375  -0.108375  -0.108375  0  0  0  0  0  0  0  0  0 
1700491531.478331000  -0.999918  -8.2e-05  0.999918  0  0  -4.37e-05  0.003645  -0.003645  -0.003645  0  0  0  0.1215  -0.1215  -0.1215  0  0  0  0  0  0  0  0  0 
1700491531.483331000  -0.999898  -0.0001018  0.999898  0  0  -5.43e-05  0.0042869  -0.0042869  -0.0042869  0  0  0  0.135375  -0.135375  -0.135375  0  0  0  0  0  0  0  0  0 
1700491531.488328000  -0.999875  -0.000125  0.999875  0  0  -6.67e-05  0.005  -0.005  -0.005  0  0  0  0.15  -0.15  -0.15  0  0  0  0  0  0  0  0  0 
1700491531.493331000  -0.999848  -0.0001519  0.999848  0  0  -8.1e-05  0.0057881  -0.0057881  -0.0057881  0  0  0  0.165375  -0.165375  -0.165375  0  0  0  0  0  0  0  0  0 
1700491531.498330000  -0.999817  -0.000183  0.999817  0  0  -9.76e-05  0.006655  -0.006655  -0.006655  0  0  0  0.1815  -0.1815  -0.1815  0  0  0  0  0  0  0  0  0 
1700491531.503331000  -0.999781  -0.0002186  0.999781  0  0  -0.0001166  0.0076044  -0.0076044  -0.0076044  0  0  0  0.198375  -0.198375  -0.198375  0  0  0  0  0  0  0  0  0 
1700491531.508330000  -0.999741  -0.0002592  0.999741  0  0  -0.0001382  0.00864  -0.00864  -0.00864  0  0  0  0.216  -0.216  -0.216  0  0  0  0  0  0  0  0  0 
1700491531.513330000  -0.999695  -0.0003052  0.999695  0  0  -0.0001628  0.0097656  -0.0097656  -0.0097656  0  0  0  0.234375  -0.234375  -0.234375  0  0  0  0  0  0  0  0  0 
1700491531.518329000  -0.999643  -0.000357  0.999643  0  0  -0.0001904  0.010985  -0.010985  -0.010985  0  0  0  0.2535  -0.2535  -0.2535  0  0  0  0  0  0  0  0  0 
1700491531.523330000  -0.999585  -0.0004152  0.999585  0  0  -0.0002214  0.0123019  -0.0123019  -0.0123019  0  0  0  0.273375  -0.273375  -0.273375  0  0  0  0  0  0  0  0  0 
1700491531.528318000  -0.99952  -0.0004802  0.99952  0  0  -0.000256  0.01372  -0.01372  -0.01372  0  0  0  0.294  -0.294  -0.294  0  0  0  0  0  0  0  0  0 
1700491531.533316000  -0.999447  -0.0005526  0.999447  0  0  -0.0002944  0.0152431  -0.0152431  -0.0152431  0  0  0  0.315375  -0.315287  -0.315375  0  0  0  0  0  0  0  0  0 
1700491531.538324000  -0.999367  -0.0006328  0.999367  0  0  -0.0003369  0.016875  -0.016872  -0.016875  0  0  0  0.3375  -0.33615  -0.3375  0  0  0  0  0  0  0  0  0 
1700491531.543326000  -0.999278  -0.0007215  0.999278  0  0  -0.0003836  0.0186194  -0.0186033  -0.0186194  0  0  0  0.360375  -0.356262  -0.360375  0  0  0  0  0  0  0  0  0 
1700491531.548322000  -0.999181  -0.000819  0.999181  0  0  -0.0004346  0.02048  -0.0204333  -0.02048  0  0  0  0.384  -0.375624  -0.384  0  0  0  0  0  0  0  0  0 
1700491531.553319000  -0.999073  -0.0009259  0.999073  0  0  -0.0004903  0.0224606  -0.0223583  -0.0224606  0  0  0  0.408375  -0.394236  -0.408375  0  0  0  0  0  0  0  0  0 
1700491531.558318000  -0.998956  -0.0010427  0.998956  0  0  -0.0005508  0.024565  -0.0243745  -0.024565  0  0  0  0.4335  -0.412098  -0.4335  0  0  0  0  0  0  0  0  0 
1700491531.563328000  -0.998828  -0.0011698  0.998828  0  0  -0.0006162  0.0267969  -0.026478  -0.0267969  0  0  0  0.459375  -0.429211  -0.459373  0  0  0  0  0  0  0  0  0 
1700491531.568330000  -0.998688  -0.0013077  0.998688  0  0  -0.0006866  0.02916  -0.0286653  -0.0291586  0  0  0  0.486  -0.445573  -0.485177  0  0  0  0  0  0  0  0  0 
1700491531.573324000  -0.998536  -0.0014566  0.998536  0  0  -0.0007623  0.0316577  -0.0309325  -0.0316474  0  0  0  0.512989  -0.461185  -0.510231  0  0  0  0  0  0  0  0  0 
1700491531.578326000  -0.998371  -0.0016171  0.998371  0  0  -0.0008433  0.0342887  -0.0332759  -0.0342596  0  0  0  0.539287  -0.476047  -0.534535  0  0  0  0  0  0  0  0  0 
1700491531.583324000  -0.998193  -0.0017895  0.998193  0  0  -0.0009299  0.0370493  -0.0356917  -0.0369915  0  0  0  0.564836  -0.490159  -0.558089  0  0  0  0  0  0  0  0  0 
1700491531.588325000  -0.998  -0.0019741  0.998001  0  0  -0.0010219  0.0399358  -0.0381763  -0.0398393  0  0  0  0.589634  -0.503522  -0.580892  0  0  0  0  0  0  0  0  0 
1700491531.593323000  -0.997793  -0.0021714  0.997794  0  0  -0.0011197  0.0429444  -0.0407257  -0.0427992  0  0  0  0.613683  -0.516134  -0.602946  0  0  0  0  0  0  0  0  0 
1700491531.598323000  -0.997571  -0.0023815  0.997573  0  0  -0.0012232  0.0460713  -0.0433363  -0.0458675  0  0  0  0.636981  -0.527996  -0.62425  0  0  0  0  0  0  0  0  0 
1700491531.603323000  -0.997332  -0.0026048  0.997336  0  0  -0.0013326  0.0493129  -0.0460044  -0.0490404  0  0  0  0.65953  -0.539108  -0.644804  0  0  0  0  0  0  0  0  0 
1700491531.608324000  -0.997077  -0.0028416  0.997082  0  0  -0.001448  0.0526654  -0.0487262  -0.0523143  0  0  0  0.681328  -0.549471  -0.664608  0  0  0  0  0  0  0  0  0 
1700491531.613325000  -0.996805  -0.0030922  0.996812  0  0  -0.0015693  0.056125  -0.0514979  -0.0556852  0  0  0  0.702376  -0.559083  -0.683661  0  0  0  0  0  0  0  0  0 
1700491531.618325000  -0.996516  -0.0033567  0.996525  0  0  -0.0016966  0.0596879  -0.0543158  -0.0591496  0  0  0  0.722675  -0.567945  -0.701965  0  0  0  0  0  0  0  0  0 
1700491531.623330000  -0.996208  -0.0036354  0.996221  0  0  -0.00183  0.0633505  -0.0571761  -0.0627036  0  0  0  0.742223  -0.576057  -0.719519  0  0  0  0  0  0  0  0  0 
1700491531.628328000  -0.995882  -0.0039285  0.995898  0  0  -0.0019696  0.0671089  -0.0600751  -0.0663436  0  0  0  0.761022  -0.583419  -0.736323  0  0  0  0  0  0  0  0  0 
1700491531.633332000  -0.995537  -0.0042362  0.995557  0  0  -0.0021152  0.0709594  -0.063009  -0.0700656  0  0  0  0.77907  -0.590032  -0.752377  0  0  0  0  0  0  0  0  0 
1700491531.638317000  -0.995173  -0.0045587  0.995197  0  0  -0.002267  0.0748983  -0.0659741  -0.0738661  0  0  0  0.796369  -0.595894  -0.76768  0  0  0  0  0  0  0  0  0 
1700491531.643326000  -0.994788  -0.004896  0.994818  0  0  -0.0024249  0.0789219  -0.0689667  -0.0777412  0  0  0  0.812917  -0.601006  -0.782234  0  0  0  0  0  0  0  0  0 
1700491531.648335000  -0.994383  -0.0052484  0.99442  0  0  -0.002589  0.0830263  -0.071983  -0.0816872  0  0  0  0.828716  -0.605368  -0.796038  0  0  0  0  0  0  0  0  0 
1700491531.653334000  -0.993958  -0.0056159  0.994001  0  0  -0.0027592  0.0872078  -0.0750191  -0.0857003  0  0  0  0.843764  -0.60898  -0.809092  0  0  0  0  0  0  0  0  0 
1700491531.658333000  -0.993511  -0.0059986  0.993563  0  0  -0.0029354  0.0914627  -0.0780715  -0.0897768  0  0  0  0.858063  -0.611843  -0.821396  0  0  0  0  0  0  0  0  0 
1700491531.663326000  -0.993043  -0.0063966  0.993103  0  0  -0.0031177  0.0957872  -0.0811363  -0.093913  0  0  0  0.871611  -0.613955  -0.832949  0  0  0  0  0  0  0  0  0 
1700491531.668334000  -0.992553  -0.00681  0.992623  0  0  -0.003306  0.100178  -0.0842098  -0.0981051  0  0  0  0.88441  -0.615317  -0.843753  0  0  0  0  0  0  0  0  0 
1700491531.673333000  -0.992041  -0.0072387  0.992122  0  0  -0.0035002  0.10463  -0.0872882  -0.102349  0  0  0  0.896458  -0.615929  -0.853807  0  0  0  0  0  0  0  0  0 
1700491531.678323000  -0.991507  -0.0076828  0.9916  0  0  -0.0037002  0.109141  -0.0903679  -0.106642  0  0  0  0.907757  -0.615791  -0.863111  0  0  0  0  0  0  0  0  0 
1700491531.683325000  -0.990949  -0.0081424  0.991056  0  0  -0.0039061  0.113706  -0.0934449  -0.110979  0  0  0  0.918305  -0.614904  -0.871665  0  0  0  0  0  0  0  0  0 
1700491531.688333000  -0.990369  -0.0086173  0.99049  0  0  -0.0041176  0.118323  -0.0965156  -0.115357  0  0  0  0.928103  -0.613266  -0.879468  0  0  0  0  0  0  0  0  0 
1700491531.693324000  -0.989766  -0.0091075  0.989902  0  0  -0.0043348  0.122986  -0.0995763  -0.119773  0  0  0  0.937152  -0.610878  -0.886522  0  0  0  0  0  0  0  0  0 
1700491531.698324000  -0.98914  -0.009613  0.989292  0  0  -0.0045574  0.127693  -0.102623  -0.124221  0  0  0  0.94545  -0.60774  -0.892826  0  0  0  0  0  0  0  0  0 
1700491531.703324000  -0.988489  -0.0101337  0.98866  0  0  -0.0047854  0.132439  -0.105652  -0.1287  0  0  0  0.952999  -0.603853  -0.89838  0  0  0  0  0  0  0  0  0 
1700491531.708328000  -0.987815  -0.0106695  0.988005  0  0  -0.0050186  0.137222  -0.10866  -0.133204  0  0  0  0.959797  -0.599215  -0.903184  0  0  0  0  0  0  0  0  0 
1700491531.713328000  -0.987117  -0.0112203  0.987328  0  0  -0.0052569  0.142036  -0.111643  -0.13773  0  0  0  0.965846  -0.593827  -0.907237  0  0  0  0  0  0  0  0  0 
1700491531.718326000  -0.986395  -0.0117859  0.986628  0  0  -0.0055002  0.146879  -0.114597  -0.142275  0  0  0  0.971144  -0.587689  -0.910541  0  0  0  0  0  0  0  0  0 
1700491531.723325000  -0.985648  -0.0123662  0.985905  0  0  -0.0057483  0.151746  -0.117519  -0.146834  0  0  0  0.975693  -0.580801  -0.913095  0  0  0  0  0  0  0  0  0 
1700491531.728318000  -0.984877  -0.012961  0.985159  0  0  -0.006001  0.156635  -0.120404  -0.151405  0  0  0  0.979491  -0.573164  -0.914899  0  0  0  0  0  0  0  0  0 
1700491531.733323000  -0.984082  -0.0135702  0.984391  0  0  -0.0062581  0.16154  -0.123249  -0.155982  0  0  0  0.98254  -0.564776  -0.915953  0  0  0  0  0  0  0  0  0 
1700491531.738326000  -0.983262  -0.0141935  0.9836  0  0  -0.0065195  0.166459  -0.126051  -0.160563  0  0  0  0.984838  -0.555638  -0.916256  0  0  0  0  0  0  0  0  0 
1700491531.743324000  -0.982417  -0.0148306  0.982785  0  0  -0.0067849  0.171387  -0.128805  -0.165143  0  0  0  0.986387  -0.54575  -0.91581  0  0  0  0  0  0  0  0  0 
1700491531.748332000  -0.981548  -0.0154814  0.981948  0  0  -0.0070541  0.176321  -0.131507  -0.16972  0  0  0  0.987185  -0.535112  -0.914614  0  0  0  0  0  0  0  0  0 
1700491531.753316000  -0.980654  -0.0161456  0.981088  0  0  -0.007327  0.181258  -0.134154  -0.174288  0  0  0  0.987234  -0.523725  -0.912668  0  0  0  0  0  0  0  0  0 
1700491531.758327000  -0.979735  -0.0168229  0.980205  0  0  -0.0076033  0.186192  -0.136743  -0.178845  0  0  0  0.986532  -0.511587  -0.909972  0  0  0  0  0  0  0  0  0 
1700491531.763329000  -0.978792  -0.0175129  0.9793  0  0  -0.0078827  0.191122  -0.139269  -0.183387  0  0  0  0.985081  -0.498699  -0.906525  0  0  0  0  0  0  0  0  0 
1700491531.768320000  -0.977824  -0.0182154  0.978372  0  0  -0.008165  0.196042  -0.141729  -0.187909  0  0  0  0.982879  -0.485061  -0.902329  0  0  0  0  0  0  0  0  0 
1700491531.773322000  -0.976832  -0.0189301  0.977421  0  0  -0.00845  0.200949  -0.144118  -0.192409  0  0  0  0.979927  -0.470674  -0.897383  0  0  0  0  0  0  0  0  0 
1700491531.778324000  -0.975815  -0.0196565  0.976447  0  0  -0.0087375  0.20584  -0.146434  -0.196882  0  0  0  0.976226  -0.455536  -0.891687  0  0  0  0  0  0  0  0  0 
1700491531.783324000  -0.974773  -0.0203943  0.975452  0  0  -0.0090272  0.21071  -0.148672  -0.201324  0  0  0  0.971774  -0.439648  -0.885241  0  0  0  0  0  0  0  0  0 
1700491531.788331000  -0.973708  -0.0211431  0.974434  0  0  -0.0093189  0.215556  -0.150829  -0.205733  0  0  0  0.966573  -0.42301  -0.878044  0  0  0  0  0  0  0  0  0 
1700491531.793334000  -0.972618  -0.0219024  0.973395  0  0  -0.0096124  0.220375  -0.152901  -0.210104  0  0  0  0.960621  -0.405622  -0.870098  0  0  0  0  0  0  0  0  0 
1700491531.798353000  -0.971504  -0.022672  0.972333  0  0  -0.0099076  0.225161  -0.154884  -0.214433  0  0  0  0.95392  -0.387485  -0.861402  0  0  0  0  0  0  0  0  0 
1700491531.803340000  -0.970366  -0.0234511  0.97125  0  0  -0.0102042  0.229913  -0.156775  -0.218716  0  0  0  0.946468  -0.368597  -0.851956  0  0  0  0  0  0  0  0  0 
1700491531.808338000  -0.969205  -0.0242395  0.970146  0  0  -0.0105022  0.234625  -0.158569  -0.222951  0  0  0  0.938267  -0.348959  -0.84176  0  0  0  0  0  0  0  0  0 
1700491531.813366000  -0.96802  -0.0250367  0.969021  0  0  -0.0108012  0.239294  -0.160263  -0.227133  0  0  0  0.929315  -0.328571  -0.830813  0  0  0  0  0  0  0  0  0 
1700491531.818359000  -0.966812  -0.025842  0.967875  0  0  -0.0111013  0.243917  -0.161854  -0.231258  0  0  0  0.919614  -0.307434  -0.819117  0  0  0  0  0  0  0  0  0 
1700491531.823347000  -0.965581  -0.026655  0.966709  0  0  -0.0114023  0.248489  -0.163338  -0.235323  0  0  0  0.909162  -0.286334  -0.806671  0  0  0  0  0  0  0  0  0 
1700491531.828350000  -0.964327  -0.0274752  0.965522  0  0  -0.011704  0.253007  -0.164718  -0.239323  0  0  0  0.897961  -0.265985  -0.793475  0  0  0  0  0  0  0  0  0 
1700491531.833327000  -0.963051  -0.028302  0.964315  0  0  -0.0120062  0.257467  -0.165999  -0.243256  0  0  0  0.886009  -0.246386  -0.779529  0  0  0  0  0  0  0  0  0 
1700491531.838335000  -0.961753  -0.029135  0.963089  0  0  -0.0123091  0.261866  -0.167183  -0.247117  0  0  0  0.873308  -0.227536  -0.764832  0  0  0  0  0  0  0  0  0 
1700491531.843342000  -0.960432  -0.0299737  0.961844  0  0  -0.0126123  0.266199  -0.168275  -0.250903  0  0  0  0.859856  -0.209437  -0.749386  0  0  0  0  0  0  0  0  0 
1700491531.848327000  -0.959091  -0.0308176  0.960581  0  0  -0.0129158  0.270463  -0.169279  -0.25461  0  0  0  0.845655  -0.192087  -0.73319  0  0  0  0  0  0  0  0  0 
1700491531.853338000  -0.957728  -0.0316664  0.959298  0  0  -0.0132197  0.274655  -0.170198  -0.258234  0  0  0  0.830703  -0.175488  -0.716244  0  0  0  0  0  0  0  0  0 
1700491531.858315000  -0.956344  -0.0325195  0.957998  0  0  -0.0135237  0.278769  -0.171035  -0.261771  0  0  0  0.815001  -0.159639  -0.698548  0  0  0  0  0  0  0  0  0 
1700491531.863334000  -0.95494  -0.0333766  0.956681  0  0  -0.0138278  0.282803  -0.171795  -0.265218  0  0  0  0.79855  -0.144539  -0.680101  0  0  0  0  0  0  0  0  0 
1700491531.868340000  -0.953516  -0.0342373  0.955346  0  0  -0.014132  0.286753  -0.172482  -0.268571  0  0  0  0.781348  -0.13019  -0.660905  0  0  0  0  0  0  0  0  0 
1700491531.873347000  -0.952073  -0.0351013  0.953995  0  0  -0.0144363  0.290615  -0.173098  -0.271826  0  0  0  0.763397  -0.11659  -0.640959  0  0  0  0  0  0  0  0  0 
1700491531.878348000  -0.95061  -0.0359682  0.952628  0  0  -0.0147406  0.294386  -0.173649  -0.274979  0  0  0  0.744695  -0.103741  -0.620263  0  0  0  0  0  0  0  0  0 
1700491531.883350000  -0.949129  -0.0368377  0.951246  0  0  -0.0150448  0.298061  -0.174137  -0.278027  0  0  0  0.725244  -0.0916414  -0.598817  0  0  0  0  0  0  0  0  0 
1700491531.888346000  -0.94763  -0.0377095  0.949848  0  0  -0.0153491  0.301637  -0.174567  -0.280966  0  0  0  0.705042  -0.080292  -0.57662  0  0  0  0  0  0  0  0  0 
1700491531.893333000  -0.946113  -0.0385832  0.948436  0  0  -0.0156534  0.30511  -0.174941  -0.283792  0  0  0  0.684091  -0.0696926  -0.553674  0  0  0  0  0  0  0  0  0 
1700491531.898334000  -0.944579  -0.0394588  0.94701  0  0  -0.0159577  0.308477  -0.175265  -0.286502  0  0  0  0.662389  -0.0598431  -0.529978  0  0  0  0  0  0  0  0  0 
1700491531.903333000  -0.943028  -0.0403358  0.945571  0  0  -0.016262  0.311733  -0.175541  -0.289091  0  0  0  0.639938  -0.0507437  -0.505532  0  0  0  0  0  0  0  0  0 
1700491531.908327000  -0.941462  -0.0412141  0.94412  0  0  -0.0165663  0.314875  -0.175773  -0.291556  0  0  0  0.616736  -0.0423943  -0.480336  0  0  0  0  0  0  0  0  0 
1700491531.913340000  -0.93988  -0.0420935  0.942656  0  0  -0.0168706  0.317899  -0.175966  -0.293893  0  0  0  0.592785  -0.0347949  -0.454405  0  0  0  0  0  0  0  0  0 
1700491531.918345000  -0.938283  -0.0429737  0.941181  0  0  -0.0171749  0.320802  -0.176123  -0.2961  0  0  0  0.568083  -0.0279454  -0.428672  0  0  0  0  0  0  0  0  0 
1700491531.923337000  -0.936672  -0.0438547  0.939695  0  0  -0.0174792  0.323579  -0.176247  -0.298181  0  0  0  0.542632  -0.021846  -0.403689  0  0  0  0  0  0  0  0  0 
1700491531.928336000  -0.935047  -0.0447361  0.938199  0  0  -0.0177835  0.326227  -0.176342  -0.300138  0  0  0  0.51643  -0.0164966  -0.379457  0  0  0  0  0  0  0  0  0 
1700491531.933333000  -0.93341  -0.045618  0.936694  0  0  -0.0180878  0.328742  -0.176413  -0.301977  0  0  0  0.489496  -0.0118972  -0.355974  0  0  0  0  0  0  0  0  0 
1700491531.938385000  -0.93176  -0.0465002  0.93518  0  0  -0.0183921  0.331122  -0.176462  -0.303699  0  0  0  0.462774  -0.0080477  -0.333242  0  0  0  0  0  0  0  0  0 
1700491531.943326000  -0.930099  -0.0473826  0.933657  0  0  -0.0186964  0.333371  -0.176495  -0.30531  0  0  0  0.436802  -0.0049483  -0.311259  0  0  0  0  0  0  0  0  0 
1700491531.948328000  -0.928427  -0.0482652  0.932127  0  0  -0.0190007  0.335491  -0.176513  -0.306813  0  0  0  0.41158  -0.0025989  -0.290026  0  0  0  0  0  0  0  0  0 
1700491531.953351000  -0.926744  -0.0491477  0.930589  0  0  -0.019305  0.337488  -0.176522  -0.308212  0  0  0  0.387108  -0.0009995  -0.269544  0  0  0  0  0  0  0  0  0 
1700491531.958323000  -0.925052  -0.0500304  0.929045  0  0  -0.0196093  0.339364  -0.176524  -0.30951  0  0  0  0.363386  -0.0001501  -0.249811  0  0  0  0  0  0  0  0  0 
1700491531.963344000  -0.923351  -0.050913  0.927494  0  0  -0.0199136  0.341123  -0.176525  -0.310711  0  0  0  0.340414  0  -0.230829  0  0  0  0  0  0  0  0  0 
1700491531.968342000  -0.921641  -0.0517956  0.925938  0  0  -0.0202179  0.342769  -0.176525  -0.311819  0  0  0  0.318193  0  -0.212596  0  0  0  0  0  0  0  0  0 
1700491531.973340000  -0.919923  -0.0526782  0.924376  0  0  -0.0205222  0.344306  -0.176525  -0.312838  0  0  0  0.296721  0  -0.195113  0  0  0  0  0  0  0  0  0 
1700491531.978341000  -0.918198  -0.0535609  0.92281  0  0  -0.0208265  0.345738  -0.176525  -0.313772  0  0  0  0.275999  0  -0.178381  0  0  0  0  0  0  0  0  0 
1700491531.983338000  -0.916466  -0.0544435  0.921239  0  0  -0.0211308  0.347067  -0.176525  -0.314623  0  0  0  0.256027  0  -0.162398  0  0  0  0  0  0  0  0  0 
1700491531.988330000  -0.914728  -0.0553261  0.919664  0  0  -0.0214351  0.348299  -0.176525  -0.315397  0  0  0  0.236805  0  -0.147166  0  0  0  0  0  0  0  0  0 
1700491531.993333000  -0.912983  -0.0562087  0.918085  0  0  -0.0217394  0.349437  -0.176525  -0.316096  0  0  0  0.218333  0  -0.132683  0  0  0  0  0  0  0  0  0 
1700491531.998341000  -0.911233  -0.0570913  0.916503  0  0  -0.0220437  0.350484  -0.176525  -0.316725  0  0  0  0.200611  0  -0.11895  0  0  0  0  0  0  0  0  0 
1700491532.003350000  -0.909479  -0.057974  0.914918  0  0  -0.022348  0.351444  -0.176525  -0.317287  0  0  0  0.183639  0  -0.105968  0  0  0  0  0  0  0  0  0 
1700491532.008352000  -0.907719  -0.0588566  0.91333  0  0  -0.0226523  0.352321  -0.176525  -0.317786  0  0  0  0.167417  0  -0.0937352  0  0  0  0  0  0  0  0  0 
1700491532.013345000  -0.905956  -0.0597392  0.91174  0  0  -0.0229566  0.353119  -0.176525  -0.318226  0  0  0  0.151945  0  -0.0822526  0  0  0  0  0  0  0  0  0 
1700491532.018326000  -0.904188  -0.0606218  0.910148  0  0  -0.0232609  0.353842  -0.176525  -0.31861  0  0  0  0.137223  0  -0.07152  0  0  0  0  0  0  0  0  0 
1700491532.023347000  -0.902417  -0.0615045  0.908554  0  0  -0.0235652  0.354493  -0.176525  -0.318942  0  0  0  0.123251  0  -0.0615374  0  0  0  0  0  0  0  0  0 
1700491532.028340000  -0.900643  -0.0623871  0.906959  0  0  -0.0238694  0.355076  -0.176525  -0.319226  0  0  0  0.110029  0  -0.0523048  0  0  0  0  0  0  0  0  0 
1700491532.033328000  -0.898867  -0.0632697  0.905362  0  0  -0.0241737  0.355594  -0.176525  -0.319466  0  0  0  0.0975573  0  -0.0438222  0  0  0  0  0  0  0  0  0 
1700491532.038339000  -0.897087  -0.0641523  0.903764  0  0  -0.024478  0.356053  -0.176525  -0.319666  0  0  0  0.0858354  0  -0.0360896  0  0  0  0  0  0  0  0  0 
1700491532.043331000  -0.895306  -0.065035  0.902165  0  0  -0.0247823  0.356454  -0.176525  -0.319829  0  0  0  0.0748634  0  -0.029107  0  0  0  0  0  0  0  0  0 
1700491532.048332000  -0.893523  -0.0659176  0.900566  0  0  -0.0250866  0.356802  -0.176525  -0.319958  0  0  0  0.0646415  0  -0.0228744  0  0  0  0  0  0  0  0  0 
1700491532.053331000  -0.891738  -0.0668002  0.898966  0  0  -0.0253909  0.357102  -0.176525  -0.320059  0  0  0  0.0551695  0  -0.0173917  0  0  0  0  0  0  0  0  0 
1700491532.058337000  -0.889952  -0.0676828  0.897365  0  0  -0.0256952  0.357355  -0.176525  -0.320133  0  0  0  0.0464476  0  -0.0126591  0  0  0  0  0  0  0  0  0 
1700491532.063323000  -0.888165  -0.0685654  0.895764  0  0  -0.0259995  0.357567  -0.176525  -0.320186  0  0  0  0.0384757  0  -0.0086765  0  0  0  0  0  0  0  0  0 
1700491532.068331000  -0.886376  -0.0694481  0.894163  0  0  -0.0263038  0.357741  -0.176525  -0.320221  0  0  0  0.0312537  0  -0.0054439  0  0  0  0  0  0  0  0  0 
1700491532.073334000  -0.884587  -0.0703307  0.892562  0  0  -0.0266081  0.357881  -0.176525  -0.320242  0  0  0  0.0247818  0  -0.0029613  0  0  0  0  0  0  0  0  0 
1700491532.078314000  -0.882798  -0.0712133  0.890961  0  0  -0.0269124  0.357991  -0.176525  -0.320252  0  0  0  0.0190598  0  -0.0012287  0  0  0  0  0  0  0  0  0 
1700491532.083332000  -0.881008  -0.0720959  0.88936  0  0  -0.0272167  0.358073  -0.176525  -0.320256  0  0  0  0.0140879  0  -0.0002461  0  0  0  0  0  0  0  0  0 
1700491532.088324000  -0.879217  -0.0729786  0.887758  0  0  -0.027521  0.358133  -0.176525  -0.320256  0  0  0  0.009866  0  -0  0  0  0  0  0  0  0  0  0 
1700491532.093323000  -0.877426  -0.0738612  0.886157  0  0  -0.0278253  0.358173  -0.176525  -0.320256  0  0  0  0.006394  0  -0  0  0  0  0  0  0  0  0  0 
1700491532.098332000  -0.875635  -0.0747438  0.884556  0  0  -0.0281296  0.358198  -0.176525  -0.320256  0  0  0  0.0036721  0  -0  0  0  0  0  0  0  0  0  0 
1700491532.103340000  -0.873844  -0.0756264  0.882955  0  0  -0.0284339  0.358211  -0.176525  -0.320256  0  0  0  0.0017001  0  -0  0  0  0  0  0  0  0  0  0 
1700491532.108340000  -0.872053  -0.0765091  0.881353  0  0  -0.0287382  0.358216  -0.176525  -0.320256  0  0  0  0.0004782  0  -0  0  0  0  0  0  0  0  0  0 
1700491532.113336000  -0.870262  -0.0773917  0.879752  0  0  -0.0290425  0.358217  -0.176525  -0.320256  0  0  0  6.3e-06  0  -0  0  0  0  0  0  0  0  0  0 
1700491532.118327000  -0.868471  -0.0782743  0.878151  0  0  -0.0293468  0.358217  -0.176525  -0.320256  0  0  0  0.0002832  0  -0  0  0  0  0  0  0  0  0  0 
1700491532.123321000  -0.86668  -0.0791569  0.876549  0  0  -0.0296511  0.358221  -0.176525  -0.320256  0  0  0  0.00131  0  -0  0  0  0  0  0  0  0  0  0 
1700491532.128318000  -0.864889  -0.0800396  0.874948  0  0  -0.0299554  0.358232  -0.176525  -0.320256  0  0  0  0.0030868  0  -0  0  0  0  0  0  0  0  0  0 
1700491532.133339000  -0.863098  -0.0809222  0.873347  0  0  -0.0302597  0.358253  -0.176525  -0.320256  0  0  0  0.0056136  0  -0  0  0  0  0  0  0  0  0  0 
1700491532.138324000  -0.861306  -0.0818048  0.871746  0  0  -0.030564  0.358289  -0.176525  -0.320256  0  0  0  0.0088903  0  -0  0  0  0  0  0  0  0  0  0 
1700491532.143320000  -0.859515  -0.0826874  0.870144  0  0  -0.0308683  0.358343  -0.176525  -0.320256  0  0  0  0.0129171  0  -0.0001497  0  0  0  0  0  0  0  0  0 
1700491532.148314000  -0.857723  -0.08357  0.868543  0  0  -0.0311726  0.35842  -0.176525  -0.320259  0  0  0  0.0176939  0  -0.0009986  0  0  0  0  0  0  0  0  0 
1700491532.153315000  -0.85593  -0.0844527  0.866942  0  0  -0.0314769  0.358522  -0.176525  -0.320267  0  0  0  0.0232207  0  -0.0025976  0  0  0  0  0  0  0  0  0 
1700491532.158314000  -0.854137  -0.0853353  0.86534  0  0  -0.0317812  0.358653  -0.176525  -0.320286  0  0  0  0.0294975  0  -0.0049465  0  0  0  0  0  0  0  0  0 
1700491532.163321000  -0.852344  -0.0862179  0.863739  0  0  -0.0320855  0.358818  -0.176525  -0.320318  0  0  0  0.0365243  0  -0.0080454  0  0  0  0  0  0  0  0  0 
1700491532.168315000  -0.850549  -0.0871005  0.862137  0  0  -0.0323898  0.359019  -0.176525  -0.320368  0  0  0  0.044301  0  -0.0118943  0  0  0  0  0  0  0  0  0 
1700491532.173315000  -0.848754  -0.0879832  0.860535  0  0  -0.0326941  0.359262  -0.176525  -0.320438  0  0  0  0.0528278  0  -0.0164932  0  0  0  0  0  0  0  0  0 
1700491532.178329000  -0.846957  -0.0888658  0.858933  0  0  -0.0329983  0.359549  -0.176525  -0.320534  0  0  0  0.0621046  0  -0.0218421  0  0  0  0  0  0  0  0  0 
1700491532.183322000  -0.845158  -0.0897484  0.85733  0  0  -0.0333026  0.359884  -0.176525  -0.320658  0  0  0  0.0721314  0  -0.027941  0  0  0  0  0  0  0  0  0 
1700491532.188324000  -0.843358  -0.090631  0.855726  0  0  -0.0336069  0.360272  -0.176525  -0.320815  0  0  0  0.0829082  0  -0.0347899  0  0  0  0  0  0  0  0  0 
1700491532.193329000  -0.841555  -0.0915137  0.854122  0  0  -0.0339112  0.360715  -0.176525  -0.321007  0  0  0  0.094435  0  -0.0423889  0  0  0  0  0  0  0  0  0 
1700491532.198340000  -0.83975  -0.0923963  0.852516  0  0  -0.0342155  0.361217  -0.176525  -0.32124  0  0  0  0.106712  0  -0.0507378  0  0  0  0  0  0  0  0  0 
1700491532.203338000  -0.837943  -0.0932789  0.850909  0  0  -0.0345198  0.361783  -0.176525  -0.321516  0  0  0  0.119739  0  -0.0598367  0  0  0  0  0  0  0  0  0 
1700491532.208340000  -0.836132  -0.0941615  0.849301  0  0  -0.0348241  0.362416  -0.176525  -0.321839  0  0  0  0.133515  0  -0.0696856  0  0  0  0  0  0  0  0  0 
1700491532.213346000  -0.834319  -0.0950441  0.847691  0  0  -0.0351284  0.363119  -0.176525  -0.322214  0  0  0  0.148042  0  -0.0802845  0  0  0  0  0  0  0  0  0 
1700491532.218339000  -0.832501  -0.0959268  0.846078  0  0  -0.0354327  0.363897  -0.176525  -0.322643  0  0  0  0.163319  0  -0.0916334  0  0  0  0  0  0  0  0  0 
1700491532.223343000  -0.83068  -0.0968094  0.844464  0  0  -0.035737  0.364754  -0.176525  -0.323131  0  0  0  0.179346  0  -0.103732  0  0  0  0  0  0  0  0  0 
1700491532.228332000  -0.828853  -0.097692  0.842847  0  0  -0.0360413  0.365692  -0.176525  -0.323682  0  0  0  0.196122  0  -0.116581  0  0  0  0  0  0  0  0  0 
1700491532.233324000  -0.827022  -0.0985746  0.841227  0  0  -0.0363456  0.366716  -0.176525  -0.324299  0  0  0  0.213649  0  -0.13018  0  0  0  0  0  0  0  0  0 
1700491532.238339000  -0.825186  -0.0994573  0.839604  0  0  -0.0366499  0.36783  -0.176525  -0.324985  0  0  0  0.231926  0  -0.144529  0  0  0  0  0  0  0  0  0 
1700491532.243340000  -0.823344  -0.10034  0.837977  0  0  -0.0369542  0.369037  -0.176525  -0.325745  0  0  0  0.250953  0  -0.159628  0  0  0  0  0  0  0  0  0 
1700491532.248339000  -0.821496  -0.101223  0.836346  0  0  -0.0372585  0.370341  -0.176525  -0.326583  0  0  0  0.27073  0  -0.175477  0  0  0  0  0  0  0  0  0 
1700491532.253331000  -0.81964  -0.102105  0.834711  0  0  -0.0375628  0.371745  -0.176525  -0.327501  0  0  0  0.291256  0  -0.192076  0  0  0  0  0  0  0  0  0 
1700491532.258333000  -0.817778  -0.102988  0.833071  0  0  -0.0378671  0.373255  -0.176525  -0.328505  0  0  0  0.312533  0  -0.209425  0  0  0  0  0  0  0  0  0 
1700491532.263343000  -0.815908  -0.10387  0.831426  0  0  -0.0381714  0.374872  -0.176525  -0.329597  0  0  0  0.33456  0  -0.227443  0  0  0  0  0  0  0  0  0 
1700491532.268325000  -0.814029  -0.104753  0.829775  0  0  -0.0384757  0.376601  -0.176525  -0.330778  0  0  0  0.357337  0  -0.245049  0  0  0  0  0  0  0  0  0 
1700491532.273326000  -0.812142  -0.105636  0.828118  0  0  -0.03878  0.378447  -0.176525  -0.332046  0  0  0  0.380863  0  -0.261905  0  0  0  0  0  0  0  0  0 
1700491532.278323000  -0.810244  -0.106518  0.826454  0  0  -0.0390843  0.380411  -0.176525  -0.333396  0  0  0  0.40514  0  -0.278011  0  0  0  0  0  0  0  0  0 
1700491532.283317000  -0.808337  -0.107401  0.824784  0  0  -0.0393886  0.382499  -0.176525  -0.334825  0  0  0  0.430167  0  -0.293368  0  0  0  0  0  0  0  0  0 
1700491532.288343000  -0.806419  -0.108283  0.823106  0  0  -0.0396929  0.384714  -0.176525  -0.336328  0  0  0  0.455944  0  -0.307974  0  0  0  0  0  0  0  0  0 
1700491532.293331000  -0.80449  -0.109166  0.821421  0  0  -0.0399972  0.38706  -0.176525  -0.337903  0  0  0  0.482471  0  -0.32183  0  0  0  0  0  0  0  0  0 
1700491532.298323000  -0.802548  -0.110049  0.819727  0  0  -0.0403015  0.38954  -0.176525  -0.339545  0  0  0  0.509747  0  -0.334936  0  0  0  0  0  0  0  0  0 
1700491532.303337000  -0.800594  -0.110931  0.818025  0  0  -0.0406058  0.392159  -0.176525  -0.341251  0  0  0  0.537774  0  -0.347293  0  0  0  0  0  0  0  0  0 
1700491532.308317000  -0.798627  -0.111814  0.816314  0  0  -0.0409101  0.394919  -0.176525  -0.343017  0  0  0  0.566551  0  -0.358899  0  0  0  0  0  0  0  0  0 
1700491532.313323000  -0.796645  -0.112697  0.814595  0  0  -0.0412144  0.397825  -0.176525  -0.344839  0  0  0  0.596078  0  -0.369755  0  0  0  0  0  0  0  0  0 
1700491532.318325000  -0.794648  -0.113579  0.812866  0  0  -0.0415187  0.400881  -0.176525  -0.346713  0  0  0  0.626355  0  -0.379861  0  0  0  0  0  0  0  0  0 
1700491532.323326000  -0.792636  -0.114462  0.811128  0  0  -0.0418229  0.40409  -0.176525  -0.348636  0  0  0  0.657381  0  -0.389217  0  0  0  0  0  0  0  0  0 
1700491532.328323000  -0.790607  -0.115344  0.809379  0  0  -0.0421272  0.407456  -0.176525  -0.350604  0  0  0  0.689158  0  -0.397824  0  0  0  0  0  0  0  0  0 
1700491532.333328000  -0.788561  -0.116227  0.807621  0  0  -0.0424315  0.410983  -0.176525  -0.352613  0  0  0  0.721685  0  -0.40568  0  0  0  0  0  0  0  0  0 
1700491532.338322000  -0.786497  -0.11711  0.805853  0  0  -0.0427358  0.414674  -0.176525  -0.35466  0  0  0  0.754945  0  -0.412786  0  0  0  0  0  0  0  0  0 
1700491532.343321000  -0.784414  -0.117992  0.804075  0  0  -0.0430401  0.418532  -0.176525  -0.35674  0  0  0  0.788001  0  -0.419142  0  0  0  0  0  0  0  0  0 
1700491532.348323000  -0.782311  -0.118875  0.802286  0  0  -0.0433444  0.422553  -0.176525  -0.35885  0  0  0  0.820306  0  -0.424749  0  0  0  0  0  0  0  0  0 
1700491532.353331000  -0.780188  -0.119758  0.800486  0  0  -0.0436487  0.426734  -0.176525  -0.360986  0  0  0  0.851861  0  -0.429605  0  0  0  0  0  0  0  0  0 
1700491532.358317000  -0.778044  -0.12064  0.798676  0  0  -0.043953  0.43107  -0.176525  -0.363145  0  0  0  0.882666  0  -0.433711  0  0  0  0  0  0  0  0  0 
1700491532.363321000  -0.775877  -0.121523  0.796855  0  0  -0.0442573  0.435559  -0.176525  -0.365322  0  0  0  0.912722  0  -0.437067  0  0  0  0  0  0  0  0  0 
1700491532.368331000  -0.773688  -0.122405  0.795023  0  0  -0.0445616  0.440196  -0.176525  -0.367514  0  0  0  0.942027  0  -0.439674  0  0  0  0  0  0  0  0  0 
1700491532.373341000  -0.771475  -0.123288  0.79318  0  0  -0.0448659  0.444978  -0.176525  -0.369718  0  0  0  0.970582  0  -0.44153  0  0  0  0  0  0  0  0  0 
1700491532.378336000  -0.769238  -0.124171  0.791325  0  0  -0.0451702  0.449901  -0.176525  -0.371928  0  0  0  0.998387  0  -0.442636  0  0  0  0  0  0  0  0  0 
1700491532.383341000  -0.766976  -0.125053  0.78946  0  0  -0.0454745  0.454961  -0.176525  -0.374143  0  0  0  1.02544  0  -0.442992  0  0  0  0  0  0  0  0  0 
1700491532.388334000  -0.764688  -0.125936  0.787584  0  0  -0.0457788  0.460154  -0.176525  -0.376357  0  0  0  1.05175  0  -0.442598  0  0  0  0  0  0  0  0  0 
1700491532.393335000  -0.762374  -0.126819  0.785697  0  0  -0.0460831  0.465477  -0.176525  -0.378567  0  0  0  1.0773  8.59e-05  -0.441455  0  0  0  0  0  0  0  0  0 
1700491532.398319000  -0.760033  -0.127701  0.783798  0  0  -0.0463874  0.470926  -0.176523  -0.38077  0  0  0  1.10211  0.00082  -0.439561  0  0  0  0  0  0  0  0  0 
1700491532.403341000  -0.757664  -0.128584  0.781889  0  0  -0.0466917  0.476497  -0.176515  -0.382962  0  0  0  1.12616  0.002304  -0.436917  0  0  0  0  0  0  0  0  0 
1700491532.408324000  -0.755268  -0.129466  0.779969  0  0  -0.046996  0.482186  -0.176498  -0.385138  0  0  0  1.14947  0.0045381  -0.433523  0  0  0  0  0  0  0  0  0 
1700491532.413327000  -0.752842  -0.130349  0.778038  0  0  -0.0473003  0.48799  -0.176468  -0.387296  0  0  0  1.17202  0.0075221  -0.42938  0  0  0  0  0  0  0  0  0 
1700491532.418341000  -0.750388  -0.131231  0.776096  0  0  -0.0476046  0.493905  -0.176422  -0.389431  0  0  0  1.19383  0.0112562  -0.424486  0  0  0  0  0  0  0  0  0 
1700491532.423339000  -0.747903  -0.132113  0.774143  0  0  -0.0479089  0.499927  -0.176355  -0.391539  0  0  0  1.21488  0.0157402  -0.418842  0  0  0  0  0  0  0  0  0 
1700491532.428344000  -0.745388  -0.132994  0.772181  0  0  -0.0482132  0.506053  -0.176263  -0.393618  0  0  0  1.23519  0.0209743  -0.412448  0  0  0  0  0  0  0  0  0 
1700491532.433333000  -0.742842  -0.133876  0.770207  0  0  -0.0485175  0.512278  -0.176144  -0.395663  0  0  0  1.25475  0.0269583  -0.405305  0  0  0  0  0  0  0  0  0 
1700491532.438323000  -0.740265  -0.134756  0.768224  0  0  -0.0488218  0.518599  -0.175992  -0.39767  0  0  0  1.27355  0.0336924  -0.397411  0  0  0  0  0  0  0  0  0 
1700491532.443341000  -0.737656  -0.135635  0.766231  0  0  -0.0491261  0.525012  -0.175806  -0.399635  0  0  0  1.29161  0.0411764  -0.388767  0  0  0  0  0  0  0  0  0 
1700491532.448331000  -0.735015  -0.136514  0.764228  0  0  -0.0494304  0.531514  -0.175579  -0.401556  0  0  0  1.30891  0.0494105  -0.379373  0  0  0  0  0  0  0  0  0 
1700491532.453335000  -0.732341  -0.137391  0.762215  0  0  -0.0497347  0.5381  -0.17531  -0.403428  0  0  0  1.32547  0.0583945  -0.369229  0  0  0  0  0  0  0  0  0 
1700491532.458331000  -0.729634  -0.138267  0.760194  0  0  -0.050039  0.544767  -0.174994  -0.405247  0  0  0  1.34127  0.0681286  -0.358336  0  0  0  0  0  0  0  0  0 
1700491532.463338000  -0.726893  -0.139141  0.758163  0  0  -0.0503433  0.551512  -0.174628  -0.40701  0  0  0  1.35633  0.0786126  -0.346692  0  0  0  0  0  0  0  0  0 
1700491532.468328000  -0.724119  -0.140013  0.756124  0  0  -0.0506475  0.558329  -0.174207  -0.408713  0  0  0  1.37063  0.0898466  -0.334298  0  0  0  0  0  0  0  0  0 
1700491532.473330000  -0.72131  -0.140883  0.754076  0  0  -0.0509518  0.565217  -0.173728  -0.410352  0  0  0  1.38419  0.101831  -0.321154  0  0  0  0  0  0  0  0  0 
1700491532.478330000  -0.718466  -0.14175  0.75202  0  0  -0.0512561  0.57217  -0.173187  -0.411923  0  0  0  1.39699  0.114565  -0.307261  0  0  0  0  0  0  0  0  0 
1700491532.483328000  -0.715588  -0.142615  0.749957  0  0  -0.0515604  0.579185  -0.172581  -0.413423  0  0  0  1.40905  0.128049  -0.292617  0  0  0  0  0  0  0  0  0 
1700491532.488324000  -0.712674  -0.143476  0.747886  0  0  -0.0518647  0.586259  -0.171905  -0.414848  0  0  0  1.42035  0.142283  -0.277223  0  0  0  0  0  0  0  0  0 
1700491532.493329000  -0.709725  -0.144334  0.745808  0  0  -0.052169  0.593388  -0.171157  -0.416194  0  0  0  1.43091  0.157267  -0.261079  0  0  0  0  0  0  0  0  0 
1700491532.498315000  -0.70674  -0.145187  0.743724  0  0  -0.0524733  0.600567  -0.170332  -0.417458  0  0  0  1.44071  0.173001  -0.244186  0  0  0  0  0  0  0  0  0 
1700491532.503321000  -0.70372  -0.146037  0.741634  0  0  -0.0527776  0.607794  -0.169426  -0.418635  0  0  0  1.44977  0.189485  -0.226542  0  0  0  0  0  0  0  0  0 
1700491532.508320000  -0.700662  -0.146882  0.739538  0  0  -0.0530819  0.615063  -0.168435  -0.419722  0  0  0  1.45807  0.206719  -0.208148  0  0  0  0  0  0  0  0  0 
1700491532.513317000  -0.697569  -0.147721  0.737437  0  0  -0.0533862  0.622373  -0.167357  -0.420715  0  0  0  1.46563  0.224703  -0.189004  0  0  0  0  0  0  0  0  0 
1700491532.518314000  -0.694439  -0.148555  0.735331  0  0  -0.0536905  0.629719  -0.166187  -0.42161  0  0  0  1.47243  0.243437  -0.16911  0  0  0  0  0  0  0  0  0 
1700491532.523320000  -0.691272  -0.149383  0.733221  0  0  -0.0539948  0.637096  -0.164922  -0.422405  0  0  0  1.47849  0.262921  -0.148467  0  0  0  0  0  0  0  0  0 
1700491532.528324000  -0.688068  -0.150204  0.731107  0  0  -0.0542991  0.644502  -0.163557  -0.423094  0  0  0  1.4838  0.283155  -0.127073  0  0  0  0  0  0  0  0  0 
1700491532.533326000  -0.684827  -0.151018  0.72899  0  0  -0.0546034  0.651933  -0.162089  -0.423674  0  0  0  1.48835  0.304139  -0.104929  0  0  0  0  0  0  0  0  0 
1700491532.538330000  -0.681548  -0.151825  0.726871  0  0  -0.0549077  0.659384  -0.160514  -0.424142  0  0  0  1.49216  0.325873  -0.0820354  0  0  0  0  0  0  0  0  0 
1700491532.543329000  -0.678233  -0.152623  0.724749  0  0  -0.055212  0.666853  -0.158829  -0.424493  0  0  0  1.49521  0.348357  -0.0583916  0  0  0  0  0  0  0  0  0 
1700491532.548326000  -0.67488  -0.153413  0.722626  0  0  -0.0555163  0.674335  -0.157029  -0.424725  0  0  0  1.49752  0.371591  -0.0339979  0  0  0  0  0  0  0  0  0 
1700491532.553327000  -0.671489  -0.154193  0.720502  0  0  -0.0558206  0.681827  -0.155112  -0.424832  0  0  0  1.49907  0.395575  -0.0088541  0  0  0  0  0  0  0  0  0 
1700491532.558325000  -0.668061  -0.154964  0.718378  0  0  -0.0561249  0.689325  -0.153072  -0.424812  0  0  0  1.49988  0.420117  0.0170397  0  0  0  0  0  0  0  0  0 
1700491532.563328000  -0.664596  -0.155724  0.716254  0  0  -0.0564292  0.696825  -0.150912  -0.42466  0  0  0  1.5  0.444092  0.0436835  0  0  0  0  0  0  0  0  0 
1700491532.568345000  -0.661093  -0.156473  0.714131  0  0  -0.0567335  0.704325  -0.148633  -0.424374  0  0  0  1.5  0.467316  0.0710772  0  0  0  0  0  0  0  0  0 
1700491532.573334000  -0.657553  -0.15721  0.71201  0  0  -0.0570378  0.711825  -0.14624  -0.423948  0  0  0  1.5  0.48979  0.099221  0  0  0  0  0  0  0  0  0 
1700491532.578330000  -0.653975  -0.157935  0.709892  0  0  -0.0573421  0.719325  -0.143736  -0.42338  0  0  0  1.5  0.511515  0.128115  0  0  0  0  0  0  0  0  0 
1700491532.583329000  -0.65036  -0.158647  0.707777  0  0  -0.0576464  0.726825  -0.141126  -0.422666  0  0  0  1.5  0.532489  0.157759  0  0  0  0  0  0  0  0  0 
1700491532.588332000  -0.646707  -0.159346  0.705666  0  0  -0.0579507  0.734325  -0.138412  -0.421802  0  0  0  1.5  0.552714  0.188152  0  0  0  0  0  0  0  0  0 
1700491532.593335000  -0.643016  -0.160031  0.703559  0  0  -0.058255  0.741825  -0.1356  -0.420783  0  0  0  1.5  0.572188  0.219296  0  0  0  0  0  0  0  0  0 
1700491532.598315000  -0.639288  -0.160702  0.701458  0  0  -0.0585593  0.749325  -0.132692  -0.419607  0  0  0  1.5  0.590913  0.25119  0  0  0  0  0  0  0  0  0 
1700491532.603331000  -0.635523  -0.161358  0.699363  0  0  -0.0588636  0.756825  -0.129692  -0.41827  0  0  0  1.5  0.608887  0.283834  0  0  0  0  0  0  0  0  0 
1700491532.608328000  -0.63172  -0.161999  0.697276  0  0  -0.0591679  0.764325  -0.126604  -0.416768  0  0  0  1.5  0.626112  0.317227  0  0  0  0  0  0  0  0  0 
1700491532.613326000  -0.62788  -0.162624  0.695196  0  0  -0.0594721  0.771825  -0.123432  -0.415097  0  0  0  1.5  0.642586  0.351371  0  0  0  0  0  0  0  0  0 
1700491532.618327000  -0.624002  -0.163233  0.693125  0  0  -0.0597764  0.779325  -0.12018  -0.413253  0  0  0  1.5  0.65831  0.386265  0  0  0  0  0  0  0  0  0 
1700491532.623330000  -0.620087  -0.163825  0.691064  0  0  -0.0600807  0.786825  -0.11685  -0.411233  0  0  0  1.5  0.673285  0.421909  0  0  0  0  0  0  0  0  0 
1700491532.628335000  -0.616134  -0.164401  0.689013  0  0  -0.060385  0.794325  -0.113448  -0.409032  0  0  0  1.5  0.687509  0.458302  0  0  0  0  0  0  0  0  0 
1700491532.633330000  -0.612143  -0.16496  0.686974  0  0  -0.0606893  0.801825  -0.109976  -0.406648  0  0  0  1.5  0.700984  0.495446  0  0  0  0  0  0  0  0  0 
1700491532.638329000  -0.608115  -0.165501  0.684947  0  0  -0.0609936  0.809325  -0.106439  -0.404077  0  0  0  1.5  0.713708  0.533328  0  0  0  0  0  0  0  0  0 
1700491532.643335000  -0.60405  -0.166024  0.682933  0  0  -0.0612979  0.816825  -0.102841  -0.401316  0  0  0  1.5  0.725683  0.571032  0  0  0  0  0  0  0  0  0 
1700491532.648328000  -0.599947  -0.166529  0.680934  0  0  -0.0616022  0.824325  -0.0991838  -0.398368  0  0  0  1.5  0.736907  0.607986  0  0  0  0  0  0  0  0  0 
1700491532.653328000  -0.595807  -0.167016  0.67895  0  0  -0.0619065  0.831825  -0.0954728  -0.395237  0  0  0  1.5  0.747382  0.64419  0  0  0  0  0  0  0  0  0 
1700491532.658335000  -0.591629  -0.167484  0.676982  0  0  -0.0622107  0.839325  -0.0917113  -0.391927  0  0  0  1.5  0.757106  0.679644  0  0  0  0  0  0  0  0  0 
1700491532.663327000  -0.587414  -0.167933  0.675031  0  0  -0.0625149  0.846825  -0.087903  -0.388442  0  0  0  1.5  0.76608  0.714348  0  0  0  0  0  0  0  0  0 
1700491532.668339000  -0.583161  -0.168363  0.673098  0  0  -0.0628189  0.854325  -0.0840517  -0.384785  0  0  0  1.5  0.774305  0.748302  0  0  0  0  0  0  0  0  0 
1700491532.673330000  -0.57887  -0.168773  0.671183  0  0  -0.0631227  0.861825  -0.0801612  -0.38096  0  0  0  1.5  0.781779  0.781506  0  0  0  0  0  0  0  0  0 
1700491532.678338000  -0.574543  -0.169164  0.669288  0  0  -0.0634263  0.869325  -0.0762352  -0.376971  0  0  0  1.5  0.788504  0.81396  0  0  0  0  0  0  0  0  0 
1700491532.683324000  -0.570177  -0.169536  0.667414  0  0  -0.0637296  0.876825  -0.0722774  -0.372822  0  0  0  1.5  0.794478  0.845664  0  0  0  0  0  0  0  0  0 
1700491532.688324000  -0.565774  -0.169887  0.665561  0  0  -0.0640324  0.884325  -0.0682916  -0.368516  0  0  0  1.5  0.799703  0.876618  0  0  0  0  0  0  0  0  0 
1700491532.693324000  -0.561334  -0.170218  0.663729  0  0  -0.0643348  0.891825  -0.0642816  -0.364057  0  0  0  1.5  0.804177  0.906822  0  0  0  0  0  0  0  0  0 
1700491532.698325000  -0.556856  -0.17053  0.66192  0  0  -0.0646366  0.899325  -0.0602511  -0.359449  0  0  0  1.5  0.807901  0.936276  0  0  0  0  0  0  0  0  0 
1700491532.703334000  -0.552341  -0.170821  0.660135  0  0  -0.0649376  0.906825  -0.0562039  -0.354695  0  0  0  1.5  0.810876  0.96498  0  0  0  0  0  0  0  0  0 
1700491532.708322000  -0.547788  -0.171092  0.658373  0  0  -0.0652378  0.914325  -0.0521436  -0.3498  0  0  0  1.5  0.8131  0.992934  0  0  0  0  0  0  0  0  0 
1700491532.713321000  -0.543197  -0.171342  0.656637  0  0  -0.065537  0.921825  -0.0480741  -0.344767  0  0  0  1.5  0.814575  1.02014  0  0  0  0  0  0  0  0  0 
1700491532.718321000  -0.53857  -0.171572  0.654926  0  0  -0.0658351  0.929325  -0.0439991  -0.3396  0  0  0  1.5  0.815299  1.04659  0  0  0  0  0  0  0  0  0 
1700491532.723336000  -0.533904  -0.171782  0.653241  0  0  -0.0661319  0.936825  -0.0399224  -0.334302  0  0  0  1.5  0.815274  1.0723  0  0  0  0  0  0  0  0  0 
1700491532.728337000  -0.529201  -0.171972  0.651583  0  0  -0.0664273  0.944325  -0.0358476  -0.328878  0  0  0  1.5  0.814498  1.09725  0  0  0  0  0  0  0  0  0 
1700491532.733340000  -0.524461  -0.172141  0.649953  0  0  -0.0667211  0.951825  -0.0317786  -0.323331  0  0  0  1.5  0.812973  1.12145  0  0  0  0  0  0  0  0  0 
1700491532.738327000  -0.519683  -0.17229  0.64835  0  0  -0.067013  0.959325  -0.0277191  -0.317665  0  0  0  1.5  0.810697  1.14491  0  0  0  0  0  0  0  0  0 
1700491532.743333000  -0.514868  -0.172418  0.646776  0  0  -0.067303  0.966825  -0.0236729  -0.311883  0  0  0  1.5  0.807671  1.16761  0  0  0  0  0  0  0  0  0 
1700491532.748327000  -0.510015  -0.172526  0.645231  0  0  -0.0675907  0.974325  -0.0196437  -0.30599  0  0  0  1.5  0.803896  1.18957  0  0  0  0  0  0  0  0  0 
1700491532.753329000  -0.505124  -0.172614  0.643716  0  0  -0.067876  0.981825  -0.0156352  -0.299989  0  0  0  1.5  0.79937  1.21077  0  0  0  0  0  0  0  0  0 
1700491532.758326000  -0.500197  -0.172683  0.642232  0  0  -0.0681587  0.989325  -0.0116512  -0.293884  0  0  0  1.5  0.794095  1.23122  0  0  0  0  0  0  0  0  0 
1700491532.763332000  -0.495231  -0.172731  0.640778  0  0  -0.0684385  0.996825  -0.0076955  -0.287678  0  0  0  1.5  0.788069  1.25093  0  0  0  0  0  0  0  0  0 
1700491532.768327000  -0.490228  -0.17276  0.639355  0  0  -0.0687152  1.00432  -0.0037718  -0.281376  0  0  0  1.5  0.781294  1.26988  0  0  0  0  0  0  0  0  0 
1700491532.773325000  -0.485188  -0.172769  0.637964  0  0  -0.0689885  1.01182  0.0001162  -0.27498  0  0  0  1.5  0.773768  1.28809  0  0  0  0  0  0  0  0  0 
1700491532.778328000  -0.48011  -0.172759  0.636605  0  0  -0.0692582  1.01932  0.0039646  -0.268496  0  0  0  1.5  0.765492  1.30554  0  0  0  0  0  0  0  0  0 
1700491532.783329000  -0.474995  -0.172729  0.635279  0  0  -0.0695241  1.02682  0.0077699  -0.261926  0  0  0  1.5  0.756467  1.32224  0  0  0  0  0  0  0  0  0 
1700491532.788329000  -0.469842  -0.172681  0.633986  0  0  -0.0697859  1.03432  0.0115281  -0.255275  0  0  0  1.5  0.746691  1.3382  0  0  0  0  0  0  0  0  0 
1700491532.793328000  -0.464651  -0.172614  0.632727  0  0  -0.0700435  1.04182  0.0152355  -0.248546  0  0  0  1.5  0.736166  1.3534  0  0  0  0  0  0  0  0  0 
1700491532.798327000  -0.459424  -0.172529  0.631501  0  0  -0.0702967  1.04932  0.0188885  -0.241742  0  0  0  1.5  0.72489  1.36786  0  0  0  0  0  0  0  0  0 
1700491532.803328000  -0.454158  -0.172425  0.630309  0  0  -0.0705452  1.05682  0.0224832  -0.234868  0  0  0  1.5  0.712865  1.38156  0  0  0  0  0  0  0  0  0 
1700491532.808340000  -0.448855  -0.172304  0.629152  0  0  -0.0707889  1.06432  0.0260159  -0.227928  0  0  0  1.5  0.700192  1.39451  0  0  0  0  0  0  0  0  0 
1700491532.813332000  -0.443515  -0.172165  0.62803  0  0  -0.0710277  1.07182  0.029486  -0.220924  0  0  0  1.5  0.687973  1.40672  0  0  0  0  0  0  0  0  0 
1700491532.818331000  -0.438137  -0.172009  0.626943  0  0  -0.0712613  1.07932  0.0328969  -0.213862  0  0  0  1.5  0.676504  1.41817  0  0  0  0  0  0  0  0  0 
1700491532.823328000  -0.432722  -0.171836  0.625892  0  0  -0.0714897  1.08682  0.0362523  -0.206744  0  0  0  1.5  0.665784  1.42887  0  0  0  0  0  0  0  0  0 
1700491532.828326000  -0.427269  -0.171647  0.624876  0  0  -0.0717126  1.09432  0.039556  -0.199574  0  0  0  1.5  0.655815  1.43883  0  0  0  0  0  0  0  0  0 
1700491532.833324000  -0.421778  -0.171441  0.623896  0  0  -0.07193  1.10182  0.0428117  -0.192357  0  0  0  1.5  0.646596  1.44803  0  0  0  0  0  0  0  0  0 
1700491532.838323000  -0.416251  -0.171219  0.622952  0  0  -0.0721418  1.10932  0.0460232  -0.185095  0  0  0  1.5  0.638126  1.45649  0  0  0  0  0  0  0  0  0 
1700491532.843334000  -0.410685  -0.170981  0.622045  0  0  -0.0723479  1.11682  0.0491942  -0.177793  0  0  0  1.5  0.630407  1.46419  0  0  0  0  0  0  0  0  0 
1700491532.848325000  -0.405082  -0.170727  0.621175  0  0  -0.0725481  1.12432  0.0523285  -0.170455  0  0  0  1.5  0.623438  1.47114  0  0  0  0  0  0  0  0  0 
1700491532.853321000  -0.399442  -0.170457  0.620341  0  0  -0.0727423  1.13182  0.0554299  -0.163083  0  0  0  1.5  0.617218  1.47735  0  0  0  0  0  0  0  0  0 
1700491532.858320000  -0.393764  -0.170173  0.619544  0  0  -0.0729306  1.13932  0.058502  -0.155682  0  0  0  1.5  0.611749  1.4828  0  0  0  0  0  0  0  0  0 
1700491532.863341000  -0.388049  -0.169872  0.618784  0  0  -0.0731128  1.14682  0.0615486  -0.148256  0  0  0  1.5  0.60703  1.48751  0  0  0  0  0  0  0  0  0 
1700491532.868337000  -0.382296  -0.169557  0.618061  0  0  -0.0732889  1.15432  0.0645735  -0.140809  0  0  0  1.5  0.60306  1.49146  0  0  0  0  0  0  0  0  0 
1700491532.873335000  -0.376505  -0.169227  0.617376  0  0  -0.0734588  1.16182  0.0675805  -0.133343  0  0  0  1.49991  0.599841  1.49466  0  0  0  0  0  0  0  0  0 
1700491532.878322000  -0.370678  -0.168881  0.616728  0  0  -0.0736225  1.16932  0.0705732  -0.125863  0  0  0  1.49918  0.597372  1.49712  0  0  0  0  0  0  0  0  0 
1700491532.883324000  -0.364812  -0.168521  0.616117  0  0  -0.0737799  1.17682  0.0735554  -0.118373  0  0  0  1.49778  0.595653  1.49882  0  0  0  0  0  0  0  0  0 
1700491532.888317000  -0.358909  -0.168146  0.615544  0  0  -0.0739312  1.1843  0.0765309  -0.110876  0  0  0  1.49682  0.594683  1.49978  0  0  0  0  0  0  0  0  0 
1700491532.893316000  -0.354192  -0.167913  0.615149  0  0  -0.0741271  1.19025  0.0788061  -0.10506  0  0  0  1.49658  0.594448  1.5  0  0  0  0  0  0  0  0  0 
1700491532.898316000  -0.348222  -0.167511  0.614642  0  0  -0.0742675  1.19773  0.0817778  -0.097561  0  0  0  1.49621  0.594073  1.49962  0  0  0  0  0  0  0  0  0 
1700491532.903317000  -0.342215  -0.167095  0.614173  0  0  -0.0744016  1.20521  0.0847456  -0.0900654  0  0  0  1.49508  0.592948  1.4985  0  0  0  0  0  0  0  0  0 
1700491532.908351000  -0.33617  -0.166664  0.613741  0  0  -0.0745295  1.21268  0.087706  -0.0825773  0  0  0  1.49321  0.591073  1.49662  0  0  0  0  0  0  0  0  0 
1700491532.913328000  -0.330088  -0.166218  0.613347  0  0  -0.0746511  1.22014  0.0906551  -0.0751004  0  0  0  1.49058  0.588448  1.494  0  0  0  0  0  0  0  0  0 
1700491532.918340000  -0.323969  -0.165757  0.61299  0  0  -0.0747665  1.22759  0.0935892  -0.0676385  0  0  0  1.48721  0.585073  1.49062  0  0  0  0  0  0  0  0  0 
1700491532.923337000  -0.317812  -0.165282  0.612671  0  0  -0.0748756  1.23501  0.0965046  -0.0601954  0  0  0  1.48308  0.580948  1.4865  0  0  0  0  0  0  0  0  0 
1700491532.928341000  -0.311619  -0.164792  0.612388  0  0  -0.0749786  1.24241  0.0993974  -0.0527748  0  0  0  1.47821  0.576073  1.48162  0  0  0  0  0  0  0  0  0 
1700491532.933344000  -0.305388  -0.164288  0.612143  0  0  -0.0750753  1.24979  0.102264  -0.0453804  0  0  0  1.47258  0.570448  1.476  0  0  0  0  0  0  0  0  0 
1700491532.938336000  -0.299121  -0.16377  0.611934  0  0  -0.075166  1.25714  0.105101  -0.038016  0  0  0  1.46621  0.564073  1.46962  0  0  0  0  0  0  0  0  0 
1700491532.943339000  -0.292817  -0.163237  0.611763  0  0  -0.0752506  1.26445  0.107904  -0.0306854  0  0  0  1.45908  0.556948  1.4625  0  0  0  0  0  0  0  0  0 
1700491532.948323000  -0.286477  -0.162691  0.611628  0  0  -0.0753293  1.27173  0.110669  -0.0233923  0  0  0  1.45121  0.549073  1.45462  0  0  0  0  0  0  0  0  0 
1700491532.953322000  -0.2801  -0.162131  0.611529  0  0  -0.075402  1.27896  0.113393  -0.0161404  0  0  0  1.44258  0.540448  1.446  0  0  0  0  0  0  0  0  0 
1700491532.958322000  -0.273687  -0.161557  0.611466  0  0  -0.0754689  1.28615  0.116072  -0.0089335  0  0  0  1.43321  0.531073  1.43662  0  0  0  0  0  0  0  0  0 
1700491532.963324000  -0.267238  -0.16097  0.611439  0  0  -0.07553  1.29329  0.118702  -0.0017754  0  0  0  1.42308  0.520948  1.4265  0  0  0  0  0  0  0  0  0 
1700491532.968321000  -0.260754  -0.16037  0.611448  0  0  -0.0755855  1.30038  0.12128  0.0053302  0  0  0  1.41221  0.510073  1.41562  0  0  0  0  0  0  0  0  0 
1700491532.973322000  -0.254235  -0.159757  0.611493  0  0  -0.0756356  1.30742  0.123802  0.0123796  0  0  0  1.40058  0.498448  1.404  0  0  0  0  0  0  0  0  0 
1700491532.978318000  -0.24768  -0.159132  0.611572  0  0  -0.0756802  1.31439  0.126264  0.019369  0  0  0  1.38821  0.486073  1.39162  0  0  0  0  0  0  0  0  0 
1700491532.983328000  -0.241091  -0.158495  0.611686  0  0  -0.0757196  1.3213  0.128661  0.0262946  0  0  0  1.37508  0.472948  1.3785  0  0  0  0  0  0  0  0  0 
1700491532.988339000  -0.234467  -0.157846  0.611835  0  0  -0.0757539  1.32814  0.130992  0.0331527  0  0  0  1.36121  0.459073  1.36462  0  0  0  0  0  0  0  0  0 
1700491532.993339000  -0.22781  -0.157185  0.612017  0  0  -0.0757832  1.33491  0.133251  0.0399396  0  0  0  1.34658  0.444448  1.35  0  0  0  0  0  0  0  0  0 
1700491532.998327000  -0.221118  -0.156513  0.612234  0  0  -0.0758078  1.3416  0.135435  0.0466515  0  0  0  1.33121  0.429073  1.33462  0  0  0  0  0  0  0  0  0 
1700491533.003321000  -0.214394  -0.155831  0.612484  0  0  -0.0758278  1.34822  0.13754  0.0532846  0  0  0  1.31508  0.412948  1.3185  0  0  0  0  0  0  0  0  0 
1700491533.008314000  -0.207636  -0.155138  0.612767  0  0  -0.0758434  1.35475  0.139563  0.0598352  0  0  0  1.29821  0.396073  1.30162  0  0  0  0  0  0  0  0  0 
1700491533.013345000  -0.200846  -0.154435  0.613082  0  0  -0.0758547  1.3612  0.1415  0.0662996  0  0  0  1.28058  0.378448  1.284  0  0  0  0  0  0  0  0  0 
1700491533.018336000  -0.194024  -0.153723  0.61343  0  0  -0.0758621  1.36756  0.143346  0.072674  0  0  0  1.26221  0.360073  1.26562  0  0  0  0  0  0  0  0  0 
1700491533.023339000  -0.187171  -0.153002  0.613809  0  0  -0.0758656  1.37382  0.145099  0.0789546  0  0  0  1.24308  0.340948  1.2465  0  0  0  0  0  0  0  0  0 
1700491533.028325000  -0.180286  -0.152272  0.614219  0  0  -0.0758656  1.37999  0.146755  0.0851377  0  0  0  1.22321  0.321073  1.22662  0  0  0  0  0  0  0  0  0 
1700491533.033336000  -0.173371  -0.151534  0.61466  0  0  -0.0758623  1.38605  0.148309  0.0912196  0  0  0  1.20258  0.300448  1.206  0  0  0  0  0  0  0  0  0 
1700491533.038322000  -0.166426  -0.150789  0.615131  0  0  -0.0758559  1.39201  0.149758  0.0971965  0  0  0  1.18121  0.279073  1.18462  0  0  0  0  0  0  0  0  0 
1700491533.043333000  -0.159451  -0.150037  0.615632  0  0  -0.0758467  1.39786  0.151098  0.103065  0  0  0  1.15908  0.256948  1.1625  0  0  0  0  0  0  0  0  0 
1700491533.048338000  -0.152448  -0.149278  0.616161  0  0  -0.0758348  1.4036  0.152326  0.10882  0  0  0  1.13621  0.234073  1.13962  0  0  0  0  0  0  0  0  0 
1700491533.053325000  -0.145415  -0.148514  0.61672  0  0  -0.0758206  1.40922  0.153438  0.11446  0  0  0  1.11258  0.210448  1.116  0  0  0  0  0  0  0  0  0 
1700491533.058341000  -0.138356  -0.147744  0.617306  0  0  -0.0758042  1.41472  0.154429  0.119979  0  0  0  1.08821  0.186073  1.09162  0  0  0  0  0  0  0  0  0 
1700491533.063335000  -0.131268  -0.14697  0.617919  0  0  -0.0757858  1.4201  0.155297  0.125375  0  0  0  1.06308  0.160948  1.0665  0  0  0  0  0  0  0  0  0 
1700491533.068336000  -0.124155  -0.146192  0.618559  0  0  -0.0757657  1.42535  0.156038  0.130643  0  0  0  1.03721  0.135073  1.04062  0  0  0  0  0  0  0  0  0 
1700491533.073324000  -0.117015  -0.14541  0.619225  0  0  -0.0757439  1.43047  0.156647  0.13578  0  0  0  1.01058  0.108448  1.014  0  0  0  0  0  0  0  0  0 
1700491533.078335000  -0.10985  -0.144625  0.619917  0  0  -0.0757208  1.43546  0.157121  0.140781  0  0  0  0.983209  0.0810727  0.986625  0  0  0  0  0  0  0  0  0 
1700491533.083321000  -0.102661  -0.143839  0.620633  0  0  -0.0756964  1.4403  0.157456  0.145645  0  0  0  0.955084  0.0529477  0.9585  0  0  0  0  0  0  0  0  0 
1700491533.088332000  -0.0954474  -0.143051  0.621373  0  0  -0.0756709  1.44501  0.157649  0.150365  0  0  0  0.926209  0.0243992  0.929625  0  0  0  0  0  0  0  0  0 
1700491533.093316000  -0.0882109  -0.142263  0.622136  0  0  -0.0756444  1.44957  0.157701  0.15494  0  0  0  0.896584  -0.0034862  0.9  0  0  0  0  0  0  0  0  0 
1700491533.098319000  -0.080952  -0.141474  0.622922  0  0  -0.0756172  1.45397  0.157616  0.159364  0  0  0  0.866209  -0.0306217  0.869625  0  0  0  0  0  0  0  0  0 
1700491533.103325000  -0.0736715  -0.140687  0.62373  0  0  -0.0755892  1.45823  0.157396  0.163635  0  0  0  0.835084  -0.0570071  0.8385  0  0  0  0  0  0  0  0  0 
1700491533.108322000  -0.06637  -0.1399  0.624558  0  0  -0.0755606  1.46232  0.157047  0.167748  0  0  0  0.803209  -0.0826425  0.806625  0  0  0  0  0  0  0  0  0 
1700491533.113324000  -0.0590485  -0.139116  0.625407  0  0  -0.0755316  1.46626  0.156571  0.1717  0  0  0  0.770584  -0.107528  0.774  0  0  0  0  0  0  0  0  0 
1700491533.118328000  -0.0517077  -0.138335  0.626275  0  0  -0.0755021  1.47003  0.155973  0.175486  0  0  0  0.737209  -0.131663  0.740625  0  0  0  0  0  0  0  0  0 
1700491533.123335000  -0.0443485  -0.137557  0.627162  0  0  -0.0754724  1.47363  0.155256  0.179105  0  0  0  0.703084  -0.155049  0.7065  0  0  0  0  0  0  0  0  0 
1700491533.128322000  -0.0369717  -0.136783  0.628066  0  0  -0.0754424  1.47706  0.154424  0.18255  0  0  0  0.668209  -0.177684  0.671625  0  0  0  0  0  0  0  0  0 
1700491533.133320000  -0.0295782  -0.136013  0.628987  0  0  -0.0754123  1.48031  0.15348  0.18582  0  0  0  0.632584  -0.19957  0.636  0  0  0  0  0  0  0  0  0 
1700491533.138315000  -0.0221689  -0.135248  0.629924  0  0  -0.075382  1.48338  0.152429  0.188909  0  0  0  0.596209  -0.220705  0.599625  0  0  0  0  0  0  0  0  0 
1700491533.143341000  -0.0147447  -0.134489  0.630876  0  0  -0.0753517  1.48627  0.151274  0.191815  0  0  0  0.559084  -0.24109  0.5625  0  0  0  0  0  0  0  0  0 
1700491533.148337000  -0.0073066  -0.133735  0.631842  0  0  -0.0753213  1.48897  0.15002  0.194533  0  0  0  0.521209  -0.260726  0.524625  0  0  0  0  0  0  0  0  0 
1700491533.153333000  0.0001446  -0.132989  0.632821  0  0  -0.0752909  1.49148  0.148668  0.19706  0  0  0  0.482584  -0.279611  0.486  0  0  0  0  0  0  0  0  0 
1700491533.158332000  0.0076079  -0.132249  0.633812  0  0  -0.0752605  1.4938  0.147225  0.199391  0  0  0  0.443209  -0.297747  0.446628  0  0  0  0  0  0  0  0  0 
1700491533.163323000  0.0150823  -0.131516  0.634814  0  0  -0.0752301  1.49591  0.145692  0.201526  0  0  0  0.403084  -0.315132  0.407344  0  0  0  0  0  0  0  0  0 
1700491533.168339000  0.0225667  -0.130792  0.635827  0  0  -0.0751997  1.49782  0.144075  0.203466  0  0  0  0.362209  -0.331767  0.36881  0  0  0  0  0  0  0  0  0 
1700491533.173334000  0.0300602  -0.130076  0.636849  0  0  -0.0751693  1.49953  0.142376  0.205215  0  0  0  0.320584  -0.347653  0.331026  0  0  0  0  0  0  0  0  0 
1700491533.178334000  0.0375617  -0.129368  0.637879  0  0  -0.0751389  1.50103  0.140599  0.206778  0  0  0  0.278209  -0.362788  0.293992  0  0  0  0  0  0  0  0  0 
1700491533.183339000  0.0450701  -0.12867  0.638916  0  0  -0.0751085  1.50231  0.138749  0.208157  0  0  0  0.235084  -0.377174  0.257708  0  0  0  0  0  0  0  0  0 
