ts fx fy fz tx ty tz exfx exfy exfz extx exty extz xd yd zd rolld pitchd yawd vxd vyd vzd wxd wyd wzd axd ayd azd e_x e_y e_z e_vx e_vy e_vz e_rx e_ry e_rz e_wx e_wy e_wz
1700491531.290577000  0  0  13.3716  0.0163056  0.0303984  0.00974683  nan  nan  nan  nan  nan  nan  -1  0  1  -0.0183294  0.000839282  -1.53853e-05  0  0  0  0  0  0  0  0  0  0.000761662  -0.0189059  0.00488781  -0.00293976  0.0147816  0.00465594  0.00126118  -0.00493923  -0.0119957  -0.0442141  -0.0153559  -0.00187825 
1700491531.295415000  0  0  13.3653  0.0222748  0.0459913  0.00928603  nan  nan  nan  nan  nan  nan  -1  0  1  -0.0176853  0.000880348  -1.55708e-05  0  0  0  0  0  0  0  0  0  0.000758062  -0.0188812  0.0049403  -0.00299215  0.0156959  0.00505645  0.000365936  -0.00539467  -0.0119602  -0.0479162  -0.0423517  0.00352631 
1700491531.299408000  0  0  13.3761  0.00130957  0.0218907  0.00926986  nan  nan  nan  nan  nan  nan  -1  0  1  -0.0167227  0.0018486  -3.09165e-05  0  0  0  0  0  0  0  0  0  0.000733761  -0.0188115  0.004953  -0.00437846  0.0169503  0.00411247  -0.000250503  -0.00596772  -0.0119439  -0.000314501  0.0111216  0.00356561 
1700491531.305410000  0  0  13.3676  0.0179555  0.0470227  0.00859824  nan  nan  nan  nan  nan  nan  -1  0  1  -0.0178855  0.000950202  -1.69966e-05  0  0  0  0  0  0  0  0  0  0.000760096  -0.0188923  0.00502885  -0.00310067  0.0154189  0.00468788  0.000501554  -0.00556931  -0.0118438  -0.0405254  -0.0428078  0.0109595 
1700491531.310394000  0  0  13.3584  0.0165716  0.0512923  0.00856443  nan  nan  nan  nan  nan  nan  -1  0  1  -0.0173323  0.00143747  -2.49171e-05  0  0  0  0  0  0  0  0  0  0.000761788  -0.0189682  0.00511993  -0.00382681  0.0164267  0.00524542  -0.000139802  -0.00638357  -0.0118006  -0.031857  -0.0438558  0.0109503 
1700491531.315403000  0  0  13.3788  0.0115545  0.0170601  0.0081585  nan  nan  nan  nan  nan  nan  -1  0  1  -0.0169258  0.00196505  -3.32633e-05  0  0  0  0  0  0  0  0  0  0.000737478  -0.0188889  0.00513126  -0.00456042  0.0168154  0.00352036  -0.000530836  -0.00630475  -0.0116875  -0.0182254  0.0238835  0.0148937 
1700491531.320414000  0  0  13.359  0.0161092  0.0699222  0.00943524  nan  nan  nan  nan  nan  nan  -1  0  1  -0.0176019  0.00115757  -2.03775e-05  0  0  0  0  0  0  0  0  0  0.000748485  -0.0189157  0.00520028  -0.00338183  0.0159088  0.0050322  -7.10097e-05  -0.00657328  -0.011805  -0.0315652  -0.0793701  0.000109861 
1700491531.325412000  0  0  13.3901  0.0163773  0.0354124  0.00960222  nan  nan  nan  nan  nan  nan  -1  0  1  -0.0163429  0.00238524  -3.89852e-05  0  0  0  0  0  0  0  0  0  0.000715726  -0.0188246  0.00520252  -0.00513979  0.0175183  0.00241038  -0.00135177  -0.00742682  -0.0118235  -0.0203184  -0.00249816  -0.00179224 
1700491531.330410000  0  0  13.3828  0.0106311  0.0341584  0.00945617  nan  nan  nan  nan  nan  nan  -1  0  1  -0.0168035  0.00162331  -2.72798e-05  0  0  0  0  0  0  0  0  0  0.000721618  -0.0188567  0.00526027  -0.00401782  0.016918  0.00290847  -0.000906376  -0.00663198  -0.0118137  -0.0129235  -0.00730248  -6.50709e-05 
1700491531.335402000  0  0  13.3963  0.0165698  0.0688822  0.00972734  nan  nan  nan  nan  nan  nan  -1  0  1  -0.0163431  0.00136242  -2.22681e-05  0  0  0  0  0  0  0  0  0  0.000705452  -0.0187719  0.00526834  -0.00359593  0.0173896  0.00175283  -0.00148835  -0.00722806  -0.0118737  -0.0194467  -0.0712662  -0.00285518 
1700491531.340420000  0  0  13.4198  0.0209085  0.0011608  0.00968288  nan  nan  nan  nan  nan  nan  -1  0  1  -0.0160052  0.00245319  -3.92671e-05  0  0  0  0  0  0  0  0  0  0.000699973  -0.0187675  0.00530605  -0.00521398  0.0178408  -0.000287078  -0.0019948  -0.00716417  -0.0118518  -0.0234648  0.0635888  -0.00251831 
1700491531.345420000  0  0  13.3901  -0.00276594  0.0388545  0.0110416  nan  nan  nan  nan  nan  nan  -1  0  1  -0.0165887  0.000776974  -1.28902e-05  0  0  0  0  0  0  0  0  0  0.000744712  -0.0188229  0.00536325  -0.00281107  0.0171489  0.00208319  -0.00105018  -0.0060545  -0.0120367  0.0151936  -0.0220076  -0.0176536 
1700491531.349409000  0  0  13.4059  0.011319  0.0458921  0.0105624  nan  nan  nan  nan  nan  nan  -1  0  1  -0.0160685  0.000777489  -1.24941e-05  0  0  0  0  0  0  0  0  0  0.000731491  -0.0187525  0.00536066  -0.00278382  0.0177379  0.000757664  -0.00172426  -0.00634785  -0.0120473  -0.00677477  -0.033384  -0.0115568 
1700491531.355405000  0  0  13.4247  0.0205848  -0.0213777  0.0096157  nan  nan  nan  nan  nan  nan  -1  0  1  -0.0158823  0.00131281  -2.08522e-05  0  0  0  0  0  0  0  0  0  0.000727596  -0.018767  0.00539689  -0.00357538  0.0180145  -0.000877242  -0.00219697  -0.00543939  -0.0119541  -0.0209574  0.0927978  -0.000655289 
1700491531.360398000  0  0  13.4078  -0.00424651  0.049334  0.011168  nan  nan  nan  nan  nan  nan  -1  0  1  -0.0159003  -0.000244643  3.89023e-06  0  0  0  0  0  0  0  0  0  0.000759119  -0.0187351  0.00543944  -0.00132242  0.0179466  0.000444337  -0.00174448  -0.00502641  -0.0121695  0.0245422  -0.052425  -0.0179049 
1700491531.365422000  0  0  13.4382  0.0375566  -0.0116002  0.00947822  nan  nan  nan  nan  nan  nan  -1  0  1  -0.0150554  0.000865929  -1.30379e-05  0  0  0  0  0  0  0  0  0  0.000734428  -0.0186399  0.00542086  -0.00292519  0.0189425  -0.00207336  -0.00324005  -0.00513036  -0.012015  -0.0453047  0.0703997  0.00167197 
1700491531.370418000  0  0  13.4208  0.0156521  -0.027934  0.00880364  nan  nan  nan  nan  nan  nan  -1  0  1  -0.0146891  0.000119987  -1.76263e-06  0  0  0  0  0  0  0  0  0  0.000752751  -0.0186086  0.00546654  -0.00185173  0.0194484  -0.000716744  -0.00335822  -0.00365461  -0.0119026  -0.000408497  0.0894905  0.00898017 
1700491531.374557000  0  0  13.4137  0.00535588  0.0370122  0.00922411  nan  nan  nan  nan  nan  nan  -1  0  1  -0.0144682  -0.000345113  4.99351e-06  0  0  0  0  0  0  0  0  0  0.000749722  -0.0185308  0.00547032  -0.00115163  0.0196165  -0.000137655  -0.00327514  -0.00423913  -0.0119393  0.0194196  -0.0350244  0.00409194 
1700491531.380419000  0  0  13.4464  0.0492516  -0.0429493  0.00779851  nan  nan  nan  nan  nan  nan  -1  0  1  -0.0141679  0.000713183  -1.0105e-05  0  0  0  0  0  0  0  0  0  0.000762966  -0.0184912  0.00548482  -0.00276113  0.0199245  -0.00289807  -0.00438784  -0.0037453  -0.011699  -0.0581351  0.120355  0.0195082 
1700491531.385420000  0  0  13.4041  -0.0103748  0.0135476  0.00982084  nan  nan  nan  nan  nan  nan  -1  0  1  -0.0137596  -0.000665047  9.15137e-06  0  0  0  0  0  0  0  0  0  0.000795741  -0.0184647  0.00554711  -0.000777723  0.0205403  0.000494639  -0.00380108  -0.00297587  -0.0118512  0.0557195  0.000282786  -0.00424871 
1700491531.390438000  0  0  13.4151  0.00957971  0.0345304  0.00979889  nan  nan  nan  nan  nan  nan  -1  0  1  -0.0137416  -0.00012506  1.71864e-06  0  0  0  0  0  0  0  0  0  0.000782872  -0.0183685  0.00553865  -0.00155329  0.0203364  -0.000408  -0.00384054  -0.00404051  -0.0118901  0.0161735  -0.0318881  -0.00358548 
1700491531.395398000  0  0  13.4281  0.0319635  -0.0274582  0.00927785  nan  nan  nan  nan  nan  nan  -1  -0  1  -0.0133954  0.000595869  -7.98238e-06  6e-07  -6e-07  -6e-07  0  0  0  0.000375  -0.000375  -0.000375  0.000794849  -0.0183485  0.00557027  -0.00259793  0.0207311  -0.0016062  -0.00461346  -0.00343759  -0.0118072  -0.0214832  0.0865422  0.00209924 
1700491531.400391000  0  0  13.4029  -0.0420945  0.0601454  0.0111357  nan  nan  nan  nan  nan  nan  -1  -0  1  -0.0124009  -0.000511435  6.34255e-06  5e-06  -5e-06  -5e-06  0  0  0  0.0015  -0.0015  -0.0015  0.000800516  -0.0182395  0.0055831  -0.000787053  0.0218347  0.000322996  -0.0040437  -0.00383893  -0.0120431  0.121391  -0.0849727  -0.0187651 
1700491531.405386000  0  0  13.4096  0.0257423  0.0102858  0.00921806  nan  nan  nan  nan  nan  nan  -1  -1e-07  1  -0.0131161  0.000605289  -7.9395e-06  1.69e-05  -1.69e-05  -1.69e-05  0  0  0  0.003375  -0.003375  -0.003375  0.000845252  -0.0182648  0.0056134  -0.00226241  0.0205285  -0.000502806  -0.00415866  -0.00435462  -0.0118813  -0.0132248  0.0194908  0.00358746 
1700491531.410414000  0  0  13.3844  -0.00250654  0.000263025  0.00938346  nan  nan  nan  nan  nan  nan  -1  -2e-07  1  -0.0129689  0.000236167  -3.16299e-06  4e-05  -4e-05  -4e-05  0  0  0  0.006  -0.006  -0.006  0.000921338  -0.0184031  0.00570574  -0.001478  0.0206885  0.00109963  -0.00383988  -0.00357241  -0.0118562  0.0403399  0.0323401  0.00126913 
1700491531.415386000  0  0  13.3633  -0.0432903  0.071115  0.0111856  nan  nan  nan  nan  nan  nan  -1  -5e-07  1  -0.0122778  0.000138151  -1.99628e-06  7.81e-05  -7.81e-05  -7.81e-05  0  0  0  0.009375  -0.009375  -0.009375  0.000921427  -0.0183025  0.00572026  -0.000814228  0.0210035  0.00242504  -0.00330405  -0.00489098  -0.0121025  0.116978  -0.097233  -0.0187947 
1700491531.420406000  0  0  13.3679  0.0528299  -0.0148079  0.00903663  nan  nan  nan  nan  nan  nan  -0.999999  -1e-06  0.999999  -0.0121299  0.00174285  -2.16417e-05  0.000135  -0.000135  -0.000135  0  0  0  0.0135  -0.0135  -0.0135  0.000927115  -0.0182929  0.00576803  -0.00257771  0.0205626  0.00146313  -0.00485506  -0.0050545  -0.0118835  -0.0609933  0.0761171  0.00587686 
1700491531.424497000  0  0  13.3308  -0.0299975  0.0421164  0.0116353  nan  nan  nan  nan  nan  nan  -0.999998  -1.9e-06  0.999998  -0.0100488  0.00120994  -1.31588e-05  0.0002144  -0.0002144  -0.0002144  0  0  0  0.018375  -0.018375  -0.018375  0.000932526  -0.0181936  0.00579415  -0.00104505  0.0227263  0.00390814  -0.00545424  -0.00521747  -0.0121358  0.110174  -0.036232  -0.0240841 
1700491531.430496000  0  0  13.3294  0.0200561  0.0309361  0.0106335  nan  nan  nan  nan  nan  nan  -0.999997  -3.2e-06  0.999997  -0.0114783  0.0018316  -2.27246e-05  0.00032  -0.00032  -0.00032  0  0  0  0.024  -0.024  -0.024  0.00101499  -0.0183552  0.0058968  -0.00128582  0.0201068  0.00318571  -0.0042525  -0.00598722  -0.0121767  -0.000989226  -0.00678974  -0.0111516 
1700491531.434390000  0  0  13.3146  0.0668293  -0.0150227  0.0092671  nan  nan  nan  nan  nan  nan  -0.999995  -5.1e-06  0.999995  -0.0101571  0.00306012  -3.37828e-05  0.0004556  -0.0004556  -0.0004556  0  0  0  0.030375  -0.030375  -0.030375  0.00100458  -0.0182714  0.00591296  -0.00209911  0.0209157  0.00362367  -0.00637189  -0.00627122  -0.01203  -0.0750372  0.0877405  0.00446124 
1700491531.440526000  0  0  13.2761  -0.0452459  0.0874038  0.0120485  nan  nan  nan  nan  nan  nan  -0.999992  -7.8e-06  0.999992  -0.00911275  0.00245858  -2.66051e-05  0.000625  -0.000625  -0.000625  0  0  0  0.0375  -0.0375  -0.0375  0.00106675  -0.0183386  0.00601538  -0.000243449  0.0215555  0.00578153  -0.00510677  -0.0074296  -0.0123956  0.137474  -0.106455  -0.0266501 
1700491531.445391000  0  0  13.263  0.0514763  0.0233295  0.00934513  nan  nan  nan  nan  nan  nan  -0.999989  -1.14e-05  0.999989  -0.00928334  0.00416233  -4.47414e-05  0.0008319  -0.0008319  -0.0008319  0  0  0  0.045375  -0.045375  -0.045375  0.00107797  -0.0183297  0.00608159  -0.00156749  0.0200893  0.00582451  -0.00619476  -0.0082237  -0.0121736  -0.0459609  0.028999  0.00492184 
1700491531.450342000  0  0  13.2319  0.031911  0.029042  0.00960685  nan  nan  nan  nan  nan  nan  -0.999984  -1.62e-05  0.999984  -0.00664756  0.00511748  -4.26191e-05  0.00108  -0.00108  -0.00108  0  0  0  0.054  -0.054  -0.054  0.00107191  -0.018212  0.00612003  -0.00162059  0.0224114  0.0073015  -0.0085819  -0.00893292  -0.0121363  0.0151314  0.0240988  0.00127695 
1700491531.455347000  0  0  13.2106  -0.0320193  0.0935096  0.0115967  nan  nan  nan  nan  nan  nan  -0.999978  -2.23e-05  0.999978  -0.00597535  0.00558445  -4.52693e-05  0.0013731  -0.0013731  -0.0013731  0  0  0  0.063375  -0.063375  -0.063375  0.00110067  -0.0181941  0.0061964  -0.000919383  0.0219355  0.00782801  -0.00757829  -0.0106709  -0.012422  0.133759  -0.0888473  -0.0207386 
1700491531.460524000  0  0  13.218  0.0784084  0.0102149  0.00891892  nan  nan  nan  nan  nan  nan  -0.99997  -3e-05  0.99997  -0.00564456  0.00783506  -6.02255e-05  0.001715  -0.001715  -0.001715  0  0  0  0.0735  -0.0735  -0.0735  0.00111287  -0.0181991  0.00624959  -0.00270347  0.0208741  0.00591562  -0.00954592  -0.0114432  -0.0121604  -0.0689945  0.0848474  0.010117 
1700491531.465474000  0  0  13.1792  -0.0342929  0.10005  0.0115221  nan  nan  nan  nan  nan  nan  -0.99996  -3.96e-05  0.99996  -0.00247371  0.00834264  -4.1737e-05  0.0021094  -0.0021094  -0.0021094  0  0  0  0.084375  -0.084375  -0.084375  0.00111143  -0.0180752  0.0062966  -0.00174124  0.0235978  0.00776028  -0.0106264  -0.0131813  -0.012407  0.166349  -0.0788318  -0.0199572 
1700491531.470530000  0  0  13.1796  0.0336694  0.0732551  0.00903983  nan  nan  nan  nan  nan  nan  -0.999949  -5.12e-05  0.999949  -0.00404813  0.00992578  -6.74804e-05  0.00256  -0.00256  -0.00256  0  0  0  0.096  -0.096  -0.096  0.00117237  -0.0182767  0.00641032  -0.00241215  0.0199562  0.00616141  -0.00948055  -0.0145787  -0.0122151  0.0198823  -0.0123862  0.00915265 
1700491531.475397000  0  0  13.1679  0.0723657  0.034879  0.00842132  nan  nan  nan  nan  nan  nan  -0.999935  -6.53e-05  0.999935  -0.00169605  0.012126  -5.53658e-05  0.0030706  -0.0030706  -0.0030706  0  0  0  0.108375  -0.108375  -0.108375  0.00115344  -0.0181691  0.00643872  -0.00367843  0.0212652  0.00561932  -0.0123888  -0.0158306  -0.0120754  -0.0307544  0.0758834  0.0154877 
1700491531.480524000  0  0  13.1198  -0.0592765  0.133906  0.0122219  nan  nan  nan  nan  nan  nan  -0.999918  -8.2e-05  0.999918  0.000868114  0.0127148  -3.26624e-05  0.003645  -0.003645  -0.003645  0  0  0  0.1215  -0.1215  -0.1215  0.00117301  -0.0181446  0.00655126  -0.00250203  0.0229442  0.00785047  -0.0120086  -0.0180048  -0.0124855  0.229032  -0.102168  -0.0279187 
1700491531.485389000  0  0  13.1368  0.0443157  0.0857641  0.0101218  nan  nan  nan  nan  nan  nan  -0.999898  -0.0001018  0.999898  0.00149752  0.015089  -3.17047e-05  0.0042869  -0.0042869  -0.0042869  0  0  0  0.135375  -0.135375  -0.135375  0.00115035  -0.0180517  0.00656177  -0.00381365  0.0215294  0.00479885  -0.0135177  -0.0197499  -0.0123652  0.0357317  0.0101712  -0.00287024 
1700491531.490397000  0  0  13.1099  0.0407217  0.0628539  0.00997446  nan  nan  nan  nan  nan  nan  -0.999875  -0.000125  0.999875  0.00473179  0.01697  1.35949e-05  0.005  -0.005  -0.005  0  0  0  0.15  -0.15  -0.15  0.00115523  -0.0180244  0.0066507  -0.00427723  0.0239322  0.0051425  -0.0163656  -0.0207705  -0.0123264  0.0691196  0.065381  -0.00141713 
1700491531.495395000  0  0  13.072  -0.0418928  0.138797  0.0113914  nan  nan  nan  nan  nan  nan  -0.999848  -0.0001519  0.999848  0.00617123  0.0183093  3.1986e-05  0.0057881  -0.0057881  -0.0057881  0  0  0  0.165375  -0.165375  -0.165375  0.00117538  -0.0180215  0.00674118  -0.00383798  0.0236379  0.00633607  -0.0154316  -0.0233015  -0.0125232  0.225756  -0.0632195  -0.0171598 
1700491531.499396000  0  0  13.0857  0.0707592  0.0778359  0.00861605  nan  nan  nan  nan  nan  nan  -0.999817  -0.000183  0.999817  0.00717627  0.0211419  5.41111e-05  0.006655  -0.006655  -0.006655  0  0  0  0.1815  -0.1815  -0.1815  0.00114408  -0.0179373  0.0067452  -0.00544361  0.0224476  0.00331688  -0.0177029  -0.0249674  -0.0122687  0.0213479  0.074028  0.0149866 
1700491531.505390000  0  0  13.0469  0.0106809  0.084131  0.0103135  nan  nan  nan  nan  nan  nan  -0.999781  -0.0002186  0.999781  0.0110201  0.0224692  0.000131001  0.0076044  -0.0076044  -0.0076044  0  0  0  0.198375  -0.198375  -0.198375  0.00116648  -0.0179911  0.00685155  -0.00473974  0.0255199  0.00438858  -0.0200071  -0.02568  -0.012362  0.162703  0.0679943  -0.00529916 
1700491531.509422000  0  0  13.0125  -0.00638667  0.115146  0.0108408  nan  nan  nan  nan  nan  nan  -0.999741  -0.0002592  0.999741  0.0133541  0.0243945  0.000187553  0.00864  -0.00864  -0.00864  0  0  0  0.216  -0.216  -0.216  0.00114445  -0.0178879  0.00688315  -0.00468818  0.0259194  0.00514907  -0.021055  -0.0278747  -0.0124568  0.206479  0.0261559  -0.0109423 
1700491531.515487000  0  0  12.9917  0.110444  0.0371749  0.00880974  nan  nan  nan  nan  nan  nan  -0.999695  -0.0003052  0.999695  0.01428  0.0269678  0.00022228  0.0097656  -0.0097656  -0.0097656  0  0  0  0.234375  -0.234375  -0.234375  0.00118828  -0.0180103  0.00698196  -0.00562787  0.0246775  0.00458105  -0.0235219  -0.0282227  -0.0122239  -0.0044871  0.185299  0.0121173 
1700491531.519473000  0  0  12.968  0.0174725  0.102162  0.0119948  nan  nan  nan  nan  nan  nan  -0.999643  -0.000357  0.999643  0.0184959  0.0291172  0.000348136  0.010985  -0.010985  -0.010985  0  0  0  0.2535  -0.2535  -0.2535  0.0011607  -0.0178868  0.00700688  -0.00566569  0.0275061  0.00430552  -0.025575  -0.0307704  -0.012568  0.200345  0.0787626  -0.024255 
1700491531.525332000  0  0  12.9795  0.0604993  0.0692651  0.0115508  nan  nan  nan  nan  nan  nan  -0.999585  -0.0004152  0.999585  0.0186326  0.0307925  0.000352319  0.0123019  -0.0123019  -0.0123019  0  0  0  0.273375  -0.273375  -0.273375  0.00122256  -0.0179711  0.00705097  -0.00520736  0.0248636  0.00102169  -0.0251041  -0.0313923  -0.01269  0.109959  0.150279  -0.0174843 
1700491531.530385000  0  0  12.9178  0.114876  0.0373291  0.00967447  nan  nan  nan  nan  nan  nan  -0.99952  -0.0004802  0.99952  0.0213596  0.0332347  0.000453855  0.01372  -0.01372  -0.01372  0  0  0  0.294  -0.294  -0.294  0.00126049  -0.0180664  0.00715866  -0.00542833  0.0256965  0.00359237  -0.0283158  -0.0321293  -0.0125609  0.0307524  0.220932  0.00467775 
1700491531.534384000  0  0  12.8703  0.0226534  0.115375  0.0118951  nan  nan  nan  nan  nan  nan  -0.999447  -0.0005526  0.999447  0.0255661  0.0360094  0.00062622  0.0152431  -0.0152431  -0.0152431  0  0  0  0.315375  -0.315287  -0.315375  0.00122517  -0.0179388  0.0071977  -0.00587521  0.0280486  0.00504025  -0.0301462  -0.0354151  -0.0128431  0.232038  0.0950686  -0.0202581 
1700491531.540401000  0  0  12.9092  0.109847  0.0399973  0.00896753  nan  nan  nan  nan  nan  nan  -0.999367  -0.0006328  0.999367  0.0246264  0.0384023  0.000608769  0.016875  -0.016872  -0.016875  0  0  0  0.3375  -0.33615  -0.3375  0.00133426  -0.0181212  0.00724577  -0.00631041  0.0240127  -0.000769134  -0.0297354  -0.0354248  -0.0126292  0.0538729  0.245913  0.0141979 
1700491531.545407000  0  0  12.8402  0.073651  0.0615698  0.0102654  nan  nan  nan  nan  nan  nan  -0.999278  -0.0007215  0.999278  0.0281595  0.0405961  0.000759555  0.0186194  -0.0186033  -0.0186194  0  0  0  0.360375  -0.356262  -0.360375  0.00140074  -0.0182004  0.00735444  -0.0057934  0.0259519  0.00219722  -0.0319395  -0.0366511  -0.0127548  0.146541  0.214051  -0.000769196 
1700491531.550407000  0  0  12.8086  0.0221849  0.0913255  0.0119923  nan  nan  nan  nan  nan  nan  -0.999181  -0.000819  0.999181  0.0309392  0.0435273  0.000912105  0.02048  -0.0204333  -0.02048  0  0  0  0.384  -0.375624  -0.384  0.00137433  -0.0180749  0.00736576  -0.00614961  0.0265545  0.00218943  -0.0324637  -0.039101  -0.013029  0.254297  0.177078  -0.0196142 
1700491531.555400000  0  0  12.8006  0.121749  0.0261375  0.00944171  nan  nan  nan  nan  nan  nan  -0.999073  -0.0009259  0.999073  0.0308698  0.0467521  0.00095286  0.0224606  -0.0223583  -0.0224606  0  0  0  0.408375  -0.394236  -0.408375  0.00148332  -0.0182537  0.00743918  -0.00720404  0.023965  -8.00059e-06  -0.0333142  -0.0397567  -0.0128865  0.0629934  0.313487  0.0108436 
1700491531.559400000  0  0  12.7467  0.0484836  0.0946775  0.0119135  nan  nan  nan  nan  nan  nan  -0.998956  -0.0010427  0.998956  0.0356025  0.0501453  0.0012345  0.024565  -0.0243745  -0.024565  0  0  0  0.4335  -0.412098  -0.4335  0.001436  -0.0181113  0.00747691  -0.00779323  0.0274182  0.00161068  -0.0359647  -0.0430517  -0.0131999  0.233908  0.20672  -0.0169199 
1700491531.565380000  0  0  12.7288  0.00787901  0.105494  0.011466  nan  nan  nan  nan  nan  nan  -0.998828  -0.0011698  0.998828  0.0358678  0.0527907  0.00127722  0.0267969  -0.026478  -0.0267969  0  0  0  0.459375  -0.429211  -0.459373  0.00155389  -0.018223  0.00751437  -0.00772571  0.0253367  0.00021789  -0.0336105  -0.0446999  -0.0132954  0.293459  0.200252  -0.0103702 
1700491531.570394000  0  0  12.6987  0.0783179  0.0662535  0.00932849  nan  nan  nan  nan  nan  nan  -0.998688  -0.0013077  0.998688  0.0374675  0.0562404  0.00142046  0.02916  -0.0286653  -0.0291586  0  0  0  0.486  -0.445573  -0.485177  0.00159315  -0.0182855  0.00757435  -0.00843019  0.0250925  -0.000228186  -0.0351892  -0.0459825  -0.0131627  0.167105  0.290531  0.0150208 
1700491531.575437000  0  0  12.6617  -0.0307215  0.142365  0.0124048  nan  nan  nan  nan  nan  nan  -0.998536  -0.0014566  0.998536  0.0414526  0.0600751  0.00172789  0.0316577  -0.0309325  -0.0316474  0  0  0  0.512989  -0.461185  -0.510231  0.00155184  -0.0181425  0.00757752  -0.00938607  0.0278148  0.000151914  -0.0356762  -0.0497658  -0.0135086  0.389664  0.173115  -0.0199743 
1700491531.580417000  0  0  12.6623  0.0284939  0.0864238  0.0102642  nan  nan  nan  nan  nan  nan  -0.998371  -0.0016171  0.998371  0.0415141  0.0640643  0.00181598  0.0342887  -0.0332759  -0.0342596  0  0  0  0.539287  -0.476047  -0.534535  0.00156625  -0.0181268  0.00760122  -0.0110049  0.0255747  -0.00254476  -0.035006  -0.0514161  -0.0133929  0.265068  0.30018  0.0056267 
1700491531.585404000  0  0  12.6162  0.0218097  0.103729  0.0109665  nan  nan  nan  nan  nan  nan  -0.998193  -0.0017895  0.998193  0.0453275  0.0673143  0.00212107  0.0370493  -0.0356917  -0.0369915  0  0  0  0.564836  -0.490159  -0.558089  0.00151997  -0.0179802  0.0076068  -0.0112338  0.0281962  -0.00121364  -0.0372597  -0.0532443  -0.0135185  0.29917  0.282389  -0.00189637 
1700491531.590403000  0  0  12.5703  -0.0517736  0.14161  0.0132439  nan  nan  nan  nan  nan  nan  -0.998  -0.0019741  0.998001  0.0485395  0.0711613  0.00243202  0.0399358  -0.0381763  -0.0398393  0  0  0  0.589634  -0.503522  -0.580892  0.00146188  -0.0178312  0.00761324  -0.0123535  0.0300432  0.000235351  -0.0370874  -0.0563564  -0.0138454  0.444751  0.235259  -0.0270946 
1700491531.595401000  0  0  12.5798  0.0517313  0.0682229  0.0105387  nan  nan  nan  nan  nan  nan  -0.997793  -0.0021714  0.997794  0.0493736  0.0754263  0.00260384  0.0429444  -0.0407257  -0.0427992  0  0  0  0.613683  -0.516134  -0.602946  0.00138967  -0.0176996  0.00758427  -0.0145519  0.0290085  -0.00277613  -0.037961  -0.0576168  -0.0137412  0.245779  0.393629  0.00567772 
1700491531.599720000  0  0  12.5121  -0.00404172  0.120235  0.0126882  nan  nan  nan  nan  nan  nan  -0.997571  -0.0023815  0.997573  0.0520026  0.0782239  0.00284414  0.0460713  -0.0433363  -0.0458675  0  0  0  0.636981  -0.527996  -0.62425  0.00141659  -0.0177547  0.0077584  -0.0143753  0.0305712  0.00028651  -0.0381024  -0.0594153  -0.0139801  0.358625  0.30615  -0.0188019 
1700491531.605416000  0  0  12.4965  -0.0462208  0.11215  0.0130411  nan  nan  nan  nan  nan  nan  -0.997332  -0.0026048  0.997336  0.0528862  0.0809246  0.00294649  0.0493129  -0.0460044  -0.0490404  0  0  0  0.65953  -0.539108  -0.644804  0.00147272  -0.0178385  0.0077828  -0.0146478  0.0301655  -0.000518724  -0.035851  -0.0602  -0.014078  0.42227  0.329541  -0.0222342 
1700491531.610414000  0  0  12.4865  0.0374082  0.0499715  0.00951612  nan  nan  nan  nan  nan  nan  -0.997077  -0.0028416  0.997082  0.0535532  0.0835874  0.00302741  0.0526654  -0.0487262  -0.0523143  0  0  0  0.681328  -0.549471  -0.664608  0.0014843  -0.0178668  0.00782067  -0.0149281  0.0294851  -0.00177235  -0.036374  -0.059691  -0.0137764  0.259824  0.449214  0.0188126 
1700491531.615400000  0  0  12.444  -0.0562429  0.122423  0.0116469  nan  nan  nan  nan  nan  nan  -0.996805  -0.0030922  0.996812  0.0573656  0.0867527  0.00340651  0.056125  -0.0514979  -0.0556852  0  0  0  0.702376  -0.559083  -0.683661  0.00141211  -0.0176985  0.0078303  -0.0155465  0.0326133  -0.000110155  -0.036685  -0.0620546  -0.0139538  0.449988  0.326056  -0.00604885 
1700491531.620398000  0  0  12.4266  -0.00147404  0.0567885  0.00947607  nan  nan  nan  nan  nan  nan  -0.996516  -0.0033567  0.996525  0.0573358  0.0903037  0.00347963  0.0596879  -0.0543158  -0.0591496  0  0  0  0.722675  -0.567945  -0.701965  0.00142437  -0.0177023  0.00789752  -0.0171845  0.031084  -0.00058164  -0.0356749  -0.062509  -0.0137425  0.331157  0.461506  0.0189746 
1700491531.625383000  0  0  12.3993  0.0421674  0.0481589  0.00966339  nan  nan  nan  nan  nan  nan  -0.996208  -0.0036354  0.996221  0.0600907  0.0926432  0.00373568  0.0633505  -0.0571761  -0.0627036  0  0  0  0.742223  -0.576057  -0.719519  0.00134987  -0.0175357  0.00789877  -0.0169792  0.0330556  -1.23026e-05  -0.0377373  -0.0622577  -0.0137723  0.262848  0.476453  0.0169304 
1700491531.630519000  0  0  12.3803  -0.0315241  0.0701042  0.0121778  nan  nan  nan  nan  nan  nan  -0.995882  -0.0039285  0.995898  0.0621589  0.0952625  0.00395042  0.0671089  -0.0600751  -0.0663436  0  0  0  0.761022  -0.583419  -0.736323  0.00137878  -0.0175219  0.00796872  -0.0175648  0.0345741  -0.000125475  -0.0365564  -0.0629437  -0.0139677  0.399367  0.438873  -0.0125446 
1700491531.635401000  0  0  12.392  0.0551918  0.00308065  0.00948527  nan  nan  nan  nan  nan  nan  -0.995537  -0.0042362  0.995557  0.0629716  0.0986142  0.00409276  0.0709594  -0.063009  -0.0700656  0  0  0  0.77907  -0.590032  -0.752377  0.00127874  -0.0173583  0.00795501  -0.0193054  0.0343598  -0.0025419  -0.0372275  -0.0626994  -0.0138187  0.232109  0.570673  0.0196213 
1700491531.640556000  0  0  12.3379  0.0113599  0.0825857  0.0121715  nan  nan  nan  nan  nan  nan  -0.995173  -0.0045587  0.995197  0.0649161  0.0998649  0.00421408  0.0748983  -0.0659741  -0.0738661  0  0  0  0.796369  -0.595894  -0.76768  0.00135338  -0.0173628  0.00803228  -0.0179321  0.0357354  0.000302081  -0.0370795  -0.0625367  -0.0139591  0.318411  0.410166  -0.0125527 
1700491531.645405000  0  0  12.3318  -0.0113016  0.0525695  0.0118152  nan  nan  nan  nan  nan  nan  -0.994788  -0.004896  0.994818  0.0658811  0.102459  0.0043231  0.0789219  -0.0689667  -0.0777412  0  0  0  0.812917  -0.601006  -0.782234  0.00142982  -0.0173743  0.00811745  -0.0190345  0.0362219  -0.000669961  -0.0360718  -0.0624842  -0.0139251  0.354464  0.469716  -0.00843949 
1700491531.650405000  0  0  12.341  0.0708217  -0.0119117  0.0085888  nan  nan  nan  nan  nan  nan  -0.994383  -0.0052484  0.99442  0.0665777  0.105056  0.00440275  0.0830263  -0.071983  -0.0816872  0  0  0  0.828716  -0.605368  -0.796038  0.00133501  -0.0172042  0.00809852  -0.0200453  0.0361662  -0.00261022  -0.0368499  -0.0612709  -0.0136669  0.197376  0.587516  0.029309 
1700491531.655353000  0  0  12.2993  0.0313017  0.0589584  0.0109214  nan  nan  nan  nan  nan  nan  -0.993958  -0.0056159  0.994001  0.0694257  0.107201  0.00468086  0.0872078  -0.0750191  -0.0857003  0  0  0  0.843764  -0.60898  -0.809092  0.00124189  -0.0170062  0.00811561  -0.0199848  0.0387122  -0.000345144  -0.0376904  -0.0620918  -0.0138514  0.284148  0.453327  0.00199631 
1700491531.660386000  0  0  12.2923  0.0227511  -0.0050678  0.00921283  nan  nan  nan  nan  nan  nan  -0.993511  -0.0059986  0.993563  0.0691945  0.110601  0.00471405  0.0914627  -0.0780715  -0.0897768  0  0  0  0.858063  -0.611843  -0.821396  0.00126307  -0.0170037  0.00821202  -0.0223624  0.0378629  -0.000929494  -0.0358425  -0.0617441  -0.0136197  0.284248  0.578181  0.0210363 
1700491531.665405000  0  0  12.2788  0.0534167  0.00468549  0.00812057  nan  nan  nan  nan  nan  nan  -0.993043  -0.0063966  0.993103  0.0701394  0.112286  0.00475416  0.0957872  -0.0811363  -0.093913  0  0  0  0.871611  -0.613955  -0.832949  0.0011656  -0.0168184  0.00820745  -0.0221774  0.0382914  -0.000820383  -0.0361769  -0.0606956  -0.0133795  0.225994  0.549029  0.0322877 
1700491531.670409000  0  0  12.242  -0.0150273  0.0761755  0.0104592  nan  nan  nan  nan  nan  nan  -0.992553  -0.00681  0.992623  0.0720954  0.114415  0.00493894  0.100178  -0.0842098  -0.0981051  0  0  0  0.88441  -0.615317  -0.843753  0.0011657  -0.0167286  0.00833259  -0.0226447  0.0402179  0.00108894  -0.0353601  -0.0615352  -0.0134264  0.355368  0.413773  0.00352492 
1700491531.674409000  0  0  12.2289  0.0257017  0.0170317  0.0076811  nan  nan  nan  nan  nan  nan  -0.992041  -0.0072387  0.992122  0.0728617  0.118906  0.0051582  0.10463  -0.0872882  -0.102349  0  0  0  0.896458  -0.615929  -0.853807  0.000954851  -0.016492  0.0084306  -0.0262528  0.0404786  0.00130991  -0.0355107  -0.0629616  -0.0131417  0.275295  0.545183  0.0354035 
1700491531.680406000  0  0  12.2077  -0.00221307  0.0597644  0.00862527  nan  nan  nan  nan  nan  nan  -0.991507  -0.0076828  0.9916  0.0722414  0.118767  0.00487423  0.109141  -0.0903679  -0.106642  0  0  0  0.907757  -0.615791  -0.863111  0.00107589  -0.0165091  0.00844286  -0.024258  0.03955  0.00213993  -0.0330766  -0.0604568  -0.0127453  0.308731  0.436673  0.0196374 
1700491531.684406000  0  0  12.1986  -0.0596776  0.109984  0.0106836  nan  nan  nan  nan  nan  nan  -0.990949  -0.0081424  0.991056  0.0742861  0.122406  0.00518072  0.113706  -0.0934449  -0.110979  0  0  0  0.918305  -0.614904  -0.871665  0.000855608  -0.0162487  0.00855206  -0.0269694  0.041746  0.00212411  -0.0325618  -0.0632561  -0.0128418  0.418923  0.361988  -0.00512739 
1700491531.690404000  0  0  12.204  0.00924912  -0.000540927  0.00681266  nan  nan  nan  nan  nan  nan  -0.990369  -0.0086173  0.99049  0.0720412  0.123331  0.00475994  0.118323  -0.0965156  -0.115357  0  0  0  0.928103  -0.613266  -0.879468  0.00102063  -0.0163484  0.008551  -0.0270693  0.0392527  0.0010499  -0.0299536  -0.0594388  -0.0121605  0.257075  0.547919  0.0364472 
1700491531.695403000  0  0  12.1643  -0.0586665  0.0895793  0.0105155  nan  nan  nan  nan  nan  nan  -0.989766  -0.0091075  0.989902  0.0725885  0.124223  0.00467474  0.122986  -0.0995763  -0.119773  0  0  0  0.937152  -0.610878  -0.886522  0.00100432  -0.0162931  0.00867044  -0.0262753  0.0399231  0.0034779  -0.0279475  -0.0595054  -0.0121485  0.37445  0.368291  -0.00995824 
1700491531.700405000  0  0  12.2051  -0.0620792  0.0499518  0.00874439  nan  nan  nan  nan  nan  nan  -0.98914  -0.009613  0.989292  0.0726364  0.127588  0.00470104  0.127693  -0.102623  -0.124221  0  0  0  0.94545  -0.60774  -0.892826  0.000850901  -0.0160955  0.00865308  -0.0297502  0.0403307  -0.000140569  -0.026118  -0.0601647  -0.0118448  0.364444  0.453612  0.00914361 
1700491531.705402000  0  0  12.1774  -0.0260821  0.0176324  0.00670978  nan  nan  nan  nan  nan  nan  -0.988489  -0.0101337  0.98866  0.0722568  0.129023  0.00452747  0.132439  -0.105652  -0.1287  0  0  0  0.952999  -0.603853  -0.89838  0.000761126  -0.0159727  0.0087245  -0.0298883  0.0399284  0.00164153  -0.025064  -0.0585477  -0.0113988  0.282753  0.503374  0.0301161 
1700491531.710366000  0  0  12.1691  -0.087692  0.0962919  0.0100859  nan  nan  nan  nan  nan  nan  -0.987815  -0.0106695  0.988005  0.0731905  0.130072  0.00449131  0.137222  -0.10866  -0.133204  0  0  0  0.959797  -0.599215  -0.903184  0.000681501  -0.0158287  0.00878882  -0.0299414  0.0415132  0.00186949  -0.0233918  -0.0588671  -0.0113952  0.390589  0.348993  -0.0121219 
1700491531.715400000  0  0  12.1951  -0.0360095  0.00374538  0.00659984  nan  nan  nan  nan  nan  nan  -0.987117  -0.0112203  0.987328  0.0726515  0.133048  0.00439746  0.142036  -0.111643  -0.13773  0  0  0  0.965846  -0.593827  -0.907237  0.000515994  -0.0156308  0.00877497  -0.0329987  0.0413726  -0.000290421  -0.0221666  -0.0580993  -0.0109278  0.275951  0.527023  0.0267796 
1700491531.720420000  0  0  12.1398  -0.0512933  0.0332672  0.00726988  nan  nan  nan  nan  nan  nan  -0.986395  -0.0117859  0.986628  0.072521  0.133223  0.00414934  0.146879  -0.114597  -0.142275  0  0  0  0.971144  -0.587689  -0.910541  0.000465048  -0.0155126  0.00886681  -0.0314418  0.0414628  0.003854  -0.0206296  -0.0563184  -0.0106037  0.292379  0.451595  0.0151632 
1700491531.724421000  0  0  12.1387  -0.08783  0.0846024  0.0097502  nan  nan  nan  nan  nan  nan  -0.985648  -0.0123662  0.985905  0.0737718  0.135458  0.00423196  0.151746  -0.117519  -0.146834  0  0  0  0.975693  -0.580801  -0.913095  0.000186228  -0.0152202  0.00901464  -0.0331044  0.0435263  0.00366628  -0.019898  -0.0577964  -0.0106516  0.358722  0.362522  -0.0153619 
1700491531.730404000  0  0  12.1852  -0.0138072  -0.0424498  0.00528765  nan  nan  nan  nan  nan  nan  -0.984877  -0.012961  0.985159  0.0719524  0.136616  0.00381491  0.156635  -0.120404  -0.151405  0  0  0  0.979491  -0.573164  -0.914899  0.00018723  -0.0151823  0.00895451  -0.0347012  0.0425771  2.54714e-05  -0.0180195  -0.0540524  -0.00998359  0.193394  0.582182  0.0337403 
1700491531.735407000  0  0  12.1176  -0.0645276  0.0404264  0.00880112  nan  nan  nan  nan  nan  nan  -0.984082  -0.0135702  0.984391  0.072055  0.136464  0.00356098  0.16154  -0.123249  -0.155982  0  0  0  0.98254  -0.564776  -0.915953  0.000107622  -0.0150546  0.00907488  -0.0327883  0.0432204  0.00530315  -0.0163307  -0.0528604  -0.00990786  0.279297  0.405463  -0.0109355 
1700491531.740343000  0  0  12.1653  -0.0498256  0.0211003  0.00848212  nan  nan  nan  nan  nan  nan  -0.983262  -0.0141935  0.9836  0.0717467  0.138364  0.00339268  0.166459  -0.126051  -0.160563  0  0  0  0.984838  -0.555638  -0.916256  -8.28368e-05  -0.0148303  0.00907184  -0.0352542  0.0441058  0.00162346  -0.0150033  -0.0525243  -0.00973402  0.237681  0.441023  -0.00868635 
1700491531.745396000  0  0  12.1743  -0.00269099  -0.0592204  0.00519127  nan  nan  nan  nan  nan  nan  -0.982417  -0.0148306  0.982785  0.0705816  0.138819  0.00299765  0.171387  -0.128805  -0.165143  0  0  0  0.986387  -0.54575  -0.91581  -0.000143301  -0.0147371  0.00916433  -0.0355658  0.0439665  0.000913268  -0.0140389  -0.0490836  -0.00917293  0.134539  0.57001  0.0268384 
1700491531.750393000  0  0  12.1061  -0.0595446  0.0452208  0.00882105  nan  nan  nan  nan  nan  nan  -0.981548  -0.0154814  0.981948  0.0709461  0.13854  0.00275948  0.176321  -0.131507  -0.16972  0  0  0  0.987185  -0.535112  -0.914614  -0.000297421  -0.0145111  0.00922405  -0.0336452  0.0450949  0.00658601  -0.0125767  -0.0484122  -0.00915016  0.234795  0.354951  -0.0187616 
1700491531.755397000  0  0  12.1432  0.00299795  -0.0337974  0.00444987  nan  nan  nan  nan  nan  nan  -0.980654  -0.0161456  0.981088  0.0695341  0.140084  0.00239717  0.181258  -0.134154  -0.174288  0  0  0  0.987234  -0.523725  -0.912668  -0.000422885  -0.0143614  0.00929956  -0.0359511  0.0449513  0.00380664  -0.0116517  -0.0466083  -0.00851358  0.1012  0.496391  0.0295125 
1700491531.760447000  0  0  12.14  -0.00175595  -0.0565662  0.00470215  nan  nan  nan  nan  nan  nan  -0.979735  -0.0168229  0.980205  0.069432  0.140186  0.00211357  0.186192  -0.136743  -0.178845  0  0  0  0.986532  -0.511587  -0.909972  -0.000588164  -0.0141335  0.00931607  -0.0357275  0.0461858  0.00448743  -0.0112036  -0.0437745  -0.00822144  0.106585  0.515857  0.0234375 
1700491531.765582000  0  0  12.1019  -0.0249575  0.0213922  0.00726057  nan  nan  nan  nan  nan  nan  -0.978792  -0.0175129  0.9793  0.0683586  0.13982  0.00165866  0.191122  -0.139269  -0.183387  0  0  0  0.985081  -0.498699  -0.906525  -0.000692497  -0.0139701  0.00941712  -0.0345974  0.0461468  0.00774932  -0.00918005  -0.042855  -0.0080487  0.134372  0.351481  -0.01027 
1700491531.770500000  0  0  12.1542  0.0549443  -0.0928893  0.0024023  nan  nan  nan  nan  nan  nan  -0.977824  -0.0182154  0.978372  0.066978  0.140687  0.00124064  0.196042  -0.141729  -0.187909  0  0  0  0.982879  -0.485061  -0.902329  -0.00082808  -0.0137787  0.00950051  -0.0365538  0.046414  0.00390389  -0.00911154  -0.039819  -0.00740042  -0.0260626  0.552113  0.0439755 
1700491531.774541000  0  0  12.1152  -0.0101808  -0.0281342  0.00609284  nan  nan  nan  nan  nan  nan  -0.976832  -0.0189301  0.977421  0.0671445  0.141053  0.0010035  0.200949  -0.144118  -0.192409  0  0  0  0.979927  -0.470674  -0.897383  -0.00115151  -0.0134472  0.00972705  -0.0361394  0.0478605  0.00731  -0.00822831  -0.0391908  -0.00733859  0.0960621  0.416824  -0.00277465 
1700491531.780500000  0  0  12.1291  0.00813989  -0.0126858  0.00590808  nan  nan  nan  nan  nan  nan  -0.975815  -0.0196565  0.976447  0.0646228  0.140006  0.000292893  0.20584  -0.146434  -0.196882  0  0  0  0.976226  -0.455536  -0.891687  -0.00109102  -0.0133612  0.0096384  -0.0356085  0.046827  0.00680337  -0.00582918  -0.036587  -0.00692524  0.0373486  0.361972  -0.00459868 
1700491531.785372000  0  0  12.1603  0.0618079  -0.0953798  0.00208305  nan  nan  nan  nan  nan  nan  -0.974773  -0.0203943  0.975452  0.0630621  0.140807  -0.000165387  0.21071  -0.148672  -0.201324  0  0  0  0.971774  -0.439648  -0.885241  -0.00131002  -0.0131637  0.00975981  -0.0373197  0.0470224  0.00482969  -0.00554376  -0.0339935  -0.00631577  -0.0726132  0.5035  0.0371196 
1700491531.790579000  0  0  12.1204  -0.0484301  0.00558826  0.00851543  nan  nan  nan  nan  nan  nan  -0.973708  -0.0211431  0.974434  0.0618672  0.139023  -0.000734844  0.215556  -0.150829  -0.205733  0  0  0  0.966573  -0.42301  -0.878044  -0.00143358  -0.0129474  0.00978342  -0.0347977  0.0473069  0.0086529  -0.00257687  -0.0318708  -0.00634948  0.120567  0.282035  -0.0429481 
1700491531.795367000  0  0  12.1371  -0.00115869  -0.0304829  0.00489232  nan  nan  nan  nan  nan  nan  -0.972618  -0.0219024  0.973395  0.0591449  0.139793  -0.00136183  0.220375  -0.152901  -0.210104  0  0  0  0.960621  -0.405622  -0.870098  -0.00162975  -0.0127322  0.00991417  -0.0365335  0.0460605  0.00790473  -0.000680553  -0.0306923  -0.00569867  0.00857846  0.343335  -0.00416729 
1700491531.800402000  0  0  12.1886  0.0237031  -0.0918321  0.0018185  nan  nan  nan  nan  nan  nan  -0.971504  -0.022672  0.972333  0.0577122  0.139596  -0.00186859  0.225161  -0.154884  -0.214433  0  0  0  0.95392  -0.387485  -0.861402  -0.00181397  -0.0124958  0.00991874  -0.0376462  0.0468078  0.0046293  -0.00012346  -0.0275054  -0.00508462  -0.0462703  0.436714  0.0281149 
1700491531.805389000  0  0  12.1268  -0.072053  0.0261875  0.0065013  nan  nan  nan  nan  nan  nan  -0.970366  -0.0234511  0.97125  0.0557293  0.138307  -0.0025132  0.229913  -0.156775  -0.218716  0  0  0  0.946468  -0.368597  -0.851956  -0.00200828  -0.0122872  0.0100928  -0.0356603  0.0462911  0.0101702  0.00331396  -0.0268272  -0.00486651  0.113618  0.194435  -0.0326012 
1700491531.810394000  0  0  12.1758  -0.00503118  -0.0398674  0.00176983  nan  nan  nan  nan  nan  nan  -0.969205  -0.0242395  0.970146  0.052282  0.139001  -0.00325186  0.234625  -0.158569  -0.222951  0  0  0  0.938267  -0.348959  -0.84176  -0.00220919  -0.0120689  0.0101109  -0.0381386  0.0446045  0.0072057  0.00548276  -0.0253075  -0.00399499  -0.040379  0.312564  0.017827 
1700491531.815403000  0  0  12.2012  -0.0415284  -0.0488586  0.0027117  nan  nan  nan  nan  nan  nan  -0.96802  -0.0250367  0.969021  0.0506784  0.138115  -0.00381812  0.239294  -0.160263  -0.227133  0  0  0  0.929315  -0.328571  -0.830813  -0.00238998  -0.0118753  0.0102191  -0.0382866  0.045378  0.00598693  0.00713756  -0.0227867  -0.0035698  0.0173912  0.307355  0.00180178 
1700491531.820405000  0  0  12.1706  -0.112167  0.0570879  0.00638052  nan  nan  nan  nan  nan  nan  -0.966812  -0.025842  0.967875  0.0474202  0.136674  -0.00463562  0.243917  -0.161854  -0.231258  0  0  0  0.919614  -0.307434  -0.819117  -0.00256607  -0.0116998  0.0103423  -0.0369879  0.0438006  0.00920288  0.0114197  -0.0224499  -0.00324075  0.119273  0.0923634  -0.047349 
1700491531.825404000  0  0  12.2081  -0.0212911  -0.0404464  0.000478302  nan  nan  nan  nan  nan  nan  -0.965581  -0.026655  0.966709  0.0441313  0.137183  -0.00536338  0.248489  -0.163338  -0.235323  0  0  0  0.909162  -0.286334  -0.806671  -0.00277368  -0.0114877  0.0103712  -0.03938  0.0424458  0.007425  0.0128712  -0.0205284  -0.00231627  -0.0758331  0.269754  0.0171839 
1700491531.830404000  0  0  12.2232  -0.106169  0.00444069  0.00470187  nan  nan  nan  nan  nan  nan  -0.964327  -0.0274752  0.965522  0.0423581  0.136069  -0.00595476  0.253007  -0.164718  -0.239323  0  0  0  0.897961  -0.265985  -0.793475  -0.00303755  -0.0112986  0.0104733  -0.0392384  0.0429177  0.00724564  0.0157091  -0.019086  -0.00214034  0.067814  0.16671  -0.0373699 
1700491531.835400000  0  0  12.2295  -0.116957  0.0575784  0.0047941  nan  nan  nan  nan  nan  nan  -0.963051  -0.028302  0.964315  0.0388424  0.134715  -0.00678677  0.257467  -0.165999  -0.243256  0  0  0  0.886009  -0.246386  -0.779529  -0.00323096  -0.0110976  0.0105197  -0.038935  0.0408779  0.00784666  0.0195214  -0.0183159  -0.00163966  0.0543171  0.0533493  -0.0435297 
1700491531.840404000  0  0  12.2456  -0.0385507  -0.0428578  0.000270725  nan  nan  nan  nan  nan  nan  -0.961753  -0.029135  0.963089  0.0365149  0.134472  -0.00741153  0.261866  -0.167183  -0.247117  0  0  0  0.873308  -0.227536  -0.764832  -0.00345855  -0.0109232  0.0105992  -0.0402879  0.0403978  0.00796104  0.0199565  -0.0158498  -0.000961822  -0.106499  0.231534  0.00623416 
1700491531.845381000  0  0  12.2469  -0.139694  0.0455512  0.00611721  nan  nan  nan  nan  nan  nan  -0.960432  -0.0299737  0.961844  0.0351383  0.13287  -0.0079553  0.266199  -0.168275  -0.250903  0  0  0  0.859856  -0.209437  -0.749386  -0.00379547  -0.0107296  0.0107512  -0.0394697  0.040962  0.00899323  0.0226573  -0.0152793  -0.00110013  0.0709404  0.0494672  -0.0654638 
1700491531.850404000  0  0  12.2497  -0.0914918  0.0338505  0.00396644  nan  nan  nan  nan  nan  nan  -0.959091  -0.0308176  0.960581  0.0315043  0.131639  -0.00877924  0.270463  -0.169279  -0.25461  0  0  0  0.845655  -0.192087  -0.73319  -0.00399171  -0.0105463  0.0108008  -0.0396253  0.038419  0.0101876  0.0253441  -0.0138533  -0.000598279  -0.0501818  0.0597494  -0.0435977 
1700491531.855397000  0  0  12.2904  -0.0430097  -0.0520501  0.000274212  nan  nan  nan  nan  nan  nan  -0.957728  -0.0316664  0.959298  0.0298591  0.130424  -0.00933524  0.274655  -0.170198  -0.258234  0  0  0  0.830703  -0.175488  -0.716244  -0.00421747  -0.0103633  0.0108326  -0.0403626  0.0385427  0.00854355  0.0252236  -0.0107019  -6.96603e-05  -0.146038  0.202557  -0.00273104 
1700491531.860403000  0  0  12.2815  -0.133194  0.0370544  0.00541997  nan  nan  nan  nan  nan  nan  -0.956344  -0.0325195  0.957998  0.028226  0.12751  -0.00993342  0.278769  -0.171035  -0.261771  0  0  0  0.815001  -0.159639  -0.698548  -0.00443921  -0.0102135  0.0109433  -0.038221  0.0384516  0.0106012  0.027776  -0.00910182  -0.000179769  0.0108498  0.00962787  -0.0659519 
1700491531.865403000  0  0  12.293  -0.0324498  -0.0262418  2.01366e-05  nan  nan  nan  nan  nan  nan  -0.95494  -0.0333766  0.956681  0.0247737  0.125778  -0.0107194  0.282803  -0.171795  -0.265218  0  0  0  0.79855  -0.144539  -0.680101  -0.00463635  -0.0100405  0.0110002  -0.038159  0.0358179  0.011328  0.0288819  -0.00630837  0.000532128  -0.200814  0.110521  -0.00557299 
1700491531.870414000  0  0  12.3306  -0.0108568  -0.0737411  0.000111218  nan  nan  nan  nan  nan  nan  -0.953516  -0.0342373  0.955346  0.0240371  0.123641  -0.011167  0.286753  -0.172482  -0.268571  0  0  0  0.781348  -0.13019  -0.660905  -0.00486259  -0.00987081  0.0110547  -0.037905  0.0367853  0.0100678  0.027865  -0.00287615  0.000664254  -0.234644  0.173943  -0.00803276 
1700491531.875401000  0  0  12.3484  -0.0807994  0.00261946  0.00447672  nan  nan  nan  nan  nan  nan  -0.952073  -0.0351013  0.953995  0.022378  0.120115  -0.0117544  0.290615  -0.173098  -0.271826  0  0  0  0.763397  -0.11659  -0.640959  -0.00504065  -0.00968609  0.0111126  -0.0357273  0.0362802  0.0102303  0.0299087  -0.000558097  0.000525892  -0.113561  -0.000104434  -0.0612179 
1700491531.880387000  0  0  12.3901  0.0413852  -0.0795842  -0.00149331  nan  nan  nan  nan  nan  nan  -0.95061  -0.0359682  0.952628  0.0194251  0.11861  -0.0124417  0.294386  -0.173649  -0.274979  0  0  0  0.744695  -0.103741  -0.620263  -0.00532623  -0.00953001  0.0111883  -0.0364939  0.0340364  0.00877615  0.0292998  0.00239641  0.00115785  -0.352328  0.137121  0.00708789 
1700491531.884391000  0  0  12.3894  0.0406635  -0.0906353  -0.000711186  nan  nan  nan  nan  nan  nan  -0.949129  -0.0368377  0.951246  0.019376  0.116886  -0.0127849  0.298061  -0.174137  -0.278027  0  0  0  0.725244  -0.0916414  -0.598817  -0.00576434  -0.00920522  0.0115126  -0.0361246  0.035127  0.0104432  0.0279581  0.00473995  0.00121886  -0.338542  0.137663  -0.00329877 
1700491531.890412000  0  0  12.4482  -0.015461  -0.0279769  0.00334602  nan  nan  nan  nan  nan  nan  -0.94763  -0.0377095  0.949848  0.0171953  0.112676  -0.0134155  0.301637  -0.174567  -0.280966  0  0  0  0.705042  -0.080292  -0.57662  -0.00579411  -0.00916983  0.0112724  -0.0341724  0.0339351  0.0080229  0.029461  0.00764384  0.000981633  -0.240119  -0.0143695  -0.0516416 
1700491531.895392000  0  0  12.487  0.0886826  -0.107587  -0.00203474  nan  nan  nan  nan  nan  nan  -0.946113  -0.0385832  0.948436  0.0150402  0.110965  -0.0139878  0.30511  -0.174941  -0.283792  0  0  0  0.684091  -0.0696926  -0.553674  -0.00606337  -0.00899786  0.0113199  -0.0349424  0.032325  0.00713983  0.027917  0.0106796  0.00149053  -0.434201  0.116921  0.010529 
1700491531.900385000  0  0  12.4889  0.00374979  -0.0523021  0.00378799  nan  nan  nan  nan  nan  nan  -0.944579  -0.0394588  0.94701  0.0150123  0.106778  -0.0143576  0.308477  -0.175265  -0.286502  0  0  0  0.662389  -0.0598431  -0.529978  -0.00622202  -0.00881836  0.0113814  -0.0321638  0.0333768  0.00906812  0.0277014  0.0139699  0.00104585  -0.262352  -0.0239193  -0.0578083 
1700491531.905404000  0  0  12.5461  0.0301513  -0.0327432  0.0027042  nan  nan  nan  nan  nan  nan  -0.943028  -0.0403358  0.945571  0.0124488  0.103712  -0.0149732  0.311733  -0.175541  -0.289091  0  0  0  0.639938  -0.0507437  -0.505532  -0.00642972  -0.00868357  0.0113909  -0.0316224  0.0310328  0.00669699  0.0282647  0.015941  0.00122354  -0.320338  -0.0811707  -0.0460379 
1700491531.910393000  0  0  12.5859  0.0896439  -0.0932629  -0.000220641  nan  nan  nan  nan  nan  nan  -0.941462  -0.0412141  0.94412  0.0107931  0.101847  -0.0154689  0.314875  -0.175773  -0.291556  0  0  0  0.616736  -0.0423943  -0.480336  -0.00669365  -0.00855262  0.0114439  -0.0324878  0.0298004  0.00596313  0.0268034  0.0184474  0.00149861  -0.425879  0.01681  -0.0122281 
1700491531.915399000  0  0  12.6103  -0.0209052  -0.00678463  0.00593204  nan  nan  nan  nan  nan  nan  -0.93988  -0.0420935  0.942656  0.0105184  0.0975176  -0.0158465  0.317899  -0.175966  -0.293893  0  0  0  0.592785  -0.0347949  -0.454405  -0.00684001  -0.00839305  0.0114836  -0.030083  0.0302194  0.00631842  0.0274691  0.0207089  0.0010022  -0.210905  -0.176953  -0.0841724 
1700491531.920385000  0  0  12.656  0.0312511  -0.0274568  0.000565717  nan  nan  nan  nan  nan  nan  -0.938283  -0.0429737  0.941181  0.00755333  0.0948611  -0.0164594  0.320802  -0.176123  -0.2961  0  0  0  0.568083  -0.0279454  -0.428672  -0.00708274  -0.00826828  0.0115011  -0.0301768  0.0269065  0.00509807  0.0281101  0.0225408  0.00159163  -0.321115  -0.152462  -0.0229877 
1700491531.925351000  0  0  12.6965  0.0436585  -0.0525187  -0.0008691  nan  nan  nan  nan  nan  nan  -0.936672  -0.0438547  0.939695  0.00717046  0.0913902  -0.0168248  0.323579  -0.176247  -0.298181  0  0  0  0.542632  -0.021846  -0.403689  -0.00724431  -0.00811804  0.0115337  -0.0292801  0.0269763  0.00416584  0.0265314  0.0256357  0.00182777  -0.331406  -0.130811  -0.00741399 
1700491531.930385000  0  0  12.7479  -0.0550702  0.0201438  0.00437354  nan  nan  nan  nan  nan  nan  -0.935047  -0.0447361  0.938199  0.00654946  0.0874145  -0.0172117  0.326227  -0.176342  -0.300138  0  0  0  0.51643  -0.0164966  -0.379457  -0.00744239  -0.00800016  0.0115378  -0.0277888  0.026659  0.00222434  0.0276748  0.0269526  0.00145805  -0.144468  -0.288252  -0.0692498 
1700491531.935391000  0  0  12.7764  0.0463334  -0.040873  -0.000371012  nan  nan  nan  nan  nan  nan  -0.93341  -0.045618  0.936694  0.00380866  0.0840695  -0.017768  0.328742  -0.176413  -0.301977  0  0  0  0.489496  -0.0118972  -0.355974  -0.00758468  -0.0078929  0.0115557  -0.0272213  0.0232442  0.00212289  0.0274702  0.0298164  0.00196876  -0.345393  -0.192565  -0.0150499 
1700491531.940388000  0  0  12.8009  -0.00326193  -0.0253611  0.00367028  nan  nan  nan  nan  nan  nan  -0.93176  -0.0465002  0.93518  0.00435777  0.0808956  -0.01804  0.331122  -0.176462  -0.303699  0  0  0  0.462774  -0.0080477  -0.333242  -0.0078608  -0.00777796  0.0115352  -0.02642  0.0243268  0.00245354  0.0261877  0.0314866  0.00153474  -0.234403  -0.238954  -0.061226 
1700491531.945398000  0  0  12.8671  -0.0506782  0.0149169  0.00668679  nan  nan  nan  nan  nan  nan  -0.930099  -0.0473826  0.933657  0.00298461  0.0773086  -0.0184659  0.333371  -0.176495  -0.30531  0  0  0  0.436802  -0.0049483  -0.311259  -0.00810636  -0.00770934  0.0114985  -0.0253797  0.0226834  -0.000833254  0.0274246  0.0326464  0.00118217  -0.15095  -0.33018  -0.0954065 
1700491531.950416000  0  0  12.9026  0.0708118  -0.0579481  0.0011572  nan  nan  nan  nan  nan  nan  -0.928427  -0.0482652  0.932127  0.000803528  0.0739233  -0.0189414  0.335491  -0.176513  -0.306813  0  0  0  0.41158  -0.0025989  -0.290026  -0.00823179  -0.0076189  0.0114917  -0.0244968  0.0196924  -0.00168028  0.0261474  0.0356714  0.00160503  -0.382179  -0.21228  -0.0305153 
1700491531.955400000  0  0  12.8783  -0.0184315  -0.00215027  0.00557175  nan  nan  nan  nan  nan  nan  -0.926744  -0.0491477  0.930589  0.00133683  0.070532  -0.0192108  0.337488  -0.176522  -0.308212  0  0  0  0.387108  -0.0009995  -0.269544  -0.00843498  -0.00757487  0.0115629  -0.0227431  0.0205332  0.00226914  0.0256688  0.036591  0.001137  -0.19929  -0.332336  -0.0810168 
1700491531.959402000  0  0  12.9432  -0.0278713  0.00779021  0.00534698  nan  nan  nan  nan  nan  nan  -0.925052  -0.0500304  0.929045  0.000307121  0.0676867  -0.0195885  0.339364  -0.176524  -0.30951  0  0  0  0.363386  -0.0001501  -0.249811  -0.00886448  -0.00732964  0.0118424  -0.0218853  0.0186144  -0.00172135  0.0262055  0.0376977  0.00114733  -0.185348  -0.362399  -0.0783106 
1700491531.965404000  0  0  12.9837  0.0811551  -0.0512148  -0.000165815  nan  nan  nan  nan  nan  nan  -0.923351  -0.050913  0.927494  -0.00178223  0.063596  -0.0200269  0.341123  -0.176525  -0.310711  0  0  0  0.340414  0  -0.230829  -0.00871835  -0.00746978  0.0115343  -0.0202114  0.0158641  -0.0026288  0.0244668  0.0406184  0.00162023  -0.387405  -0.27126  -0.0141296 
1700491531.970390000  0  0  12.9872  -0.0396402  0.0194818  0.00553513  nan  nan  nan  nan  nan  nan  -0.921641  -0.0517956  0.925938  -0.00109468  0.0594593  -0.020283  0.342769  -0.176525  -0.311819  0  0  0  0.318193  0  -0.212596  -0.00881241  -0.00737301  0.0115466  -0.0174575  0.0165445  -0.00117698  0.0246564  0.0416998  0.00110458  -0.147558  -0.422602  -0.0802349 
1700491531.975402000  0  0  13.0495  0.0240586  -0.0188403  0.00158017  nan  nan  nan  nan  nan  nan  -0.919923  -0.0526782  0.924376  -0.00368115  0.0565289  -0.0207302  0.344306  -0.176525  -0.312838  0  0  0  0.296721  0  -0.195113  -0.00896743  -0.00736098  0.0115008  -0.0166568  0.012715  -0.00451041  0.0251618  0.0429946  0.00148383  -0.279606  -0.35787  -0.0345905 
1700491531.980390000  0  0  13.0584  0.0433081  -0.0252792  0.00158953  nan  nan  nan  nan  nan  nan  -0.918198  -0.0535609  0.92281  -0.00336087  0.0531337  -0.021005  0.345738  -0.176525  -0.313772  0  0  0  0.275999  0  -0.178381  -0.00905109  -0.00728315  0.0114982  -0.014776  0.0129238  -0.00355212  0.0230564  0.0446698  0.00148001  -0.298735  -0.360404  -0.0346693 
1700491531.985409000  0  0  13.0993  -0.0458864  0.0294896  0.00669072  nan  nan  nan  nan  nan  nan  -0.916466  -0.0544435  0.921239  -0.00290648  0.049221  -0.0212738  0.347067  -0.176525  -0.314623  0  0  0  0.256027  0  -0.162398  -0.00910977  -0.00721194  0.0114651  -0.0122483  0.013317  -0.0053106  0.023307  0.0453886  0.000916685  -0.122651  -0.476554  -0.0928009 
1700491531.989395000  0  0  13.1193  0.038706  -0.0193465  0.00385147  nan  nan  nan  nan  nan  nan  -0.914728  -0.0553261  0.919664  -0.00570815  0.0485237  -0.021712  0.348299  -0.176525  -0.315397  0  0  0  0.236805  0  -0.147166  -0.0097403  -0.00717142  0.0117318  -0.0129782  0.00914395  -0.00579265  0.0237378  0.0450218  0.00118376  -0.2958  -0.375507  -0.0599809 
1700491531.995358000  0  0  13.1468  -0.00221836  0.0120624  0.00674246  nan  nan  nan  nan  nan  nan  -0.912983  -0.0562087  0.918085  -0.00616862  0.0451331  -0.0220177  0.349437  -0.176525  -0.316096  0  0  0  0.218333  0  -0.132683  -0.00964623  -0.00745291  0.0113451  -0.0112346  0.00899458  -0.00578439  0.0231088  0.0453359  0.00071151  -0.208164  -0.441215  -0.0913959 
1700491532.000419000  0  0  13.186  -0.0412464  0.0318199  0.00786653  nan  nan  nan  nan  nan  nan  -0.911233  -0.0570913  0.916503  -0.00660581  0.0417408  -0.0223194  0.350484  -0.176525  -0.316725  0  0  0  0.200611  0  -0.11895  -0.00967804  -0.0074219  0.0112836  -0.00912901  0.00817066  -0.00754666  0.0236095  0.0458541  0.000379729  -0.134715  -0.485498  -0.102129 
1700491532.005414000  0  0  13.2178  0.0782403  -0.0296006  0.0011752  nan  nan  nan  nan  nan  nan  -0.909479  -0.057974  0.914918  -0.00964649  0.0404117  -0.0227377  0.351444  -0.176525  -0.317287  0  0  0  0.183639  0  -0.105968  -0.00999479  -0.00764333  0.0111729  -0.00932773  0.00415387  -0.00848575  0.0230037  0.04589  0.000880027  -0.368114  -0.362987  -0.0234903 
1700491532.010389000  0  0  13.2075  -0.0262371  0.0434266  0.00501876  nan  nan  nan  nan  nan  nan  -0.907719  -0.0588566  0.91333  -0.00859594  0.0372904  -0.0229728  0.352321  -0.176525  -0.317786  0  0  0  0.167417  0  -0.0937352  -0.0100833  -0.0076837  0.0111725  -0.00695905  0.00570583  -0.00633953  0.0224568  0.0455652  0.000521777  -0.154128  -0.506053  -0.0679523 
1700491532.015392000  0  0  13.2594  0.00506214  0.0194782  0.00343031  nan  nan  nan  nan  nan  nan  -0.905956  -0.0597392  0.91174  -0.0102098  0.0344851  -0.0233086  0.353119  -0.176525  -0.318226  0  0  0  0.151945  0  -0.0822526  -0.0101178  -0.00767686  0.0111118  -0.00539855  0.00318766  -0.00934961  0.0228277  0.0461652  0.000640587  -0.220139  -0.463676  -0.0492847 
1700491532.020382000  0  0  13.2606  0.0823093  -0.00444889  0.000609972  nan  nan  nan  nan  nan  nan  -0.904188  -0.0606218  0.910148  -0.011049  0.0319366  -0.0236137  0.353842  -0.176525  -0.31861  0  0  0  0.137223  0  -0.07152  -0.0101894  -0.00774162  0.0110857  -0.0037789  0.00201974  -0.0082281  0.0209621  0.046758  0.000935748  -0.35747  -0.421276  -0.0169821 
1700491532.024386000  0  0  13.2517  -0.0115717  0.0693805  0.00505693  nan  nan  nan  nan  nan  nan  -0.902417  -0.0615045  0.908554  -0.00941959  0.0296464  -0.0238444  0.354493  -0.176525  -0.318942  0  0  0  0.123251  0  -0.0615374  -0.0105502  -0.00753812  0.0113819  -0.00165981  0.00391045  -0.00698705  0.0200973  0.0458644  0.000537678  -0.161751  -0.560714  -0.0685883 
1700491532.030391000  0  0  13.3155  0.0576669  0.0204912  0.00277504  nan  nan  nan  nan  nan  nan  -0.900643  -0.0623871  0.906959  -0.0129992  0.0269101  -0.0242192  0.355076  -0.176525  -0.319226  0  0  0  0.110029  0  -0.0523048  -0.0103135  -0.00787082  0.0109653  -0.000508781  -0.000794996  -0.0104508  0.0212309  0.0460362  0.000688953  -0.310658  -0.464516  -0.0415775 
1700491532.035402000  0  0  13.2912  0.0586045  0.0337415  0.0039027  nan  nan  nan  nan  nan  nan  -0.898867  -0.0632697  0.905362  -0.0129917  0.0245047  -0.024492  0.355594  -0.176525  -0.319466  0  0  0  0.0975573  0  -0.0438222  -0.0103351  -0.00796877  0.0109574  0.00124983  -0.00060815  -0.00745925  0.0196271  0.0458349  0.00055885  -0.297778  -0.489164  -0.0543723 
1700491532.040398000  0  0  13.3324  -0.0240208  0.0822434  0.00756378  nan  nan  nan  nan  nan  nan  -0.897087  -0.0641523  0.903764  -0.0129497  0.0217614  -0.0247598  0.356053  -0.176525  -0.319666  0  0  0  0.0858354  0  -0.0360896  -0.0103256  -0.00796836  0.0108979  0.00338029  -0.000693861  -0.00991767  0.0201018  0.0450641  9.00662e-05  -0.136895  -0.579077  -0.0954479 
1700491532.045389000  0  0  13.3537  0.101688  0.00412859  0.00201378  nan  nan  nan  nan  nan  nan  -0.895306  -0.065035  0.902165  -0.0160447  0.020103  -0.0251049  0.356454  -0.176525  -0.319829  0  0  0  0.0748634  0  -0.029107  -0.0103969  -0.00817006  0.0108632  0.00414429  -0.00492154  -0.0108132  0.019681  0.0453923  0.000572651  -0.384441  -0.425866  -0.0308987 
1700491532.050399000  0  0  13.318  0.0211844  0.0588269  0.00450287  nan  nan  nan  nan  nan  nan  -0.893523  -0.0659176  0.900566  -0.013977  0.0174354  -0.0253303  0.356802  -0.176525  -0.319958  0  0  0  0.0646415  0  -0.0228744  -0.0103634  -0.00816251  0.0108426  0.00660585  -0.00190652  -0.00709982  0.0176637  0.0448454  0.000312677  -0.204875  -0.530231  -0.0594127 
1700491532.055402000  0  0  13.3644  -0.00496537  0.0711472  0.0049532  nan  nan  nan  nan  nan  nan  -0.891738  -0.0668002  0.898966  -0.0156833  0.0152625  -0.0256303  0.357102  -0.176525  -0.320059  0  0  0  0.0551695  0  -0.0173917  -0.0103443  -0.00828292  0.0107802  0.00817665  -0.00431896  -0.0102055  0.0190679  0.0439483  0.000202572  -0.165494  -0.546618  -0.0639408 
1700491532.060411000  0  0  13.3761  0.10545  0.0167446  0.00217435  nan  nan  nan  nan  nan  nan  -0.889952  -0.0676828  0.897365  -0.0165467  0.0133399  -0.0259159  0.357355  -0.176525  -0.320133  0  0  0  0.0464476  0  -0.0126591  -0.010311  -0.00842143  0.0107348  0.00956406  -0.00538173  -0.0105213  0.0168354  0.0441788  0.000458025  -0.365787  -0.439934  -0.0317597 
1700491532.065409000  0  0  13.3532  -0.00680976  0.0849947  0.00709381  nan  nan  nan  nan  nan  nan  -0.888165  -0.0685654  0.895764  -0.0142672  0.0106218  -0.0261511  0.357567  -0.176525  -0.320186  0  0  0  0.0384757  0  -0.0086765  -0.0102511  -0.00841783  0.0107078  0.0123613  -0.0020638  -0.00810596  0.0154549  0.0433037  -0.000113036  -0.128566  -0.568383  -0.0875422 
1700491532.069362000  0  0  13.369  0.034049  0.0639874  0.0053045  nan  nan  nan  nan  nan  nan  -0.886376  -0.0694481  0.894163  -0.0157273  0.00963539  -0.0264553  0.357741  -0.176525  -0.320221  0  0  0  0.0312537  0  -0.0054439  -0.0105802  -0.00826759  0.0109957  0.0133681  -0.00462548  -0.00960545  0.0156668  0.0424844  3.11117e-05  -0.212233  -0.518832  -0.0666174 
1700491532.075393000  0  0  13.3623  0.120622  0.0288274  0.0025516  nan  nan  nan  nan  nan  nan  -0.884587  -0.0703307  0.892562  -0.0172289  0.00720554  -0.0267323  0.357881  -0.176525  -0.320242  0  0  0  0.0247818  0  -0.0029613  -0.010145  -0.00862713  0.0106553  0.0149594  -0.00613733  -0.0080167  0.0136267  0.042663  0.000267314  -0.366608  -0.450154  -0.0345681 
1700491532.080412000  0  0  13.3885  -0.0111896  0.104737  0.00684919  nan  nan  nan  nan  nan  nan  -0.882798  -0.0712133  0.890961  -0.016469  0.00490475  -0.0269932  0.357991  -0.176525  -0.320252  0  0  0  0.0190598  0  -0.0012287  -0.0100533  -0.00864995  0.010591  0.0173038  -0.00509339  -0.00983855  0.0140386  0.0411879  -0.000218895  -0.106776  -0.588403  -0.0834259 
1700491532.085390000  0  0  13.4031  0.12201  0.0316419  0.00163078  nan  nan  nan  nan  nan  nan  -0.881008  -0.0720959  0.88936  -0.0213279  0.00402172  -0.0273025  0.358073  -0.176525  -0.320256  0  0  0  0.0140879  0  -0.0002461  -0.0100572  -0.00909385  0.0105415  0.017652  -0.0114055  -0.0107274  0.0153736  0.0404431  0.000240872  -0.385458  -0.43536  -0.0227935 
