ts fx fy fz tx ty tz exfx exfy exfz extx exty extz xd yd zd rolld pitchd yawd vxd vyd vzd wxd wyd wzd axd ayd azd e_x e_y e_z e_vx e_vy e_vz e_rx e_ry e_rz e_wx e_wy e_wz
1703174643.428757000  0  0  11.8219  0.0220793  -0.14606  0.0216616  nan  nan  nan  nan  nan  nan  -2.5  -0.3  1  0.0174997  -0.0234788  -0.000410875  0  0  0  0  0  0  0  0  0  0.0162912  0.0138286  -0.0193269  -0.0140313  -0.0152471  -0.00454173  -0.00670715  0.0284064  -0.0246993  0.0298178  -0.0136074  0.0251704 
1703174643.432754000  0  0  11.7719  0.0171087  -0.136755  0.0226692  nan  nan  nan  nan  nan  nan  -2.5  -0.3  1  0.0177227  -0.0225217  -0.000399151  0  0  0  0  0  0  0  0  0  0.0162955  0.0138771  -0.0192922  -0.0154824  -0.0151821  -0.00104545  -0.00663066  0.0272726  -0.0247655  0.0395958  -0.0205149  0.0132912 
1703174643.437747000  0  0  11.73  0.0192121  -0.133753  0.0240518  nan  nan  nan  nan  nan  nan  -2.5  -0.3  1  0.0179773  -0.0233101  -0.000419061  0  0  0  0  0  0  0  0  0  0.0163056  0.0139128  -0.0192571  -0.0145508  -0.0150243  0.00186357  -0.0067211  0.0277394  -0.0249019  0.0361262  -0.0323244  -0.00246063 
1703174643.442756000  0  0  11.842  0.0312637  -0.151975  0.0232514  nan  nan  nan  nan  nan  nan  -2.5  -0.3  1  0.0176306  -0.0235345  -0.000414933  0  0  0  0  0  0  0  0  0  0.0162407  0.0138402  -0.0193291  -0.0137576  -0.0150603  -0.00595736  -0.0065355  0.028211  -0.0248117  0.00814937  0.00132293  0.00652338 
1703174643.447759000  0  0  11.7781  0.0329039  -0.140647  0.0229549  nan  nan  nan  nan  nan  nan  -2.5  -0.3  1  0.0177771  -0.0218675  -0.000388751  0  0  0  0  0  0  0  0  0  0.0162217  0.0138685  -0.0192781  -0.0161486  -0.0150708  -0.00150878  -0.00662599  0.026491  -0.0247476  0.00567349  -0.00317937  0.00948135 
1703174643.451760000  0  0  11.716  0.0231642  -0.122006  0.0250802  nan  nan  nan  nan  nan  nan  -2.5  -0.3  1  0.017388  -0.0221774  -0.000385627  0  0  0  0  0  0  0  0  0  0.0161643  0.013806  -0.0192476  -0.0157236  -0.0155485  0.00284255  -0.00606264  0.026312  -0.0249975  0.0200767  -0.04109  -0.0142485 
1703174643.457748000  0  0  11.7874  0.0488574  -0.149599  0.0228822  nan  nan  nan  nan  nan  nan  -2.5  -0.3  1  0.0179458  -0.0226026  -0.000405632  0  0  0  0  0  0  0  0  0  0.0161554  0.0138282  -0.0192639  -0.0149352  -0.0147082  -0.00219658  -0.00697296  0.0270311  -0.0248303  -0.0245432  0.00980266  0.011392 
1703174643.462756000  0  0  11.7162  0.046668  -0.129972  0.0217148  nan  nan  nan  nan  nan  nan  -2.5  -0.3  1  0.0176433  -0.02135  -0.000376694  0  0  0  0  0  0  0  0  0  0.0161387  0.013849  -0.0192083  -0.0167716  -0.015324  0.00275134  -0.00675325  0.0255393  -0.0246068  -0.0223761  -0.0151196  0.0233866 
1703174643.467689000  0  0  11.6754  0.0310747  -0.113007  0.0239036  nan  nan  nan  nan  nan  nan  -2.5  -0.3  1  0.0173347  -0.021412  -0.000371179  0  0  0  0  0  0  0  0  0  0.0160631  0.0137741  -0.0191777  -0.0165751  -0.0156115  0.0055957  -0.00619707  0.0250923  -0.024836  0.00466134  -0.0463557  -0.00139063 
1703174643.472753000  0  0  11.7859  0.0793657  -0.159362  0.0207463  nan  nan  nan  nan  nan  nan  -2.5  -0.3  1  0.0184027  -0.0217021  -0.00039939  0  0  0  0  0  0  0  0  0  0.0160564  0.0138329  -0.0192113  -0.0158856  -0.0141021  -0.00220134  -0.00818231  0.0261837  -0.0244368  -0.0760478  0.0404864  0.0335235 
1703174643.477769000  0  0  11.7331  0.0563073  -0.13443  0.0230165  nan  nan  nan  nan  nan  nan  -2.5  -0.3  1  0.0174304  -0.0209256  -0.000364752  0  0  0  0  0  0  0  0  0  0.0159696  0.0137509  -0.0191796  -0.016827  -0.0153  0.00148854  -0.00714956  0.0251495  -0.0245735  -0.038486  -0.00107685  0.00660657 
1703174643.482692000  0  0  11.7151  0.0522758  -0.12824  0.0253699  nan  nan  nan  nan  nan  nan  -2.5  -0.3  1  0.0186606  -0.0215356  -0.000401882  0  0  0  0  0  0  0  0  0  0.0159734  0.0138048  -0.0191476  -0.0160541  -0.0138242  0.00271086  -0.00824655  0.0254228  -0.0249007  -0.0172214  -0.0174938  -0.0190605 
1703174643.487768000  0  0  11.762  0.0834401  -0.157434  0.021246  nan  nan  nan  nan  nan  nan  -2.5  -0.3  1  0.0185771  -0.0218801  -0.000406484  0  0  0  0  0  0  0  0  0  0.0159748  0.0138415  -0.0191514  -0.0154723  -0.0139402  -0.000627319  -0.00896642  0.0263422  -0.0244339  -0.0757636  0.0345295  0.0272002 
1703174643.492744000  0  0  11.4795  0.0483948  -0.150275  0.0143998  nan  nan  nan  nan  nan  nan  -2.5  -0.3  0.99  0.0183577  -0.0220315  -0.0104045  2e-07  2e-07  2e-07  0  0  0  0.000125  0.000125  0.000125  0.0158976  0.0137645  -0.0091547  -0.0155089  -0.0148965  -0.00130509  -0.00815319  0.026626  -0.014658  -0.00997352  0.0159135  -0.00449554 
1703174643.497686000  0  0  11.4388  0.072048  -0.157472  0.0138321  nan  nan  nan  nan  nan  nan  -2.5  -0.3  0.99  0.0202063  -0.0215017  -0.0104345  1.7e-06  1.7e-06  1.7e-06  0  0  0  0.0005  0.0005  0.0005  0.0158949  0.0138395  -0.00912573  -0.0162313  -0.0126946  0.00156945  -0.0102973  0.0263257  -0.0146336  -0.0360254  0.0347997  0.00235286 
1703174643.502751000  0  0  11.4568  0.066974  -0.164444  0.0130114  nan  nan  nan  nan  nan  nan  -2.5  -0.3  0.99  0.0183881  -0.0220818  -0.0104061  5.6e-06  5.6e-06  5.6e-06  0  0  0  0.001125  0.001125  0.001125  0.0158243  0.0137561  -0.00913092  -0.0151603  -0.0147484  0.000322679  -0.00878471  0.0271935  -0.0144994  -0.0425468  0.0397652  0.0110615 
1703174643.507742000  0  0  11.5172  0.0336856  -0.167432  0.0159121  nan  nan  nan  nan  nan  nan  -2.5  -0.3  0.99  0.0181586  -0.0224321  -0.0104074  1.33e-05  1.33e-05  1.33e-05  0  0  0  0.002  0.002  0.002  0.0158375  0.0138057  -0.00915539  -0.0144634  -0.0149569  -0.0038506  -0.00796686  0.027695  -0.0148794  0.019423  0.0404022  -0.0208554 
1703174643.512771000  0  0  11.468  0.053646  -0.162996  0.0151449  nan  nan  nan  nan  nan  nan  -2.5  -0.3  0.99  0.0192216  -0.0214927  -0.0104134  2.6e-05  2.6e-05  2.6e-05  0  0  0  0.003125  0.003125  0.003125  0.0158381  0.013851  -0.00912544  -0.0156764  -0.0136175  -0.000313963  -0.00920007  0.0269132  -0.0148898  -0.00918981  0.0398866  -0.0110765 
1703174643.517754000  0  0  11.5051  0.0254012  -0.161045  0.0191394  nan  nan  nan  nan  nan  nan  -2.5  -0.3  0.99  0.017016  -0.0226741  -0.0103863  4.5e-05  4.5e-05  4.5e-05  0  0  0  0.0045  0.0045  0.0045  0.0157788  0.0137642  -0.00914757  -0.0136934  -0.0160568  -0.00281554  -0.0067154  0.0281028  -0.0154581  0.0227895  0.0220175  -0.0544858 
1703174643.522741000  0  0  11.5997  0.0154851  -0.177907  0.0219941  nan  nan  nan  nan  nan  nan  -2.5  -0.299999  0.99  0.0177983  -0.0228214  -0.0104072  7.15e-05  7.15e-05  7.15e-05  0  0  0  0.006125  0.006125  0.006125  0.0157965  0.0138356  -0.00920534  -0.0130705  -0.0148148  -0.0092837  -0.00705899  0.0286583  -0.016139  0.048005  0.0517834  -0.0821974 
1703174643.527746000  0  0  11.4876  0.0356099  -0.161659  0.0203597  nan  nan  nan  nan  nan  nan  -2.5  -0.299999  0.99  0.0179125  -0.0210622  -0.010379  0.0001067  0.0001067  0.0001067  0  0  0  0.008  0.008  0.008  0.0157088  0.0137704  -0.00916089  -0.0152083  -0.0144349  -0.00125601  -0.00741097  0.0269812  -0.0162722  0.0089017  0.036238  -0.0600275 
1703174643.532741000  0  0  11.5549  0.0082448  -0.16142  0.0234157  nan  nan  nan  nan  nan  nan  -2.5  -0.299998  0.99  0.0164301  -0.0227287  -0.0103761  0.0001519  0.0001519  0.0001519  0  0  0  0.010125  0.010125  0.010125  0.0157527  0.013828  -0.00927696  -0.0126814  -0.0161821  -0.00564248  -0.00539164  0.0286561  -0.0169983  0.0443483  0.0164564  -0.0897265 
1703174643.536747000  0  0  11.6224  0.00460131  -0.173305  0.0230639  nan  nan  nan  nan  nan  nan  -2.5  -0.299997  0.99  0.0164572  -0.0220404  -0.0103669  0.0002083  0.0002083  0.0002083  0  0  0  0.0125  0.0125  0.0125  0.0156982  0.0137742  -0.00933304  -0.0129597  -0.0155442  -0.0101339  -0.00517343  0.0283438  -0.0172953  0.0496504  0.0455333  -0.0817196 
1703174643.542695000  0  0  11.5271  0.0283937  -0.155735  0.0197451  nan  nan  nan  nan  nan  nan  -2.5  -0.299996  0.99  0.0171674  -0.0204226  -0.0103567  0.0002773  0.0002773  0.0002773  0  0  0  0.015125  0.015125  0.015125  0.0156723  0.0137974  -0.00930329  -0.0149314  -0.0144747  -0.00320095  -0.00608591  0.0267264  -0.0172488  0.00913122  0.0264654  -0.0405224 
1703174643.547743000  0  0  11.5872  0.00156291  -0.148392  0.0217437  nan  nan  nan  nan  nan  nan  -2.49999  -0.299995  0.99001  0.0154911  -0.0215807  -0.0103429  0.00036  0.00036  0.00036  0  0  0  0.018  0.018  0.018  0.0156963  0.0138094  -0.00935613  -0.0129493  -0.0162719  -0.00713616  -0.00394384  0.0276646  -0.0177228  0.04202  -7.24297e-05  -0.0599567 
1703174643.551739000  0  0  11.6534  0.00824069  -0.155103  0.0205189  nan  nan  nan  nan  nan  nan  -2.49999  -0.299993  0.99001  0.0152584  -0.0211123  -0.010334  0.0004577  0.0004577  0.0004577  0  0  0  0.021125  0.021125  0.021125  0.0156464  0.0137525  -0.00941581  -0.0128637  -0.0158887  -0.0114731  -0.00372543  0.0273951  -0.0177899  0.0251884  0.0174173  -0.0437363 
1703174643.557765000  0  0  11.5911  0.0353275  -0.140935  0.0184753  nan  nan  nan  nan  nan  nan  -2.49999  -0.29999  0.99001  0.0160941  -0.0199625  -0.0103373  0.0005717  0.0005717  0.0005717  0  0  0  0.0245  0.0245  0.0245  0.0156365  0.0138251  -0.00948558  -0.0140735  -0.0146231  -0.00661115  -0.00490097  0.0262247  -0.01774  -0.0193685  0.000502143  -0.018625 
1703174643.562746000  0  0  11.6419  0.0171432  -0.127337  0.0211811  nan  nan  nan  nan  nan  nan  -2.49999  -0.299987  0.99001  0.0147739  -0.0200649  -0.0103175  0.0007031  0.0007031  0.0007031  0  0  0  0.028125  0.028125  0.028125  0.015649  0.0138688  -0.00958285  -0.0133935  -0.0159526  -0.00973461  -0.00336349  0.0260571  -0.0182068  0.00193545  -0.0267276  -0.0470425 
1703174643.567740000  0  0  11.7148  0.0253402  -0.137637  0.0213706  nan  nan  nan  nan  nan  nan  -2.49998  -0.299983  0.99002  0.0145447  -0.0201619  -0.0103205  0.0008533  0.0008533  0.0008533  0  0  0  0.032  0.032  0.032  0.0155866  0.0137991  -0.00967441  -0.0124073  -0.0154337  -0.0144113  -0.00334251  0.0262433  -0.0184521  -0.0158824  -0.0067843  -0.0464701 
1703174643.572754000  0  0  11.6811  0.0496533  -0.136137  0.0195758  nan  nan  nan  nan  nan  nan  -2.49998  -0.299978  0.99002  0.0153569  -0.018614  -0.0103207  0.0010235  0.0010235  0.0010235  0  0  0  0.036125  0.036125  0.036125  0.0155759  0.0138551  -0.0097446  -0.0139912  -0.0139867  -0.0115309  -0.00461366  0.0248755  -0.0184302  -0.053392  0.00573661  -0.0241524 
1703174643.577751000  0  0  11.727  0.0314052  -0.108563  0.0223576  nan  nan  nan  nan  nan  nan  -2.49997  -0.299973  0.99003  0.0131064  -0.0181675  -0.0102818  0.001215  0.001215  0.001215  0  0  0  0.0405  0.0405  0.0405  0.0155069  0.0137674  -0.00982795  -0.0137566  -0.0161244  -0.0142716  -0.00247208  0.0239488  -0.0188814  -0.038901  -0.0427286  -0.0537149 
1703174643.582702000  0  0  11.8172  0.0306054  -0.12111  0.0244461  nan  nan  nan  nan  nan  nan  -2.49997  -0.299966  0.99003  0.0132613  -0.0194878  -0.0103127  0.001429  0.001429  0.001429  0  0  0  0.045125  0.045125  0.045125  0.0155356  0.0138295  -0.00997706  -0.0112311  -0.015363  -0.0199983  -0.00271774  0.0252386  -0.0194371  -0.0343598  -0.0306632  -0.0732938 
1703174643.587755000  0  0  11.7623  0.0825414  -0.139293  0.0192632  nan  nan  nan  nan  nan  nan  -2.49996  -0.299958  0.99004  0.0147654  -0.0168122  -0.0103149  0.0016667  0.0016667  0.0016667  0  0  0  0.05  0.05  0.05  0.0155115  0.0139008  -0.010078  -0.0142613  -0.0129239  -0.0154876  -0.00527406  0.0232568  -0.0190753  -0.116315  0.0311254  -0.0124434 
1703174643.592737000  0  0  11.7675  0.0466421  -0.102342  0.0223754  nan  nan  nan  nan  nan  nan  -2.49995  -0.299949  0.99005  0.0121161  -0.0165362  -0.0102814  0.0019294  0.0019294  0.0019294  0  0  0  0.055125  0.055125  0.055125  0.0154469  0.0138131  -0.0101529  -0.0138056  -0.0155898  -0.0152898  -0.00269621  0.0223718  -0.0194961  -0.0689942  -0.0379253  -0.0465284 
1703174643.597752000  0  0  11.8916  0.0574416  -0.144309  0.0244585  nan  nan  nan  nan  nan  nan  -2.49994  -0.299939  0.99006  0.0129779  -0.0182538  -0.0103345  0.0022183  0.0022183  0.0022183  0  0  0  0.0605  0.0605  0.0605  0.0154651  0.0138808  -0.0103291  -0.0105352  -0.0137418  -0.0233204  -0.00392234  0.0246466  -0.0200143  -0.0780452  0.0258915  -0.0664937 
1703174643.601755000  0  0  11.8378  0.102132  -0.160114  0.0191405  nan  nan  nan  nan  nan  nan  -2.49993  -0.299927  0.99007  0.013674  -0.0152164  -0.0103247  0.0025348  0.0025348  0.0025348  0  0  0  0.066125  0.066125  0.066125  0.01539  0.0138418  -0.0103703  -0.0138415  -0.0119746  -0.018953  -0.00580055  0.0224475  -0.0195357  -0.152264  0.0850804  -0.00534869 
1703174643.607717000  0  0  11.8345  0.046826  -0.102724  0.0235736  nan  nan  nan  nan  nan  nan  -2.49991  -0.299914  0.99009  0.0107536  -0.015152  -0.0103011  0.00288  0.00288  0.00288  0  0  0  0.072  0.072  0.072  0.0153869  0.0138485  -0.0105016  -0.0131935  -0.0152174  -0.0179737  -0.00276839  0.0215669  -0.0201407  -0.068558  -0.0278457  -0.0538343 
1703174643.612757000  0  0  11.9673  0.0603376  -0.154954  0.0237013  nan  nan  nan  nan  nan  nan  -2.4999  -0.299898  0.9901  0.0116156  -0.0162563  -0.0103516  0.0032552  0.0032552  0.003255  0  0  0  0.078125  0.078125  0.0779792  0.0153965  0.0139297  -0.0106886  -0.010638  -0.0133011  -0.02656  -0.00399948  0.0235638  -0.0204731  -0.0833675  0.0611733  -0.0514351 
1703174643.617757000  0  0  11.8615  0.0881283  -0.149559  0.0170422  nan  nan  nan  nan  nan  nan  -2.49988  -0.299881  0.99012  0.0115027  -0.012519  -0.0103344  0.0036617  0.0036617  0.0036594  0  0  0  0.0845  0.0845  0.0837224  0.0153004  0.0138746  -0.0107371  -0.0148511  -0.0125471  -0.0184682  -0.00489316  0.0204952  -0.0197891  -0.132677  0.0849075  0.0241067 
1703174643.622712000  0  0  11.8565  0.0329398  -0.109034  0.0217539  nan  nan  nan  nan  nan  nan  -2.49986  -0.299862  0.99014  0.00872225  -0.011849  -0.0103248  0.0041006  0.0041006  0.0040918  0  0  0  0.091125  0.091125  0.0892156  0.0152633  0.0138821  -0.010968  -0.0148372  -0.0155016  -0.0171922  -0.00170349  0.019545  -0.0203379  -0.0510335  0.0089434  -0.0285622 
1703174643.627741000  0  0  12.0355  0.0302491  -0.169421  0.0235834  nan  nan  nan  nan  nan  nan  -2.49984  -0.29984  0.99016  0.00866288  -0.012765  -0.0103666  0.0045733  0.0045733  0.0045511  0  0  0  0.098  0.098  0.0944588  0.0152194  0.0138244  -0.0111693  -0.0122855  -0.0143499  -0.0291013  -0.00175682  0.0217246  -0.0208108  -0.0446506  0.113355  -0.0458809 
1703174643.632741000  0  0  11.9217  0.05264  -0.161432  0.0191241  nan  nan  nan  nan  nan  nan  -2.49982  -0.299816  0.99018  0.00867896  -0.0105849  -0.0103864  0.005081  0.005081  0.005036  0  0  0  0.105125  0.105125  0.099452  0.0152015  0.0138928  -0.0112285  -0.0144678  -0.013664  -0.0204779  -0.00241969  0.0202704  -0.0203878  -0.0850363  0.112952  0.00512779 
1703174643.637753000  0  0  11.9634  -0.00725021  -0.139997  0.025444  nan  nan  nan  nan  nan  nan  -2.49979  -0.299789  0.99021  0.00611488  -0.0106025  -0.0104018  0.005625  0.005625  0.0055452  0  0  0  0.1125  0.1125  0.104195  0.0152287  0.0139227  -0.0113493  -0.0135332  -0.01628  -0.022826  0.000817453  0.0203745  -0.0211681  0.00614202  0.0657941  -0.0649851 
1703174643.642707000  0  0  12.08  -0.0092396  -0.171459  0.0272046  nan  nan  nan  nan  nan  nan  -2.49976  -0.299759  0.99024  0.00532297  -0.0110342  -0.0104424  0.0062065  0.0062065  0.0060775  0  0  0  0.120125  0.120125  0.108688  0.0151802  0.0138535  -0.0115298  -0.0116549  -0.0161103  -0.030396  0.0015852  0.0218046  -0.0216907  0.00157531  0.116804  -0.080837 
1703174643.647763000  0  0  11.9705  0.0174647  -0.174814  0.0214892  nan  nan  nan  nan  nan  nan  -2.49973  -0.299727  0.99027  0.0051059  -0.00890806  -0.0104804  0.0068267  0.0068267  0.0066317  0  0  0  0.128  0.128  0.112932  0.0151697  0.0138962  -0.0116034  -0.0136715  -0.015529  -0.0221167  0.00122642  0.0206803  -0.0212158  -0.0515578  0.136931  -0.0146501 
1703174643.652762000  0  0  11.9571  -0.023773  -0.149604  0.025283  nan  nan  nan  nan  nan  nan  -2.49969  -0.299691  0.99031  0.00237877  -0.00731431  -0.0105081  0.0074869  0.0074869  0.0072064  0  0  0  0.136125  0.136125  0.116925  0.0150926  0.013802  -0.0117116  -0.0146377  -0.0179444  -0.0206214  0.0043465  0.0193212  -0.0217357  0.00097171  0.0985104  -0.0561175 
1703174643.657753000  0  0  12.0249  -0.00718177  -0.176159  0.0251138  nan  nan  nan  nan  nan  nan  -2.49965  -0.299652  0.99034  0.00209282  -0.00825122  -0.0105686  0.0081883  0.0081883  0.0078005  0  0  0  0.1445  0.1445  0.120668  0.015087  0.0138342  -0.0119806  -0.0121618  -0.0173251  -0.024606  0.00430837  0.0214266  -0.0219546  -0.0341654  0.131231  -0.0513492 
1703174643.662761000  0  0  11.9793  0.0160302  -0.184907  0.0207634  nan  nan  nan  nan  nan  nan  -2.49961  -0.299609  0.99038  0.00176168  -0.00653671  -0.0106284  0.0089323  0.0089323  0.0084127  0  0  0  0.153125  0.153125  0.124161  0.0150557  0.0138587  -0.012173  -0.0133579  -0.0167018  -0.0206843  0.00397098  0.0210111  -0.0215134  -0.0800562  0.154767  -0.00193015 
1703174643.667758000  0  0  11.9485  -0.0118399  -0.145516  0.023403  nan  nan  nan  nan  nan  nan  -2.49956  -0.299563  0.99043  -0.000778536  -0.0041311  -0.0106844  0.00972  0.00972  0.0090417  0  0  0  0.162  0.162  0.127404  0.0149708  0.0137622  -0.0122666  -0.0153301  -0.0187371  -0.0180239  0.00650118  0.0187165  -0.0217881  -0.0494039  0.0967024  -0.0318307 
1703174643.672762000  0  0  11.9802  -0.00286503  -0.163599  0.0249814  nan  nan  nan  nan  nan  nan  -2.49951  -0.299512  0.99047  -0.00133958  -0.00536098  -0.0107564  0.0105527  0.0105527  0.0096863  0  0  0  0.171125  0.171125  0.130398  0.015021  0.0137983  -0.0123165  -0.0125595  -0.018435  -0.0199602  0.00663786  0.020679  -0.0221069  -0.0702207  0.112898  -0.0478486 
1703174643.678121000  0  0  11.9625  0.02965  -0.168724  0.0203873  nan  nan  nan  nan  nan  nan  -2.49946  -0.299457  0.99052  -0.00134195  -0.00259448  -0.0108415  0.0114317  0.0114317  0.0103453  0  0  0  0.1805  0.1805  0.133141  0.0149848  0.0138183  -0.0124937  -0.0150568  -0.017215  -0.0180901  0.00564686  0.0191829  -0.0216296  -0.12854  0.1411  0.00420199 
1703174643.682762000  0  0  11.9172  -0.00229659  -0.116984  0.0237101  nan  nan  nan  nan  nan  nan  -2.4994  -0.299398  0.99058  -0.00429653  -0.00042658  -0.0109301  0.0123581  0.0123581  0.0110173  0  0  0  0.190125  0.190125  0.135634  0.0149025  0.0137164  -0.0125625  -0.0165986  -0.019687  -0.0145045  0.00846473  0.0166943  -0.0219369  -0.0924565  0.0587866  -0.0339009 
1703174643.687762000  0  0  11.9805  0.00513637  -0.138742  0.0265714  nan  nan  nan  nan  nan  nan  -2.49933  -0.299333  0.99063  -0.00495003  -0.00174492  -0.0110159  0.0133333  0.0133333  0.0117012  0  0  0  0.2  0.2  0.137877  0.0149369  0.0137627  -0.0126078  -0.0135766  -0.0194727  -0.0187488  0.00853087  0.0186508  -0.0224406  -0.109156  0.0829319  -0.0638316 
1703174643.692762000  0  0  11.9558  0.0414761  -0.144218  0.0216097  nan  nan  nan  nan  nan  nan  -2.49926  -0.299264  0.99069  -0.00573657  0.00143015  -0.011131  0.0143585  0.0143585  0.0123957  0  0  0  0.210125  0.210125  0.13987  0.014843  0.013678  -0.0126817  -0.0163804  -0.0189217  -0.0166407  0.00795708  0.0163912  -0.0219656  -0.180476  0.120671  -0.007127 
1703174643.697754000  0  0  11.9055  0.0141889  -0.105264  0.0246886  nan  nan  nan  nan  nan  nan  -2.49919  -0.29919  0.99076  -0.00773976  0.00225789  -0.0112444  0.015435  0.015435  0.0130995  0  0  0  0.2205  0.2205  0.141613  0.0148978  0.0136951  -0.0126367  -0.0163294  -0.0203118  -0.0130037  0.00953446  0.0154237  -0.0222778  -0.140112  0.0482731  -0.0421039 
1703174643.702738000  0  0  11.9412  0.0285655  -0.133332  0.0263632  nan  nan  nan  nan  nan  nan  -2.49911  -0.29911  0.99083  -0.00926435  0.00196282  -0.0113552  0.016564  0.016564  0.0138114  0  0  0  0.231125  0.231125  0.143107  0.0148386  0.0135969  -0.0127324  -0.0143888  -0.0207732  -0.015227  0.00995272  0.0165481  -0.0226129  -0.175751  0.0955229  -0.0591353 
1703174643.707741000  0  0  11.9162  0.0686321  -0.136814  0.0224341  nan  nan  nan  nan  nan  nan  -2.49902  -0.299024  0.9909  -0.00924  0.0045236  -0.0114949  0.0177467  0.0177467  0.0145301  0  0  0  0.242  0.242  0.14435  0.0148253  0.0136603  -0.0127159  -0.0164387  -0.0194172  -0.0133459  0.00830667  0.0149101  -0.0222057  -0.242727  0.121833  -0.0146057 
1703174643.712741000  0  0  11.8634  0.0462407  -0.111186  0.0259047  nan  nan  nan  nan  nan  nan  -2.49893  -0.298932  0.99097  -0.0108046  0.00538591  -0.0116335  0.0189844  0.0189844  0.0152545  0  0  0  0.253125  0.253125  0.145343  0.0148671  0.0136935  -0.0126496  -0.0162706  -0.0201186  -0.00962687  0.00915049  0.0141607  -0.0226055  -0.204422  0.075501  -0.0534552 
1703174643.717750000  0  0  11.88  0.0663258  -0.132599  0.0252651  nan  nan  nan  nan  nan  nan  -2.49883  -0.298834  0.99105  -0.0124864  0.00615336  -0.0117803  0.0202783  0.0202783  0.0159831  0  0  0  0.2645  0.2645  0.146086  0.014794  0.0135939  -0.0127178  -0.0156574  -0.0206527  -0.0105877  0.0093381  0.0143258  -0.0226389  -0.249647  0.119517  -0.0450044 
1703174643.722766000  0  0  11.8722  0.0826556  -0.136279  0.0230666  nan  nan  nan  nan  nan  nan  -2.49873  -0.298729  0.99113  -0.0128713  0.00778693  -0.0119382  0.0216298  0.0216298  0.0167149  0  0  0  0.276125  0.276125  0.146579  0.0148155  0.0136471  -0.0126603  -0.0164295  -0.0197587  -0.0100823  0.00822854  0.013568  -0.0224004  -0.271898  0.136125  -0.020218 
1703174643.727758000  0  0  11.8461  0.0661525  -0.118958  0.0253345  nan  nan  nan  nan  nan  nan  -2.49862  -0.298618  0.99122  -0.014889  0.00991454  -0.0121262  0.02304  0.02304  0.0174485  0  0  0  0.288  0.288  0.146823  0.0147303  0.0135448  -0.0127002  -0.0175471  -0.0205894  -0.00807803  0.00920779  0.0119416  -0.0226238  -0.247777  0.117695  -0.0460602 
1703174643.732739000  0  0  11.8472  0.0728629  -0.128469  0.0254054  nan  nan  nan  nan  nan  nan  -2.4985  -0.298499  0.99131  -0.016364  0.00969842  -0.0122842  0.0245102  0.0245102  0.0181827  0  0  0  0.300125  0.300125  0.146816  0.0147806  0.0135765  -0.0126276  -0.0158242  -0.0211031  -0.00830156  0.00928952  0.012923  -0.0227015  -0.263106  0.1268  -0.0460158 
1703174643.737758000  0  0  11.868  0.0767657  -0.145728  0.0241818  nan  nan  nan  nan  nan  nan  -2.49837  -0.298372  0.9914  -0.0170045  0.0108972  -0.012464  0.0260417  0.0260417  0.0189163  0  0  0  0.3125  0.3125  0.146559  0.0148125  0.0136194  -0.0125487  -0.015965  -0.0204871  -0.00993644  0.00859529  0.0128269  -0.0226034  -0.263488  0.164911  -0.0318022 
1703174643.742757000  0  0  11.8644  0.0654248  -0.128122  0.024043  nan  nan  nan  nan  nan  nan  -2.49824  -0.298238  0.99149  -0.0188953  0.0142793  -0.0127078  0.0276356  0.0276356  0.0196479  0  0  0  0.325125  0.325125  0.146052  0.0147157  0.013517  -0.0125851  -0.0186951  -0.0210544  -0.00956399  0.00939618  0.010229  -0.022527  -0.248384  0.157048  -0.0309772 
1703174643.747761000  0  0  11.8548  0.0549763  -0.13813  0.0260184  nan  nan  nan  nan  nan  nan  -2.4981  -0.298096  0.99159  -0.0210425  0.0131713  -0.0128809  0.0292933  0.0292933  0.0203764  0  0  0  0.338  0.338  0.145295  0.0147786  0.0135395  -0.0125045  -0.0156844  -0.0223573  -0.0091103  0.0103929  0.0121352  -0.022757  -0.237446  0.156578  -0.0530601 
1703174643.752740000  0  0  11.9256  0.0603539  -0.169772  0.0237948  nan  nan  nan  nan  nan  nan  -2.49795  -0.297945  0.9917  -0.0220906  0.015339  -0.0131144  0.031016  0.031016  0.0211004  0  0  0  0.351125  0.351125  0.144289  0.0146913  0.0134396  -0.0125987  -0.0168282  -0.0219154  -0.0139788  0.0102062  0.0116464  -0.0225248  -0.246829  0.23005  -0.0278802 
1703174643.757740000  0  0  11.8543  0.0528059  -0.143225  0.0236588  nan  nan  nan  nan  nan  nan  -2.49779  -0.297786  0.99181  -0.0236554  0.0180935  -0.0133818  0.032805  0.032805  0.0218188  0  0  0  0.3645  0.3645  0.143032  0.0147  0.0134813  -0.0124991  -0.0187674  -0.0221759  -0.00914185  0.0106661  0.00968004  -0.0224042  -0.235935  0.195748  -0.0276224 
1703174643.762733000  0  0  11.8746  0.0266828  -0.151359  0.0275081  nan  nan  nan  nan  nan  nan  -2.49762  -0.297617  0.99192  -0.0259925  0.0164779  -0.0135664  0.0346615  0.0346615  0.0225303  0  0  0  0.378125  0.378125  0.141525  0.0147659  0.0135172  -0.0124417  -0.0150342  -0.0237686  -0.010831  0.0122447  0.012116  -0.0228623  -0.198081  0.185164  -0.0705337 
1703174643.767739000  0  0  11.9266  0.0485756  -0.180085  0.0234739  nan  nan  nan  nan  nan  nan  -2.49744  -0.297439  0.99203  -0.0267276  0.0194099  -0.0138476  0.0365867  0.0365867  0.0232337  0  0  0  0.392  0.392  0.139768  0.0146696  0.013418  -0.0125209  -0.0170951  -0.022763  -0.0144247  0.0115832  0.0110175  -0.0224596  -0.237415  0.259397  -0.0246287 
1703174643.772738000  0  0  11.8103  0.0342062  -0.140162  0.023028  nan  nan  nan  nan  nan  nan  -2.49725  -0.297251  0.99215  -0.0292384  0.0220743  -0.014171  0.0385819  0.0385819  0.0239276  0  0  0  0.406125  0.406125  0.137761  0.0146807  0.0134337  -0.0124348  -0.0186904  -0.0239543  -0.00639852  0.0130668  0.00895393  -0.0222296  -0.223672  0.197534  -0.0217907 
1703174643.777744000  0  0  11.8643  0.0137285  -0.153963  0.0258226  nan  nan  nan  nan  nan  nan  -2.49705  -0.297053  0.99227  -0.0320073  0.0219305  -0.0144308  0.0406483  0.0406483  0.0246109  0  0  0  0.4205  0.4205  0.135505  0.0146114  0.0133066  -0.0125082  -0.0166061  -0.0256708  -0.0102316  0.0150236  0.0102309  -0.0224778  -0.202273  0.212435  -0.0539613 
1703174643.782739000  0  0  11.9221  0.0521292  -0.177677  0.0217391  nan  nan  nan  nan  nan  nan  -2.49684  -0.296844  0.99239  -0.0317257  0.0243413  -0.0147104  0.0427873  0.0427873  0.0252822  0  0  0  0.435125  0.435125  0.132998  0.0146004  0.0133506  -0.0125213  -0.0181209  -0.0236321  -0.0144459  0.0130473  0.00961423  -0.0219673  -0.261878  0.270378  -0.00873483 
1703174643.787741000  0  0  11.8064  0.0197912  -0.133721  0.0234429  nan  nan  nan  nan  nan  nan  -2.49662  -0.296625  0.99252  -0.0348448  0.0260821  -0.0150628  0.045  0.045  0.0259404  0  0  0  0.45  0.45  0.130241  0.0146326  0.0133575  -0.0124619  -0.0183682  -0.0254775  -0.00646805  0.0153439  0.00838772  -0.0219094  -0.218959  0.190237  -0.0308705 
1703174643.792740000  0  0  11.8763  0.00968382  -0.147138  0.0266798  nan  nan  nan  nan  nan  nan  -2.49639  -0.296394  0.99265  -0.0369438  0.0265616  -0.0153571  0.0472877  0.0472877  0.0265842  0  0  0  0.465125  0.465125  0.127234  0.0145578  0.0132322  -0.0125462  -0.0170909  -0.0262659  -0.0114464  0.0165024  0.00908444  -0.0222627  -0.210614  0.21099  -0.0673404 
1703174643.797745000  0  0  11.9023  0.0470535  -0.160271  0.0226564  nan  nan  nan  nan  nan  nan  -2.49615  -0.296152  0.99279  -0.0375748  0.0286742  -0.0156814  0.0496517  0.0496517  0.0272124  0  0  0  0.4805  0.4805  0.123977  0.0145475  0.0132626  -0.0125853  -0.0180467  -0.0252433  -0.0133859  0.0153472  0.0085297  -0.0217655  -0.277453  0.245533  -0.0227088 
1703174643.802750000  0  0  11.8441  0.0143916  -0.132224  0.0234949  nan  nan  nan  nan  nan  nan  -2.4959  -0.295898  0.99293  -0.0412372  0.0314451  -0.0161352  0.0520931  0.0520931  0.0278236  0  0  0  0.496125  0.496125  0.120471  0.0144536  0.0131228  -0.0126105  -0.0194112  -0.0274688  -0.00932559  0.0180963  0.0065991  -0.0215989  -0.239045  0.207603  -0.0352679 
1703174643.807745000  0  0  11.8548  0.0153893  -0.135561  0.0252116  nan  nan  nan  nan  nan  nan  -2.49563  -0.295631  0.99307  -0.0420822  0.0323877  -0.0164421  0.0546133  0.0546133  0.0284166  0  0  0  0.512  0.512  0.116714  0.0144672  0.0131374  -0.0126231  -0.0187202  -0.0265891  -0.0103028  0.0178198  0.00676308  -0.0217367  -0.238003  0.212872  -0.0552062 
1703174643.812751000  0  0  11.8924  0.0377529  -0.149186  0.0219021  nan  nan  nan  nan  nan  nan  -2.49535  -0.295351  0.99321  -0.043771  0.0339074  -0.0168103  0.0572135  0.0572135  0.0289903  0  0  0  0.528125  0.528125  0.112707  0.0144652  0.0131282  -0.0126477  -0.0188743  -0.0268848  -0.0131426  0.0178136  0.00668547  -0.0212521  -0.285885  0.242981  -0.019407 
1703174643.817737000  0  0  11.8594  0.0110112  -0.123308  0.0234354  nan  nan  nan  nan  nan  nan  -2.49506  -0.295059  0.99336  -0.0469822  0.0372824  -0.0173311  0.059895  0.059895  0.0295433  0  0  0  0.5445  0.5445  0.10845  0.0143595  0.0129867  -0.0126902  -0.0210025  -0.0284532  -0.0108529  0.0200087  0.00425952  -0.0211453  -0.253798  0.215401  -0.0399866 
1703174643.822735000  0  0  11.8318  0.00563506  -0.11229  0.025651  nan  nan  nan  nan  nan  nan  -2.49475  -0.294752  0.99351  -0.0484393  0.0381505  -0.017687  0.062659  0.062659  0.0300744  0  0  0  0.561125  0.561125  0.103943  0.0143546  0.0129766  -0.0126934  -0.0199151  -0.0280363  -0.00917751  0.0203778  0.00417304  -0.0213546  -0.246516  0.192771  -0.0653418 
1703174643.827690000  0  0  11.9096  0.0302806  -0.144692  0.0227089  nan  nan  nan  nan  nan  nan  -2.49443  -0.294432  0.99366  -0.0510196  0.0397827  -0.0181346  0.0655067  0.0655067  0.0305823  0  0  0  0.578  0.578  0.0991865  0.0142563  0.0128305  -0.0127901  -0.0200914  -0.02931  -0.0147284  0.0210343  0.00432732  -0.0208874  -0.306915  0.260472  -0.033954 
1703174643.832743000  0  0  11.8855  0.0125825  -0.118993  0.0235766  nan  nan  nan  nan  nan  nan  -2.4941  -0.294097  0.99381  -0.0533706  0.0434274  -0.0186947  0.0684394  0.068439  0.0310658  0  0  0  0.595125  0.594911  0.0941797  0.0141889  0.0128195  -0.0128401  -0.0226175  -0.0300108  -0.0131085  0.0222216  0.00179909  -0.0207486  -0.282624  0.234453  -0.0465453 
1703174643.837740000  0  0  11.8445  0.00937644  -0.109169  0.0250887  nan  nan  nan  nan  nan  nan  -2.49375  -0.293747  0.99397  -0.054947  0.0443428  -0.0190918  0.0714583  0.0714554  0.0315237  0  0  0  0.6125  0.611572  0.0889229  0.0141555  0.0128164  -0.0128894  -0.0213367  -0.0296632  -0.0104221  0.0225636  0.0018168  -0.0208634  -0.279684  0.213185  -0.0641871 
1703174643.842748000  0  0  11.9393  0.0413992  -0.147455  0.0211832  nan  nan  nan  nan  nan  nan  -2.49338  -0.293382  0.99413  -0.0572272  0.0459939  -0.019572  0.0745648  0.0745544  0.0319546  0  0  0  0.630125  0.627984  0.0834161  0.014046  0.0126658  -0.0130059  -0.0215609  -0.0307323  -0.0171778  0.0225835  0.00221054  -0.0202408  -0.348578  0.29075  -0.0225518 
1703174643.847739000  0  0  11.8991  0.0109504  -0.114057  0.0227499  nan  nan  nan  nan  nan  nan  -2.493  -0.293002  0.99429  -0.0596762  0.0492498  -0.0201699  0.07776  0.0777348  0.0323574  0  0  0  0.647955  0.644146  0.0776593  0.0139923  0.0126258  -0.0130295  -0.0234103  -0.0314621  -0.014517  0.0239065  -7.0791e-05  -0.0201066  -0.298508  0.24538  -0.0438825 
1703174643.852744000  0  0  11.8347  0.00791043  -0.117349  0.0245272  nan  nan  nan  nan  nan  nan  -2.4926  -0.292605  0.99445  -0.0621229  0.0502218  -0.0206481  0.081044  0.0809954  0.0327308  0  0  0  0.665619  0.660058  0.0716736  0.0138926  0.0124735  -0.013061  -0.0218486  -0.0317782  -0.0102258  0.0248699  0.000190947  -0.0201855  -0.303073  0.249429  -0.0652927 
1703174643.857755000  0  0  11.9308  0.0379414  -0.146204  0.020049  nan  nan  nan  nan  nan  nan  -2.49219  -0.292192  0.99461  -0.0638178  0.0526297  -0.0211904  0.0844157  0.0843349  0.0330744  0  0  0  0.683032  0.67572  0.0658122  0.0137882  0.0124033  -0.0132685  -0.0232231  -0.0324148  -0.016873  0.0243599  5.51951e-05  -0.0194769  -0.3616  0.312864  -0.0174882 
1703174643.862761000  0  0  11.8935  0.0116426  -0.120921  0.0230943  nan  nan  nan  nan  nan  nan  -2.49176  -0.291761  0.99478  -0.0665098  0.0559858  -0.0218651  0.0878739  0.0877522  0.0333894  0  0  0  0.700196  0.691132  0.0602008  0.0137118  0.0123796  -0.0133476  -0.0252367  -0.0335914  -0.014256  0.0257863  -0.00201365  -0.0195032  -0.321619  0.282451  -0.0554881 
1703174643.867746000  0  0  11.8583  0.0258089  -0.134775  0.0245261  nan  nan  nan  nan  nan  nan  -2.49131  -0.291314  0.99495  -0.0681565  0.0573019  -0.0223631  0.0914173  0.0912458  0.0336769  0  0  0  0.71711  0.706294  0.0548394  0.0135998  0.0122251  -0.0134019  -0.0243388  -0.0330611  -0.011922  0.0255501  -0.00164565  -0.0195846  -0.349277  0.307924  -0.0725221 
1703174643.872757000  0  0  11.9113  0.0542046  -0.160389  0.0208107  nan  nan  nan  nan  nan  nan  -2.49085  -0.290849  0.99512  -0.0700102  0.0591276  -0.0229194  0.0950446  0.0948147  0.0339382  0  0  0  0.733773  0.721205  0.0497281  0.0135334  0.0122119  -0.0135171  -0.0249142  -0.0339094  -0.0156417  0.0250466  -0.00122274  -0.0189778  -0.404372  0.35798  -0.033089 
1703174643.877755000  0  0  11.9216  0.0193453  -0.149245  0.0242302  nan  nan  nan  nan  nan  nan  -2.49036  -0.290366  0.99529  -0.0731354  0.0618454  -0.0236318  0.0987546  0.0984575  0.0341746  0  0  0  0.750187  0.735867  0.0448667  0.0133961  0.0120335  -0.0135974  -0.0263155  -0.0357047  -0.0163107  0.026797  -0.00227527  -0.0190633  -0.349762  0.346195  -0.075083 
1703174643.882763000  0  0  11.8376  0.0421819  -0.159452  0.025548  nan  nan  nan  nan  nan  nan  -2.48986  -0.289864  0.99546  -0.0733088  0.0636377  -0.0241084  0.102546  0.102173  0.0343873  0  0  0  0.76635  0.750279  0.0402553  0.0133858  0.0120725  -0.0135851  -0.0260272  -0.0333512  -0.0106192  0.0249404  -0.00211666  -0.019268  -0.37737  0.366255  -0.0891977 
1703174643.887761000  0  0  11.8852  0.0562949  -0.178504  0.0227856  nan  nan  nan  nan  nan  nan  -2.48934  -0.289344  0.99563  -0.0759591  0.0644421  -0.0246797  0.106418  0.10596  0.0345775  0  0  0  0.782264  0.764441  0.0358939  0.0133569  0.0120581  -0.0136212  -0.0254348  -0.0353908  -0.014065  0.025302  -0.000766868  -0.0187928  -0.411793  0.39158  -0.0601671 
1703174643.892762000  0  0  11.93  0.0296158  -0.17908  0.0253441  nan  nan  nan  nan  nan  nan  -2.48879  -0.288804  0.99581  -0.0780911  0.0669493  -0.0253603  0.110368  0.109817  0.0347466  0  0  0  0.797928  0.778353  0.0317825  0.0132132  0.0118822  -0.0137235  -0.0268741  -0.0362264  -0.0170898  0.0259788  -0.00123832  -0.0189146  -0.362372  0.398238  -0.0908915 
1703174643.897761000  0  0  11.8209  0.0652953  -0.178862  0.0241263  nan  nan  nan  nan  nan  nan  -2.48823  -0.288246  0.99598  -0.0785523  0.0691286  -0.0259156  0.114397  0.113743  0.0348958  0  0  0  0.813341  0.792015  0.0279211  0.0131844  0.0118877  -0.0136822  -0.0269212  -0.0339724  -0.00957755  0.0239982  -0.00145601  -0.0187733  -0.416092  0.400274  -0.0772708 
1703174643.902764000  0  0  11.9025  0.0683987  -0.191662  0.0227225  nan  nan  nan  nan  nan  nan  -2.48765  -0.287667  0.99615  -0.0822773  0.0692753  -0.026546  0.118501  0.117737  0.0350263  0  0  0  0.828505  0.805427  0.0243098  0.0130684  0.0116909  -0.0137844  -0.0256395  -0.0374137  -0.0151922  0.0252944  0.000493094  -0.0183344  -0.437658  0.405297  -0.0648992 
1703174643.907758000  0  0  11.9554  0.0598954  -0.197159  0.023084  nan  nan  nan  nan  nan  nan  -2.48705  -0.287068  0.99633  -0.0826038  0.0722183  -0.0271774  0.122681  0.121797  0.0351393  0  0  0  0.843418  0.818589  0.0209484  0.0130077  0.0116295  -0.0138206  -0.028054  -0.0362696  -0.0189012  0.0238509  -0.00030708  -0.0182779  -0.402819  0.42629  -0.0701295 
1703174643.912736000  0  0  11.8218  0.0810587  -0.17754  0.021667  nan  nan  nan  nan  nan  nan  -2.48642  -0.286449  0.99651  -0.0841733  0.0746947  -0.0278717  0.126935  0.125922  0.0352362  0  0  0  0.858082  0.8315  0.017837  0.0129392  0.0115939  -0.013794  -0.0282638  -0.0351929  -0.00948718  0.0229964  -0.00109195  -0.0179233  -0.438368  0.393251  -0.0565744 
1703174643.917757000  0  0  11.9228  0.0736323  -0.187492  0.023073  nan  nan  nan  nan  nan  nan  -2.48578  -0.285809  0.99668  -0.086861  0.0746292  -0.0284462  0.131262  0.130111  0.0353181  0  0  0  0.872495  0.844162  0.0149756  0.0128224  0.0114026  -0.0139061  -0.0269862  -0.0375714  -0.0164395  0.0235604  0.000903393  -0.0178283  -0.428932  0.391637  -0.0754096 
1703174643.922762000  0  0  11.9859  0.086048  -0.191134  0.0221224  nan  nan  nan  nan  nan  nan  -2.48511  -0.285148  0.99686  -0.0865196  0.0780863  -0.0291039  0.13566  0.134363  0.0353863  0  0  0  0.886659  0.856574  0.0123642  0.0127129  0.0114155  -0.0139903  -0.030184  -0.0359032  -0.0206884  0.0211531  -0.000344629  -0.0176709  -0.42786  0.413804  -0.0653464 
1703174643.927760000  0  0  11.8636  0.0798305  -0.15209  0.0221387  nan  nan  nan  nan  nan  nan  -2.48442  -0.284465  0.99704  -0.0895146  0.0806977  -0.0299636  0.140128  0.138677  0.0354421  0  0  0  0.900573  0.868736  0.0100028  0.0125659  0.0112354  -0.0140053  -0.0305495  -0.0364924  -0.0118421  0.0219928  -0.0017261  -0.017371  -0.424188  0.345977  -0.069167 
1703174643.932755000  0  0  12.0061  0.0793952  -0.1774  0.0242203  nan  nan  nan  nan  nan  nan  -2.48371  -0.283761  0.99721  -0.0903834  0.0803839  -0.0304028  0.144665  0.14305  0.0354868  0  0  0  0.914236  0.880648  0.0078914  0.012544  0.0112218  -0.0140735  -0.0296977  -0.037475  -0.0218573  0.0208415  0.000535634  -0.0175229  -0.410011  0.374228  -0.0935269 
1703174643.937751000  0  0  12.005  0.0891515  -0.173564  0.0229959  nan  nan  nan  nan  nan  nan  -2.48297  -0.283034  0.99739  -0.0910348  0.0834175  -0.0311346  0.14927  0.147483  0.0355215  0  0  0  0.92765  0.89231  0.0060301  0.0124421  0.011176  -0.0141057  -0.0319126  -0.0364789  -0.0215769  0.0193416  -0.00065224  -0.0173149  -0.413675  0.379667  -0.0806278 
1703174643.942760000  0  0  11.8719  0.0694058  -0.141792  0.0229522  nan  nan  nan  nan  nan  nan  -2.48222  -0.282286  0.99757  -0.094296  0.085947  -0.0320564  0.153941  0.151973  0.0355475  0  0  0  0.940813  0.903722  0.0044187  0.0122975  0.0109935  -0.0141201  -0.0321128  -0.0373385  -0.0118827  0.0207985  -0.00198935  -0.017026  -0.388095  0.326924  -0.083561 
1703174643.947735000  0  0  11.9987  0.071333  -0.161959  0.022661  nan  nan  nan  nan  nan  nan  -2.48143  -0.281515  0.99775  -0.0950655  0.0866085  -0.0326015  0.158677  0.15652  0.0355661  0  0  0  0.953727  0.914883  0.0030573  0.0121986  0.0109612  -0.0142235  -0.0324271  -0.0380766  -0.0205824  0.0197284  -0.000797198  -0.0169199  -0.379917  0.356452  -0.081175 
1703174643.952760000  0  0  11.9703  0.0703673  -0.156402  0.0206152  nan  nan  nan  nan  nan  nan  -2.48063  -0.280721  0.99792  -0.0969283  0.0893084  -0.0334475  0.163478  0.161121  0.0355785  0  0  0  0.966391  0.925795  0.0019459  0.012038  0.0107811  -0.0142872  -0.0338835  -0.038162  -0.0181865  0.0196681  -0.00173854  -0.0164524  -0.377153  0.355365  -0.0610706 
1703174643.957748000  0  0  11.9089  0.0622116  -0.141323  0.0206106  nan  nan  nan  nan  nan  nan  -2.4798  -0.279903  0.9981  -0.0987555  0.0917157  -0.0342776  0.168341  0.165777  0.0355859  0  0  0  0.978804  0.936457  0.0010845  0.0118931  0.0107252  -0.0143295  -0.0346382  -0.0382188  -0.013519  0.0198383  -0.00269324  -0.0161536  -0.361623  0.334015  -0.0646131 
1703174643.962761000  0  0  11.9858  0.0577998  -0.144804  0.0212379  nan  nan  nan  nan  nan  nan  -2.47895  -0.279063  0.99828  -0.0996494  0.0925956  -0.0348823  0.173265  0.170486  0.0355897  0  0  0  0.990968  0.946869  0.0004731  0.0117601  0.0106937  -0.0144242  -0.0348139  -0.0387131  -0.0186288  0.0191807  -0.00196943  -0.0160388  -0.344598  0.333153  -0.0738897 
1703174643.967762000  0  0  11.9893  0.0552006  -0.156961  0.0207983  nan  nan  nan  nan  nan  nan  -2.47807  -0.278198  0.99846  -0.101588  0.0941994  -0.0356667  0.17825  0.175245  0.0355911  0  0  0  1.00288  0.957031  0.0001118  0.011588  0.0105011  -0.0145129  -0.0351702  -0.0393567  -0.0184342  0.0193832  -0.00167593  -0.0157429  -0.341354  0.355843  -0.0719255 
1703174643.972758000  0  0  11.9413  0.0540246  -0.141322  0.0203624  nan  nan  nan  nan  nan  nan  -2.47716  -0.27731  0.99864  -0.102957  0.0975181  -0.036585  0.183294  0.180055  0.0355913  0  0  0  1.01454  0.966943  -0  0.0114114  0.0104552  -0.0145437  -0.0373005  -0.0389659  -0.014613  0.0191335  -0.00342059  -0.0154358  -0.33596  0.342382  -0.0701436 
1703174643.977753000  0  0  11.993  0.0390247  -0.143114  0.0219446  nan  nan  nan  nan  nan  nan  -2.47623  -0.276398  0.99881  -0.10527  0.0980709  -0.0373238  0.188395  0.184914  0.0355913  0  0  0  1.02596  0.976605  -0  0.011235  0.01025  -0.0146409  -0.0368444  -0.0407624  -0.0178126  0.0199853  -0.0024107  -0.0153481  -0.313596  0.334606  -0.0911075 
1703174643.982760000  0  0  12.023  0.0491143  -0.17358  0.0214709  nan  nan  nan  nan  nan  nan  -2.47528  -0.275461  0.99899  -0.105681  0.0989306  -0.0379147  0.193553  0.189821  0.0355913  0  0  0  1.03712  0.986017  -0  0.0111036  0.0101756  -0.0147019  -0.0366281  -0.0400978  -0.0196624  0.0187271  -0.00108453  -0.0152162  -0.320756  0.384676  -0.0867381 
1703174643.987762000  0  0  11.9485  0.0490932  -0.158924  0.0204606  nan  nan  nan  nan  nan  nan  -2.4743  -0.274499  0.99917  -0.107585  0.102626  -0.0389675  0.198766  0.194774  0.0355913  0  0  0  1.04804  0.995178  -0  0.0108894  0.0100502  -0.0148306  -0.0389691  -0.039929  -0.0136787  0.0189493  -0.00280369  -0.0148062  -0.323266  0.373028  -0.078968 
1703174643.992761000  0  0  12.0092  0.0277049  -0.161709  0.0237973  nan  nan  nan  nan  nan  nan  -2.47329  -0.273513  0.99935  -0.109653  0.102356  -0.0396242  0.204033  0.199772  0.0355913  0  0  0  1.0587  1.00409  -0  0.0107098  0.00984024  -0.0149426  -0.0376054  -0.0416571  -0.0175544  0.0197822  -0.000914041  -0.0149807  -0.286987  0.35726  -0.118848 
1703174643.997753000  0  0  12.0439  0.0568785  -0.19904  0.0218208  nan  nan  nan  nan  nan  nan  -2.47226  -0.272502  0.99953  -0.110111  0.103673  -0.0402944  0.209353  0.204815  0.0355913  0  0  0  1.06911  1.01275  -0  0.0105336  0.00973004  -0.0150666  -0.0380819  -0.0410824  -0.0195524  0.018298  0.0003365  -0.0148197  -0.332468  0.422921  -0.0959188 
1703174644.002772000  0  0  11.9446  0.0566992  -0.172112  0.0205785  nan  nan  nan  nan  nan  nan  -2.4712  -0.271465  0.9997  -0.112646  0.10718  -0.041439  0.214724  0.2099  0.0355913  0  0  0  1.07928  1.02116  -0  0.0103328  0.00953101  -0.0150837  -0.0399941  -0.0413086  -0.0120002  0.0189508  -0.00151752  -0.0143477  -0.339593  0.386508  -0.0859789 
1703174644.007717000  0  0  11.9902  0.0431607  -0.181374  0.0236905  nan  nan  nan  nan  nan  nan  -2.47011  -0.270403  0.99988  -0.113661  0.106717  -0.041987  0.220145  0.215026  0.0355913  0  0  0  1.08919  1.02933  -0  0.0101832  0.00943332  -0.0151153  -0.0383384  -0.0418622  -0.0150772  0.0187071  0.000624364  -0.014576  -0.30776  0.381728  -0.122383 
1703174644.012766000  0  0  11.9853  0.0702974  -0.215482  0.0202762  nan  nan  nan  nan  nan  nan  -2.469  -0.269315  1.00006  -0.114016  0.107861  -0.0426524  0.225615  0.220192  0.0355913  0  0  0  1.09885  1.03724  -0  0.0100204  0.00938965  -0.0151353  -0.0382166  -0.0409502  -0.0145334  0.0171004  0.00201605  -0.0141674  -0.347464  0.438853  -0.0843484 
1703174644.017762000  0  0  11.9136  0.0563684  -0.189307  0.0208916  nan  nan  nan  nan  nan  nan  -2.46785  -0.268201  1.00024  -0.116168  0.110565  -0.0437039  0.231133  0.225398  0.0355913  0  0  0  1.10827  1.0449  -0  0.00981127  0.00918679  -0.0151617  -0.03938  -0.0410822  -0.00899416  0.0176665  0.000936366  -0.0139227  -0.324109  0.395149  -0.0950395 
1703174644.022737000  0  0  11.9584  0.0561036  -0.19262  0.0233554  nan  nan  nan  nan  nan  nan  -2.46668  -0.267061  1.00042  -0.11689  0.110467  -0.0442826  0.236697  0.230641  0.0355913  0  0  0  1.11743  1.05231  -0  0.00967659  0.00907149  -0.0151624  -0.0383691  -0.0412564  -0.0120658  0.0168827  0.00261124  -0.0141422  -0.314524  0.382985  -0.123395 
1703174644.027739000  0  0  11.9526  0.0750082  -0.213502  0.0204505  nan  nan  nan  nan  nan  nan  -2.46549  -0.265894  1.00059  -0.11872  0.111135  -0.0450818  0.242307  0.235921  0.0355913  0  0  0  1.12634  1.05947  -0  0.0094991  0.0088621  -0.0152107  -0.0377279  -0.0419874  -0.0113164  0.016613  0.0041444  -0.0136544  -0.351958  0.410122  -0.0927241 
1703174644.032735000  0  0  11.9149  0.0656462  -0.194038  0.0217915  nan  nan  nan  nan  nan  nan  -2.46426  -0.264701  1.00077  -0.11911  0.113682  -0.0459504  0.24796  0.241235  0.0355913  0  0  0  1.13501  1.06639  -0  0.00931288  0.00879746  -0.0151539  -0.0391622  -0.0406313  -0.00849695  0.0155642  0.00312523  -0.013654  -0.319818  0.380112  -0.109602 
1703174644.037734000  0  0  11.9324  0.0746015  -0.189735  0.0217539  nan  nan  nan  nan  nan  nan  -2.46301  -0.263482  1.00095  -0.120127  0.114462  -0.046689  0.253657  0.246584  0.0355913  0  0  0  1.14342  1.07305  -0  0.00910498  0.00865711  -0.01529  -0.0389233  -0.0408066  -0.00925625  0.0148454  0.00409418  -0.0135482  -0.330751  0.359738  -0.110405 
1703174644.042743000  0  0  11.9834  0.0773141  -0.207552  0.0209356  nan  nan  nan  nan  nan  nan  -2.46172  -0.262235  1.00113  -0.121973  0.113917  -0.0473705  0.259394  0.251965  0.0355913  0  0  0  1.15159  1.07946  -0  0.0089193  0.00844172  -0.0153707  -0.0374712  -0.0424864  -0.0125342  0.0148558  0.00652659  -0.0132544  -0.336687  0.369959  -0.10365 
1703174644.047737000  0  0  11.9473  0.0778967  -0.195112  0.020968  nan  nan  nan  nan  nan  nan  -2.46041  -0.260962  1.00131  -0.121649  0.117153  -0.0482662  0.265172  0.257378  0.0355913  0  0  0  1.1595  1.08562  -0  0.00871619  0.00839843  -0.0153402  -0.0398836  -0.0402587  -0.00976138  0.0131104  0.00487827  -0.0132355  -0.317856  0.362248  -0.104285 
1703174644.052741000  0  0  11.9248  0.0721105  -0.179684  0.0217621  nan  nan  nan  nan  nan  nan  -2.45907  -0.259662  1.00148  -0.124043  0.11762  -0.0491541  0.270989  0.262821  0.0355913  0  0  0  1.16716  1.09153  -0  0.00852982  0.00818746  -0.0153658  -0.0389198  -0.0416764  -0.00785265  0.0138452  0.00564337  -0.0130433  -0.313902  0.320364  -0.116593 
1703174644.057755000  0  0  11.9601  0.0729224  -0.192494  0.0223291  nan  nan  nan  nan  nan  nan  -2.4577  -0.258334  1.00166  -0.124793  0.117134  -0.0497351  0.276843  0.268293  0.0355913  0  0  0  1.17458  1.09719  -0  0.0083579  0.00812194  -0.0153521  -0.0374251  -0.042189  -0.0103271  0.0131544  0.00764071  -0.0130476  -0.307696  0.324853  -0.123675 
1703174644.062760000  0  0  11.9332  0.0908623  -0.180568  0.0189702  nan  nan  nan  nan  nan  nan  -2.4563  -0.256979  1.00184  -0.12333  0.12125  -0.0506259  0.282734  0.273793  0.0355913  0  0  0  1.18174  1.10261  -0  0.00815502  0.00804316  -0.0153252  -0.0411758  -0.03844  -0.00819077  0.0100756  0.00505154  -0.0127613  -0.310744  0.329069  -0.084864 
1703174644.067757000  0  0  11.882  0.0748525  -0.147118  0.0202934  nan  nan  nan  nan  nan  nan  -2.45488  -0.255596  1.00202  -0.126289  0.121429  -0.0515757  0.28866  0.279319  0.0355913  0  0  0  1.18865  1.10777  -0  0.00797732  0.00783125  -0.0153341  -0.0395614  -0.0403256  -0.00428174  0.0115378  0.00542864  -0.0124817  -0.293237  0.253005  -0.104884 
1703174644.072756000  0  0  11.9759  0.0788053  -0.17705  0.0216618  nan  nan  nan  nan  nan  nan  -2.45342  -0.254185  1.00219  -0.126256  0.120719  -0.0520515  0.29462  0.28487  0.0355913  0  0  0  1.19532  1.11268  -0  0.00775893  0.0077592  -0.0153987  -0.0385467  -0.040693  -0.010792  0.0101941  0.00773992  -0.012629  -0.286254  0.290597  -0.120326 
1703174644.077755000  0  0  11.9248  0.0891358  -0.159457  0.0185023  nan  nan  nan  nan  nan  nan  -2.45193  -0.252747  1.00237  -0.126254  0.124353  -0.0530838  0.300613  0.290445  0.0355913  0  0  0  1.20173  1.11734  -0  0.00753622  0.00758094  -0.0154124  -0.0414154  -0.0384188  -0.00678639  0.00860899  0.00540423  -0.0122156  -0.29017  0.279743  -0.0855552 
1703174644.082762000  0  0  11.9093  0.0567764  -0.131956  0.0206484  nan  nan  nan  nan  nan  nan  -2.45041  -0.251281  1.00255  -0.1286  0.12383  -0.0538926  0.306637  0.296043  0.0355913  0  0  0  1.20789  1.12175  -0  0.00732709  0.00742518  -0.0155118  -0.0393306  -0.0402821  -0.00532224  0.0100333  0.00644536  -0.0120906  -0.237169  0.208796  -0.114064 
1703174644.087763000  0  0  12.0121  0.0660404  -0.165143  0.0213543  nan  nan  nan  nan  nan  nan  -2.44886  -0.249787  1.00273  -0.128162  0.123583  -0.0543916  0.312691  0.301662  0.0355913  0  0  0  1.21381  1.12592  -0  0.00715113  0.00734011  -0.015484  -0.0393096  -0.040259  -0.0126321  0.00836348  0.0080561  -0.0122302  -0.237823  0.261428  -0.121264 
1703174644.092761000  0  0  11.942  0.0719968  -0.142113  0.0184975  nan  nan  nan  nan  nan  nan  -2.44728  -0.248264  1.00291  -0.128402  0.126931  -0.055441  0.318775  0.307302  0.0355913  0  0  0  1.21947  1.12983  -0  0.00693137  0.00716105  -0.0154916  -0.0416182  -0.0381418  -0.00731578  0.00729526  0.00570944  -0.0118321  -0.238306  0.239042  -0.0901171 
1703174644.097752000  0  0  11.9252  0.0471399  -0.140455  0.0201645  nan  nan  nan  nan  nan  nan  -2.44568  -0.246714  1.00308  -0.130346  0.126508  -0.0562317  0.324886  0.31296  0.0355913  0  0  0  1.22488  1.13349  -0  0.00680228  0.0070513  -0.0153884  -0.039951  -0.039659  -0.00620762  0.00841972  0.00673219  -0.0116507  -0.197943  0.223722  -0.113279 
1703174644.102764000  0  0  12.0681  0.0510095  -0.175964  0.0207232  nan  nan  nan  nan  nan  nan  -2.44404  -0.245135  1.00326  -0.130418  0.125437  -0.056702  0.331023  0.318636  0.0355913  0  0  0  1.23005  1.1369  -0  0.00660897  0.00685028  -0.0155117  -0.039526  -0.0407663  -0.016058  0.00748035  0.00942635  -0.0117195  -0.195433  0.268867  -0.119478 
1703174644.107758000  0  0  11.9887  0.0560835  -0.16219  0.0181701  nan  nan  nan  nan  nan  nan  -2.44237  -0.243527  1.00344  -0.129911  0.128483  -0.0576374  0.337186  0.324329  0.0355913  0  0  0  1.23496  1.14006  -0  0.00637686  0.00678096  -0.0154558  -0.0412875  -0.0379176  -0.0103321  0.0060602  0.00741116  -0.0113797  -0.189975  0.262515  -0.0914502 
1703174644.112760000  0  0  11.9696  0.0326416  -0.158531  0.0204131  nan  nan  nan  nan  nan  nan  -2.44066  -0.241891  1.00362  -0.131747  0.128959  -0.0585485  0.343372  0.330036  0.0355913  0  0  0  1.23963  1.14298  -0  0.00618442  0.00667119  -0.0154141  -0.0407371  -0.0392629  -0.00883966  0.007261  0.00776933  -0.0112833  -0.153524  0.250548  -0.120836 
1703174644.117748000  0  0  12.0611  0.0316437  -0.180123  0.0211207  nan  nan  nan  nan  nan  nan  -2.43893  -0.240227  1.0038  -0.131821  0.128065  -0.0590543  0.349582  0.335758  0.0355913  0  0  0  1.24404  1.14564  -0  0.00598792  0.00647079  -0.0155174  -0.0398972  -0.0397346  -0.0151182  0.0066282  0.01007  -0.011396  -0.144105  0.27038  -0.12838 
1703174644.122763000  0  0  11.9899  0.0538146  -0.179607  0.0182062  nan  nan  nan  nan  nan  nan  -2.43717  -0.238534  1.00397  -0.131171  0.130784  -0.0599434  0.355812  0.341492  0.0355913  0  0  0  1.2482  1.14805  -0  0.00574145  0.00642715  -0.0154764  -0.0413544  -0.0369923  -0.00998591  0.00494537  0.00866137  -0.011057  -0.172285  0.285479  -0.095795 
1703174644.127760000  0  0  11.9369  0.0217364  -0.161933  0.0192788  nan  nan  nan  nan  nan  nan  -2.43537  -0.236812  1.00415  -0.13386  0.131571  -0.0610267  0.362063  0.347238  0.0355913  0  0  0  1.25212  1.15021  -0  0.00553401  0.00622404  -0.0154926  -0.0408222  -0.0387847  -0.00587356  0.00712604  0.00870734  -0.0107464  -0.128588  0.247052  -0.113036 
1703174644.132762000  0  0  12.0336  0.023634  -0.185001  0.0217502  nan  nan  nan  nan  nan  nan  -2.43355  -0.235061  1.00433  -0.133529  0.130292  -0.0614373  0.368333  0.352994  0.0355913  0  0  0  1.25578  1.15212  -0  0.00530815  0.00607762  -0.0156814  -0.0395529  -0.0390958  -0.012433  0.00619675  0.0114651  -0.0110706  -0.121967  0.26479  -0.140222 
1703174644.137740000  0  0  11.971  0.0553212  -0.194571  0.0179262  nan  nan  nan  nan  nan  nan  -2.43169  -0.233282  1.00451  -0.132888  0.133087  -0.0623514  0.374621  0.358759  0.0355913  0  0  0  1.25919  1.15378  -0  0.00504848  0.00598275  -0.0156189  -0.0412849  -0.0364128  -0.0079332  0.00437  0.0101741  -0.0106897  -0.168896  0.300162  -0.0966994 
1703174644.142739000  0  0  11.8847  0.0137298  -0.163289  0.0202711  nan  nan  nan  nan  nan  nan  -2.4298  -0.231474  1.00469  -0.136287  0.133375  -0.0634813  0.380925  0.364531  0.0355913  0  0  0  1.26236  1.1552  -0  0.00485391  0.00577858  -0.0156096  -0.0397188  -0.0387937  -0.00153025  0.00740272  0.0104032  -0.010445  -0.114603  0.23045  -0.129154 
1703174644.147739000  0  0  11.9446  0.0214968  -0.187812  0.0221492  nan  nan  nan  nan  nan  nan  -2.42788  -0.229637  1.00486  -0.135549  0.132592  -0.0639102  0.387244  0.37031  0.0355913  0  0  0  1.26527  1.15636  -0  0.00461956  0.0057229  -0.0156071  -0.0386139  -0.0383431  -0.00589456  0.00610787  0.012441  -0.0108076  -0.116361  0.25959  -0.148413 
1703174644.152739000  0  0  11.8666  0.0731563  -0.19774  0.0162045  nan  nan  nan  nan  nan  nan  -2.42593  -0.227771  1.00504  -0.135167  0.135833  -0.0649326  0.393577  0.376095  0.0355913  0  0  0  1.26793  1.15727  -0  0.00440414  0.00555857  -0.015594  -0.0409003  -0.0356162  -0.000139707  0.00399169  0.01092  -0.0101777  -0.202787  0.298377  -0.0812076 
1703174644.157737000  0  0  11.8036  0.0302427  -0.161894  0.0211675  nan  nan  nan  nan  nan  nan  -2.42395  -0.225876  1.00522  -0.137887  0.135484  -0.0658993  0.399923  0.381883  0.0355913  0  0  0  1.27035  1.15793  -0  0.00418858  0.00542055  -0.0155448  -0.0388106  -0.0377406  0.00440373  0.00640562  0.0114847  -0.0102996  -0.13854  0.215018  -0.142185 
1703174644.161751000  0  0  11.9374  0.0280611  -0.191296  0.0247617  nan  nan  nan  nan  nan  nan  -2.42193  -0.223952  1.0054  -0.138424  0.133877  -0.0663933  0.40628  0.387673  0.0355913  0  0  0  1.27251  1.15834  -0  0.00364868  0.00489018  -0.0156584  -0.0371591  -0.0389563  -0.00483715  0.0063733  0.0142096  -0.0106888  -0.13349  0.246714  -0.182717 
1703174644.167753000  0  0  11.8661  0.0997085  -0.203596  0.0182889  nan  nan  nan  nan  nan  nan  -2.41988  -0.221999  1.00558  -0.134957  0.135332  -0.0667613  0.412647  0.393466  0.0355913  0  0  0  1.27442  1.15851  -0  0.00375897  0.00524564  -0.015608  -0.0378451  -0.0339682  -0.000186273  0.00097776  0.0145662  -0.0105602  -0.225048  0.268987  -0.102824 
1703174644.172752000  0  0  11.8353  0.0555797  -0.162189  0.0243589  nan  nan  nan  nan  nan  nan  -2.4178  -0.220017  1.00575  -0.136802  0.134112  -0.067494  0.419024  0.399258  0.0355913  0  0  0  1.27609  1.15842  -0  0.00358066  0.00516054  -0.0155906  -0.0352316  -0.0357616  0.00198048  0.00250221  0.0157253  -0.0109541  -0.147963  0.166864  -0.174451 
1703174644.177748000  0  0  11.9728  0.100683  -0.219135  0.0237779  nan  nan  nan  nan  nan  nan  -2.41569  -0.218006  1.00593  -0.134265  0.132607  -0.0675944  0.425408  0.405049  0.0355913  0  0  0  1.2775  1.15808  -0  0.00340151  0.00499845  -0.0156771  -0.0346005  -0.0340211  -0.00793249  -0.00138719  0.0189693  -0.0114758  -0.19993  0.25165  -0.160851 
1703174644.182754000  0  0  11.8491  0.142065  -0.19914  0.0176065  nan  nan  nan  nan  nan  nan  -2.41355  -0.215967  1.00611  -0.13401  0.135318  -0.0685708  0.431798  0.410839  0.0355913  0  0  0  1.27867  1.15749  -0  0.00318289  0.00494895  -0.0156236  -0.0356114  -0.0313892  0.000882506  -0.00345083  0.0171164  -0.0107948  -0.264923  0.230094  -0.09141 
1703174644.187694000  0  0  11.8381  0.100207  -0.168824  0.0218735  nan  nan  nan  nan  nan  nan  -2.41137  -0.213898  1.00629  -0.135307  0.134846  -0.0693352  0.438194  0.416624  0.0355913  0  0  0  1.27958  1.15665  -0  0.00295839  0.00484152  -0.015626  -0.034263  -0.0326896  0.00174412  -0.00257492  0.0176519  -0.0110018  -0.185247  0.158928  -0.142603 
1703174644.192745000  0  0  11.9746  0.136438  -0.213985  0.0209644  nan  nan  nan  nan  nan  nan  -2.40917  -0.2118  1.00647  -0.132469  0.133008  -0.0693553  0.444594  0.422405  0.0355913  0  0  0  1.28024  1.15556  -0  0.00281719  0.00471405  -0.015714  -0.0333475  -0.0307462  -0.00819389  -0.00670114  0.0209475  -0.0113618  -0.215464  0.21785  -0.126826 
1703174644.197739000  0  0  11.9227  0.157622  -0.202409  0.0164642  nan  nan  nan  nan  nan  nan  -2.40693  -0.209674  1.00664  -0.132204  0.134506  -0.0701689  0.450996  0.428179  0.0355913  0  0  0  1.28066  1.15423  -0  0.00262819  0.00461164  -0.0157008  -0.0340546  -0.0292335  -0.00445002  -0.00861753  0.0199126  -0.0106955  -0.238842  0.204934  -0.0782345 
1703174644.202748000  0  0  11.9232  0.0982599  -0.170585  0.0220358  nan  nan  nan  nan  nan  nan  -2.40466  -0.207519  1.00682  -0.133525  0.134138  -0.0709531  0.4574  0.433946  0.0355913  0  0  0  1.28082  1.15264  -0  0.00246617  0.00445141  -0.0157179  -0.0333139  -0.0306805  -0.00434422  -0.00725316  0.0202703  -0.0110571  -0.127251  0.132581  -0.143979 
1703174644.207745000  0  0  11.9881  0.126343  -0.196209  0.0207451  nan  nan  nan  nan  nan  nan  -2.40235  -0.205334  1.007  -0.131383  0.132851  -0.0711467  0.463804  0.439705  0.0355913  0  0  0  1.28073  1.1508  -0  0.00226728  0.00442206  -0.0158053  -0.0319675  -0.0289261  -0.00913637  -0.0102202  0.0224125  -0.0112177  -0.153334  0.162881  -0.125802 
1703174644.212750000  0  0  11.9699  0.125263  -0.201403  0.0175904  nan  nan  nan  nan  nan  nan  -2.40002  -0.203121  1.00718  -0.131542  0.13334  -0.0718863  0.470207  0.445454  0.0355913  0  0  0  1.2804  1.14871  -0  0.00207443  0.00431591  -0.0159269  -0.0319721  -0.0286751  -0.00755494  -0.0108701  0.0228693  -0.0106926  -0.143542  0.168762  -0.0924385 
1703174644.217741000  0  0  11.9855  0.0808373  -0.172449  0.0211971  nan  nan  nan  nan  nan  nan  -2.39765  -0.20088  1.00736  -0.132094  0.133326  -0.0726139  0.476607  0.451192  0.0355913  0  0  0  1.27981  1.14637  -0  0.00190248  0.00416115  -0.015972  -0.0319615  -0.0293798  -0.00848445  -0.0100896  0.0228636  -0.0109387  -0.0572608  0.106744  -0.134852 
1703174644.222754000  0  0  12.0328  0.0858678  -0.190918  0.0203594  nan  nan  nan  nan  nan  nan  -2.39525  -0.19861  1.00753  -0.130855  0.131606  -0.0728771  0.483005  0.456917  0.0355913  0  0  0  1.27897  1.14379  -0  0.00174164  0.00409715  -0.0160279  -0.0300044  -0.0286284  -0.0120528  -0.0116005  0.0248724  -0.0109999  -0.0506662  0.123236  -0.123575 
1703174644.227754000  0  0  12.0278  0.0765229  -0.196352  0.0168798  nan  nan  nan  nan  nan  nan  -2.39282  -0.196311  1.00771  -0.131259  0.132209  -0.0736653  0.489397  0.462629  0.0355913  0  0  0  1.27789  1.14095  -0  0.00158107  0.00395135  -0.0160753  -0.0305976  -0.0288636  -0.0114961  -0.0113821  0.0249693  -0.0104354  -0.0331411  0.133773  -0.0865983 
1703174644.232753000  0  0  11.9891  0.0312367  -0.15652  0.0212954  nan  nan  nan  nan  nan  nan  -2.39036  -0.193983  1.00789  -0.131378  0.132236  -0.0743405  0.495783  0.468326  0.0355913  0  0  0  1.27655  1.13786  -0  0.00143663  0.00387503  -0.0161011  -0.0298938  -0.028539  -0.00870025  -0.0105637  0.0242541  -0.0107607  0.0545491  0.056591  -0.138235 
1703174644.237748000  0  0  12.0551  0.0319988  -0.182285  0.0214679  nan  nan  nan  nan  nan  nan  -2.38786  -0.191627  1.00807  -0.130493  0.130322  -0.0746288  0.502162  0.474008  0.0355913  0  0  0  1.27496  1.13452  -0  0.00125435  0.00378525  -0.0162197  -0.0280332  -0.0285771  -0.0134302  -0.011101  0.0265543  -0.0109315  0.059096  0.0853747  -0.138348 
1703174644.242703000  0  0  12.0673  0.0378414  -0.194568  0.0179675  nan  nan  nan  nan  nan  nan  -2.38534  -0.189243  1.00825  -0.130542  0.131035  -0.0753839  0.508532  0.479671  0.0355913  0  0  0  1.27313  1.13093  -0  0.00108289  0.00362342  -0.0162879  -0.0290879  -0.0286098  -0.0140541  -0.0110493  0.0265352  -0.0104785  0.0459739  0.111932  -0.099765 
