ts x y z roll pitch yaw vx vy vz wx wy wz ax ay az dwx dwy dwz jx jy jz ddwx ddwy ddwz
1704803629.280754000  -2.5  -0.3  1  0  0  0  -2e-07  2e-07  2e-07  0  0  0  -0.000125  0.000125  0.000125  0  0  0  0  0  0  0  0  0 
1704803629.285237000  -2.5  -0.3  1  0  0  0  -1.7e-06  1.7e-06  1.7e-06  0  0  0  -0.0005  0.0005  0.0005  0  0  0  0  0  0  0  0  0 
1704803629.290231000  -2.5  -0.3  1  0  0  0  -5.6e-06  5.6e-06  5.6e-06  0  0  0  -0.001125  0.001125  0.001125  0  0  0  0  0  0  0  0  0 
1704803629.295235000  -2.5  -0.3  1  0  0  1e-07  -1.33e-05  1.33e-05  1.33e-05  0  0  0  -0.002  0.002  0.002  0  0  0  0  0  0  0  0  0 
1704803629.300239000  -2.5  -0.3  1  0  0  2e-07  -2.6e-05  2.6e-05  2.6e-05  0  0  0  -0.003125  0.003125  0.003125  0  0  0  0  0  0  0  0  0 
1704803629.305235000  -2.5  -0.3  1  0  0  4e-07  -4.5e-05  4.5e-05  4.5e-05  0  0  0  -0.0045  0.0045  0.0045  0  0  0  0  0  0  0  0  0 
1704803629.310236000  -2.5  -0.299999  1  0  0  6e-07  -7.15e-05  7.15e-05  7.15e-05  0  0  0  -0.006125  0.006125  0.006125  0  0  0  0  0  0  0  0  0 
1704803629.315231000  -2.5  -0.299999  1  0  0  8e-07  -0.0001067  0.0001067  0.0001067  0  0  0  -0.008  0.008  0.008  0  0  0  0  0  0  0  0  0 
1704803629.320241000  -2.5  -0.299998  1  0  0  1e-06  -0.0001519  0.0001519  0.0001519  0  0  0  -0.010125  0.010125  0.010125  0  0  0  0  0  0  0  0  0 
1704803629.325237000  -2.5  -0.299997  1  0  0  1.2e-06  -0.0002083  0.0002083  0.0002083  0  0  0  -0.0125  0.0125  0.0125  0  0  0  0  0  0  0  0  0 
1704803629.330232000  -2.5  -0.299996  1  0  0  1.4e-06  -0.0002773  0.0002773  0.0002773  0  0  0  -0.015125  0.015125  0.015125  0  0  0  0  0  0  0  0  0 
1704803629.335233000  -2.50001  -0.299995  1.00001  0  0  1.7e-06  -0.00036  0.00036  0.00036  0  0  0  -0.018  0.018  0.018  0  0  0  0  0  0  0  0  0 
1704803629.340239000  -2.50001  -0.299993  1.00001  0  0  2e-06  -0.0004577  0.0004577  0.0004577  0  0  0  -0.021125  0.021125  0.021125  0  0  0  0  0  0  0  0  0 
1704803629.345233000  -2.50001  -0.29999  1.00001  0  0  2.4e-06  -0.0005717  0.0005717  0.0005717  0  0  0  -0.0245  0.0245  0.0245  0  0  0  0  0  0  0  0  0 
1704803629.350235000  -2.50001  -0.299987  1.00001  0  0  2.9e-06  -0.0007031  0.0007031  0.0007031  0  0  0  -0.028125  0.028125  0.028125  0  0  0  0  0  0  0  0  0 
1704803629.355232000  -2.50002  -0.299983  1.00002  0  0  3.6e-06  -0.0008533  0.0008533  0.0008533  0  0  0  -0.032  0.032  0.032  0  0  0  0  0  0  0  0  0 
1704803629.360247000  -2.50002  -0.299978  1.00002  0  0  4.6e-06  -0.0010235  0.0010235  0.0010235  0  0  0  -0.036125  0.036125  0.036125  0  0  0  0  0  0  0  0  0 
1704803629.365250000  -2.50003  -0.299973  1.00003  0  0  5.9e-06  -0.001215  0.001215  0.001215  0  0  0  -0.0405  0.0405  0.0405  0  0  0  0  0  0  0  0  0 
1704803629.370232000  -2.50003  -0.299966  1.00003  0  0  7.6e-06  -0.001429  0.001429  0.001429  0  0  0  -0.045125  0.045125  0.045125  0  0  0  0  0  0  0  0  0 
1704803629.375230000  -2.50004  -0.299958  1.00004  0  0  9.8e-06  -0.0016667  0.0016667  0.0016667  0  0  0  -0.05  0.05  0.05  0  0  0  0  0  0  0  0  0 
1704803629.380234000  -2.50005  -0.299949  1.00005  0  0  1.27e-05  -0.0019294  0.0019294  0.0019294  0  0  0  -0.055125  0.055125  0.055125  0  0  0  0  0  0  0  0  0 
1704803629.385236000  -2.50006  -0.299939  1.00006  0  0  1.63e-05  -0.0022183  0.0022183  0.0022183  0  0  0  -0.0605  0.0605  0.0605  0  0  0  0  0  0  0  0  0 
1704803629.390236000  -2.50007  -0.299927  1.00007  0  0  2.08e-05  -0.0025348  0.0025348  0.0025348  0  0  0  -0.066125  0.066125  0.066125  0  0  0  0  0  0  0  0  0 
1704803629.395234000  -2.50009  -0.299914  1.00009  0  0  2.62e-05  -0.00288  0.00288  0.00288  0  0  0  -0.072  0.072  0.072  0  0  0  0  0  0  0  0  0 
1704803629.400236000  -2.5001  -0.299898  1.0001  0  0  3.29e-05  -0.0032552  0.0032552  0.0032552  0  0  0  -0.078125  0.078125  0.078125  0  0  0  0  0  0  0  0  0 
1704803629.405236000  -2.50012  -0.299881  1.00012  0  0  4.08e-05  -0.0036614  0.0036613  0.0036614  0  0  0  -0.0842964  0.084283  0.0842964  0  0  0  0  0  0  0  0  0 
1704803629.410236000  -2.50014  -0.299862  1.00014  0  0  5.02e-05  -0.0040978  0.0040976  0.0040978  0  0  0  -0.0902201  0.0901921  0.0902201  0  0  0  0  0  0  0  0  0 
1704803629.415234000  -2.50016  -0.29984  1.00016  0  0  6.13e-05  -0.0045631  0.0045628  0.0045631  0  0  0  -0.0958938  0.0958512  0.0958938  0  0  0  0  0  0  0  0  0 
1704803629.420240000  -2.50018  -0.299816  1.00018  0  0  7.41e-05  -0.0050563  0.0050557  0.0050563  0  0  0  -0.101318  0.10126  0.101318  0  0  0  0  0  0  0  0  0 
1704803629.425237000  -2.50021  -0.299789  1.00021  0  0  8.91e-05  -0.0055759  0.005575  0.0055759  0  0  0  -0.106491  0.10642  0.106491  0  0  0  0  0  0  0  0  0 
1704803629.430235000  -2.50024  -0.29976  1.00024  0  0  0.0001062  -0.0061208  0.0061195  0.0061208  0  0  0  -0.111415  0.111329  0.111415  0  0  0  0  0  0  0  0  0 
1704803629.435235000  -2.50027  -0.299728  1.00027  0  0  0.0001259  -0.0066896  0.0066879  0.0066896  0  0  0  -0.116089  0.115988  0.116089  0  0  0  0  0  0  0  0  0 
1704803629.440235000  -2.50031  -0.299693  1.00031  0  0  0.0001482  -0.0072812  0.007279  0.0072812  0  0  0  -0.120512  0.120397  0.120512  0  0  0  0  0  0  0  0  0 
1704803629.445234000  -2.50034  -0.299655  1.00034  0  0  0.0001734  -0.0078943  0.0078914  0.0078943  0  0  0  -0.124686  0.124556  0.124686  0  0  0  0  0  0  0  0  0 
1704803629.450237000  -2.50039  -0.299614  1.00039  0  0  0.0002018  -0.0085277  0.0085241  0.0085277  0  0  0  -0.12861  0.128465  0.12861  0  0  0  0  0  0  0  0  0 
1704803629.455233000  -2.50043  -0.29957  1.00043  0  0  0.0002336  -0.00918  0.0091757  0.00918  0  0  0  -0.132284  0.132124  0.132284  0  0  0  0  0  0  0  0  0 
1704803629.460237000  -2.50048  -0.299522  1.00048  0  0  0.000269  -0.0098501  0.0098449  0.0098501  0  0  0  -0.135707  0.135533  0.135707  0  0  0  0  0  0  0  0  0 
1704803629.465236000  -2.50053  -0.299472  1.00053  0  0  0.0003083  -0.0105367  0.0105306  0.0105367  0  0  0  -0.138881  0.138693  0.138881  0  0  0  0  0  0  0  0  0 
1704803629.470234000  -2.50058  -0.299417  1.00058  0  0  0.0003517  -0.0112385  0.0112314  0.0112385  0  0  0  -0.141805  0.141602  0.141805  0  0  0  0  0  0  0  0  0 
1704803629.475234000  -2.50064  -0.299359  1.00064  0  0  0.0003993  -0.0119543  0.0119462  0.0119543  0  0  0  -0.144479  0.144261  0.144479  0  0  0  0  0  0  0  0  0 
1704803629.480232000  -2.5007  -0.299298  1.0007  0  0  0.0004515  -0.0126829  0.0126736  0.0126829  0  0  0  -0.146902  0.14667  0.146902  0  0  0  0  0  0  0  0  0 
1704803629.485234000  -2.50077  -0.299232  1.00077  0  0  0.0005083  -0.0134229  0.0134125  0.0134229  0  0  0  -0.149076  0.148829  0.149076  0  0  0  0  0  0  0  0  0 
1704803629.490233000  -2.50084  -0.299164  1.00084  0  0  0.0005699  -0.0141732  0.0141615  0.0141732  0  0  0  -0.151  0.150738  0.151  0  0  0  0  0  0  0  0  0 
1704803629.495233000  -2.50091  -0.299091  1.00091  0  0  0.0006365  -0.0149325  0.0149194  0.0149325  0  0  0  -0.152674  0.152397  0.152674  0  0  0  0  0  0  0  0  0 
1704803629.500235000  -2.50099  -0.299014  1.00099  0  0  0.0007083  -0.0156995  0.0156851  0.0156995  0  0  0  -0.154097  0.153806  0.154097  0  0  0  0  0  0  0  0  0 
1704803629.505233000  -2.50107  -0.298934  1.00107  0  0  0.0007853  -0.0164731  0.0164571  0.0164731  0  0  0  -0.155271  0.154966  0.155271  0  0  0  0  0  0  0  0  0 
1704803629.510233000  -2.50115  -0.29885  1.00115  0  0  0.0008678  -0.0172518  0.0172343  0.0172518  0  0  0  -0.156195  0.155875  0.156195  0  0  0  0  0  0  0  0  0 
1704803629.515233000  -2.50124  -0.298762  1.00124  0  0  0.0009559  -0.0180346  0.0180154  0.0180346  0  0  0  -0.156868  0.156534  0.156868  0  0  0  0  0  0  0  0  0 
1704803629.520232000  -2.50133  -0.29867  1.00133  0  0  0.0010496  -0.0188201  0.0187992  0.0188201  0  0  0  -0.157292  0.156943  0.157292  0  0  0  0  0  0  0  0  0 
1704803629.525234000  -2.50143  -0.298574  1.00143  0  0  0.001149  -0.0196071  0.0195844  0.0196071  0  0  0  -0.157466  0.157102  0.157466  0  0  0  0  0  0  0  0  0 
1704803629.530231000  -2.50153  -0.298474  1.00153  0  0  0.0012543  -0.0203943  0.0203698  0.0203943  0  0  0  -0.15739  0.157011  0.15739  0  0  0  0  0  0  0  0  0 
1704803629.535233000  -2.50163  -0.29837  1.00163  0  0  0.0013656  -0.0211806  0.0211541  0.0211806  0  0  0  -0.157063  0.15667  0.157063  0  0  0  0  0  0  0  0  0 
1704803629.540232000  -2.50174  -0.298262  1.00174  0  0  0.0014829  -0.0219646  0.0219361  0.0219646  0  0  0  -0.156487  0.15608  0.156487  0  0  0  0  0  0  0  0  0 
1704803629.545232000  -2.50185  -0.298151  1.00185  0  0  0.0016062  -0.022745  0.0227145  0.022745  0  0  0  -0.155661  0.155239  0.155661  0  0  0  0  0  0  0  0  0 
1704803629.550235000  -2.50197  -0.298035  1.00197  0  0  0.0017357  -0.0235208  0.0234881  0.0235208  0  0  0  -0.154585  0.154148  0.154585  0  0  0  0  0  0  0  0  0 
1704803629.555232000  -2.50209  -0.297916  1.00209  0  0  0.0018714  -0.0242905  0.0242556  0.0242905  0  0  0  -0.153258  0.152807  0.153258  0  0  0  0  0  0  0  0  0 
1704803629.560232000  -2.50221  -0.297793  1.00221  0  0  0.0020132  -0.0250529  0.0250157  0.0250529  0  0  0  -0.151682  0.151216  0.151682  0  0  0  0  0  0  0  0  0 
1704803629.565233000  -2.50234  -0.297666  1.00234  0  0  0.0021613  -0.0258069  0.0257673  0.0258069  0  0  0  -0.149856  0.149375  0.149856  0  0  0  0  0  0  0  0  0 
1704803629.570232000  -2.50247  -0.297535  1.00247  0  0  0.0023157  -0.0265511  0.0265091  0.0265511  0  0  0  -0.14778  0.147284  0.14778  0  0  0  0  0  0  0  0  0 
1704803629.575233000  -2.5026  -0.2974  1.0026  0  0  0.0024763  -0.0272842  0.0272397  0.0272842  0  0  0  -0.145453  0.144943  0.145453  0  0  0  0  0  0  0  0  0 
1704803629.580232000  -2.50274  -0.297262  1.00274  0  0  0.0026431  -0.0280052  0.0279581  0.0280052  0  0  0  -0.142877  0.142353  0.142877  0  0  0  0  0  0  0  0  0 
1704803629.585233000  -2.50288  -0.297121  1.00288  0  0  0.0028162  -0.0287126  0.0286629  0.0287126  0  0  0  -0.140051  0.139512  0.140051  0  0  0  0  0  0  0  0  0 
1704803629.590236000  -2.50303  -0.296976  1.00303  0  0  0.0029956  -0.0294053  0.0293528  0.0294053  0  0  0  -0.136974  0.136421  0.136974  0  0  0  0  0  0  0  0  0 
1704803629.595232000  -2.50318  -0.296827  1.00318  0  0  0.0031812  -0.0300819  0.0300266  0.0300819  0  0  0  -0.133648  0.13308  0.133648  0  0  0  0  0  0  0  0  0 
1704803629.600248000  -2.50333  -0.296676  1.00333  0  0  0.003373  -0.0307413  0.0306832  0.0307413  0  0  0  -0.130072  0.129489  0.130072  0  0  0  0  0  0  0  0  0 
1704803629.605232000  -2.50348  -0.296521  1.00348  0  0  0.0035711  -0.0313822  0.0313211  0.0313822  0  0  0  -0.126246  0.125648  0.126246  0  0  0  0  0  0  0  0  0 
1704803629.610232000  -2.50364  -0.296362  1.00364  0  0  0.0037755  -0.0320034  0.0319392  0.0320034  0  0  0  -0.122169  0.121557  0.122169  0  0  0  0  0  0  0  0  0 
1704803629.615233000  -2.5038  -0.296201  1.0038  0  0  0.0039861  -0.0326035  0.0325363  0.0326035  0  0  0  -0.117843  0.117217  0.117843  0  0  0  0  0  0  0  0  0 
1704803629.620239000  -2.50397  -0.296037  1.00397  0  0  0.0042029  -0.0331814  0.033111  0.0331814  0  0  0  -0.113267  0.112626  0.113267  0  0  0  0  0  0  0  0  0 
1704803629.625232000  -2.50414  -0.29587  1.00414  0  0  0.004426  -0.0337358  0.0336621  0.0337358  0  0  0  -0.108441  0.107785  0.108441  0  0  0  0  0  0  0  0  0 
1704803629.630233000  -2.50431  -0.295701  1.00431  0  0  0.0046554  -0.0342654  0.0341884  0.0342654  0  0  0  -0.103364  0.102694  0.103364  0  0  0  0  0  0  0  0  0 
1704803629.635233000  -2.50448  -0.295528  1.00448  0  0  0.004891  -0.034769  0.0346886  0.034769  0  0  0  -0.0980381  0.0973531  0.0980381  0  0  0  0  0  0  0  0  0 
1704803629.640239000  -2.50465  -0.295354  1.00465  0  0  0.0051328  -0.0352453  0.0351615  0.0352453  0  0  0  -0.0924618  0.0917622  0.0924618  0  0  0  0  0  0  0  0  0 
1704803629.645232000  -2.50483  -0.295177  1.00483  0  0  0.005175  -0.0356932  0.0356058  0.0356932  0  0  0  -0.0866355  0.0859214  0.0866355  0  0  0  0  0  0  0  0  0 
1704803629.650231000  -2.50501  -0.294998  1.00501  0  0  0.005175  -0.0361113  0.0360203  0.0361113  0  0  0  -0.0805593  0.0798305  0.0805593  0  0  0  0  0  0  0  0  0 
1704803629.655233000  -2.50519  -0.294817  1.00519  0  0  0.005175  -0.0364985  0.0364039  0.0364985  0  0  0  -0.0743582  0.0736477  0.0743582  0  0  0  0  0  0  0  0  0 
1704803629.660240000  -2.50537  -0.294634  1.00537  0  0  0.005175  -0.0368553  0.0367572  0.0368553  0  0  0  -0.0683857  0.0677044  0.0683857  0  0  0  0  0  0  0  0  0 
1704803629.665232000  -2.50556  -0.294449  1.00556  0  0  0.005175  -0.0371828  0.0370814  0.0371828  0  0  0  -0.0626633  0.0620112  0.0626633  0  0  0  0  0  0  0  0  0 
1704803629.670233000  -2.50575  -0.294263  1.00575  0  0  0.005175  -0.0374823  0.0373778  0.0374823  0  0  0  -0.0571908  0.0565679  0.0571908  0  0  0  0  0  0  0  0  0 
1704803629.675233000  -2.50593  -0.294075  1.00593  0  0  0.005175  -0.0377551  0.0376475  0.0377551  0  0  0  -0.0519683  0.0513746  0.0519683  0  0  0  0  0  0  0  0  0 
1704803629.680241000  -2.50612  -0.293887  1.00612  0  0  0.005175  -0.0380024  0.0378919  0.0380024  0  0  0  -0.0469959  0.0464314  0.0469959  0  0  0  0  0  0  0  0  0 
1704803629.685233000  -2.50631  -0.293697  1.00631  0  0  0.005175  -0.0382255  0.0381122  0.0382255  0  0  0  -0.0422734  0.0417381  0.0422734  0  0  0  0  0  0  0  0  0 
1704803629.690233000  -2.50651  -0.293505  1.00651  0  0  0.005175  -0.0384256  0.0383097  0.0384256  0  0  0  -0.0378009  0.0372948  0.0378009  0  0  0  0  0  0  0  0  0 
1704803629.695232000  -2.5067  -0.293313  1.0067  0  0  0.005175  -0.0386039  0.0384856  0.0386039  0  0  0  -0.0335785  0.0331016  0.0335785  0  0  0  0  0  0  0  0  0 
1704803629.700232000  -2.50689  -0.293121  1.00689  0  0  0.005175  -0.0387618  0.0386411  0.0387618  0  0  0  -0.029606  0.0291583  0.029606  0  0  0  0  0  0  0  0  0 
1704803629.705247000  -2.50709  -0.292927  1.00709  0  0  0.005175  -0.0389004  0.0387776  0.0389004  0  0  0  -0.0258835  0.025465  0.0258835  0  0  0  0  0  0  0  0  0 
1704803629.710249000  -2.50728  -0.292733  1.00728  0  0  0.005175  -0.039021  0.0388962  0.039021  0  0  0  -0.0224111  0.0220218  0.0224111  0  0  0  0  0  0  0  0  0 
1704803629.715248000  -2.50748  -0.292538  1.00748  0  0  0.005175  -0.0391249  0.0389982  0.0391249  0  0  0  -0.0191886  0.0188285  0.0191886  0  0  0  0  0  0  0  0  0 
1704803629.720258000  -2.50767  -0.292343  1.00767  0  0  0.005175  -0.0392133  0.0390849  0.0392133  0  0  0  -0.0162161  0.0158852  0.0162161  0  0  0  0  0  0  0  0  0 
1704803629.725252000  -2.50787  -0.292147  1.00787  0  0  0.005175  -0.0392875  0.0391575  0.0392875  0  0  0  -0.0134937  0.013192  0.0134937  0  0  0  0  0  0  0  0  0 
1704803629.730265000  -2.50807  -0.291951  1.00807  0  0  0.005175  -0.0393487  0.0392172  0.0393487  0  0  0  -0.0110212  0.0107487  0.0110212  0  0  0  0  0  0  0  0  0 
1704803629.735247000  -2.50826  -0.291755  1.00826  0  0  0.005175  -0.0393981  0.0392654  0.0393981  0  0  0  -0.0087987  0.0085554  0.0087987  0  0  0  0  0  0  0  0  0 
1704803629.740246000  -2.50846  -0.291559  1.00846  0  0  0.005175  -0.0394371  0.0393032  0.0394371  0  0  0  -0.0068263  0.0066122  0.0068263  0  0  0  0  0  0  0  0  0 
1704803629.745246000  -2.50866  -0.291362  1.00866  0  0  0.005175  -0.0394668  0.0393319  0.0394668  0  0  0  -0.0051038  0.0049189  0.0051038  0  0  0  0  0  0  0  0  0 
1704803629.750246000  -2.50885  -0.291165  1.00885  0  0  0.005175  -0.0394885  0.0393528  0.0394885  0  0  0  -0.0036313  0.0034756  0.0036313  0  0  0  0  0  0  0  0  0 
1704803629.755247000  -2.50905  -0.290969  1.00905  0  0  0.005175  -0.0395035  0.0393671  0.0395035  0  0  0  -0.0024089  0.0022824  0.0024089  0  0  0  0  0  0  0  0  0 
1704803629.760247000  -2.50925  -0.290772  1.00925  0  0  0.005175  -0.039513  0.0393761  0.039513  0  0  0  -0.0014364  0.0013391  0.0014364  0  0  0  0  0  0  0  0  0 
1704803629.765246000  -2.50945  -0.290575  1.00945  0  0  0.005175  -0.0395183  0.0393809  0.0395183  0  0  0  -0.0007139  0.0006459  0.0007139  0  0  0  0  0  0  0  0  0 
1704803629.770246000  -2.50964  -0.290378  1.00964  0  0  0.005175  -0.0395206  0.0393829  0.0395206  0  0  0  -0.0002415  0.0002026  0.0002415  0  0  0  0  0  0  0  0  0 
1704803629.775246000  -2.50984  -0.290181  1.00984  0  0  0.005175  -0.0395211  0.0393834  0.0395211  0  0  0  -1.9e-05  9.3e-06  1.9e-05  0  0  0  0  0  0  0  0  0 
1704803629.780246000  -2.51004  -0.289984  1.01004  0  0  0.005175  -0.0395211  0.0393834  0.0395211  0  0  0  2.28e-05  -8.9e-06  -2.28e-05  0  0  0  0  0  0  0  0  0 
1704803629.785247000  -2.51024  -0.289787  1.01024  0  0  0.005175  -0.0395206  0.0393829  0.0395206  0  0  0  0.0002544  -0.0002004  -0.0002544  0  0  0  0  0  0  0  0  0 
1704803629.790247000  -2.51043  -0.28959  1.01043  0  0  0.005175  -0.0395182  0.0393809  0.0395182  0  0  0  0.0007361  -0.000642  -0.0007361  0  0  0  0  0  0  0  0  0 
1704803629.795247000  -2.51063  -0.289393  1.01063  0  0  0.005175  -0.0395128  0.0393761  0.0395128  0  0  0  0.0014677  -0.0013336  -0.0014678  0  0  0  0  0  0  0  0  0 
1704803629.800247000  -2.51083  -0.289197  1.01083  0  0  0.005175  -0.0395031  0.0393672  0.0395031  0  0  0  0.0024494  -0.0022752  -0.0024494  0  0  0  0  0  0  0  0  0 
1704803629.805245000  -2.51103  -0.289  1.01103  0  0  0.005175  -0.0394879  0.0393529  0.0394879  0  0  0  0.0036811  -0.0034668  -0.0036811  0  0  0  0  0  0  0  0  0 
1704803629.810245000  -2.51122  -0.288803  1.01122  0  0  0.005175  -0.0394659  0.0393321  0.0394659  0  0  0  0.0051627  -0.0049084  -0.0051628  0  0  0  0  0  0  0  0  0 
1704803629.815244000  -2.51142  -0.288606  1.01142  0  0  0.005175  -0.0394358  0.0393034  0.0394358  0  0  0  0.0068944  -0.0066  -0.0068944  0  0  0  0  0  0  0  0  0 
1704803629.820234000  -2.51162  -0.28841  1.01162  0  0  0.005175  -0.0393965  0.0392657  0.0393965  0  0  0  0.008876  -0.0085415  -0.0088761  0  0  0  0  0  0  0  0  0 
1704803629.825236000  -2.51182  -0.288214  1.01182  0  0  0.005175  -0.0393466  0.0392176  0.0393466  0  0  0  0.0111077  -0.0107331  -0.0111078  0  0  0  0  0  0  0  0  0 
1704803629.830236000  -2.51201  -0.288018  1.01201  0  0  0.005175  -0.039285  0.0391579  0.039285  0  0  0  0.0135894  -0.0131747  -0.0135895  0  0  0  0  0  0  0  0  0 
1704803629.835235000  -2.51221  -0.287822  1.01221  0  0  0.005175  -0.0392103  0.0390854  0.0392103  0  0  0  0.016321  -0.0158663  -0.0163211  0  0  0  0  0  0  0  0  0 
1704803629.840234000  -2.5124  -0.287627  1.0124  0  0  0.005175  -0.0391214  0.0389989  0.0391214  0  0  0  0.0193027  -0.0188079  -0.0193028  0  0  0  0  0  0  0  0  0 
1704803629.845234000  -2.5126  -0.287432  1.0126  0  0  0.005175  -0.0390169  0.038897  0.0390169  0  0  0  0.0225344  -0.0219995  -0.0225345  0  0  0  0  0  0  0  0  0 
1704803629.850236000  -2.51279  -0.287238  1.01279  0  0  0.005175  -0.0388956  0.0387785  0.0388956  0  0  0  0.026016  -0.025441  -0.0260161  0  0  0  0  0  0  0  0  0 
1704803629.855234000  -2.51299  -0.287045  1.01299  0  0  0.005175  -0.0387563  0.0386421  0.0387563  0  0  0  0.0297477  -0.0291326  -0.0297478  0  0  0  0  0  0  0  0  0 
1704803629.860234000  -2.51318  -0.286852  1.01318  0  0  0.005175  -0.0385977  0.0384867  0.0385977  0  0  0  0.0337293  -0.0330742  -0.0337295  0  0  0  0  0  0  0  0  0 
1704803629.865235000  -2.51337  -0.28666  1.01337  0  0  0.005175  -0.0384186  0.038311  0.0384186  0  0  0  0.037961  -0.0372658  -0.0379612  0  0  0  0  0  0  0  0  0 
1704803629.870235000  -2.51357  -0.286469  1.01357  0  0  0.005175  -0.0382177  0.0381136  0.0382177  0  0  0  0.0424427  -0.0417074  -0.0424428  0  0  0  0  0  0  0  0  0 
1704803629.875235000  -2.51376  -0.286279  1.01376  0  0  0.005175  -0.0379938  0.0378935  0.0379937  0  0  0  0.0471743  -0.046399  -0.0471745  0  0  0  0  0  0  0  0  0 
1704803629.880234000  -2.51395  -0.28609  1.01395  0  0  0.005175  -0.0377455  0.0376492  0.0377455  0  0  0  0.052156  -0.0513405  -0.0521562  0  0  0  0  0  0  0  0  0 
1704803629.885234000  -2.51413  -0.285902  1.01413  0  0  0.005175  -0.0374718  0.0373797  0.0374718  0  0  0  0.0573877  -0.0565321  -0.0573878  0  0  0  0  0  0  0  0  0 
1704803629.890234000  -2.51432  -0.285716  1.01432  0  0  0.005175  -0.0371712  0.0370835  0.0371712  0  0  0  0.0628693  -0.0619737  -0.0628695  0  0  0  0  0  0  0  0  0 
1704803629.895234000  -2.51451  -0.285531  1.01451  0  0  0.005175  -0.0368427  0.0367595  0.0368427  0  0  0  0.068601  -0.0676653  -0.0686012  0  0  0  0  0  0  0  0  0 
1704803629.900236000  -2.51469  -0.285348  1.01469  0  0  0.005175  -0.0364848  0.0364064  0.0364848  0  0  0  0.0745826  -0.0736069  -0.0745829  0  0  0  0  0  0  0  0  0 
1704803629.905234000  -2.51487  -0.285167  1.01487  0  0  0.005175  -0.0360964  0.036023  0.0360964  0  0  0  0.0808143  -0.0797985  -0.0808145  0  0  0  0  0  0  0  0  0 
1704803629.910237000  -2.51505  -0.284988  1.01505  0  0  0.005175  -0.0356763  0.035608  0.0356762  0  0  0  0.087296  -0.08624  -0.0872962  0  0  0  0  0  0  0  0  0 
1704803629.915232000  -2.51523  -0.284811  1.01523  0  0  0.005175  -0.0352231  0.0351602  0.035223  0  0  0  0.0940276  -0.0929316  -0.0940279  0  0  0  0  0  0  0  0  0 
1704803629.920233000  -2.5154  -0.284637  1.0154  0  0  0.005175  -0.0347356  0.0346783  0.0347355  0  0  0  0.101009  -0.0998732  -0.10101  0  0  0  0  0  0  0  0  0 
1704803629.925235000  -2.51557  -0.284465  1.01557  0  0  0.005175  -0.0342125  0.034161  0.0342125  0  0  0  0.108241  -0.107065  -0.108241  0  0  0  0  0  0  0  0  0 
1704803629.930234000  -2.51574  -0.284295  1.01574  0  0  0.005175  -0.0336527  0.0336072  0.0336527  0  0  0  0.115723  -0.114506  -0.115723  0  0  0  0  0  0  0  0  0 
1704803629.935235000  -2.51591  -0.284129  1.01591  0  0  0.005175  -0.0330549  0.0330156  0.0330549  0  0  0  0.123454  -0.122198  -0.123455  0  0  0  0  0  0  0  0  0 
1704803629.940233000  -2.51607  -0.283965  1.01607  0  0  0.005175  -0.0324178  0.0323848  0.0324178  0  0  0  0.131436  -0.13014  -0.131436  0  0  0  0  0  0  0  0  0 
1704803629.945233000  -2.51624  -0.283805  1.01624  0  0  0.005175  -0.0317401  0.0317138  0.0317401  0  0  0  0.139668  -0.138331  -0.139668  0  0  0  0  0  0  0  0  0 
1704803629.950233000  -2.51639  -0.283648  1.01639  0  0  0.005175  -0.0310207  0.0310011  0.0310207  0  0  0  0.148103  -0.146751  -0.148103  0  0  0  0  0  0  0  0  0 
1704803629.955231000  -2.51655  -0.283495  1.01655  0  0  0.005175  -0.0302594  0.0302465  0.0302594  0  0  0  0.156369  -0.155043  -0.156369  0  0  0  0  0  0  0  0  0 
1704803629.960232000  -2.51669  -0.283346  1.01669  0  0  0.005175  -0.0294574  0.0294511  0.0294574  0  0  0  0.164386  -0.163086  -0.164386  0  0  0  0  0  0  0  0  0 
1704803629.965230000  -2.51684  -0.2832  1.01684  0  0  0.005175  -0.028616  0.0286161  0.028616  0  0  0  0.172152  -0.170878  -0.172152  0  0  0  0  0  0  0  0  0 
1704803629.970232000  -2.51698  -0.283059  1.01698  0  0  0.005175  -0.0277363  0.0277427  0.0277363  0  0  0  0.179668  -0.178421  -0.179668  0  0  0  0  0  0  0  0  0 
1704803629.975234000  -2.51712  -0.282923  1.01712  0  0  0.005175  -0.0268197  0.0268323  0.0268197  0  0  0  0.186934  -0.185713  -0.186935  0  0  0  0  0  0  0  0  0 
1704803629.980233000  -2.51725  -0.282791  1.01725  0  0  0.005175  -0.0258674  0.025886  0.0258674  0  0  0  0.193951  -0.192756  -0.193951  0  0  0  0  0  0  0  0  0 
1704803629.985233000  -2.51738  -0.282664  1.01738  0  0  0.005175  -0.0248806  0.0249052  0.0248806  0  0  0  0.200717  -0.199548  -0.200717  0  0  0  0  0  0  0  0  0 
1704803629.990233000  -2.5175  -0.282542  1.0175  0  0  0.005175  -0.0238607  0.0238909  0.0238606  0  0  0  0.207233  -0.206091  -0.207234  0  0  0  0  0  0  0  0  0 
1704803629.995233000  -2.51761  -0.282425  1.01761  0  0  0.005175  -0.0228087  0.0228447  0.0228087  0  0  0  0.2135  -0.212384  -0.2135  0  0  0  0  0  0  0  0  0 
1704803630.000234000  -2.51773  -0.282314  1.01773  0  0  0.005175  -0.0217261  0.0217675  0.021726  0  0  0  0.219516  -0.218426  -0.219516  0  0  0  0  0  0  0  0  0 
1704803630.005232000  -2.51783  -0.282208  1.01783  0  0  0.005175  -0.020614  0.0206608  0.0206139  0  0  0  0.225282  -0.224219  -0.225283  0  0  0  0  0  0  0  0  0 
1704803630.010233000  -2.51793  -0.282107  1.01793  0  0  0.005175  -0.0194737  0.0195258  0.0194736  0  0  0  0.230799  -0.229761  -0.230799  0  0  0  0  0  0  0  0  0 
1704803630.015233000  -2.51803  -0.282013  1.01803  0  0  0.005175  -0.0183064  0.0183636  0.0183064  0  0  0  0.236065  -0.235054  -0.236065  0  0  0  0  0  0  0  0  0 
1704803630.020234000  -2.51811  -0.281924  1.01811  0  0  0.005175  -0.0171134  0.0171756  0.0171134  0  0  0  0.241081  -0.240096  -0.241082  0  0  0  0  0  0  0  0  0 
1704803630.025235000  -2.5182  -0.281841  1.0182  0  0  0.005175  -0.015896  0.0159631  0.015896  0  0  0  0.245848  -0.244889  -0.245848  0  0  0  0  0  0  0  0  0 
1704803630.030232000  -2.51827  -0.281764  1.01827  0  0  0.005175  -0.0146554  0.0147272  0.0146553  0  0  0  0.250364  -0.249432  -0.250364  0  0  0  0  0  0  0  0  0 
1704803630.035233000  -2.51834  -0.281694  1.01834  0  0  0.005175  -0.0133928  0.0134692  0.0133927  0  0  0  0.25463  -0.253724  -0.25463  0  0  0  0  0  0  0  0  0 
1704803630.040232000  -2.51841  -0.281629  1.01841  0  0  0.005175  -0.0121095  0.0121903  0.0121094  0  0  0  0.258647  -0.257767  -0.258647  0  0  0  0  0  0  0  0  0 
1704803630.045233000  -2.51846  -0.281572  1.01846  0  0  0.005175  -0.0108067  0.0108919  0.0108067  0  0  0  0.262413  -0.261559  -0.262413  0  0  0  0  0  0  0  0  0 
1704803630.050234000  -2.51852  -0.281521  1.01852  0  0  0.005175  -0.0094858  0.0095752  0.0094857  0  0  0  0.265929  -0.265102  -0.265929  0  0  0  0  0  0  0  0  0 
1704803630.055233000  -2.51856  -0.281476  1.01856  0  0  0.005175  -0.0081479  0.0082413  0.0081478  0  0  0  0.269196  -0.268394  -0.269196  0  0  0  0  0  0  0  0  0 
1704803630.060230000  -2.5186  -0.281438  1.0186  0  0  0.005175  -0.0067942  0.0068916  0.0067942  0  0  0  0.272212  -0.271437  -0.272212  0  0  0  0  0  0  0  0  0 
1704803630.065232000  -2.51863  -0.281407  1.01863  0  0  0.005175  -0.0054262  0.0055274  0.0054261  0  0  0  0.274978  -0.27423  -0.274978  0  0  0  0  0  0  0  0  0 
1704803630.070233000  -2.51865  -0.281383  1.01865  0  0  0.005175  -0.0040449  0.0041498  0.0040448  0  0  0  0.277495  -0.276772  -0.277495  0  0  0  0  0  0  0  0  0 
1704803630.075230000  -2.51867  -0.281366  1.01867  0  0  0.005175  -0.0026516  0.0027601  0.0026516  0  0  0  0.279761  -0.279065  -0.279761  0  0  0  0  0  0  0  0  0 
1704803630.080235000  -2.51868  -0.281355  1.01868  0  0  0.005175  -0.0012477  0.0013595  0.0012476  0  0  0  0.281777  -0.281107  -0.281777  0  0  0  0  0  0  0  0  0 
1704803630.085233000  -2.51868  -0.281352  1.01868  0  0  0.005175  0.0001657  -5.06e-05  -0.0001658  0  0  0  0.283543  -0.2829  -0.283544  0  0  0  0  0  0  0  0  0 
1704803630.090232000  -2.51868  -0.281356  1.01868  0  0  0.005175  0.0015873  -0.0014691  -0.0015874  0  0  0  0.28506  -0.284442  -0.28506  0  0  0  0  0  0  0  0  0 
1704803630.095233000  -2.51866  -0.281367  1.01866  0  0  0.005175  0.0030159  -0.0028946  -0.0030159  0  0  0  0.286326  -0.285735  -0.286326  0  0  0  0  0  0  0  0  0 
1704803630.100234000  -2.51865  -0.281385  1.01865  0  0  0.005175  0.0044502  -0.004326  -0.0044502  0  0  0  0.287342  -0.286778  -0.287342  0  0  0  0  0  0  0  0  0 
1704803630.105233000  -2.51862  -0.28141  1.01862  0  0  0.005175  0.0058889  -0.005762  -0.005889  0  0  0  0.288109  -0.28757  -0.288109  0  0  0  0  0  0  0  0  0 
1704803630.110233000  -2.51859  -0.281442  1.01859  0  0  0.005175  0.0073308  -0.0072013  -0.0073309  0  0  0  0.288625  -0.288113  -0.288625  0  0  0  0  0  0  0  0  0 
1704803630.115232000  -2.51855  -0.281482  1.01855  0  0  0.005175  0.0087747  -0.0086427  -0.0087748  0  0  0  0.288891  -0.288405  -0.288891  0  0  0  0  0  0  0  0  0 
1704803630.120233000  -2.5185  -0.281529  1.0185  0  0  0.005175  0.0102193  -0.0100849  -0.0102194  0  0  0  0.288908  -0.288448  -0.288908  0  0  0  0  0  0  0  0  0 
1704803630.125233000  -2.51844  -0.281583  1.01844  0  0  0.005175  0.0116634  -0.0115267  -0.0116635  0  0  0  0.288674  -0.28824  -0.288674  0  0  0  0  0  0  0  0  0 
1704803630.130234000  -2.51838  -0.281644  1.01838  0  0  0.005175  0.0131057  -0.0129669  -0.0131057  0  0  0  0.28819  -0.287783  -0.28819  0  0  0  0  0  0  0  0  0 
1704803630.135232000  -2.51831  -0.281713  1.01831  0  0  0.005175  0.0145449  -0.0144041  -0.0145449  0  0  0  0.287457  -0.287075  -0.287457  0  0  0  0  0  0  0  0  0 
1704803630.140233000  -2.51824  -0.281788  1.01824  0  0  0.005175  0.0159798  -0.0158372  -0.0159799  0  0  0  0.286473  -0.286118  -0.286473  0  0  0  0  0  0  0  0  0 
1704803630.145233000  -2.51815  -0.281871  1.01815  0  0  0.005175  0.0174092  -0.0172649  -0.0174093  0  0  0  0.285239  -0.284911  -0.285239  0  0  0  0  0  0  0  0  0 
1704803630.150232000  -2.51806  -0.281961  1.01806  0  0  0.005175  0.0188318  -0.0186859  -0.0188318  0  0  0  0.283756  -0.283453  -0.283756  0  0  0  0  0  0  0  0  0 
1704803630.155232000  -2.51797  -0.282058  1.01797  0  0  0.005175  0.0202463  -0.020099  -0.0202464  0  0  0  0.282022  -0.281746  -0.282022  0  0  0  0  0  0  0  0  0 
1704803630.160233000  -2.51786  -0.282162  1.01786  0  0  0.005175  0.0216516  -0.021503  -0.0216517  0  0  0  0.280038  -0.279788  -0.280038  0  0  0  0  0  0  0  0  0 
1704803630.165232000  -2.51775  -0.282273  1.01775  0  0  0.005175  0.0230463  -0.0228965  -0.0230464  0  0  0  0.277805  -0.277581  -0.277805  0  0  0  0  0  0  0  0  0 
1704803630.170234000  -2.51763  -0.282391  1.01763  0  0  0.005175  0.0244292  -0.0242784  -0.0244293  0  0  0  0.275321  -0.275123  -0.275321  0  0  0  0  0  0  0  0  0 
1704803630.175233000  -2.5175  -0.282516  1.0175  0  0  0.005175  0.0257991  -0.0256473  -0.0257992  0  0  0  0.272587  -0.272416  -0.272587  0  0  0  0  0  0  0  0  0 
1704803630.180234000  -2.51737  -0.282647  1.01737  0  0  0.005175  0.0271547  -0.0270021  -0.0271547  0  0  0  0.269603  -0.269459  -0.269603  0  0  0  0  0  0  0  0  0 
1704803630.185236000  -2.51723  -0.282786  1.01723  0  0  0.005175  0.0284947  -0.0283415  -0.0284948  0  0  0  0.26637  -0.266251  -0.26637  0  0  0  0  0  0  0  0  0 
1704803630.190232000  -2.51709  -0.282931  1.01709  0  0  0.005175  0.029818  -0.0296642  -0.029818  0  0  0  0.262886  -0.262794  -0.262886  0  0  0  0  0  0  0  0  0 
1704803630.195232000  -2.51694  -0.283082  1.01694  0  0  0.005175  0.0311232  -0.030969  -0.0311232  0  0  0  0.259152  -0.259086  -0.259152  0  0  0  0  0  0  0  0  0 
1704803630.200235000  -2.51678  -0.28324  1.01678  0  0  0.005175  0.0324091  -0.0322546  -0.0324091  0  0  0  0.255169  -0.255129  -0.255169  0  0  0  0  0  0  0  0  0 
1704803630.205233000  -2.51661  -0.283405  1.01661  0  0  0.005175  0.0336744  -0.0335199  -0.0336745  0  0  0  0.250935  -0.250921  -0.250935  0  0  0  0  0  0  0  0  0 
1704803630.210233000  -2.51644  -0.283575  1.01644  0  0  0.005175  0.034918  -0.0347634  -0.0349181  0  0  0  0.246451  -0.246464  -0.246451  0  0  0  0  0  0  0  0  0 
1704803630.215233000  -2.51626  -0.283752  1.01626  0  0  0.005175  0.0361385  -0.0359841  -0.0361386  0  0  0  0.241718  -0.241757  -0.241718  0  0  0  0  0  0  0  0  0 
1704803630.220233000  -2.51608  -0.283935  1.01608  0  0  0.005175  0.0373348  -0.0371806  -0.0373348  0  0  0  0.236734  -0.236799  -0.236734  0  0  0  0  0  0  0  0  0 
1704803630.225237000  -2.51589  -0.284124  1.01589  0  0  0.005175  0.0385055  -0.0383517  -0.0385055  0  0  0  0.2315  -0.231592  -0.2315  0  0  0  0  0  0  0  0  0 
1704803630.230231000  -2.51569  -0.284319  1.01569  0  0  0.005175  0.0396494  -0.0394961  -0.0396494  0  0  0  0.226017  -0.226134  -0.226017  0  0  0  0  0  0  0  0  0 
1704803630.235235000  -2.51549  -0.284519  1.01549  0  0  0.005175  0.0407652  -0.0406126  -0.0407653  0  0  0  0.220283  -0.220427  -0.220283  0  0  0  0  0  0  0  0  0 
1704803630.240235000  -2.51529  -0.284725  1.01529  0  0  0.005175  0.0418518  -0.0416999  -0.0418518  0  0  0  0.214299  -0.214469  -0.214299  0  0  0  0  0  0  0  0  0 
1704803630.245236000  -2.51507  -0.284936  1.01507  0  0  0.005175  0.0429078  -0.0427569  -0.0429078  0  0  0  0.208066  -0.208262  -0.208065  0  0  0  0  0  0  0  0  0 
1704803630.250235000  -2.51486  -0.285152  1.01486  0  0  0.005175  0.043932  -0.0437821  -0.043932  0  0  0  0.201582  -0.201804  -0.201582  0  0  0  0  0  0  0  0  0 
1704803630.255235000  -2.51463  -0.285374  1.01463  0  0  0.005175  0.0449232  -0.0447745  -0.0449232  0  0  0  0.194848  -0.195097  -0.194848  0  0  0  0  0  0  0  0  0 
1704803630.260233000  -2.51441  -0.2856  1.01441  0  0  0.005175  0.0458801  -0.0457327  -0.0458801  0  0  0  0.187865  -0.18814  -0.187864  0  0  0  0  0  0  0  0  0 
1704803630.265234000  -2.51418  -0.285831  1.01418  0  0  0.005175  0.0468014  -0.0466555  -0.0468015  0  0  0  0.180631  -0.180932  -0.180631  0  0  0  0  0  0  0  0  0 
1704803630.270231000  -2.51394  -0.286066  1.01394  0  0  0.005175  0.047686  -0.0475416  -0.047686  0  0  0  0.173147  -0.173475  -0.173147  0  0  0  0  0  0  0  0  0 
1704803630.275236000  -2.5137  -0.286306  1.0137  0  0  0.005175  0.0485325  -0.0483898  -0.0485325  0  0  0  0.165414  -0.165767  -0.165413  0  0  0  0  0  0  0  0  0 
1704803630.280232000  -2.51345  -0.28655  1.01345  0  0  0.005175  0.0493397  -0.0491989  -0.0493397  0  0  0  0.15743  -0.15781  -0.15743  0  0  0  0  0  0  0  0  0 
1704803630.285236000  -2.51321  -0.286798  1.01321  0  0  0.005175  0.0501063  -0.0499675  -0.0501064  0  0  0  0.149196  -0.149602  -0.149196  0  0  0  0  0  0  0  0  0 
1704803630.290234000  -2.51295  -0.28705  1.01295  0  0  0.005175  0.0508312  -0.0506945  -0.0508313  0  0  0  0.140712  -0.141145  -0.140712  0  0  0  0  0  0  0  0  0 
1704803630.295232000  -2.5127  -0.287305  1.0127  0  0  0.005175  0.0515131  -0.0513785  -0.0515131  0  0  0  0.131979  -0.132438  -0.131979  0  0  0  0  0  0  0  0  0 
1704803630.300238000  -2.51244  -0.287564  1.01244  0  0  0.005175  0.0521506  -0.0520184  -0.0521506  0  0  0  0.122995  -0.12348  -0.122995  0  0  0  0  0  0  0  0  0 
1704803630.305345000  -2.51218  -0.287825  1.01218  0  0  0.005175  0.0527426  -0.0526129  -0.0527426  0  0  0  0.113761  -0.114273  -0.113761  0  0  0  0  0  0  0  0  0 
1704803630.310245000  -2.51191  -0.28809  1.01191  0  0  0.005175  0.0532878  -0.0531607  -0.0532878  0  0  0  0.104278  -0.104815  -0.104277  0  0  0  0  0  0  0  0  0 
1704803630.315245000  -2.51164  -0.288357  1.01164  0  0  0.005175  0.053785  -0.0536606  -0.053785  0  0  0  0.094544  -0.0951079  -0.0945438  0  0  0  0  0  0  0  0  0 
1704803630.320257000  -2.51137  -0.288626  1.01137  0  0  0.005175  0.0542328  -0.0541114  -0.0542328  0  0  0  0.0845604  -0.0851504  -0.0845601  0  0  0  0  0  0  0  0  0 
1704803630.325233000  -2.5111  -0.288898  1.0111  0  0  0.005175  0.0546301  -0.0545117  -0.0546302  0  0  0  0.0743267  -0.074943  -0.0743264  0  0  0  0  0  0  0  0  0 
1704803630.330247000  -2.51083  -0.289171  1.01083  0  0  0.005175  0.0549757  -0.0548604  -0.0549757  0  0  0  0.063843  -0.0644856  -0.0638427  0  0  0  0  0  0  0  0  0 
1704803630.335251000  -2.51055  -0.289446  1.01055  0  0  0.005175  0.0552682  -0.0551562  -0.0552682  0  0  0  0.0531093  -0.0537781  -0.053109  0  0  0  0  0  0  0  0  0 
1704803630.340239000  -2.51027  -0.289723  1.01027  0  0  0.005175  0.0555063  -0.0553978  -0.0555064  0  0  0  0.0421256  -0.0428207  -0.0421253  0  0  0  0  0  0  0  0  0 
1704803630.345249000  -2.51  -0.29  1.01  0  0  0.005175  0.055689  -0.055584  -0.055689  0  0  0  0.030892  -0.0316133  -0.0308917  0  0  0  0  0  0  0  0  0 
1704803630.350249000  -2.50972  -0.290278  1.00972  0  0  0.005175  0.0558148  -0.0557135  -0.0558149  0  0  0  0.0194083  -0.0201558  -0.019408  0  0  0  0  0  0  0  0  0 
1704803630.355245000  -2.50944  -0.290557  1.00944  0  0  0.005175  0.0558827  -0.0557851  -0.0558827  0  0  0  0.0076746  -0.0084484  -0.0076743  0  0  0  0  0  0  0  0  0 
1704803630.360255000  -2.50916  -0.290836  1.00916  0  0  0.005175  0.0558912  -0.0557976  -0.0558912  0  0  0  -0.0043091  0.003509  0.0043094  0  0  0  0  0  0  0  0  0 
1704803630.365249000  -2.50888  -0.291115  1.00888  0  0  0.005175  0.0558392  -0.0557496  -0.0558392  0  0  0  -0.0165428  0.0157165  0.0165431  0  0  0  0  0  0  0  0  0 
1704803630.370246000  -2.5086  -0.291394  1.0086  0  0  0.005175  0.0557253  -0.05564  -0.0557253  0  0  0  -0.0290265  0.0281739  0.0290268  0  0  0  0  0  0  0  0  0 
1704803630.375233000  -2.50832  -0.291671  1.00832  0  0  0.005175  0.0555485  -0.0554674  -0.0555485  0  0  0  -0.0417601  0.0408813  0.0417605  0  0  0  0  0  0  0  0  0 
1704803630.380254000  -2.50805  -0.291948  1.00805  0  0  0.005175  0.0553073  -0.0552307  -0.0553073  0  0  0  -0.0547438  0.0538388  0.0547442  0  0  0  0  0  0  0  0  0 
1704803630.385248000  -2.50777  -0.292224  1.00777  0  0  0.005175  0.0550006  -0.0549286  -0.0550006  0  0  0  -0.0679775  0.0670462  0.0679779  0  0  0  0  0  0  0  0  0 
1704803630.390243000  -2.5075  -0.292497  1.0075  0  0  0.005175  0.0546271  -0.0545599  -0.0546271  0  0  0  -0.0814612  0.0805036  0.0814616  0  0  0  0  0  0  0  0  0 
1704803630.395245000  -2.50722  -0.292769  1.00722  0  0  0.005175  0.0541856  -0.0541232  -0.0541856  0  0  0  -0.0951949  0.0942111  0.0951952  0  0  0  0  0  0  0  0  0 
1704803630.400257000  -2.50695  -0.293038  1.00695  0  0  0.005175  0.0536748  -0.0536173  -0.0536748  0  0  0  -0.109179  0.108169  0.109179  0  0  0  0  0  0  0  0  0 
1704803630.405247000  -2.50669  -0.293305  1.00669  0  0  0.005175  0.0530935  -0.0530411  -0.0530935  0  0  0  -0.123319  0.122305  0.123319  0  0  0  0  0  0  0  0  0 
1704803630.410247000  -2.50642  -0.293569  1.00642  0  0  0.005175  0.052442  -0.0523947  -0.052442  0  0  0  -0.137247  0.136247  0.137248  0  0  0  0  0  0  0  0  0 
1704803630.415243000  -2.50616  -0.293829  1.00616  0  0  0.005175  0.0517214  -0.0516791  -0.0517214  0  0  0  -0.150926  0.149938  0.150926  0  0  0  0  0  0  0  0  0 
1704803630.420239000  -2.50591  -0.294085  1.00591  0  0  0.005175  0.0509331  -0.0508957  -0.0509331  0  0  0  -0.164354  0.16338  0.164354  0  0  0  0  0  0  0  0  0 
1704803630.425249000  -2.50565  -0.294338  1.00565  0  0  0.005175  0.0500783  -0.0500457  -0.0500783  0  0  0  -0.177532  0.176571  0.177533  0  0  0  0  0  0  0  0  0 
1704803630.430246000  -2.5054  -0.294586  1.0054  0  0  0.005175  0.0491582  -0.0491304  -0.0491582  0  0  0  -0.190461  0.189513  0.190461  0  0  0  0  0  0  0  0  0 
1704803630.435246000  -2.50516  -0.294829  1.00516  0  0  0.005175  0.0481741  -0.048151  -0.0481741  0  0  0  -0.203139  0.202204  0.203139  0  0  0  0  0  0  0  0  0 
1704803630.440253000  -2.50492  -0.295067  1.00492  0  0  0.005175  0.0471272  -0.0471088  -0.0471272  0  0  0  -0.215567  0.214646  0.215568  0  0  0  0  0  0  0  0  0 
1704803630.445249000  -2.50469  -0.2953  1.00469  0  0  0.005175  0.0460189  -0.046005  -0.0460188  0  0  0  -0.227746  0.226837  0.227746  0  0  0  0  0  0  0  0  0 
1704803630.450248000  -2.50446  -0.295527  1.00446  0  0  0.005175  0.0448502  -0.0448408  -0.0448502  0  0  0  -0.239674  0.238779  0.239674  0  0  0  0  0  0  0  0  0 
1704803630.455246000  -2.50424  -0.295748  1.00424  0  0  0.005175  0.0436225  -0.0436176  -0.0436225  0  0  0  -0.251352  0.25047  0.251353  0  0  0  0  0  0  0  0  0 
1704803630.460254000  -2.50403  -0.295963  1.00403  0  0  0.005175  0.0423371  -0.0423365  -0.0423371  0  0  0  -0.262781  0.261912  0.262781  0  0  0  0  0  0  0  0  0 
1704803630.465247000  -2.50382  -0.296172  1.00382  0  0  0.005175  0.0409951  -0.0409989  -0.0409951  0  0  0  -0.273959  0.273103  0.273959  0  0  0  0  0  0  0  0  0 
1704803630.470245000  -2.50362  -0.296373  1.00362  0  0  0.005175  0.0395979  -0.0396059  -0.0395979  0  0  0  -0.284887  0.284045  0.284888  0  0  0  0  0  0  0  0  0 
1704803630.475249000  -2.50342  -0.296567  1.00342  0  0  0.005175  0.0381467  -0.0381589  -0.0381467  0  0  0  -0.295566  0.294736  0.295566  0  0  0  0  0  0  0  0  0 
1704803630.480254000  -2.50324  -0.296755  1.00324  0  0  0.005175  0.0366427  -0.036659  -0.0366427  0  0  0  -0.305994  0.305178  0.305994  0  0  0  0  0  0  0  0  0 
1704803630.485254000  -2.50306  -0.296934  1.00306  0  0  0.005175  0.0350872  -0.0351075  -0.0350871  0  0  0  -0.316172  0.315369  0.316173  0  0  0  0  0  0  0  0  0 
1704803630.490246000  -2.50288  -0.297106  1.00288  0  0  0.005175  0.0334814  -0.0335057  -0.0334813  0  0  0  -0.326101  0.325311  0.326101  0  0  0  0  0  0  0  0  0 
1704803630.495246000  -2.50272  -0.297269  1.00272  0  0  0.005175  0.0318266  -0.0318548  -0.0318265  0  0  0  -0.335779  0.335002  0.335779  0  0  0  0  0  0  0  0  0 
1704803630.500248000  -2.50257  -0.297424  1.00257  0  0  0.005175  0.030124  -0.0301561  -0.030124  0  0  0  -0.345207  0.344444  0.345208  0  0  0  0  0  0  0  0  0 
1704803630.505248000  -2.50242  -0.29757  1.00242  0  0  0.005175  0.0283749  -0.0284108  -0.0283749  0  0  0  -0.354386  0.353635  0.354386  0  0  0  0  0  0  0  0  0 
1704803630.510247000  -2.50228  -0.297708  1.00228  0  0  0.005175  0.0265806  -0.0266201  -0.0265805  0  0  0  -0.363314  0.362577  0.363314  0  0  0  0  0  0  0  0  0 
1704803630.515248000  -2.50215  -0.297837  1.00215  0  0  0.005175  0.0247422  -0.0247854  -0.0247422  0  0  0  -0.371992  0.371268  0.371993  0  0  0  0  0  0  0  0  0 
1704803630.520258000  -2.50204  -0.297956  1.00204  0  0  0.005175  0.022861  -0.0229079  -0.022861  0  0  0  -0.380421  0.37971  0.380421  0  0  0  0  0  0  0  0  0 
1704803630.525250000  -2.50193  -0.298066  1.00193  0  0  0.005175  0.0209384  -0.0209887  -0.0209384  0  0  0  -0.388599  0.387901  0.388599  0  0  0  0  0  0  0  0  0 
1704803630.530246000  -2.50183  -0.298166  1.00183  0  0  0.005175  0.0189755  -0.0190293  -0.0189754  0  0  0  -0.396527  0.395843  0.396528  0  0  0  0  0  0  0  0  0 
1704803630.535246000  -2.50174  -0.298256  1.00174  0  0  0.005175  0.0169735  -0.0170307  -0.0169735  0  0  0  -0.404206  0.403534  0.404206  0  0  0  0  0  0  0  0  0 
1704803630.540239000  -2.50166  -0.298336  1.00166  0  0  0.005175  0.0149338  -0.0149944  -0.0149338  0  0  0  -0.411634  0.410976  0.411634  0  0  0  0  0  0  0  0  0 
1704803630.545234000  -2.50159  -0.298406  1.00159  0  0  0.005175  0.0128576  -0.0129214  -0.0128576  0  0  0  -0.418812  0.418167  0.418813  0  0  0  0  0  0  0  0  0 
1704803630.550234000  -2.50153  -0.298465  1.00153  0  0  0.005175  0.0107461  -0.0108131  -0.0107461  0  0  0  -0.425741  0.425109  0.425741  0  0  0  0  0  0  0  0  0 
1704803630.555233000  -2.50148  -0.298514  1.00148  0  0  0.005175  0.0086006  -0.0086707  -0.0086006  0  0  0  -0.432419  0.4318  0.432419  0  0  0  0  0  0  0  0  0 
1704803630.560239000  -2.50144  -0.298552  1.00144  0  0  0.005175  0.0064224  -0.0064955  -0.0064223  0  0  0  -0.438847  0.438242  0.438848  0  0  0  0  0  0  0  0  0 
1704803630.565233000  -2.50142  -0.298579  1.00142  0  0  0.005175  0.0042126  -0.0042887  -0.0042125  0  0  0  -0.445026  0.444433  0.445026  0  0  0  0  0  0  0  0  0 
1704803630.570232000  -2.5014  -0.298595  1.0014  0  0  0.005175  0.0019725  -0.0020516  -0.0019725  0  0  0  -0.450954  0.450375  0.450954  0  0  0  0  0  0  0  0  0 
1704803630.575235000  -2.5014  -0.298599  1.0014  0  0  0.005175  -0.0002966  0.0002146  0.0002966  0  0  0  -0.456632  0.456066  0.456633  0  0  0  0  0  0  0  0  0 
1704803630.580239000  -2.5014  -0.298592  1.0014  0  0  0.005175  -0.0025934  0.0025086  0.0025934  0  0  0  -0.462061  0.461508  0.462061  0  0  0  0  0  0  0  0  0 
1704803630.585235000  -2.50142  -0.298574  1.00142  0  0  0.005175  -0.0049168  0.0048293  0.0049168  0  0  0  -0.467239  0.466699  0.467239  0  0  0  0  0  0  0  0  0 
1704803630.590233000  -2.50145  -0.298544  1.00145  0  0  0.005175  -0.0072654  0.0071752  0.0072654  0  0  0  -0.472168  0.471641  0.472168  0  0  0  0  0  0  0  0  0 
1704803630.595233000  -2.50149  -0.298502  1.00149  0  0  0.005175  -0.009638  0.0095453  0.0096381  0  0  0  -0.476846  0.476332  0.476846  0  0  0  0  0  0  0  0  0 
1704803630.600255000  -2.50155  -0.298449  1.00155  0  0  0.005175  -0.0120334  0.0119381  0.0120335  0  0  0  -0.481274  0.480774  0.481274  0  0  0  0  0  0  0  0  0 
1704803630.605245000  -2.50162  -0.298383  1.00161  0  0  0.005175  -0.0144503  0.0143526  0.0144504  0  0  0  -0.485453  0.484965  0.485453  0  0  0  0  0  0  0  0  0 
1704803630.610231000  -2.50169  -0.298305  1.00169  0  0  0.005175  -0.0168875  0.0167874  0.0168876  0  0  0  -0.489381  0.488907  0.489381  0  0  0  0  0  0  0  0  0 
1704803630.615245000  -2.50178  -0.298215  1.00178  0  0  0.005175  -0.0193437  0.0192412  0.0193438  0  0  0  -0.493059  0.492598  0.493059  0  0  0  0  0  0  0  0  0 
1704803630.620246000  -2.50189  -0.298113  1.00189  0  0  0.005175  -0.0218177  0.0217129  0.0218177  0  0  0  -0.496488  0.49604  0.496488  0  0  0  0  0  0  0  0  0 
1704803630.625251000  -2.502  -0.297998  1.002  0  0  0.005175  -0.0243082  0.0242012  0.0243082  0  0  0  -0.499666  0.499231  0.499666  0  0  0  0  0  0  0  0  0 
1704803630.630245000  -2.50213  -0.29787  1.00213  0  0  0.005175  -0.0268139  0.0267048  0.026814  0  0  0  -0.502594  0.502173  0.502594  0  0  0  0  0  0  0  0  0 
1704803630.635234000  -2.50227  -0.297731  1.00227  0  0  0.005175  -0.0293337  0.0292225  0.0293338  0  0  0  -0.505273  0.504864  0.505273  0  0  0  0  0  0  0  0  0 
1704803630.640239000  -2.50242  -0.297578  1.00242  0  0  0.005175  -0.0318663  0.0317531  0.0318663  0  0  0  -0.507701  0.507306  0.507701  0  0  0  0  0  0  0  0  0 
1704803630.645235000  -2.50259  -0.297413  1.00259  0  0  0.005175  -0.0344103  0.0342952  0.0344104  0  0  0  -0.509879  0.509497  0.509879  0  0  0  0  0  0  0  0  0 
1704803630.650235000  -2.50277  -0.297235  1.00277  0  0  0.005175  -0.0369646  0.0368476  0.0369647  0  0  0  -0.511808  0.511439  0.511808  0  0  0  0  0  0  0  0  0 
1704803630.655233000  -2.50296  -0.297045  1.00296  0  0  0.005175  -0.039528  0.0394092  0.039528  0  0  0  -0.513486  0.51313  0.513486  0  0  0  0  0  0  0  0  0 
1704803630.660240000  -2.50316  -0.296841  1.00316  0  0  0.005175  -0.0420991  0.0419785  0.0420991  0  0  0  -0.514914  0.514572  0.514914  0  0  0  0  0  0  0  0  0 
1704803630.665235000  -2.50338  -0.296625  1.00338  0  0  0.005175  -0.0446767  0.0445545  0.0446767  0  0  0  -0.516093  0.515763  0.516093  0  0  0  0  0  0  0  0  0 
1704803630.670233000  -2.50361  -0.296396  1.00361  0  0  0.005175  -0.0472596  0.0471357  0.0472596  0  0  0  -0.517021  0.516705  0.517021  0  0  0  0  0  0  0  0  0 
1704803630.675233000  -2.50385  -0.296153  1.00385  0  0  0.005175  -0.0498465  0.0497211  0.0498465  0  0  0  -0.517699  0.517396  0.517699  0  0  0  0  0  0  0  0  0 
1704803630.680240000  -2.50411  -0.295898  1.00411  0  0  0.005175  -0.0524362  0.0523093  0.0524362  0  0  0  -0.518128  0.517838  0.518128  0  0  0  0  0  0  0  0  0 
1704803630.685235000  -2.50438  -0.29563  1.00438  0  0  0.005175  -0.0550273  0.0548991  0.0550274  0  0  0  -0.518306  0.518029  0.518306  0  0  0  0  0  0  0  0  0 
1704803630.690232000  -2.50448  -0.295523  1.00448  0  0  0.005175  -0.0556263  0.0556258  0.0556263  0  0  0  -0.518312  0.518038  0.518312  0  0  0  0  0  0  0  0  0 
1704803630.695233000  -2.50476  -0.295238  1.00476  0  0  0.0054243  -0.0582176  0.0582162  0.0582176  0  0  0  -0.518187  0.518163  0.518187  0  0  0  0  0  0  0  0  0 
1704803630.700235000  -2.50506  -0.29494  1.00506  0  0  0.0056799  -0.0608077  0.0608079  0.0608077  0  0  0  -0.517812  0.518538  0.517812  0  0  0  0  0  0  0  0  0 
1704803630.705232000  -2.50537  -0.29463  1.00537  0  0  0.0059417  -0.0633953  0.063402  0.0633953  0  0  0  -0.517187  0.519163  0.517187  0  0  0  0  0  0  0  0  0 
1704803630.710231000  -2.50569  -0.294306  1.00569  0  0  0.0062097  -0.0659792  0.0659999  0.0659792  0  0  0  -0.516312  0.520038  0.516312  0  0  0  0  0  0  0  0  0 
1704803630.715242000  -2.50603  -0.29397  1.00603  0  0  0.0064839  -0.068558  0.0686028  0.068558  0  0  0  -0.515187  0.521163  0.515187  0  0  0  0  0  0  0  0  0 
1704803630.720261000  -2.50638  -0.29362  1.00638  0  0  0.0067642  -0.0711306  0.071212  0.0711306  0  0  0  -0.513812  0.522538  0.513812  0  0  0  0  0  0  0  0  0 
1704803630.725247000  -2.50674  -0.293258  1.00674  0  0  0.0070506  -0.0736957  0.0738286  0.0736957  0  0  0  -0.512187  0.524163  0.512187  0  0  0  0  0  0  0  0  0 
1704803630.730240000  -2.50712  -0.292882  1.00712  0  0  0.0073429  -0.0762521  0.076454  0.0762521  0  0  0  -0.510312  0.526038  0.510312  0  0  0  0  0  0  0  0  0 
1704803630.735236000  -2.5075  -0.292493  1.0075  0  0  0.0076412  -0.0787984  0.0790894  0.0787984  0  0  0  -0.508187  0.528163  0.508187  0  0  0  0  0  0  0  0  0 
1704803630.740240000  -2.5079  -0.292091  1.0079  0  0  0.0079454  -0.0813335  0.0817361  0.0813335  0  0  0  -0.505812  0.530538  0.505812  0  0  0  0  0  0  0  0  0 
1704803630.745239000  -2.50832  -0.291676  1.00832  0  0  0.0082553  -0.0838561  0.0843952  0.0838561  0  0  0  -0.503187  0.533163  0.503187  0  0  0  0  0  0  0  0  0 
1704803630.750235000  -2.50874  -0.291247  1.00874  0  0  0.0085708  -0.086365  0.0870681  0.086365  0  0  0  -0.500312  0.536038  0.500312  0  0  0  0  0  0  0  0  0 
1704803630.755239000  -2.50918  -0.290805  1.00918  0  0  0.0088919  -0.0888588  0.089756  0.0888588  0  0  0  -0.497187  0.539163  0.497187  0  0  0  0  0  0  0  0  0 
1704803630.760235000  -2.50963  -0.29035  1.00963  0  0  0.0092184  -0.0913364  0.0924602  0.0913364  0  0  0  -0.493812  0.542538  0.493812  0  0  0  0  0  0  0  0  0 
1704803630.765232000  -2.51009  -0.28988  1.01009  0  0  0.0095501  -0.0937965  0.0951818  0.0937965  0  0  0  -0.490187  0.546163  0.490187  0  0  0  0  0  0  0  0  0 
1704803630.770233000  -2.51057  -0.289398  1.01057  0  0  0.009887  -0.0962379  0.0979222  0.0962379  0  0  0  -0.486312  0.550038  0.486312  0  0  0  0  0  0  0  0  0 
1704803630.775233000  -2.51106  -0.288901  1.01106  0  0  0.0102288  -0.0986592  0.100683  0.0986592  0  0  0  -0.482187  0.554163  0.482187  0  0  0  0  0  0  0  0  0 
1704803630.780233000  -2.51156  -0.288391  1.01156  0  0  0.0105755  -0.101059  0.103464  0.101059  0  0  0  -0.477812  0.558538  0.477812  0  0  0  0  0  0  0  0  0 
1704803630.785233000  -2.51207  -0.287867  1.01207  0  0  0.0109268  -0.103437  0.106268  0.103437  0  0  0  -0.473187  0.563163  0.473187  0  0  0  0  0  0  0  0  0 
1704803630.790232000  -2.51259  -0.287328  1.01259  0  0  0.0112825  -0.105791  0.109096  0.105791  0  0  0  -0.468312  0.568038  0.468312  0  0  0  0  0  0  0  0  0 
1704803630.795233000  -2.51312  -0.286776  1.01312  0  0  0.0116424  -0.10812  0.111949  0.10812  0  0  0  -0.463187  0.573163  0.463187  0  0  0  0  0  0  0  0  0 
1704803630.800241000  -2.51367  -0.286209  1.01367  0  0  0.0120065  -0.110422  0.114828  0.110422  0  0  0  -0.457812  0.578538  0.457812  0  0  0  0  0  0  0  0  0 
1704803630.805239000  -2.51423  -0.285627  1.01423  0  0  0.0123743  -0.112697  0.117735  0.112697  0  0  0  -0.452187  0.584163  0.452187  0  0  0  0  0  0  0  0  0 
1704803630.810239000  -2.5148  -0.285031  1.0148  0  0  0.0127457  -0.114944  0.12067  0.114944  0  0  0  -0.446312  0.590038  0.446312  0  0  0  0  0  0  0  0  0 
1704803630.815240000  -2.51538  -0.28442  1.01538  0  0  0.0131206  -0.11716  0.123636  0.11716  0  0  0  -0.440187  0.596163  0.440187  0  0  0  0  0  0  0  0  0 
1704803630.820239000  -2.51597  -0.283795  1.01597  0  0  0.0134985  -0.119345  0.126632  0.119345  0  0  0  -0.433812  0.602485  0.433812  0  0  0  0  0  0  0  0  0 
1704803630.825242000  -2.51657  -0.283154  1.01657  0  0  0.0138793  -0.121498  0.12966  0.121498  0  0  0  -0.427187  0.60863  0.427187  0  0  0  0  0  0  0  0  0 
1704803630.830240000  -2.51718  -0.282498  1.01718  0  0  0.0142627  -0.123617  0.132718  0.123617  0  0  0  -0.420312  0.614525  0.420312  0  0  0  0  0  0  0  0  0 
1704803630.835239000  -2.51781  -0.281827  1.01781  0  0  0.0146484  -0.1257  0.135805  0.1257  0  0  0  -0.413187  0.620171  0.413187  0  0  0  0  0  0  0  0  0 
1704803630.840239000  -2.51844  -0.28114  1.01844  0  0  0.0150362  -0.127748  0.13892  0.127748  0  0  0  -0.405812  0.625566  0.405812  0  0  0  0  0  0  0  0  0 
1704803630.845245000  -2.51909  -0.280438  1.01909  0  0  0.0154258  -0.129758  0.14206  0.129758  0  0  0  -0.398187  0.630711  0.398187  0  0  0  0  0  0  0  0  0 
1704803630.850239000  -2.51974  -0.279719  1.01974  0  0  0.0158167  -0.131729  0.145226  0.131729  0  0  0  -0.390312  0.635606  0.390312  0  0  0  0  0  0  0  0  0 
1704803630.855240000  -2.5204  -0.278985  1.0204  0  0  0.0162088  -0.133661  0.148416  0.133661  0  0  0  -0.382187  0.640251  0.382187  0  0  0  0  0  0  0  0  0 
1704803630.860241000  -2.52108  -0.278235  1.02108  0  0  0.0166018  -0.135551  0.151628  0.135551  0  0  0  -0.373812  0.644646  0.373812  0  0  0  0  0  0  0  0  0 
1704803630.865237000  -2.52176  -0.277469  1.02176  0  0  0.0169951  -0.137399  0.154862  0.137399  0  0  0  -0.365187  0.648791  0.365187  0  0  0  0  0  0  0  0  0 
1704803630.870234000  -2.52245  -0.276687  1.02245  0  0  0.0173886  -0.139202  0.158116  0.139202  0  0  0  -0.356312  0.652686  0.356312  0  0  0  0  0  0  0  0  0 
1704803630.875234000  -2.52315  -0.275888  1.02315  0  0  0.0177819  -0.140961  0.161389  0.140961  0  0  0  -0.347187  0.656331  0.347187  0  0  0  0  0  0  0  0  0 
1704803630.880241000  -2.52386  -0.275073  1.02386  0  0  0.0181746  -0.142674  0.164679  0.142674  0  0  0  -0.337812  0.659726  0.337812  0  0  0  0  0  0  0  0  0 
1704803630.885247000  -2.52458  -0.274241  1.02458  0  0  0.0185664  -0.144339  0.167985  0.144339  0  0  0  -0.328187  0.662871  0.328187  0  0  0  0  0  0  0  0  0 
1704803630.890241000  -2.5253  -0.273393  1.0253  0  0  0.018957  -0.145955  0.171307  0.145955  0  0  0  -0.318312  0.665766  0.318312  0  0  0  0  0  0  0  0  0 
1704803630.895233000  -2.52604  -0.272528  1.02604  0  0  0.0193461  -0.147522  0.174643  0.147522  0  0  0  -0.308187  0.668411  0.308187  0  0  0  0  0  0  0  0  0 
1704803630.900239000  -2.52678  -0.271646  1.02678  0  0  0.0197333  -0.149037  0.177991  0.149037  0  0  0  -0.297812  0.670806  0.297812  0  0  0  0  0  0  0  0  0 
1704803630.905232000  -2.52753  -0.270748  1.02753  0  0  0.0201184  -0.150499  0.18135  0.150499  0  0  0  -0.287187  0.672951  0.287187  0  0  0  0  0  0  0  0  0 
1704803630.910233000  -2.52828  -0.269833  1.02828  0  0  0.0205011  -0.151908  0.18472  0.151908  0  0  0  -0.276312  0.674846  0.276312  0  0  0  0  0  0  0  0  0 
1704803630.915231000  -2.52905  -0.268901  1.02905  0  0  0.0208811  -0.153262  0.188098  0.153262  0  0  0  -0.265187  0.676491  0.265187  0  0  0  0  0  0  0  0  0 
1704803630.920238000  -2.52981  -0.267952  1.02981  0  0  0.0212581  -0.15456  0.191484  0.15456  0  0  0  -0.253812  0.677886  0.253812  0  0  0  0  0  0  0  0  0 
1704803630.925231000  -2.53059  -0.266986  1.03059  0  0  0.021632  -0.1558  0.194877  0.1558  0  0  0  -0.242187  0.679031  0.242187  0  0  0  0  0  0  0  0  0 
1704803630.930232000  -2.53137  -0.266003  1.03137  0  0  0.0220024  -0.156981  0.198274  0.156981  0  0  0  -0.230312  0.679926  0.230312  0  0  0  0  0  0  0  0  0 
1704803630.935231000  -2.53216  -0.265003  1.03216  0  0  0.0223692  -0.158102  0.201676  0.158102  0  0  0  -0.218187  0.680571  0.218187  0  0  0  0  0  0  0  0  0 
1704803630.940238000  -2.53295  -0.263986  1.03295  0  0  0.022732  -0.159163  0.20508  0.159163  0  0  0  -0.205812  0.680966  0.205812  0  0  0  0  0  0  0  0  0 
1704803630.945232000  -2.53375  -0.262952  1.03375  0  0  0.0230908  -0.16016  0.208485  0.16016  0  0  0  -0.193187  0.681111  0.193187  0  0  0  0  0  0  0  0  0 
1704803630.950233000  -2.53456  -0.261901  1.03456  0  0  0.0234453  -0.161094  0.21189  0.161094  0  0  0  -0.180312  0.681006  0.180312  0  0  0  0  0  0  0  0  0 
1704803630.955232000  -2.53536  -0.260833  1.03536  0  0  0.0237952  -0.161963  0.215294  0.161963  0  0  0  -0.167187  0.680651  0.167187  0  0  0  0  0  0  0  0  0 
1704803630.960240000  -2.53617  -0.259748  1.03617  0  0  0.0241405  -0.162765  0.218696  0.162765  0  0  0  -0.153812  0.680046  0.153812  0  0  0  0  0  0  0  0  0 
1704803630.965231000  -2.53699  -0.258646  1.03699  0  0  0.0244809  -0.163501  0.222095  0.163501  0  0  0  -0.140187  0.679191  0.140187  0  0  0  0  0  0  0  0  0 
1704803630.970231000  -2.53781  -0.257528  1.03781  0  0  0.0248163  -0.164167  0.225488  0.164167  0  0  0  -0.126312  0.678086  0.126312  0  0  0  0  0  0  0  0  0 
1704803630.975245000  -2.53863  -0.256392  1.03863  0  0  0.0251465  -0.164763  0.228875  0.164763  0  0  0  -0.112187  0.676731  0.112187  0  0  0  0  0  0  0  0  0 
1704803630.980243000  -2.53946  -0.255239  1.03946  0  0  0.0254715  -0.165288  0.232255  0.165288  0  0  0  -0.0978116  0.675126  0.0978116  0  0  0  0  0  0  0  0  0 
1704803630.985242000  -2.54028  -0.254069  1.04028  0  0  0.0257909  -0.165741  0.235626  0.165741  0  0  0  -0.0831866  0.673271  0.0832021  0  0  0  0  0  0  0  0  0 
1704803630.990234000  -2.54111  -0.252883  1.04111  0  0  0.0261049  -0.16612  0.238987  0.166121  0  0  0  -0.0683116  0.671166  0.0687016  0  0  0  0  0  0  0  0  0 
1704803630.995234000  -2.54195  -0.251679  1.04195  0  0  0.0264131  -0.166424  0.242337  0.166428  0  0  0  -0.0531866  0.668811  0.0544511  0  0  0  0  0  0  0  0  0 
1704803631.000233000  -2.54278  -0.250459  1.04278  0  0  0.0267156  -0.166651  0.245675  0.166666  0  0  0  -0.0378116  0.666206  0.0404506  0  0  0  0  0  0  0  0  0 
1704803631.005232000  -2.54361  -0.249222  1.04361  0  0  0.0270122  -0.166801  0.248999  0.166833  0  0  0  -0.0221866  0.663351  0.0267001  0  0  0  0  0  0  0  0  0 
1704803631.010233000  -2.54445  -0.247969  1.04445  0  0  0.0273028  -0.166873  0.252308  0.166933  0  0  0  -0.0063116  0.660246  0.0131996  0  0  0  0  0  0  0  0  0 
1704803631.015232000  -2.54528  -0.246699  1.04528  0  0  0.0275875  -0.166864  0.255601  0.166966  0  0  0  0.0098134  0.656891  -5.09e-05  0  0  0  0  0  0  0  0  0 
1704803631.020233000  -2.54611  -0.245413  1.04612  0  0  0.027866  -0.166774  0.258876  0.166933  0  0  0  0.0261884  0.653286  -0.0130514  0  0  0  0  0  0  0  0  0 
1704803631.025237000  -2.54695  -0.244111  1.04695  0  0  0.0281384  -0.166602  0.262133  0.166836  0  0  0  0.0428134  0.649431  -0.0258018  0  0  0  0  0  0  0  0  0 
1704803631.030233000  -2.54778  -0.242792  1.04778  0  0  0.0284046  -0.166346  0.26537  0.166675  0  0  0  0.0596884  0.645326  -0.0383023  0  0  0  0  0  0  0  0  0 
1704803631.035231000  -2.54861  -0.241457  1.04862  0  0  0.0286646  -0.166004  0.268586  0.166453  0  0  0  0.0768134  0.640971  -0.0505528  0  0  0  0  0  0  0  0  0 
1704803631.040233000  -2.54944  -0.240106  1.04945  0  0  0.0289184  -0.165577  0.271779  0.16617  0  0  0  0.0941884  0.636366  -0.0625533  0  0  0  0  0  0  0  0  0 
1704803631.045232000  -2.55027  -0.238739  1.05028  0  0  0.0291659  -0.165062  0.274949  0.165828  0  0  0  0.111813  0.631511  -0.0743038  0  0  0  0  0  0  0  0  0 
1704803631.050239000  -2.55109  -0.237357  1.05111  0  0  0.0294072  -0.164459  0.278094  0.165428  0  0  0  0.12953  0.626406  -0.0858043  0  0  0  0  0  0  0  0  0 
