ts fx fy fz tx ty tz exfx exfy exfz extx exty extz xd yd zd rolld pitchd yawd vxd vyd vzd wxd wyd wzd axd ayd azd e_x e_y e_z e_vx e_vy e_vz e_rx e_ry e_rz e_wx e_wy e_wz
1704803628.972002000  0  0  11.1782  0.0462763  -0.0669481  0.0243997  nan  nan  nan  nan  nan  nan  -2.5  -0.3  1  0.0101117  -0.0250028  -0.000252802  0  0  0  0  0  0  0  0  0  0.0234178  0.00226037  0.00142154  -0.0209766  0.00753203  -0.00168581  -0.00981959  0.0240094  -0.0291916  -0.00221229  -0.0869905  -0.0130804 
1704803628.975962000  0  0  11.2521  0.0677802  -0.110146  0.0256751  nan  nan  nan  nan  nan  nan  -2.5  -0.3  1  0.0118377  -0.0256367  -0.000303462  0  0  0  0  0  0  0  0  0  0.0233476  0.00231007  0.00136297  -0.0198206  0.00966208  -0.00773562  -0.011852  0.0250807  -0.0294211  -0.026522  -0.0104503  -0.0267279 
1704803628.980974000  0  0  11.1707  0.100252  -0.102969  0.0175575  nan  nan  nan  nan  nan  nan  -2.5  -0.3  1  0.0118475  -0.0234588  -0.000277916  0  0  0  0  0  0  0  0  0  0.0233687  0.00224993  0.00142413  -0.0228044  0.00970177  -0.00108816  -0.0126127  0.0230055  -0.0284761  -0.0844672  -0.00571258  0.0652923 
1704803628.985971000  0  0  11.1448  0.0621793  -0.0600285  0.0225425  nan  nan  nan  nan  nan  nan  -2.5  -0.3  1  0.0104388  -0.0240086  -0.000250607  0  0  0  0  0  0  0  0  0  0.0234263  0.00217817  0.00145427  -0.0223203  0.00808251  0.00103107  -0.0109509  0.0225543  -0.0288219  -0.0236102  -0.087443  0.00643825 
1704803628.991021000  0  0  11.2805  0.0784035  -0.114671  0.028047  nan  nan  nan  nan  nan  nan  -2.5  -0.3  1  0.0118758  -0.0249262  -0.000296001  0  0  0  0  0  0  0  0  0  0.023334  0.00223619  0.00135595  -0.0206006  0.00991158  -0.0100912  -0.0127348  0.0240618  -0.0295643  -0.0396466  0.00797255  -0.0549446 
1704803628.996105000  0  0  11.1855  0.10657  -0.100414  0.0166123  nan  nan  nan  nan  nan  nan  -2.5  -0.3  1  0.0118802  -0.023145  -0.000274955  0  0  0  0  0  0  0  0  0  0.0233502  0.00217945  0.00140554  -0.0231147  0.00991866  -0.00228723  -0.0134972  0.0222808  -0.0283073  -0.0889659  -0.00415526  0.0754187 
1704803629.001403000  0  0  11.1661  0.0795816  -0.0815021  0.0216332  nan  nan  nan  nan  nan  nan  -2.5  -0.3  1  0.0109172  -0.0236654  -0.000258345  0  0  0  0  0  0  0  0  0  0.0234091  0.00211936  0.0014162  -0.0226503  0.00883156  -0.000679447  -0.0125117  0.0223415  -0.0285873  -0.0440555  -0.0425375  0.0154579 
1704803629.006019000  0  0  11.2686  0.0795104  -0.114311  0.0268357  nan  nan  nan  nan  nan  nan  -2.5  -0.3  1  0.0115847  -0.0243889  -0.000282522  0  0  0  0  0  0  0  0  0  0.0233215  0.00216736  0.00133331  -0.0212789  0.00968474  -0.00906011  -0.0133193  0.0234649  -0.0292788  -0.0364831  0.0127448  -0.0426581 
1704803629.011096000  0  0  11.2112  0.104095  -0.124376  0.0145696  nan  nan  nan  nan  nan  nan  -2.5  -0.3  1  0.0119204  -0.0238723  -0.000284555  0  0  0  0  0  0  0  0  0  0.0233407  0.00211922  0.00135581  -0.0221204  0.0101365  -0.00433984  -0.0142712  0.0232932  -0.0278751  -0.0768941  0.0344543  0.0966313 
1704803629.015006000  0  0  11.1807  0.0917318  -0.115642  0.0164655  nan  nan  nan  nan  nan  nan  -2.5  -0.3  1  0.0118685  -0.0228743  -0.000271473  0  0  0  0  0  0  0  0  0  0.0232485  0.00215443  0.0013572  -0.0232369  0.00995377  -0.00180523  -0.0142321  0.0223404  -0.0277666  -0.0525284  0.0257513  0.0718477 
1704803629.021026000  0  0  11.2579  0.0638821  -0.125681  0.0261873  nan  nan  nan  nan  nan  nan  -2.5  -0.3  1  0.0112439  -0.0245195  -0.000275679  0  0  0  0  0  0  0  0  0  0.0233192  0.00210291  0.0012954  -0.0211393  0.00938817  -0.00810141  -0.0133648  0.0241232  -0.0288304  -0.0048078  0.0294294  -0.0390372 
1704803629.026388000  0  0  11.2725  0.091926  -0.159574  0.018438  nan  nan  nan  nan  nan  nan  -2.5  -0.3  1  0.0119752  -0.0255302  -0.000305712  0  0  0  0  0  0  0  0  0  0.023359  0.0020581  0.00126375  -0.0199192  0.010422  -0.00928501  -0.0146373  0.0259027  -0.0279907  -0.0491893  0.0808429  0.0494322 
1704803629.030968000  0  0  11.1815  0.0869733  -0.135598  0.0175396  nan  nan  nan  nan  nan  nan  -2.5  -0.3  1  0.0118634  -0.0229408  -0.000272146  0  0  0  0  0  0  0  0  0  0.0232404  0.00209952  0.0012925  -0.0231334  0.0100709  -0.00176325  -0.014602  0.0234331  -0.0276402  -0.0396086  0.055611  0.0571568 
1704803629.036014000  0  0  11.2533  0.0498061  -0.127596  0.0254787  nan  nan  nan  nan  nan  nan  -2.5  -0.3  1  0.0106558  -0.0247624  -0.000263847  0  0  0  0  0  0  0  0  0  0.0233436  0.00203345  0.00122949  -0.0209017  0.00880179  -0.00760102  -0.0129519  0.0251266  -0.0284768  0.0195451  0.0240269  -0.033716 
1704803629.041023000  0  0  11.2914  0.0746507  -0.16859  0.0217628  nan  nan  nan  nan  nan  nan  -2.5  -0.3  1  0.0123742  -0.0254328  -0.000314692  0  0  0  0  0  0  0  0  0  0.0232517  0.0020966  0.00116778  -0.0197486  0.0108624  -0.010679  -0.0149197  0.0266608  -0.0282149  -0.0120403  0.0919014  0.010114 
1704803629.045951000  0  0  11.197  0.0833313  -0.145727  0.0149204  nan  nan  nan  nan  nan  nan  -2.5  -0.3  1  0.0116827  -0.0232615  -0.000271746  0  0  0  0  0  0  0  0  0  0.0232719  0.00203475  0.00120612  -0.0227642  0.0100107  -0.00289325  -0.014497  0.0246906  -0.0272311  -0.03329  0.0643007  0.0858058 
1704803629.051010000  0  0  11.2663  0.0343212  -0.120319  0.0246918  nan  nan  nan  nan  nan  nan  -2.5  -0.3  1  0.0109621  -0.0240994  -0.000264165  0  0  0  0  0  0  0  0  0  0.0231757  0.00207663  0.00113391  -0.0213227  0.00910503  -0.00850245  -0.0130256  0.0251712  -0.0281195  0.0511927  0.00906275  -0.027452 
1704803629.055963000  0  0  11.3248  0.0508437  -0.166087  0.022475  nan  nan  nan  nan  nan  nan  -2.5  -0.3  1  0.0122072  -0.0255399  -0.000311753  0  0  0  0  0  0  0  0  0  0.023292  0.00203327  0.00106643  -0.0196086  0.0108391  -0.0132598  -0.014263  0.0274419  -0.0280411  0.0295319  0.0797086  -0.00052594 
1704803629.061110000  0  0  11.1931  0.0629549  -0.132971  0.0148556  nan  nan  nan  nan  nan  nan  -2.5  -0.3  1  0.0112953  -0.0239201  -0.00027017  0  0  0  0  0  0  0  0  0  0.0233051  0.00197328  0.00111913  -0.0220286  0.00966021  -0.00239097  -0.0135949  0.0257374  -0.0269793  -0.000836282  0.0291574  0.0840987 
1704803629.066009000  0  0  11.2692  0.0264581  -0.127794  0.023127  nan  nan  nan  nan  nan  nan  -2.5  -0.3  1  0.0110811  -0.024161  -0.000267714  0  0  0  0  0  0  0  0  0  0.0232093  0.00201824  0.00104056  -0.021312  0.00938743  -0.00856301  -0.0127033  0.0259564  -0.0276459  0.0639545  0.0167898  -0.0126279 
1704803629.071018000  0  0  11.2814  0.0397243  -0.157023  0.0238529  nan  nan  nan  nan  nan  nan  -2.5  -0.3  1  0.0120194  -0.0248606  -0.000298792  0  0  0  0  0  0  0  0  0  0.023329  0.00195822  0.00100739  -0.0206662  0.0107119  -0.0095284  -0.0135296  0.0272444  -0.0279  0.0450242  0.0633976  -0.0191616 
1704803629.076107000  0  0  11.199  0.0555351  -0.12047  0.0171995  nan  nan  nan  nan  nan  nan  -2.5  -0.3  1  0.0116191  -0.0240762  -0.000279729  0  0  0  0  0  0  0  0  0  0.0232176  0.00200355  0.00102194  -0.0216238  0.0100032  -0.00268316  -0.0133401  0.0261006  -0.0270567  0.0116586  0.000814996  0.0555725 
1704803629.080975000  0  0  11.2469  0.0327769  -0.127114  0.0234389  nan  nan  nan  nan  nan  nan  -2.5  -0.3  1  0.0110951  -0.0246471  -0.000273444  0  0  0  0  0  0  0  0  0  0.0232652  0.00194077  0.000971639  -0.0208878  0.00954956  -0.00656678  -0.0123552  0.0267499  -0.027641  0.048114  0.00812905  -0.0165761 
1704803629.086018000  0  0  11.2448  0.04276  -0.124393  0.0238865  nan  nan  nan  nan  nan  nan  -2.5  -0.3  1  0.0110783  -0.0245635  -0.000272106  0  0  0  0  0  0  0  0  0  0.0233436  0.00187658  0.000946414  -0.0211725  0.00966856  -0.0063308  -0.0122973  0.0266696  -0.0278947  0.0276149  0.00342571  -0.0196351 
1704803629.091017000  0  0  11.2112  0.0582103  -0.114322  0.0181435  nan  nan  nan  nan  nan  nan  -2.5  -0.3  1  0.0114311  -0.025416  -0.000290515  0  0  0  0  0  0  0  0  0  0.0232517  0.00192475  0.000939722  -0.0199972  0.00995925  -0.00351312  -0.0128466  0.0271993  -0.0271841  0.00176844  -0.0215893  0.0450467 
1704803629.095993000  0  0  11.2253  0.0645847  -0.132233  0.0213784  nan  nan  nan  nan  nan  nan  -2.5  -0.3  1  0.0114431  -0.0248841  -0.000284734  0  0  0  0  0  0  0  0  0  0.0232975  0.0018716  0.000909489  -0.0207226  0.0101106  -0.0046369  -0.0129634  0.0270118  -0.0274339  -0.00990646  0.0159575  0.00710905 
1704803629.099991000  0  0  11.2112  0.0603484  -0.0992456  0.0227409  nan  nan  nan  nan  nan  nan  -2.5  -0.3  1  0.01135  -0.0231494  -0.000262734  0  0  0  0  0  0  0  0  0  0.0232005  0.00190734  0.000899883  -0.0227092  0.00989767  -0.00342568  -0.0127948  0.0248245  -0.0276128  -0.00298463  -0.0298938  -0.00813379 
1704803629.106019000  0  0  11.2281  0.0707746  -0.10665  0.0221759  nan  nan  nan  nan  nan  nan  -2.5  -0.3  1  0.0115978  -0.0263773  -0.000305896  0  0  0  0  0  0  0  0  0  0.0232772  0.00185673  0.000868202  -0.0188059  0.0103394  -0.00476793  -0.0132909  0.0275715  -0.0275877  -0.0192731  -0.0403588  -0.00132264 
1704803629.110969000  0  0  11.2206  0.102984  -0.131473  0.0191818  nan  nan  nan  nan  nan  nan  -2.5  -0.3  1  0.0120222  -0.0244566  -0.000294006  0  0  0  0  0  0  0  0  0  0.0233216  0.00179963  0.000854553  -0.0213223  0.0109866  -0.00412974  -0.0144023  0.026202  -0.0272373  -0.0734661  0.0218869  0.0325999 
1704803629.116101000  0  0  11.1889  0.0712345  -0.0640268  0.022987  nan  nan  nan  nan  nan  nan  -2.5  -0.3  1  0.0114005  -0.0245169  -0.000279488  0  0  0  0  0  0  0  0  0  0.023217  0.00184402  0.000857483  -0.0211026  0.0100722  -0.00145893  -0.013581  0.0249606  -0.0275182  -0.017524  -0.101584  -0.0121553 
1704803629.121107000  0  0  11.2737  0.0939112  -0.139551  0.0244502  nan  nan  nan  nan  nan  nan  -2.5  -0.3  1  0.0123379  -0.0274261  -0.000338356  0  0  0  0  0  0  0  0  0  0.0233126  0.00181018  0.000776652  -0.0174349  0.0114282  -0.00838643  -0.0150047  0.0285197  -0.0278208  -0.049779  0.0167215  -0.02742 
1704803629.125014000  0  0  11.2625  0.118997  -0.148118  0.0192712  nan  nan  nan  nan  nan  nan  -2.5  -0.3  1  0.013176  -0.0254697  -0.000335573  0  0  0  0  0  0  0  0  0  0.0232212  0.00185939  0.000761998  -0.0197147  0.0123535  -0.00744671  -0.0163968  0.0269675  -0.0272906  -0.0871429  0.0481349  0.0320157 
1704803629.130970000  0  0  11.226  0.0762242  -0.0708212  0.0194761  nan  nan  nan  nan  nan  nan  -2.5  -0.3  1  0.0116212  -0.0244154  -0.000283721  0  0  0  0  0  0  0  0  0  0.023222  0.00181768  0.000745811  -0.0211389  0.0104532  -0.0043286  -0.0145717  0.0245911  -0.0270818  -0.0183884  -0.084596  0.0273678 
1704803629.136014000  0  0  11.33  0.0702918  -0.141414  0.0262596  nan  nan  nan  nan  nan  nan  -2.5  -0.3  1  0.0121331  -0.0281147  -0.000341089  0  0  0  0  0  0  0  0  0  0.0233449  0.00178439  0.000634202  -0.0164674  0.0113045  -0.0127792  -0.0150539  0.0288989  -0.0279655  -0.0020873  0.0169593  -0.0485895 
1704803629.141175000  0  0  11.2698  0.105152  -0.144115  0.0149077  nan  nan  nan  nan  nan  nan  -2.5  -0.3  1  0.0131906  -0.0246548  -0.000325197  0  0  0  0  0  0  0  0  0  0.0232181  0.00185268  0.000624114  -0.0207086  0.0123976  -0.00776942  -0.0167383  0.0260407  -0.0267525  -0.0563128  0.0486563  0.0811791 
1704803629.146021000  0  0  11.26  0.0653126  -0.103158  0.0191338  nan  nan  nan  nan  nan  nan  -2.5  -0.3  1  0.0124018  -0.0245643  -0.000304627  0  0  0  0  0  0  0  0  0  0.0231599  0.00187594  0.000590145  -0.020721  0.0113443  -0.00685183  -0.0154799  0.0253114  -0.0269182  0.0117901  -0.026549  0.0300092 
1704803629.150009000  0  0  11.3646  0.0458854  -0.148773  0.0272882  nan  nan  nan  nan  nan  nan  -2.5  -0.3  1  0.0128331  -0.0260239  -0.000333948  0  0  0  0  0  0  0  0  0  0.0230994  0.00192733  0.000488474  -0.0184554  0.0119185  -0.0153745  -0.0154796  0.0274045  -0.0278878  0.0506415  0.045424  -0.0622247 
1704803629.156102000  0  0  11.3132  0.0826009  -0.163927  0.0157092  nan  nan  nan  nan  nan  nan  -2.5  -0.3  1  0.0135012  -0.0252535  -0.000340938  0  0  0  0  0  0  0  0  0  0.0231737  0.00189233  0.000439303  -0.0197369  0.0127637  -0.0110178  -0.0166772  0.0274374  -0.0268062  -0.0117715  0.0754292  0.0716967 
1704803629.161128000  0  0  11.2918  0.0509828  -0.13798  0.0216238  nan  nan  nan  nan  nan  nan  -2.5  -0.3  1  0.0129795  -0.0253775  -0.000329369  0  0  0  0  0  0  0  0  0  0.0231233  0.00191908  0.000398861  -0.0195303  0.0120171  -0.00913196  -0.0156696  0.0273387  -0.0271447  0.042195  0.0244438  0.0011498 
1704803629.165960000  0  0  11.3878  0.034111  -0.159336  0.0271272  nan  nan  nan  nan  nan  nan  -2.5  -0.3  1  0.0129224  -0.0262793  -0.000339571  0  0  0  0  0  0  0  0  0  0.0230442  0.00197676  0.000285022  -0.0179414  0.011955  -0.0169044  -0.0151224  0.028676  -0.0278822  0.0709037  0.0548515  -0.0602677 
1704803629.171139000  0  0  11.3238  0.0673886  -0.166989  0.0168607  nan  nan  nan  nan  nan  nan  -2.5  -0.3  1  0.0135269  -0.0260791  -0.000352751  0  0  0  0  0  0  0  0  0  0.0231477  0.00191843  0.000254578  -0.0186093  0.0127535  -0.0115187  -0.0160224  0.0289449  -0.0268829  0.0126289  0.0676857  0.05807 
1704803629.175950000  0  0  11.286  0.0562702  -0.137967  0.0191023  nan  nan  nan  nan  nan  nan  -2.5  -0.3  1  0.013712  -0.0246662  -0.000338209  0  0  0  0  0  0  0  0  0  0.0230473  0.00197762  0.000223334  -0.0202697  0.0127977  -0.00829077  -0.015892  0.0273635  -0.0268966  0.0336662  0.0241901  0.030187 
1704803629.181004000  0  0  11.3546  0.0283141  -0.138045  0.0266491  nan  nan  nan  nan  nan  nan  -2.5  -0.3  1  0.0130914  -0.0261852  -0.000342783  0  0  0  0  0  0  0  0  0  0.0230223  0.00200052  0.000124203  -0.0181085  0.0120676  -0.0137938  -0.0146037  0.0288017  -0.0278483  0.0777262  0.0111139  -0.0546311 
1704803629.186006000  0  0  11.3763  0.0619004  -0.161571  0.0201976  nan  nan  nan  nan  nan  nan  -2.5  -0.3  1  0.0143157  -0.0259575  -0.000371584  0  0  0  0  0  0  0  0  0  0.0229316  0.00207342  4.38745e-05  -0.0181301  0.0134852  -0.0154588  -0.016038  0.029121  -0.0272814  0.0237484  0.0552288  0.0203444 
1704803629.191023000  0  0  11.252  0.0625957  -0.126731  0.0168756  nan  nan  nan  nan  nan  nan  -2.5  -0.3  1  0.0138816  -0.0244281  -0.000339089  0  0  0  0  0  0  0  0  0  0.0230489  0.00197849  8.01401e-05  -0.0206642  0.0129561  -0.00515885  -0.0155104  0.0273188  -0.0267666  0.0175043  0.00212843  0.0567213 
1704803629.196150000  0  0  11.3502  0.0235272  -0.125165  0.0266496  nan  nan  nan  nan  nan  nan  -2.5  -0.3  1  0.0121737  -0.0283143  -0.000344661  0  0  0  0  0  0  0  0  0  0.0232624  0.00185977  -6.87657e-06  -0.0159684  0.0112157  -0.0131465  -0.0131511  0.0307629  -0.0278378  0.0739361  -0.0326898  -0.0547425 
1704803629.201102000  0  0  11.354  0.0674623  -0.165109  0.0195015  nan  nan  nan  nan  nan  nan  -2.5  -0.3  1  0.0130023  -0.0283602  -0.000368717  0  0  0  0  0  0  0  0  0  0.0233622  0.00179412  -3.98491e-05  -0.0161186  0.0124122  -0.0134185  -0.0143872  0.0314691  -0.0272766  -0.00256256  0.0407014  0.0289964 
1704803629.206023000  0  0  11.2448  0.0727873  -0.117396  0.0161913  nan  nan  nan  nan  nan  nan  -2.5  -0.3  1  0.0134232  -0.0257087  -0.000345075  0  0  0  0  0  0  0  0  0  0.0232553  0.0018547  -2.45986e-05  -0.0195419  0.0126466  -0.00433104  -0.0148491  0.0282788  -0.0267162  -0.00896283  -0.0253734  0.064771 
1704803629.210999000  0  0  11.2955  0.0318578  -0.0996399  0.0254511  nan  nan  nan  nan  nan  nan  -2.5  -0.3  1  0.0115725  -0.0290021  -0.000335595  0  0  0  0  0  0  0  0  0  0.0234505  0.00174718  -6.77856e-05  -0.0156956  0.010637  -0.00844306  -0.0124363  0.0307059  -0.027737  0.0506983  -0.0832146  -0.0407692 
1704803629.216155000  0  0  11.374  0.078199  -0.14226  0.0206344  nan  nan  nan  nan  nan  nan  -2.5  -0.3  1  0.0134321  -0.0278126  -0.000373556  0  0  0  0  0  0  0  0  0  0.0233604  0.00182491  -0.00017274  -0.0167447  0.0129158  -0.0147879  -0.0147739  0.0301089  -0.0274232  -0.0204783  0.00751823  0.0163022 
1704803629.220982000  0  0  11.3056  0.0862001  -0.121394  0.0171508  nan  nan  nan  nan  nan  nan  -2.5  -0.3  1  0.0132973  -0.0271213  -0.000360618  0  0  0  0  0  0  0  0  0  0.023444  0.00174695  -0.000150101  -0.0180116  0.0128179  -0.00912818  -0.014879  0.0290594  -0.0269067  -0.0355137  -0.0245573  0.054682 
1704803629.225069000  0  0  11.3266  0.0503997  -0.100677  0.0245762  nan  nan  nan  nan  nan  nan  -2.5  -0.3  1  0.0126866  -0.0280307  -0.000355588  0  0  0  0  0  0  0  0  0  0.0233859  0.00178941  -0.000200841  -0.0166751  0.0119852  -0.0107468  -0.013765  0.0293077  -0.0276258  0.0258389  -0.0682757  -0.0309445 
1704803629.231029000  0  0  11.4529  0.0775753  -0.138839  0.0246867  nan  nan  nan  nan  nan  nan  -2.5  -0.3  1  0.0135858  -0.0275244  -0.000373917  0  0  0  0  0  0  0  0  0  0.0233353  0.00184372  -0.000348829  -0.0168125  0.0131872  -0.0209822  -0.0150346  0.0293727  -0.0279615  -0.0168326  0.00745007  -0.0289693 
1704803629.235956000  0  0  11.3579  0.0867046  -0.099576  0.0189032  nan  nan  nan  nan  nan  nan  -2.5  -0.3  1  0.0137144  -0.0275118  -0.000377283  0  0  0  0  0  0  0  0  0  0.0234351  0.00176839  -0.000323205  -0.0173413  0.0133731  -0.0130998  -0.0154352  0.0285625  -0.0272994  -0.0314055  -0.0636233  0.0367042 
1704803629.241118000  0  0  11.377  0.0798484  -0.119165  0.0260184  nan  nan  nan  nan  nan  nan  -2.5  -0.3  1  0.0135745  -0.0272218  -0.000369498  0  0  0  0  0  0  0  0  0  0.0233494  0.00183165  -0.000403972  -0.0174595  0.013085  -0.0145263  -0.0153003  0.0283335  -0.028034  -0.018934  -0.0223395  -0.0448895 
1704803629.247961000  0  0  11.4261  0.0836825  -0.106857  0.020848  nan  nan  nan  nan  nan  nan  -2.5  -0.3  1  0.0135248  -0.0277112  -0.000374763  0  0  0  0  0  0  0  0  0  0.0234597  0.00178563  -0.000483462  -0.0169341  0.0131979  -0.0184499  -0.0154722  0.0284107  -0.0276533  -0.0250206  -0.0476646  0.015932 
1704803629.252962000  0  0  11.3737  0.0980686  -0.119431  0.0202062  nan  nan  nan  nan  nan  nan  -2.5  -0.3  1  0.0146696  -0.0282003  -0.000413662  0  0  0  0  0  0  0  0  0  0.0234293  0.00182814  -0.000515974  -0.0164082  0.014471  -0.0140154  -0.0169318  0.0288706  -0.0274744  -0.0403648  -0.0267465  0.0221672 
1704803629.257976000  0  0  11.3769  0.0967798  -0.118688  0.0212168  nan  nan  nan  nan  nan  nan  -2.5  -0.3  1  0.0141158  -0.0261176  -0.000368654  0  0  0  0  0  0  0  0  0  0.0233284  0.00188964  -0.000589  -0.0188097  0.0136407  -0.0141322  -0.0165517  0.0269073  -0.027541  -0.0412836  -0.0101712  0.0102001 
1704803629.263026000  0  0  11.4445  0.0721298  -0.0977853  0.0238438  nan  nan  nan  nan  nan  nan  -2.5  -0.3  1  0.014415  -0.0277277  -0.000399672  0  0  0  0  0  0  0  0  0  0.0233143  0.00192544  -0.000693059  -0.0165333  0.0140464  -0.0195261  -0.0164867  0.0277499  -0.0278566  0.00741803  -0.0597283  -0.0194814 
1704803629.268386000  0  0  11.4116  0.0930882  -0.144086  0.0229149  nan  nan  nan  nan  nan  nan  -2.5  -0.3  1  0.0151636  -0.0292777  -0.000443927  0  0  0  0  0  0  0  0  0  0.023475  0.00184798  -0.000688663  -0.0150226  0.0151145  -0.0168196  -0.0176052  0.029895  -0.0278605  -0.0242091  0.0131376  -0.00783145 
1704803629.272949000  0  0  11.3514  0.0969874  -0.123766  0.0187447  nan  nan  nan  nan  nan  nan  -2.5  -0.3  1  0.0146825  -0.0263896  -0.000387448  0  0  0  0  0  0  0  0  0  0.0233732  0.00190598  -0.00071659  -0.0186391  0.0142791  -0.0117488  -0.017324  0.0269863  -0.0273089  -0.0345944  -0.000742201  0.0387801 
1704803629.277992000  0  0  11.4658  0.0533788  -0.113607  0.0273877  nan  nan  nan  nan  nan  nan  -2.5  -0.3  1  0.0146304  -0.0291877  -0.000426998  0  0  0  0  0  0  0  0  0  0.0233803  0.00194127  -0.000845613  -0.0147522  0.0143189  -0.0209838  -0.0165662  0.0291281  -0.028337  0.0456512  -0.0407637  -0.0589767 
1704803629.282961000  0  0  11.4702  0.0907266  -0.164439  0.0246003  nan  nan  nan  nan  nan  nan  -2.5  -0.3  1  0.0162983  -0.0288844  -0.000470741  -2e-07  2e-07  2e-07  0  0  0  -0.000125  0.000125  0.000125  0.023302  0.00202996  -0.000937707  -0.0149636  0.0162709  -0.0211781  -0.0186742  0.0297597  -0.0282398  -0.00965031  0.0550885  -0.0251057 
1704803629.288121000  0  0  11.3823  0.0720855  -0.109578  0.017142  nan  nan  nan  nan  nan  nan  -2.5  -0.3  1  0.014045  -0.0280364  -0.000393744  -1.7e-06  1.7e-06  1.7e-06  0  0  0  -0.0005  0.0005  0.0005  0.0234478  0.00191291  -0.000862629  -0.016694  0.0135701  -0.0139568  -0.0163469  0.0283062  -0.0272829  0.00622079  -0.0412601  0.0585539 
1704803629.292977000  0  0  11.4468  0.0418799  -0.10977  0.0242771  nan  nan  nan  nan  nan  nan  -2.5  -0.3  1  0.0142798  -0.0295224  -0.000421542  -5.6e-06  5.6e-06  5.6e-06  0  0  0  -0.001125  0.001125  0.001125  0.0233891  0.00198476  -0.000981161  -0.0145505  0.0138878  -0.0190003  -0.0159248  0.0294148  -0.0280277  0.0627486  -0.0510753  -0.0231871 
1704803629.298147000  0  0  11.4514  0.08271  -0.170817  0.0203155  nan  nan  nan  nan  nan  nan  -2.5  -0.3  1  0.0156481  -0.0289984  -0.000453642  -1.33e-05  1.33e-05  1.33e-05  0  0  0  -0.002  0.002  0.002  0.0233729  0.00203654  -0.00105182  -0.0152746  0.0156328  -0.0191997  -0.0177335  0.0301077  -0.0277074  -0.00227215  0.0646429  0.0231299 
1704803629.303028000  0  0  11.3468  0.065988  -0.125965  0.0143217  nan  nan  nan  nan  nan  nan  -2.5  -0.3  1  0.0139012  -0.0295849  -0.000411032  -2.6e-05  2.6e-05  2.6e-05  0  0  0  -0.003125  0.003125  0.003125  0.0235519  0.00190831  -0.000946157  -0.0154145  0.0136758  -0.0105758  -0.0158119  0.0300941  -0.0268179  0.0134933  -0.0249352  0.089157 
1704803629.308024000  0  0  11.4462  0.0339445  -0.13946  0.0247762  nan  nan  nan  nan  nan  nan  -2.5  -0.3  1  0.0139988  -0.0307999  -0.000430722  -4.5e-05  4.5e-05  4.5e-05  0  0  0  -0.0045  0.0045  0.0045  0.0234932  0.00198193  -0.00108298  -0.0135852  0.0139632  -0.0184265  -0.0151801  0.0312578  -0.0278835  0.0717681  -0.00865205  -0.0308669 
1704803629.312977000  0  0  11.4816  0.0511362  -0.1693  0.0232166  nan  nan  nan  nan  nan  nan  -2.5  -0.299999  1  0.0134952  -0.0323574  -0.00043602  -7.15e-05  7.15e-05  7.15e-05  0  0  0  -0.006125  0.006125  0.006125  0.0237548  0.00185687  -0.00103665  -0.0122617  0.0138593  -0.0213365  -0.0147785  0.0333637  -0.0278821  0.0336898  0.0316534  -0.0113857 
1704803629.317986000  0  0  11.3387  0.0524127  -0.139655  0.0179293  nan  nan  nan  nan  nan  nan  -2.5  -0.299999  1  0.0126035  -0.0331481  -0.000416928  -0.0001067  0.0001067  0.0001067  0  0  0  -0.008  0.008  0.008  0.0239127  0.00175867  -0.000899878  -0.0123685  0.0129773  -0.00951624  -0.0138604  0.0336296  -0.02719  0.0226904  -0.0300819  0.0477829 
1704803629.322996000  0  0  11.4113  0.0374657  -0.151885  0.0248702  nan  nan  nan  nan  nan  nan  -2.5  -0.299998  1  0.0124219  -0.0329859  -0.000408693  -0.0001519  0.0001519  0.0001519  0  0  0  -0.010125  0.010125  0.010125  0.023852  0.00182262  -0.00100935  -0.0124414  0.0129761  -0.0151415  -0.0132941  0.0335824  -0.0279096  0.0473744  -0.00518808  -0.0317818 
1704803629.328000000  0  0  11.4026  0.0423013  -0.149649  0.0218776  nan  nan  nan  nan  nan  nan  -2.5  -0.299997  1  0.0118915  -0.0346249  -0.000410478  -0.0002083  0.0002083  0.0002083  0  0  0  -0.0125  0.0125  0.0125  0.0240246  0.00173235  -0.000935365  -0.0110796  0.0127931  -0.0143353  -0.0127087  0.0350201  -0.02773  0.0323171  -0.0228868  0.00382913 
1704803629.332956000  0  0  11.343  0.0590727  -0.148365  0.0187923  nan  nan  nan  nan  nan  nan  -2.5  -0.299996  1  0.0124843  -0.0341709  -0.000425139  -0.0002773  0.0002773  0.0002773  0  0  0  -0.015125  0.015125  0.015125  0.0239605  0.00180176  -0.000955537  -0.012072  0.01364  -0.00907353  -0.0134668  0.0344791  -0.0272389  0.00574905  -0.0204771  0.0374858 
1704803629.337946000  0  0  11.3636  0.0481842  -0.13968  0.0229983  nan  nan  nan  nan  nan  nan  -2.50001  -0.299995  1.00001  0.0110072  -0.0342467  -0.0003752  -0.00036  0.00036  0.00036  0  0  0  -0.018  0.018  0.018  0.0241139  0.00171431  -0.000899346  -0.0126051  0.012363  -0.010626  -0.0118881  0.0343349  -0.0276934  0.0130026  -0.0365211  -0.0105449 
1704803629.343007000  0  0  11.3974  0.0531843  -0.143347  0.0255702  nan  nan  nan  nan  nan  nan  -2.50001  -0.299993  1.00001  0.0115958  -0.0358705  -0.000413875  -0.0004577  0.0004577  0.0004577  0  0  0  -0.021125  0.021125  0.021125  0.0240698  0.00178505  -0.000972561  -0.0107152  0.0133874  -0.0129863  -0.0124849  0.0356221  -0.0281315  0.00849262  -0.0410302  -0.0383122 
1704803629.347950000  0  0  11.3386  0.0841888  -0.161007  0.0215895  nan  nan  nan  nan  nan  nan  -2.50001  -0.29999  1.00001  0.0114134  -0.0365665  -0.000414875  -0.0005717  0.0005717  0.0005717  0  0  0  -0.0245  0.0245  0.0245  0.0241938  0.00172473  -0.000860211  -0.0107746  0.0136439  -0.00801096  -0.0129785  0.0365021  -0.0277806  -0.0489752  -0.0138042  0.0079375 
1704803629.352963000  0  0  11.3143  0.062488  -0.122982  0.0226575  nan  nan  nan  nan  nan  nan  -2.50001  -0.299987  1.00001  0.00985337  -0.0360565  -0.000352313  -0.0007031  0.0007031  0.0007031  0  0  0  -0.028125  0.028125  0.028125  0.0243042  0.0016537  -0.000758707  -0.0122234  0.0122702  -0.00582219  -0.0113212  0.0352076  -0.027903  -0.0208213  -0.0779465  -0.00418839 
1704803629.357950000  0  0  11.3665  0.0602212  -0.126247  0.0281112  nan  nan  nan  nan  nan  nan  -2.50002  -0.299983  1.00002  0.0105176  -0.0382353  -0.000398462  -0.0008533  0.0008533  0.0008533  0  0  0  -0.032  0.032  0.032  0.0242776  0.00172568  -0.000833895  -0.0096908  0.0134957  -0.00962717  -0.0120237  0.0367848  -0.0287042  -0.00982451  -0.0859265  -0.064349 
1704803629.362956000  0  0  11.3397  0.101458  -0.148697  0.0197359  nan  nan  nan  nan  nan  nan  -2.50002  -0.299978  1.00002  0.0100326  -0.0380509  -0.000377071  -0.0010235  0.0010235  0.0010235  0  0  0  -0.036125  0.036125  0.036125  0.0243752  0.00167119  -0.000719037  -0.0107772  0.0134981  -0.00725581  -0.0125448  0.0368201  -0.0278538  -0.0875048  -0.0413504  0.031839 
1704803629.368325000  0  0  11.3177  0.0777445  -0.111553  0.0211502  nan  nan  nan  nan  nan  nan  -2.50003  -0.299973  1.00003  0.00939175  -0.0382732  -0.000353475  -0.001215  0.001215  0.001215  0  0  0  -0.0405  0.0405  0.0405  0.0244892  0.00162899  -0.000616576  -0.0114007  0.0133161  -0.00518048  -0.011878  0.0360011  -0.0278908  -0.0462111  -0.108104  0.0145305 
1704803629.372953000  0  0  11.3679  0.074501  -0.121088  0.0264041  nan  nan  nan  nan  nan  nan  -2.50003  -0.299966  1.00003  0.00912236  -0.0398198  -0.000355564  -0.001429  0.001429  0.001429  0  0  0  -0.045125  0.045125  0.045125  0.02445  0.00168933  -0.000670106  -0.00973099  0.0134799  -0.00879901  -0.0117982  0.0371175  -0.0286295  -0.040459  -0.0993049  -0.0437554 
1704803629.377952000  0  0  11.3944  0.105028  -0.135618  0.0163629  nan  nan  nan  nan  nan  nan  -2.50004  -0.299958  1.00004  0.00823809  -0.0396779  -0.000316991  -0.0016667  0.0016667  0.0016667  0  0  0  -0.05  0.05  0.05  0.0245237  0.00165086  -0.000607554  -0.0105758  0.0130919  -0.0106811  -0.0118579  0.0369633  -0.0274248  -0.100964  -0.0688267  0.069711 
1704803629.383026000  0  0  11.3563  0.0912241  -0.11693  0.0195658  nan  nan  nan  nan  nan  nan  -2.50005  -0.299949  1.00005  0.00851114  -0.0393451  -0.000322093  -0.0019294  0.0019294  0.0019294  0  0  0  -0.055125  0.055125  0.055125  0.0244628  0.00172374  -0.000616413  -0.0116797  0.0138892  -0.00697948  -0.0122708  0.0358863  -0.0274313  -0.0695567  -0.0962932  0.0297408 
1704803629.387965000  0  0  11.3763  0.0815096  -0.135033  0.0229554  nan  nan  nan  nan  nan  nan  -2.50006  -0.299939  1.00006  0.00694924  -0.040723  -0.00026662  -0.0022183  0.0022183  0.0022183  0  0  0  -0.0605  0.0605  0.0605  0.0245965  0.00166536  -0.000521644  -0.0108281  0.0127461  -0.00832317  -0.0110043  0.0371327  -0.027862  -0.0617799  -0.0715539  -0.00832219 
1704803629.392977000  0  0  11.4105  0.0803707  -0.128213  0.0196673  nan  nan  nan  nan  nan  nan  -2.50007  -0.299927  1.00007  0.00653855  -0.0416639  -0.000251546  -0.0025348  0.0025348  0.0025348  0  0  0  -0.066125  0.066125  0.066125  0.0245498  0.00172917  -0.00057727  -0.0100893  0.0128234  -0.0104975  -0.0108931  0.0375226  -0.0274253  -0.0605246  -0.0887822  0.0284122 
1704803629.397974000  0  0  11.3705  0.0791634  -0.150745  0.02158  nan  nan  nan  nan  nan  nan  -2.50009  -0.299914  1.00009  0.00717405  -0.0421511  -0.00027611  -0.00288  0.00288  0.00288  0  0  0  -0.072  0.072  0.072  0.0246239  0.00171599  -0.000479814  -0.0105668  0.0143707  -0.00681656  -0.0117011  0.0380529  -0.027579  -0.0506767  -0.0485956  0.00603923 
1704803629.402967000  0  0  11.3445  0.0644692  -0.140223  0.0240832  nan  nan  nan  nan  nan  nan  -2.5001  -0.299898  1.0001  0.00477697  -0.0421932  -0.000168597  -0.0032552  0.0032552  0.0032552  0  0  0  -0.078125  0.078125  0.078125  0.0247063  0.00166331  -0.000361105  -0.0115979  0.0122252  -0.00428913  -0.00947148  0.0377154  -0.0280048  -0.0418008  -0.0665351  -0.0209929 
1704803629.407966000  0  0  11.4434  0.0408124  -0.139196  0.026227  nan  nan  nan  nan  nan  nan  -2.50012  -0.299881  1.00012  0.00373357  -0.0440556  -0.000123632  -0.0036614  0.0036613  0.0036614  0  0  0  -0.0842964  0.084283  0.0842964  0.0246758  0.00171968  -0.0004575  -0.00947935  0.0116077  -0.0117047  -0.00822333  0.0390182  -0.0284391  -0.00597016  -0.0805747  -0.0434468 
1704803629.412979000  0  0  11.3854  0.0638008  -0.182215  0.023283  nan  nan  nan  nan  nan  nan  -2.50014  -0.299862  1.00014  0.00462494  -0.0445081  -0.000155581  -0.0040978  0.0040976  0.0040978  0  0  0  -0.0902201  0.0901921  0.0902201  0.0247598  0.00170188  -0.000334646  -0.0101258  0.0134993  -0.00659055  -0.00957368  0.0400354  -0.0282739  -0.0395238  -0.00389576  -0.00829845 
1704803629.418023000  0  0  11.3553  0.0378497  -0.119133  0.0215149  nan  nan  nan  nan  nan  nan  -2.50016  -0.29984  1.00016  0.00204775  -0.0436841  -2.81261e-05  -0.0045631  0.0045628  0.0045631  0  0  0  -0.0958938  0.0958512  0.0958938  0.0246913  0.00174549  -0.000337445  -0.0118867  0.010857  -0.00348889  -0.00691496  0.0379832  -0.0280572  -0.0120818  -0.111179  0.0116363 
1704803629.423031000  0  0  11.5002  0.0183968  -0.16502  0.028341  nan  nan  nan  nan  nan  nan  -2.50018  -0.299816  1.00018  0.00159196  -0.0476261  -1.6902e-06  -0.0050563  0.0050557  0.0050563  0  0  0  -0.101318  0.10126  0.101318  0.0248162  0.00171058  -0.000335316  -0.00710379  0.0110722  -0.015023  -0.00624911  0.041933  -0.0290107  0.0206982  -0.0557442  -0.0641552 
1704803629.428011000  0  0  11.4449  0.049289  -0.189118  0.0234281  nan  nan  nan  nan  nan  nan  -2.50021  -0.299789  1.00021  0.00200557  -0.0473181  -5.76456e-06  -0.0055759  0.005575  0.0055759  0  0  0  -0.106491  0.10642  0.106491  0.0248927  0.0016771  -0.000219171  -0.00861316  0.0123172  -0.0101898  -0.00718687  0.0419504  -0.0286954  -0.0324587  -0.00770885  -0.0058981 
1704803629.432976000  0  0  11.3387  0.0296795  -0.10715  0.0170952  nan  nan  nan  nan  nan  nan  -2.50024  -0.29976  1.00024  -0.000225668  -0.0458118  0.000116535  -0.0061208  0.0061195  0.0061208  0  0  0  -0.111415  0.111329  0.111415  0.0248217  0.00171922  -0.000177731  -0.0115442  0.0100158  -0.000889559  -0.00490425  0.0388069  -0.0278238  -0.01424  -0.142723  0.0645477 
1704803629.437975000  0  0  11.506  -0.00819716  -0.131047  0.0282595  nan  nan  nan  nan  nan  nan  -2.50027  -0.299728  1.00027  -0.00118493  -0.0508148  0.000186086  -0.0066896  0.0066879  0.0066896  0  0  0  -0.116089  0.115988  0.116089  0.0249694  0.00167882  -0.000199761  -0.00520836  0.0094698  -0.0142657  -0.00342344  0.0430807  -0.0292527  0.04789  -0.134248  -0.060717 
1704803629.442029000  0  0  11.5148  0.0562487  -0.162998  0.0202141  nan  nan  nan  nan  nan  nan  -2.50031  -0.299693  1.00031  0.000547387  -0.0480559  0.000121905  -0.0072812  0.007279  0.0072812  0  0  0  -0.120512  0.120397  0.120512  0.0249159  0.00173995  -0.000256963  -0.00913481  0.0121055  -0.0145103  -0.00611911  0.0407879  -0.0284471  -0.0562017  -0.0492531  0.0317951 
1704803629.447958000  0  0  11.337  0.0422959  -0.0815172  0.0150088  nan  nan  nan  nan  nan  nan  -2.50034  -0.299655  1.00034  -0.00146664  -0.0472885  0.000242729  -0.0078943  0.0078914  0.0078943  0  0  0  -0.124686  0.124556  0.124686  0.0249335  0.00169537  -6.33065e-05  -0.0116259  0.0101891  0.00037336  -0.00432223  0.0379749  -0.0275513  -0.0448273  -0.186334  0.0879032 
1704803629.452978000  0  0  11.4912  0.013478  -0.116247  0.028145  nan  nan  nan  nan  nan  nan  -2.50039  -0.299614  1.00039  -0.00240152  -0.0515892  0.000325638  -0.0085277  0.0085241  0.0085277  0  0  0  -0.12861  0.128465  0.12861  0.0250915  0.00165058  -6.61371e-05  -0.00616549  0.00957106  -0.0120251  -0.00317834  0.0416147  -0.0291569  0.00228479  -0.150361  -0.0602439 
1704803629.458024000  0  0  11.4706  0.0855523  -0.12291  0.0167765  nan  nan  nan  nan  nan  nan  -2.50043  -0.29957  1.00043  -0.000938179  -0.0481377  0.000278744  -0.00918  0.0091757  0.00918  0  0  0  -0.132284  0.132124  0.132284  0.0250053  0.00172334  -9.25919e-05  -0.0109637  0.0117412  -0.00994783  -0.00601893  0.0380425  -0.0279192  -0.11573  -0.104171  0.0694863 
1704803629.463023000  0  0  11.3378  0.0619726  -0.0641509  0.0177602  nan  nan  nan  nan  nan  nan  -2.50048  -0.299522  1.00048  -0.00235061  -0.0495955  0.000385532  -0.0098501  0.0098449  0.0098501  0  0  0  -0.135707  0.135533  0.135707  0.025063  0.00167247  5.65327e-05  -0.010402  0.0105268  0.00122712  -0.00483751  0.0375681  -0.0277179  -0.07944  -0.217325  0.0551762 
1704803629.467967000  0  0  11.4546  0.0474935  -0.0988369  0.0262922  nan  nan  nan  nan  nan  nan  -2.50053  -0.299472  1.00053  -0.00291631  -0.0507641  0.000456281  -0.0105367  0.0105306  0.0105367  0  0  0  -0.138881  0.138693  0.138881  0.02503  0.00172218  -3.7474e-05  -0.00859829  0.0100712  -0.00797514  -0.00441492  0.038383  -0.028747  -0.0543698  -0.15545  -0.0411826 
1704803629.472981000  0  0  11.5015  0.0802001  -0.11245  0.0199106  nan  nan  nan  nan  nan  nan  -2.50058  -0.299417  1.00058  -0.0027776  -0.0502119  0.00049111  -0.0112385  0.0112314  0.0112385  0  0  0  -0.141805  0.141602  0.141805  0.0251055  0.00168488  2.94877e-05  -0.00957912  0.0106872  -0.0117442  -0.00552386  0.0375248  -0.0281543  -0.109581  -0.120328  0.0326606 
1704803629.478024000  0  0  11.3403  0.0805659  -0.0800305  0.017979  nan  nan  nan  nan  nan  nan  -2.50064  -0.299359  1.00064  -0.00277787  -0.0500308  0.000538221  -0.0119543  0.0119462  0.0119543  0  0  0  -0.144479  0.144261  0.144479  0.0251498  0.00164761  0.000207111  -0.011147  0.0111591  0.0016009  -0.00599951  0.0360456  -0.0277198  -0.105936  -0.171558  0.0524606 
1704803629.482970000  0  0  11.3925  0.0687395  -0.0932433  0.0259071  nan  nan  nan  nan  nan  nan  -2.5007  -0.299298  1.0007  -0.0039872  -0.0506984  0.000653559  -0.0126829  0.0126736  0.0126829  0  0  0  -0.146902  0.14667  0.146902  0.0251083  0.00168825  0.000162911  -0.0102263  0.00983429  -0.00238706  -0.0051696  0.0362045  -0.0287685  -0.0899186  -0.146595  -0.0361539 
1704803629.487959000  0  0  11.4879  0.0780828  -0.114344  0.0216599  nan  nan  nan  nan  nan  nan  -2.50077  -0.299232  1.00077  -0.0037141  -0.0510211  0.000697716  -0.0134229  0.0134125  0.0134229  0  0  0  -0.149076  0.148829  0.149076  0.0251776  0.00166155  0.000180718  -0.00970602  0.0104773  -0.0101559  -0.00601618  0.0363108  -0.028435  -0.100817  -0.105372  0.0136006 
1704803629.493342000  0  0  11.3031  0.100664  -0.104039  0.0202888  nan  nan  nan  nan  nan  nan  -2.50084  -0.299164  1.00084  -0.002746  -0.0501631  0.000707591  -0.0141732  0.0141615  0.0141732  0  0  0  -0.151  0.150738  0.151  0.0252364  0.00162994  0.000401801  -0.0122086  0.0120818  0.00495164  -0.00786282  0.0348125  -0.0281722  -0.128989  -0.112196  0.0281125 
1704803629.498010000  0  0  11.3938  0.077004  -0.103724  0.0259401  nan  nan  nan  nan  nan  nan  -2.50091  -0.299091  1.00091  -0.00482042  -0.0512816  0.000883593  -0.0149325  0.0149194  0.0149325  0  0  0  -0.152674  0.152397  0.152674  0.0252038  0.0016545  0.000340213  -0.0104249  0.00959481  -0.00225883  -0.00606345  0.0353763  -0.0289735  -0.0982243  -0.118013  -0.0345163 
1704803629.503021000  0  0  11.5111  0.0833797  -0.149068  0.0237896  nan  nan  nan  nan  nan  nan  -2.50099  -0.299014  1.00099  -0.00323218  -0.0515707  0.000874912  -0.0156995  0.0156851  0.0156995  0  0  0  -0.154097  0.153806  0.154097  0.0251994  0.00170215  0.000242399  -0.00955598  0.0116375  -0.0117198  -0.00806422  0.0360298  -0.028928  -0.0925686  -0.0333375  -0.00808958 
1704803629.508008000  0  0  11.4128  0.0954139  -0.123461  0.021547  nan  nan  nan  nan  nan  nan  -2.50107  -0.298934  1.00107  -0.00265267  -0.0495608  0.000916715  -0.0164731  0.0164571  0.0164731  0  0  0  -0.155271  0.154966  0.155271  0.0251222  0.00176578  0.000280526  -0.0126495  0.0124141  -0.00352051  -0.00927373  0.0335147  -0.0286736  -0.105509  -0.0614121  0.0173993 
1704803629.513185000  0  0  11.5268  0.0585099  -0.120572  0.0273327  nan  nan  nan  nan  nan  nan  -2.50115  -0.29885  1.00115  -0.00472407  -0.0516298  0.0011116  -0.0172518  0.0172343  0.0172518  0  0  0  -0.156195  0.155875  0.156195  0.0251242  0.0017782  0.00022216  -0.00948949  0.00982921  -0.0127347  -0.00719748  0.0349909  -0.0295106  -0.0508029  -0.0807722  -0.0465537 
1704803629.518382000  0  0  11.5817  0.0782221  -0.165186  0.0235758  nan  nan  nan  nan  nan  nan  -2.50124  -0.298762  1.00124  -0.00305715  -0.0506147  0.00111057  -0.0180346  0.0180154  0.0180346  0  0  0  -0.156868  0.156534  0.156868  0.0251066  0.00182244  0.000169976  -0.010528  0.0119309  -0.0171925  -0.00931604  0.0346298  -0.0292858  -0.0707367  0.011778  -0.00183894 
1704803629.523019000  0  0  11.4063  0.0848576  -0.116725  0.0179311  nan  nan  nan  nan  nan  nan  -2.50133  -0.29867  1.00133  -0.00290979  -0.0480865  0.00118947  -0.0188201  0.0187992  0.0188201  0  0  0  -0.157292  0.156943  0.157292  0.0250248  0.00187403  0.00023447  -0.0145947  0.0121151  -0.002704  -0.00987562  0.03138  -0.0285873  -0.0788595  -0.0552465  0.0617339 
1704803629.528012000  0  0  11.4407  0.0576098  -0.114812  0.0219212  nan  nan  nan  nan  nan  nan  -2.50143  -0.298574  1.00143  -0.00472391  -0.0494825  0.00138266  -0.0196071  0.0195844  0.0196071  0  0  0  -0.157466  0.157102  0.157466  0.0250401  0.00187231  0.000221973  -0.0126898  0.00983507  -0.00546145  -0.00804854  0.0323  -0.0290219  -0.041173  -0.0675349  0.0162042 
1704803629.532962000  0  0  11.5491  0.0535999  -0.151062  0.0252186  nan  nan  nan  nan  nan  nan  -2.50153  -0.298474  1.00153  -0.00420835  -0.0492093  0.00146131  -0.0203943  0.0203698  0.0203943  0  0  0  -0.15739  0.157011  0.15739  0.024985  0.00192901  0.000103768  -0.0123113  0.0103078  -0.0142794  -0.00859466  0.0326042  -0.0295692  -0.028129  0.00216549  -0.0195402 
1704803629.537958000  0  0  11.3745  0.0709164  -0.121214  0.0190187  nan  nan  nan  nan  nan  nan  -2.50163  -0.29837  1.00163  -0.004432  -0.0492037  0.00158358  -0.0211806  0.0211541  0.0211806  0  0  0  -0.157063  0.15667  0.157063  0.0251653  0.00178731  0.000381955  -0.0136326  0.0103846  -0.000331872  -0.00884366  0.032028  -0.0289104  -0.0604713  -0.0522286  0.0513699 
1704803629.543344000  0  0  11.3899  0.0533496  -0.131963  0.023322  nan  nan  nan  nan  nan  nan  -2.50174  -0.298262  1.00174  -0.00612676  -0.0505671  0.00179258  -0.0219646  0.0219361  0.0219646  0  0  0  -0.156487  0.15608  0.156487  0.0251709  0.00178899  0.000405952  -0.0117575  0.00816859  -0.00167087  -0.00725941  0.0332327  -0.0294302  -0.0399125  -0.0418144  0.00277677 
1704803629.548012000  0  0  11.5058  0.0510828  -0.141265  0.0254095  nan  nan  nan  nan  nan  nan  -2.50185  -0.298151  1.00185  -0.00502615  -0.0486409  0.00185058  -0.022745  0.0227145  0.022745  0  0  0  -0.155661  0.155239  0.155661  0.0251071  0.00183508  0.00029482  -0.0133249  0.00928908  -0.0112239  -0.00830676  0.0315574  -0.0298324  -0.0257434  -0.00779841  -0.0192944 
1704803629.552964000  0  0  11.3907  0.062073  -0.121414  0.021572  nan  nan  nan  nan  nan  nan  -2.50197  -0.298035  1.00197  -0.00531204  -0.0503926  0.00200328  -0.0235208  0.0234881  0.0235208  0  0  0  -0.154585  0.154148  0.154585  0.0253368  0.00167  0.00054217  -0.0121017  0.00923234  -0.00220904  -0.00837457  0.0326841  -0.0295075  -0.0470999  -0.0578658  0.0254248 
1704803629.558010000  0  0  11.4103  0.0714894  -0.142394  0.0219131  nan  nan  nan  nan  nan  nan  -2.50209  -0.297916  1.00209  -0.00578407  -0.0498183  0.00215944  -0.0242905  0.0242556  0.0242905  0  0  0  -0.153258  0.152807  0.153258  0.0252764  0.00170735  0.00051111  -0.0124156  0.00837771  -0.00391656  -0.00838243  0.0324092  -0.0295527  -0.0658605  -0.0133761  0.0216132 
1704803629.562966000  0  0  11.4291  0.0629069  -0.116499  0.0233839  nan  nan  nan  nan  nan  nan  -2.50221  -0.297793  1.00221  -0.00542256  -0.0485997  0.00227663  -0.0250529  0.0250157  0.0250529  0  0  0  -0.151682  0.151216  0.151682  0.0252058  0.00174922  0.000478259  -0.0135042  0.00853462  -0.00557829  -0.00878039  0.030676  -0.0297764  -0.0450342  -0.0492211  0.00546591 
1704803629.568290000  0  0  11.3878  0.0706169  -0.129886  0.023304  nan  nan  nan  nan  nan  nan  -2.50234  -0.297666  1.00234  -0.00635527  -0.0529945  0.00249794  -0.0258069  0.0257673  0.0258069  0  0  0  -0.149856  0.149375  0.149856  0.0256599  0.00143895  0.000854827  -0.00893618  0.00786084  -0.00300033  -0.00828435  0.0347551  -0.0299808  -0.0650177  -0.0599752  0.0085084 
1704803629.572963000  0  0  11.3537  0.0991306  -0.151392  0.0196406  nan  nan  nan  nan  nan  nan  -2.50247  -0.297535  1.00247  -0.00607841  -0.0508998  0.00262496  -0.0265511  0.0265091  0.0265511  0  0  0  -0.14778  0.147284  0.14778  0.0256039  0.00146482  0.000857896  -0.0113921  0.0079132  -0.000432121  -0.00943916  0.0332118  -0.0295339  -0.111421  -0.00276538  0.0498322 
1704803629.578012000  0  0  11.3757  0.072565  -0.0915983  0.0233005  nan  nan  nan  nan  nan  nan  -2.5026  -0.2974  1.0026  -0.00650974  -0.049407  0.0027978  -0.0272842  0.0272397  0.0272842  0  0  0  -0.145453  0.144943  0.145453  0.0255894  0.00145433  0.0008779  -0.012829  0.00708624  -0.00251152  -0.00890736  0.0304922  -0.0299882  -0.0631823  -0.0973316  0.008626 
1704803629.582960000  0  0  11.4125  0.0763146  -0.111858  0.0261458  nan  nan  nan  nan  nan  nan  -2.50274  -0.297262  1.00274  -0.00534784  -0.0507959  0.00291463  -0.0280052  0.0279581  0.0280052  0  0  0  -0.142877  0.142353  0.142877  0.0255595  0.0014983  0.000833286  -0.0104738  0.00812034  -0.00571205  -0.0103274  0.0316896  -0.0305343  -0.0576174  -0.0678286  -0.0214795 
1704803629.588005000  0  0  11.3339  0.107316  -0.124731  0.0176204  nan  nan  nan  nan  nan  nan  -2.50288  -0.297121  1.00288  -0.00618265  -0.0483994  0.00311532  -0.0287126  0.0286629  0.0287126  0  0  0  -0.140051  0.139512  0.140051  0.0257175  0.00133959  0.00105633  -0.0139253  0.00711028  4.30243e-05  -0.010416  0.0297527  -0.029664  -0.118805  -0.024263  0.0763848 
1704803629.593397000  0  0  11.3362  0.0751251  -0.07527  0.021895  nan  nan  nan  nan  nan  nan  -2.50303  -0.296976  1.00303  -0.00635254  -0.0474257  0.00329676  -0.0294053  0.0293528  0.0294053  0  0  0  -0.136974  0.136421  0.136974  0.0257011  0.00134248  0.00109019  -0.0147142  0.00650391  -0.000491246  -0.0100551  0.0275596  -0.0300904  -0.0577429  -0.103008  0.0272164 
1704803629.598001000  0  0  11.4018  0.081622  -0.125885  0.0251038  nan  nan  nan  nan  nan  nan  -2.50318  -0.296827  1.00318  -0.00505878  -0.0487217  0.00342758  -0.0300819  0.0300266  0.0300819  0  0  0  -0.133648  0.13308  0.133648  0.0256794  0.00137194  0.00102009  -0.0122578  0.00762249  -0.00613332  -0.011602  0.0293489  -0.0306425  -0.0565053  -0.0182394  -0.00737227 
1704803629.603012000  0  0  11.3334  0.105835  -0.131332  0.0155026  nan  nan  nan  nan  nan  nan  -2.50333  -0.296676  1.00333  -0.00609748  -0.0469119  0.00365894  -0.0307413  0.0306832  0.0307413  0  0  0  -0.130072  0.129489  0.130072  0.0258383  0.00120105  0.00120766  -0.0148023  0.00628175  -0.00120235  -0.0113964  0.028032  -0.0295751  -0.106824  0.00476891  0.101969 
1704803629.608010000  0  0  11.3336  0.0703319  -0.0943456  0.0209835  nan  nan  nan  nan  nan  nan  -2.50348  -0.296521  1.00348  -0.00532914  -0.0458121  0.00381516  -0.0313822  0.0313211  0.0313822  0  0  0  -0.126246  0.125648  0.126246  0.0257615  0.00123589  0.00120042  -0.0155346  0.00668947  -0.00157763  -0.0117289  0.0261505  -0.0300409  -0.0327582  -0.0518934  0.0381153 
1704803629.612962000  0  0  11.3988  0.0718145  -0.131352  0.0267921  nan  nan  nan  nan  nan  nan  -2.50364  -0.296362  1.00364  -0.00459318  -0.046593  0.00398943  -0.0320034  0.0319392  0.0320034  0  0  0  -0.122169  0.121557  0.122169  0.0257812  0.00122772  0.00117104  -0.0137408  0.00709791  -0.0073457  -0.0125537  0.027434  -0.0309815  -0.0281349  0.0103119  -0.0250864 
1704803629.618008000  0  0  11.3761  0.0944333  -0.141175  0.0173179  nan  nan  nan  nan  nan  nan  -2.5038  -0.296201  1.0038  -0.0039435  -0.0443463  0.00416092  -0.0326035  0.0325363  0.0326035  0  0  0  -0.117843  0.117217  0.117843  0.0256923  0.00126608  0.00115875  -0.0159543  0.00729356  -0.00591342  -0.0137569  0.0257842  -0.0299094  -0.0623028  0.0451348  0.0826208 
1704803629.623018000  0  0  11.3282  0.0629078  -0.118768  0.0242731  nan  nan  nan  nan  nan  nan  -2.50397  -0.296037  1.00397  -0.00377673  -0.0445218  0.00437099  -0.0331814  0.033111  0.0331814  0  0  0  -0.113267  0.112626  0.113267  0.0258765  0.00111303  0.00130469  -0.0157992  0.00729438  -0.00264874  -0.0134162  0.0256431  -0.0306881  -0.00238647  0.00161878  0.00346709 
1704803629.628010000  0  0  11.3862  0.0582088  -0.154262  0.0267059  nan  nan  nan  nan  nan  nan  -2.50414  -0.29587  1.00414  -0.00459304  -0.0461433  0.00463786  -0.0337358  0.0336621  0.0337358  0  0  0  -0.108441  0.107785  0.108441  0.0260992  0.000962341  0.00138441  -0.0133362  0.00598351  -0.00808466  -0.0125827  0.0280113  -0.0313695  -0.000657094  0.05082  -0.0201285 
1704803629.632958000  0  0  11.3721  0.0722836  -0.14508  0.0195785  nan  nan  nan  nan  nan  nan  -2.50431  -0.295701  1.00431  -0.00345677  -0.0449418  0.0048107  -0.0342654  0.0341884  0.0342654  0  0  0  -0.103364  0.102694  0.103364  0.0260314  0.000995355  0.00135867  -0.0141381  0.00671084  -0.00737868  -0.0138781  0.0269448  -0.0306565  -0.0168886  0.0422677  0.0618339 
1704803629.638009000  0  0  11.3007  0.0712072  -0.147031  0.0241783  nan  nan  nan  nan  nan  nan  -2.50448  -0.295528  1.00448  -0.00228912  -0.0441075  0.00499193  -0.034769  0.0346886  0.034769  0  0  0  -0.0980381  0.0973531  0.0980381  0.0261802  0.000877862  0.00149156  -0.0152034  0.00779234  -0.00225544  -0.0149067  0.0264508  -0.0312413  -0.0052728  0.0507141  0.010185 
1704803629.643395000  0  0  11.3193  0.0594849  -0.146979  0.0260944  nan  nan  nan  nan  nan  nan  -2.50465  -0.295354  1.00465  -0.00358126  -0.0454861  0.00529564  -0.0352453  0.0351615  0.0352453  0  0  0  -0.0924618  0.0917622  0.0924618  0.0263444  0.000754314  0.0015747  -0.0130268  0.00575389  -0.00446886  -0.013506  0.0280063  -0.0318037  0.00528526  0.0362997  -0.00814214 
1704803629.648009000  0  0  11.3718  0.0782953  -0.157554  0.0221215  nan  nan  nan  nan  nan  nan  -2.50483  -0.295177  1.00483  -0.0018033  -0.0450306  0.00525618  -0.0356932  0.0356058  0.0356932  0  0  0  -0.0866355  0.0859214  0.0866355  0.0263085  0.000778641  0.00149542  -0.0125281  0.00718206  -0.00928177  -0.0154556  0.0279392  -0.0312624  -0.0143986  0.0580668  0.0361044 
1704803629.652951000  0  0  11.3048  0.0925495  -0.144966  0.0207036  nan  nan  nan  nan  nan  nan  -2.50501  -0.294998  1.00501  -0.000145844  -0.0424156  0.00518118  -0.0361113  0.0360203  0.0361113  0  0  0  -0.0805593  0.0798305  0.0805593  0.0262889  0.00077742  0.00152523  -0.0153458  0.00848595  -0.00441346  -0.017249  0.0255559  -0.0308934  -0.0264081  0.0548179  0.050139 
1704803629.658005000  0  0  11.3253  0.06843  -0.112625  0.0236561  nan  nan  nan  nan  nan  nan  -2.50519  -0.294817  1.00519  -0.000307287  -0.0429418  0.00518819  -0.0364985  0.0364039  0.0364985  0  0  0  -0.0743582  0.0736477  0.0743582  0.0262295  0.000806633  0.00148519  -0.0136683  0.00743791  -0.00660253  -0.0167081  0.0254699  -0.0310881  0.0168547  -0.00907331  0.0151803 
1704803629.663017000  0  0  11.3848  0.100194  -0.161299  0.0227365  nan  nan  nan  nan  nan  nan  -2.50537  -0.294634  1.00537  0.00133534  -0.0437091  0.00511665  -0.0368553  0.0367572  0.0368553  0  0  0  -0.0683857  0.0677044  0.0683857  0.0264607  0.000671278  0.00151902  -0.0121773  0.00906472  -0.0122371  -0.018744  0.0272571  -0.0309325  -0.0279438  0.0718338  0.0251189 
1704803629.667019000  0  0  11.3265  0.119448  -0.140707  0.0188735  nan  nan  nan  nan  nan  nan  -2.50556  -0.294449  1.00556  0.00326376  -0.0398276  0.00504505  -0.0371828  0.0370814  0.0371828  0  0  0  -0.0626633  0.0620112  0.0626633  0.0264143  0.000680004  0.00148028  -0.01653  0.0107129  -0.00794594  -0.0209071  0.0235343  -0.0302746  -0.0465514  0.0648972  0.0668269 
1704803629.672963000  0  0  11.2917  0.0879028  -0.101538  0.0225064  nan  nan  nan  nan  nan  nan  -2.50575  -0.294263  1.00575  0.00238662  -0.0406848  0.00507793  -0.0374823  0.0373778  0.0374823  0  0  0  -0.0571908  0.0565679  0.0571908  0.0265658  0.000574314  0.00158214  -0.0152471  0.00915025  -0.00572776  -0.0196356  0.0237048  -0.0304838  0.0048418  -0.0150076  0.0235082 
1704803629.678145000  0  0  11.4089  0.109911  -0.155111  0.0237799  nan  nan  nan  nan  nan  nan  -2.50593  -0.294075  1.00593  0.00347201  -0.0418724  0.00502966  -0.0377551  0.0376475  0.0377551  0  0  0  -0.0519683  0.0513746  0.0519683  0.0267489  0.00047381  0.00156798  -0.0129598  0.010131  -0.0159906  -0.0210241  0.025945  -0.0306745  -0.0264008  0.0715278  0.00949575 
1704803629.683015000  0  0  11.3501  0.120697  -0.123719  0.0199214  nan  nan  nan  nan  nan  nan  -2.50612  -0.293887  1.00612  0.00526123  -0.0389718  0.00497001  -0.0380024  0.0378919  0.0380024  0  0  0  -0.0469959  0.0464314  0.0469959  0.0266648  0.000525878  0.00154694  -0.0160859  0.0116006  -0.0115894  -0.0229104  0.02291  -0.0300447  -0.0306175  0.0366663  0.0514293 
1704803629.688001000  0  0  11.3243  0.0846419  -0.0933264  0.0245574  nan  nan  nan  nan  nan  nan  -2.50631  -0.293697  1.00631  0.00485488  -0.0396207  0.0049827  -0.0382255  0.0381122  0.0382255  0  0  0  -0.0422734  0.0417381  0.0422734  0.0266681  0.000523953  0.00153378  -0.0147884  0.0104873  -0.00982473  -0.0218941  0.0228798  -0.0304703  0.0321422  -0.0238414  -0.00226416 
1704803629.692957000  0  0  11.3797  0.0884619  -0.119688  0.0240042  nan  nan  nan  nan  nan  nan  -2.50651  -0.293505  1.00651  0.00471456  -0.0403061  0.00498502  -0.0384256  0.0383097  0.0384256  0  0  0  -0.0378009  0.0372948  0.0378009  0.0268889  0.000389246  0.00152902  -0.0136  0.0100815  -0.0148499  -0.0216386  0.0240621  -0.0304824  0.0221516  0.0180042  0.00477105 
1704803629.698000000  0  0  11.3096  0.105641  -0.0956191  0.0168563  nan  nan  nan  nan  nan  nan  -2.5067  -0.293313  1.0067  0.00754164  -0.0372961  0.00489379  -0.0386039  0.0384856  0.0386039  0  0  0  -0.0335785  0.0331016  0.0335785  0.026789  0.000463623  0.00151702  -0.0169562  0.0128773  -0.00946544  -0.0243807  0.0208519  -0.0293613  0.0130195  -0.000599522  0.0829085 
1704803629.703150000  0  0  11.2861  0.0785007  -0.0983028  0.0203555  nan  nan  nan  nan  nan  nan  -2.50689  -0.293121  1.00689  0.00620821  -0.0377048  0.00494097  -0.0387618  0.0386411  0.0387618  0  0  0  -0.029606  0.0291583  0.029606  0.0269749  0.000334429  0.00158602  -0.0164436  0.0109759  -0.00799845  -0.02249  0.0213276  -0.0295261  0.0499064  0.00039154  0.040817 
1704803629.707963000  0  0  11.3745  0.0628599  -0.0944175  0.0218484  nan  nan  nan  nan  nan  nan  -2.50709  -0.292927  1.00709  0.00680847  -0.037366  0.00492065  -0.0389004  0.0387776  0.0389004  0  0  0  -0.0258835  0.025465  0.0258835  0.0269214  0.000378914  0.00146774  -0.015915  0.0112275  -0.0154701  -0.0224618  0.0209202  -0.0295597  0.0809288  -0.00363113  0.0224923 
1704803629.712952000  0  0  11.3347  0.0745573  -0.113171  0.0195346  nan  nan  nan  nan  nan  nan  -2.50728  -0.292733  1.00728  0.00777394  -0.0377818  0.00488135  -0.039021  0.0388962  0.039021  0  0  0  -0.0224111  0.0220218  0.0224111  0.0270927  0.000268297  0.00152757  -0.0155017  0.0122233  -0.0126132  -0.0231669  0.0217381  -0.0291656  0.0640205  0.0263528  0.0474732 
1704803629.718000000  0  0  11.2487  0.0762274  -0.109382  0.017538  nan  nan  nan  nan  nan  nan  -2.50748  -0.292538  1.00748  0.00831511  -0.0343617  0.00488933  -0.0391249  0.0389982  0.0391249  0  0  0  -0.0191886  0.0188285  0.0191886  0.0269861  0.000326595  0.0015325  -0.0194967  0.0122684  -0.00582745  -0.0233488  0.0187783  -0.0286604  0.0623544  0.046004  0.0673799 
1704803629.722967000  0  0  11.3225  0.0353125  -0.0927397  0.0233905  nan  nan  nan  nan  nan  nan  -2.50767  -0.292343  1.00767  0.00686271  -0.0360514  0.00492764  -0.0392133  0.0390849  0.0392133  0  0  0  -0.0162161  0.0158852  0.0162161  0.0271899  0.00017545  0.00154471  -0.0171582  0.0104846  -0.0122076  -0.0207483  0.0201442  -0.0293226  0.12026  0.000152688  0.000844773 
1704803629.728011000  0  0  11.3299  0.059635  -0.151588  0.0218495  nan  nan  nan  nan  nan  nan  -2.50787  -0.292147  1.00787  0.00818963  -0.037291  0.00486966  -0.0392875  0.0391575  0.0392875  0  0  0  -0.0134937  0.013192  0.0134937  0.0273744  5.81065e-05  0.00158709  -0.0156382  0.0120865  -0.0131897  -0.0218312  0.0226454  -0.0292203  0.0815774  0.0948387  0.0190848 
1704803629.732999000  0  0  11.1697  0.0663  -0.122361  0.0141592  nan  nan  nan  nan  nan  nan  -2.50807  -0.291951  1.00807  0.00863547  -0.0328922  0.004891  -0.0393487  0.0392172  0.0393487  0  0  0  -0.0110212  0.0107487  0.0110212  0.0272552  0.000112894  0.00164069  -0.0211877  0.0120329  -0.000254476  -0.0219484  0.0185079  -0.0280357  0.0693251  0.0744502  0.103366 
1704803629.737997000  0  0  11.2673  0.0123466  -0.102638  0.024669  nan  nan  nan  nan  nan  nan  -2.50826  -0.291755  1.00826  0.00711128  -0.0360205  0.0049189  -0.0393981  0.0392654  0.0393981  0  0  0  -0.0087987  0.0085554  0.0087987  0.0274226  -7.10812e-06  0.00163149  -0.0169967  0.0102285  -0.00848185  -0.0190596  0.0210816  -0.0291494  0.150655  0.0113251  -0.016868 
1704803629.742997000  0  0  11.3081  0.050856  -0.165057  0.0225242  nan  nan  nan  nan  nan  nan  -2.50846  -0.291559  1.00846  0.00991234  -0.0353294  0.00482486  -0.0394371  0.0393032  0.0394371  0  0  0  -0.0068263  0.0066122  0.0068263  0.0273416  7.54213e-05  0.00155563  -0.0172857  0.0133449  -0.011977  -0.0217184  0.0218389  -0.0290151  0.0980976  0.129196  0.008599 
1704803629.747996000  0  0  11.1595  0.0597422  -0.132788  0.0136344  nan  nan  nan  nan  nan  nan  -2.50866  -0.291362  1.00866  0.00901172  -0.0332668  0.00487526  -0.0394668  0.0393319  0.0394668  0  0  0  -0.0051038  0.0049189  0.0051038  0.0274432  -5.74925e-05  0.00170717  -0.0204303  0.0121308  -9.06999e-05  -0.0205589  0.0199341  -0.0277996  0.0696573  0.0821829  0.107565 
1704803629.752946000  0  0  11.1822  0.0221194  -0.115979  0.0205289  nan  nan  nan  nan  nan  nan  -2.50885  -0.291165  1.00885  0.00806465  -0.0352781  0.00489055  -0.0394885  0.0393528  0.0394885  0  0  0  -0.0036313  0.0034756  0.0036313  0.0275969  -0.000173501  0.0017542  -0.0179972  0.0110645  -0.00215969  -0.0185504  0.0216776  -0.0283594  0.126425  0.0325244  0.0269827 
1704803629.757997000  0  0  11.2846  0.065648  -0.179026  0.0197578  nan  nan  nan  nan  nan  nan  -2.50905  -0.290969  1.00905  0.0104784  -0.0339908  0.00481889  -0.0395035  0.0393671  0.0395035  0  0  0  -0.0024089  0.0022824  0.0024089  0.0275037  -9.11254e-05  0.00165895  -0.0188603  0.0138413  -0.010684  -0.0210408  0.0220301  -0.0282699  0.0622796  0.155375  0.0357269 
1704803629.762946000  0  0  11.1689  0.0734194  -0.138367  0.012863  nan  nan  nan  nan  nan  nan  -2.50925  -0.290772  1.00925  0.0106384  -0.0317694  0.00483707  -0.039513  0.0393761  0.039513  0  0  0  -0.0014364  0.0013391  0.0014364  0.0274352  -7.14696e-05  0.00171928  -0.0217805  0.0137266  -0.00128594  -0.0210426  0.0197718  -0.0271034  0.0467529  0.0948346  0.110247 
1704803629.768000000  0  0  11.1883  0.0405252  -0.119791  0.0228054  nan  nan  nan  nan  nan  nan  -2.50945  -0.290575  1.00945  0.0110322  -0.0326758  0.00481456  -0.0395183  0.0393809  0.0395183  0  0  0  -0.0007139  0.0006459  0.0007139  0.0273468  -8.42637e-07  0.00169058  -0.0202997  0.0139993  -0.00287889  -0.0204439  0.0204221  -0.0279888  0.107034  0.0516996  -0.00517953 
1704803629.772951000  0  0  11.2709  0.064514  -0.14078  0.0207405  nan  nan  nan  nan  nan  nan  -2.50964  -0.290378  1.00964  0.0119193  -0.0313289  0.00480162  -0.0395206  0.0393829  0.0395206  0  0  0  -0.0002415  0.0002026  0.0002415  0.0272917  2.8928e-05  0.00164657  -0.0215096  0.0150825  -0.00975461  -0.0212395  0.0198957  -0.0277933  0.066375  0.0985187  0.018677 
1704803629.777996000  0  0  11.1206  0.0805199  -0.0991251  0.0119283  nan  nan  nan  nan  nan  nan  -2.50984  -0.290181  1.00984  0.0123702  -0.0300445  0.00480338  -0.0395211  0.0393834  0.0395211  0  0  0  -1.9e-05  9.3e-06  1.9e-05  0.0272285  5.30131e-05  0.00175081  -0.0234538  0.0153522  0.00251995  -0.0216992  0.0182176  -0.026378  0.0385928  0.0306487  0.114676 
1704803629.782995000  0  0  11.1423  0.0684958  -0.111477  0.0207518  nan  nan  nan  nan  nan  nan  -2.51004  -0.289984  1.01004  0.0132347  -0.0294518  0.00478525  -0.0395211  0.0393834  0.0395211  0  0  0  2.28e-05  -8.9e-06  -2.28e-05  0.0271185  0.00013349  0.00173166  -0.0238708  0.0162676  0.000745334  -0.0219964  0.0180112  -0.0270659  0.0653752  0.057251  0.0112618 
1704803629.787995000  0  0  11.176  0.0694477  -0.107831  0.0215972  nan  nan  nan  nan  nan  nan  -2.51024  -0.289787  1.01024  0.0133421  -0.0284633  0.00479527  -0.0395206  0.0393829  0.0395206  0  0  0  0.0002544  -0.0002004  -0.0002544  0.0270754  0.000152598  0.00173374  -0.0248644  0.0163786  -0.00210288  -0.0217746  0.0173229  -0.0271971  0.0614313  0.0562915  0.00200697 
1704803629.793000000  0  0  11.1413  0.0838375  -0.0962429  0.0179474  nan  nan  nan  nan  nan  nan  -2.51043  -0.28959  1.01043  0.0145322  -0.0281297  0.00476624  -0.0395182  0.0393809  0.0395182  0  0  0  0.0007361  -0.000642  -0.0007361  0.0269496  0.000240098  0.00175791  -0.0250525  0.0175474  0.000678619  -0.022875  0.0169592  -0.026625  0.0427754  0.0364612  0.0419066 
1704803629.797995000  0  0  11.1171  0.0894571  -0.106369  0.0225322  nan  nan  nan  nan  nan  nan  -2.51063  -0.289393  1.01063  0.0151158  -0.0265859  0.00477315  -0.0395128  0.0393761  0.0395128  0  0  0  0.0014677  -0.0013336  -0.0014678  0.0269  0.000259664  0.00180199  -0.0268358  0.0180888  0.00250927  -0.0232774  0.0159835  -0.027105  0.0352383  0.0656896  -0.0106015 
1704803629.801997000  0  0  11.1343  0.0782547  -0.0882588  0.0241301  nan  nan  nan  nan  nan  nan  -2.51083  -0.289197  1.01083  0.0148448  -0.0255349  0.00479595  -0.0395031  0.0393672  0.0395031  0  0  0  0.0024494  -0.0022752  -0.0024494  0.0268333  0.000284237  0.00175243  -0.0278125  0.0176025  0.00109004  -0.022653  0.0148807  -0.0273942  0.0518984  0.039615  -0.0276838 
