    ts      x      y      z   roll  pitch    yaw     vx     vy     vz     wx     wy     wz     ax     ay     az    dwx    dwy    dwz
 0.0050000  -2.5000000  -0.3000000   1.0000000   0.0000000   0.0000000   0.0000000  -0.0000002   0.0000002   0.0000002   0.0000000   0.0000000   0.0000000  -0.0001250   0.0001250   0.0001250   0.0000000   0.0000000   0.0000000
 0.0100000  -2.5000000  -0.3000000   1.0000000   0.0000000   0.0000000   0.0000000  -0.0000017   0.0000017   0.0000017   0.0000000   0.0000000   0.0000000  -0.0005000   0.0005000   0.0005000   0.0000000   0.0000000   0.0000000
 0.0150000  -2.5000000  -0.3000000   1.0000000   0.0000000   0.0000000   0.0000000  -0.0000056   0.0000056   0.0000056   0.0000000   0.0000000   0.0000000  -0.0011250   0.0011250   0.0011250   0.0000000   0.0000000   0.0000000
 0.0200000  -2.5000000  -0.3000000   1.0000000   0.0000000   0.0000000   0.0000001  -0.0000133   0.0000133   0.0000133   0.0000000   0.0000000   0.0000000  -0.0020000   0.0020000   0.0020000   0.0000000   0.0000000   0.0000000
 0.0250000  -2.5000000  -0.3000000   1.0000000   0.0000000   0.0000000   0.0000002  -0.0000260   0.0000260   0.0000260   0.0000000   0.0000000   0.0000000  -0.0031250   0.0031250   0.0031250   0.0000000   0.0000000   0.0000000
 0.0300000  -2.5000000  -0.3000000   1.0000000   0.0000000   0.0000000   0.0000004  -0.0000450   0.0000450   0.0000450   0.0000000   0.0000000   0.0000000  -0.0045000   0.0045000   0.0045000   0.0000000   0.0000000   0.0000000
 0.0350000  -2.5000000  -0.2999990   1.0000000   0.0000000   0.0000000   0.0000006  -0.0000715   0.0000715   0.0000715   0.0000000   0.0000000   0.0000000  -0.0061250   0.0061250   0.0061250   0.0000000   0.0000000   0.0000000
 0.0400000  -2.5000000  -0.2999990   1.0000000   0.0000000   0.0000000   0.0000008  -0.0001067   0.0001067   0.0001067   0.0000000   0.0000000   0.0000000  -0.0080000   0.0080000   0.0080000   0.0000000   0.0000000   0.0000000
 0.0450000  -2.5000000  -0.2999980   1.0000000   0.0000000   0.0000000   0.0000010  -0.0001519   0.0001519   0.0001519   0.0000000   0.0000000   0.0000000  -0.0101250   0.0101250   0.0101250   0.0000000   0.0000000   0.0000000
 0.0500000  -2.5000000  -0.2999970   1.0000000   0.0000000   0.0000000   0.0000012  -0.0002083   0.0002083   0.0002083   0.0000000   0.0000000   0.0000000  -0.0125000   0.0125000   0.0125000   0.0000000   0.0000000   0.0000000
 0.0550000  -2.5000000  -0.2999960   1.0000000   0.0000000   0.0000000   0.0000014  -0.0002773   0.0002773   0.0002773   0.0000000   0.0000000   0.0000000  -0.0151250   0.0151250   0.0151250   0.0000000   0.0000000   0.0000000
 0.0600000  -2.5000100  -0.2999950   1.0000100   0.0000000   0.0000000   0.0000017  -0.0003600   0.0003600   0.0003600   0.0000000   0.0000000   0.0000000  -0.0180000   0.0180000   0.0180000   0.0000000   0.0000000   0.0000000
 0.0650000  -2.5000100  -0.2999930   1.0000100   0.0000000   0.0000000   0.0000020  -0.0004577   0.0004577   0.0004577   0.0000000   0.0000000   0.0000000  -0.0211250   0.0211250   0.0211250   0.0000000   0.0000000   0.0000000
 0.0700000  -2.5000100  -0.2999900   1.0000100   0.0000000   0.0000000   0.0000024  -0.0005717   0.0005717   0.0005717   0.0000000   0.0000000   0.0000000  -0.0245000   0.0245000   0.0245000   0.0000000   0.0000000   0.0000000
 0.0750000  -2.5000100  -0.2999870   1.0000100   0.0000000   0.0000000   0.0000029  -0.0007031   0.0007031   0.0007031   0.0000000   0.0000000   0.0000000  -0.0281250   0.0281250   0.0281250   0.0000000   0.0000000   0.0000000
 0.0800000  -2.5000200  -0.2999830   1.0000200   0.0000000   0.0000000   0.0000036  -0.0008533   0.0008533   0.0008533   0.0000000   0.0000000   0.0000000  -0.0320000   0.0320000   0.0320000   0.0000000   0.0000000   0.0000000
 0.0850000  -2.5000200  -0.2999780   1.0000200   0.0000000   0.0000000   0.0000046  -0.0010235   0.0010235   0.0010235   0.0000000   0.0000000   0.0000000  -0.0361250   0.0361250   0.0361250   0.0000000   0.0000000   0.0000000
 0.0900000  -2.5000300  -0.2999730   1.0000300   0.0000000   0.0000000   0.0000059  -0.0012150   0.0012150   0.0012150   0.0000000   0.0000000   0.0000000  -0.0405000   0.0405000   0.0405000   0.0000000   0.0000000   0.0000000
 0.0950000  -2.5000300  -0.2999660   1.0000300   0.0000000   0.0000000   0.0000076  -0.0014290   0.0014290   0.0014290   0.0000000   0.0000000   0.0000000  -0.0451250   0.0451250   0.0451250   0.0000000   0.0000000   0.0000000
 0.1000000  -2.5000400  -0.2999580   1.0000400   0.0000000   0.0000000   0.0000098  -0.0016667   0.0016667   0.0016667   0.0000000   0.0000000   0.0000000  -0.0500000   0.0500000   0.0500000   0.0000000   0.0000000   0.0000000
 0.1050000  -2.5000500  -0.2999490   1.0000500   0.0000000   0.0000000   0.0000127  -0.0019294   0.0019294   0.0019294   0.0000000   0.0000000   0.0000000  -0.0551250   0.0551250   0.0551250   0.0000000   0.0000000   0.0000000
 0.1100000  -2.5000600  -0.2999390   1.0000600   0.0000000   0.0000000   0.0000163  -0.0022183   0.0022183   0.0022183   0.0000000   0.0000000   0.0000000  -0.0605000   0.0605000   0.0605000   0.0000000   0.0000000   0.0000000
 0.1150000  -2.5000700  -0.2999270   1.0000700   0.0000000   0.0000000   0.0000208  -0.0025348   0.0025348   0.0025348   0.0000000   0.0000000   0.0000000  -0.0661250   0.0661250   0.0661250   0.0000000   0.0000000   0.0000000
 0.1200000  -2.5000900  -0.2999140   1.0000900   0.0000000   0.0000000   0.0000262  -0.0028800   0.0028800   0.0028800   0.0000000   0.0000000   0.0000000  -0.0720000   0.0720000   0.0720000   0.0000000   0.0000000   0.0000000
 0.1250000  -2.5001000  -0.2998980   1.0001000   0.0000000   0.0000000   0.0000329  -0.0032552   0.0032552   0.0032552   0.0000000   0.0000000   0.0000000  -0.0781250   0.0781250   0.0781250   0.0000000   0.0000000   0.0000000
 0.1300000  -2.5001200  -0.2998810   1.0001200   0.0000000   0.0000000   0.0000408  -0.0036614   0.0036613   0.0036614   0.0000000   0.0000000   0.0000000  -0.0842964   0.0842830   0.0842964   0.0000000   0.0000000   0.0000000
 0.1350000  -2.5001400  -0.2998620   1.0001400   0.0000000   0.0000000   0.0000502  -0.0040978   0.0040976   0.0040978   0.0000000   0.0000000   0.0000000  -0.0902201   0.0901921   0.0902201   0.0000000   0.0000000   0.0000000
 0.1400000  -2.5001600  -0.2998400   1.0001600   0.0000000   0.0000000   0.0000613  -0.0045631   0.0045628   0.0045631   0.0000000   0.0000000   0.0000000  -0.0958938   0.0958512   0.0958938   0.0000000   0.0000000   0.0000000
 0.1450000  -2.5001800  -0.2998160   1.0001800   0.0000000   0.0000000   0.0000741  -0.0050563   0.0050557   0.0050563   0.0000000   0.0000000   0.0000000  -0.1013180   0.1012600   0.1013180   0.0000000   0.0000000   0.0000000
 0.1500000  -2.5002100  -0.2997890   1.0002100   0.0000000   0.0000000   0.0000891  -0.0055759   0.0055750   0.0055759   0.0000000   0.0000000   0.0000000  -0.1064910   0.1064200   0.1064910   0.0000000   0.0000000   0.0000000
 0.1550000  -2.5002400  -0.2997600   1.0002400   0.0000000   0.0000000   0.0001062  -0.0061208   0.0061195   0.0061208   0.0000000   0.0000000   0.0000000  -0.1114150   0.1113290   0.1114150   0.0000000   0.0000000   0.0000000
 0.1600000  -2.5002700  -0.2997280   1.0002700   0.0000000   0.0000000   0.0001259  -0.0066896   0.0066879   0.0066896   0.0000000   0.0000000   0.0000000  -0.1160890   0.1159880   0.1160890   0.0000000   0.0000000   0.0000000
 0.1650000  -2.5003100  -0.2996930   1.0003100   0.0000000   0.0000000   0.0001482  -0.0072812   0.0072790   0.0072812   0.0000000   0.0000000   0.0000000  -0.1205120   0.1203970   0.1205120   0.0000000   0.0000000   0.0000000
 0.1700000  -2.5003400  -0.2996550   1.0003400   0.0000000   0.0000000   0.0001734  -0.0078943   0.0078914   0.0078943   0.0000000   0.0000000   0.0000000  -0.1246860   0.1245560   0.1246860   0.0000000   0.0000000   0.0000000
 0.1750000  -2.5003900  -0.2996140   1.0003900   0.0000000   0.0000000   0.0002018  -0.0085277   0.0085241   0.0085277   0.0000000   0.0000000   0.0000000  -0.1286100   0.1284650   0.1286100   0.0000000   0.0000000   0.0000000
 0.1800000  -2.5004300  -0.2995700   1.0004300   0.0000000   0.0000000   0.0002336  -0.0091800   0.0091757   0.0091800   0.0000000   0.0000000   0.0000000  -0.1322840   0.1321240   0.1322840   0.0000000   0.0000000   0.0000000
 0.1850000  -2.5004800  -0.2995220   1.0004800   0.0000000   0.0000000   0.0002690  -0.0098501   0.0098449   0.0098501   0.0000000   0.0000000   0.0000000  -0.1357070   0.1355330   0.1357070   0.0000000   0.0000000   0.0000000
 0.1900000  -2.5005300  -0.2994720   1.0005300   0.0000000   0.0000000   0.0003083  -0.0105367   0.0105306   0.0105367   0.0000000   0.0000000   0.0000000  -0.1388810   0.1386930   0.1388810   0.0000000   0.0000000   0.0000000
 0.1950000  -2.5005800  -0.2994170   1.0005800   0.0000000   0.0000000   0.0003517  -0.0112385   0.0112314   0.0112385   0.0000000   0.0000000   0.0000000  -0.1418050   0.1416020   0.1418050   0.0000000   0.0000000   0.0000000
 0.2000000  -2.5006400  -0.2993590   1.0006400   0.0000000   0.0000000   0.0003993  -0.0119543   0.0119462   0.0119543   0.0000000   0.0000000   0.0000000  -0.1444790   0.1442610   0.1444790   0.0000000   0.0000000   0.0000000
 0.2050000  -2.5007000  -0.2992980   1.0007000   0.0000000   0.0000000   0.0004515  -0.0126829   0.0126736   0.0126829   0.0000000   0.0000000   0.0000000  -0.1469020   0.1466700   0.1469020   0.0000000   0.0000000   0.0000000
 0.2100000  -2.5007700  -0.2992320   1.0007700   0.0000000   0.0000000   0.0005083  -0.0134229   0.0134125   0.0134229   0.0000000   0.0000000   0.0000000  -0.1490760   0.1488290   0.1490760   0.0000000   0.0000000   0.0000000
 0.2150000  -2.5008400  -0.2991640   1.0008400   0.0000000   0.0000000   0.0005699  -0.0141732   0.0141615   0.0141732   0.0000000   0.0000000   0.0000000  -0.1510000   0.1507380   0.1510000   0.0000000   0.0000000   0.0000000
 0.2200000  -2.5009100  -0.2990910   1.0009100   0.0000000   0.0000000   0.0006365  -0.0149325   0.0149194   0.0149325   0.0000000   0.0000000   0.0000000  -0.1526740   0.1523970   0.1526740   0.0000000   0.0000000   0.0000000
 0.2250000  -2.5009900  -0.2990140   1.0009900   0.0000000   0.0000000   0.0007083  -0.0156995   0.0156851   0.0156995   0.0000000   0.0000000   0.0000000  -0.1540970   0.1538060   0.1540970   0.0000000   0.0000000   0.0000000
 0.2300000  -2.5010700  -0.2989340   1.0010700   0.0000000   0.0000000   0.0007853  -0.0164731   0.0164571   0.0164731   0.0000000   0.0000000   0.0000000  -0.1552710   0.1549660   0.1552710   0.0000000   0.0000000   0.0000000
 0.2350000  -2.5011500  -0.2988500   1.0011500   0.0000000   0.0000000   0.0008678  -0.0172518   0.0172343   0.0172518   0.0000000   0.0000000   0.0000000  -0.1561950   0.1558750   0.1561950   0.0000000   0.0000000   0.0000000
 0.2400000  -2.5012400  -0.2987620   1.0012400   0.0000000   0.0000000   0.0009559  -0.0180346   0.0180154   0.0180346   0.0000000   0.0000000   0.0000000  -0.1568680   0.1565340   0.1568680   0.0000000   0.0000000   0.0000000
 0.2450000  -2.5013300  -0.2986700   1.0013300   0.0000000   0.0000000   0.0010496  -0.0188201   0.0187992   0.0188201   0.0000000   0.0000000   0.0000000  -0.1572920   0.1569430   0.1572920   0.0000000   0.0000000   0.0000000
 0.2500000  -2.5014300  -0.2985740   1.0014300   0.0000000   0.0000000   0.0011490  -0.0196071   0.0195844   0.0196071   0.0000000   0.0000000   0.0000000  -0.1574660   0.1571020   0.1574660   0.0000000   0.0000000   0.0000000
 0.2550000  -2.5015300  -0.2984740   1.0015300   0.0000000   0.0000000   0.0012543  -0.0203943   0.0203698   0.0203943   0.0000000   0.0000000   0.0000000  -0.1573900   0.1570110   0.1573900   0.0000000   0.0000000   0.0000000
 0.2600000  -2.5016300  -0.2983700   1.0016300   0.0000000   0.0000000   0.0013656  -0.0211806   0.0211541   0.0211806   0.0000000   0.0000000   0.0000000  -0.1570630   0.1566700   0.1570630   0.0000000   0.0000000   0.0000000
 0.2650000  -2.5017400  -0.2982620   1.0017400   0.0000000   0.0000000   0.0014829  -0.0219646   0.0219361   0.0219646   0.0000000   0.0000000   0.0000000  -0.1564870   0.1560800   0.1564870   0.0000000   0.0000000   0.0000000
 0.2700000  -2.5018500  -0.2981510   1.0018500   0.0000000   0.0000000   0.0016062  -0.0227450   0.0227145   0.0227450   0.0000000   0.0000000   0.0000000  -0.1556610   0.1552390   0.1556610   0.0000000   0.0000000   0.0000000
 0.2750000  -2.5019700  -0.2980350   1.0019700   0.0000000   0.0000000   0.0017357  -0.0235208   0.0234881   0.0235208   0.0000000   0.0000000   0.0000000  -0.1545850   0.1541480   0.1545850   0.0000000   0.0000000   0.0000000
 0.2800000  -2.5020900  -0.2979160   1.0020900   0.0000000   0.0000000   0.0018714  -0.0242905   0.0242556   0.0242905   0.0000000   0.0000000   0.0000000  -0.1532580   0.1528070   0.1532580   0.0000000   0.0000000   0.0000000
 0.2850000  -2.5022100  -0.2977930   1.0022100   0.0000000   0.0000000   0.0020132  -0.0250529   0.0250157   0.0250529   0.0000000   0.0000000   0.0000000  -0.1516820   0.1512160   0.1516820   0.0000000   0.0000000   0.0000000
 0.2900000  -2.5023400  -0.2976660   1.0023400   0.0000000   0.0000000   0.0021613  -0.0258069   0.0257673   0.0258069   0.0000000   0.0000000   0.0000000  -0.1498560   0.1493750   0.1498560   0.0000000   0.0000000   0.0000000
 0.2950000  -2.5024700  -0.2975350   1.0024700   0.0000000   0.0000000   0.0023157  -0.0265511   0.0265091   0.0265511   0.0000000   0.0000000   0.0000000  -0.1477800   0.1472840   0.1477800   0.0000000   0.0000000   0.0000000
 0.3000000  -2.5026000  -0.2974000   1.0026000   0.0000000   0.0000000   0.0024763  -0.0272842   0.0272397   0.0272842   0.0000000   0.0000000   0.0000000  -0.1454530   0.1449430   0.1454530   0.0000000   0.0000000   0.0000000
 0.3050000  -2.5027400  -0.2972620   1.0027400   0.0000000   0.0000000   0.0026431  -0.0280052   0.0279581   0.0280052   0.0000000   0.0000000   0.0000000  -0.1428770   0.1423530   0.1428770   0.0000000   0.0000000   0.0000000
 0.3100000  -2.5028800  -0.2971210   1.0028800   0.0000000   0.0000000   0.0028162  -0.0287126   0.0286629   0.0287126   0.0000000   0.0000000   0.0000000  -0.1400510   0.1395120   0.1400510   0.0000000   0.0000000   0.0000000
 0.3150000  -2.5030300  -0.2969760   1.0030300   0.0000000   0.0000000   0.0029956  -0.0294053   0.0293528   0.0294053   0.0000000   0.0000000   0.0000000  -0.1369740   0.1364210   0.1369740   0.0000000   0.0000000   0.0000000
 0.3200000  -2.5031800  -0.2968270   1.0031800   0.0000000   0.0000000   0.0031812  -0.0300819   0.0300266   0.0300819   0.0000000   0.0000000   0.0000000  -0.1336480   0.1330800   0.1336480   0.0000000   0.0000000   0.0000000
 0.3250000  -2.5033300  -0.2966760   1.0033300   0.0000000   0.0000000   0.0033730  -0.0307413   0.0306832   0.0307413   0.0000000   0.0000000   0.0000000  -0.1300720   0.1294890   0.1300720   0.0000000   0.0000000   0.0000000
 0.3300000  -2.5034800  -0.2965210   1.0034800   0.0000000   0.0000000   0.0035711  -0.0313822   0.0313211   0.0313822   0.0000000   0.0000000   0.0000000  -0.1262460   0.1256480   0.1262460   0.0000000   0.0000000   0.0000000
 0.3350000  -2.5036400  -0.2963620   1.0036400   0.0000000   0.0000000   0.0037755  -0.0320034   0.0319392   0.0320034   0.0000000   0.0000000   0.0000000  -0.1221690   0.1215570   0.1221690   0.0000000   0.0000000   0.0000000
 0.3400000  -2.5038000  -0.2962010   1.0038000   0.0000000   0.0000000   0.0039861  -0.0326035   0.0325363   0.0326035   0.0000000   0.0000000   0.0000000  -0.1178430   0.1172170   0.1178430   0.0000000   0.0000000   0.0000000
 0.3450000  -2.5039700  -0.2960370   1.0039700   0.0000000   0.0000000   0.0042029  -0.0331814   0.0331110   0.0331814   0.0000000   0.0000000   0.0000000  -0.1132670   0.1126260   0.1132670   0.0000000   0.0000000   0.0000000
 0.3500000  -2.5041400  -0.2958700   1.0041400   0.0000000   0.0000000   0.0044260  -0.0337358   0.0336621   0.0337358   0.0000000   0.0000000   0.0000000  -0.1084410   0.1077850   0.1084410   0.0000000   0.0000000   0.0000000
 0.3550000  -2.5043100  -0.2957010   1.0043100   0.0000000   0.0000000   0.0046554  -0.0342654   0.0341884   0.0342654   0.0000000   0.0000000   0.0000000  -0.1033640   0.1026940   0.1033640   0.0000000   0.0000000   0.0000000
 0.3600000  -2.5044800  -0.2955280   1.0044800   0.0000000   0.0000000   0.0048910  -0.0347690   0.0346886   0.0347690   0.0000000   0.0000000   0.0000000  -0.0980381   0.0973531   0.0980381   0.0000000   0.0000000   0.0000000
 0.3650000  -2.5046500  -0.2953540   1.0046500   0.0000000   0.0000000   0.0051328  -0.0352453   0.0351615   0.0352453   0.0000000   0.0000000   0.0000000  -0.0924618   0.0917622   0.0924618   0.0000000   0.0000000   0.0000000
 0.3700000  -2.5048300  -0.2951770   1.0048300   0.0000000   0.0000000   0.0051750  -0.0356932   0.0356058   0.0356932   0.0000000   0.0000000   0.0000000  -0.0866355   0.0859214   0.0866355   0.0000000   0.0000000   0.0000000
 0.3750000  -2.5050100  -0.2949980   1.0050100   0.0000000   0.0000000   0.0051750  -0.0361113   0.0360203   0.0361113   0.0000000   0.0000000   0.0000000  -0.0805593   0.0798305   0.0805593   0.0000000   0.0000000   0.0000000
 0.3800000  -2.5051900  -0.2948170   1.0051900   0.0000000   0.0000000   0.0051750  -0.0364985   0.0364039   0.0364985   0.0000000   0.0000000   0.0000000  -0.0743582   0.0736477   0.0743582   0.0000000   0.0000000   0.0000000
 0.3850000  -2.5053700  -0.2946340   1.0053700   0.0000000   0.0000000   0.0051750  -0.0368553   0.0367572   0.0368553   0.0000000   0.0000000   0.0000000  -0.0683857   0.0677044   0.0683857   0.0000000   0.0000000   0.0000000
 0.3900000  -2.5055600  -0.2944490   1.0055600   0.0000000   0.0000000   0.0051750  -0.0371828   0.0370814   0.0371828   0.0000000   0.0000000   0.0000000  -0.0626633   0.0620112   0.0626633   0.0000000   0.0000000   0.0000000
 0.3950000  -2.5057500  -0.2942630   1.0057500   0.0000000   0.0000000   0.0051750  -0.0374823   0.0373778   0.0374823   0.0000000   0.0000000   0.0000000  -0.0571908   0.0565679   0.0571908   0.0000000   0.0000000   0.0000000
 0.4000000  -2.5059300  -0.2940750   1.0059300   0.0000000   0.0000000   0.0051750  -0.0377551   0.0376475   0.0377551   0.0000000   0.0000000   0.0000000  -0.0519683   0.0513746   0.0519683   0.0000000   0.0000000   0.0000000
 0.4050000  -2.5061200  -0.2938870   1.0061200   0.0000000   0.0000000   0.0051750  -0.0380024   0.0378919   0.0380024   0.0000000   0.0000000   0.0000000  -0.0469959   0.0464314   0.0469959   0.0000000   0.0000000   0.0000000
 0.4100000  -2.5063100  -0.2936970   1.0063100   0.0000000   0.0000000   0.0051750  -0.0382255   0.0381122   0.0382255   0.0000000   0.0000000   0.0000000  -0.0422734   0.0417381   0.0422734   0.0000000   0.0000000   0.0000000
 0.4150000  -2.5065100  -0.2935050   1.0065100   0.0000000   0.0000000   0.0051750  -0.0384256   0.0383097   0.0384256   0.0000000   0.0000000   0.0000000  -0.0378009   0.0372948   0.0378009   0.0000000   0.0000000   0.0000000
 0.4200000  -2.5067000  -0.2933130   1.0067000   0.0000000   0.0000000   0.0051750  -0.0386039   0.0384856   0.0386039   0.0000000   0.0000000   0.0000000  -0.0335785   0.0331016   0.0335785   0.0000000   0.0000000   0.0000000
 0.4250000  -2.5068900  -0.2931210   1.0068900   0.0000000   0.0000000   0.0051750  -0.0387618   0.0386411   0.0387618   0.0000000   0.0000000   0.0000000  -0.0296060   0.0291583   0.0296060   0.0000000   0.0000000   0.0000000
 0.4300000  -2.5070900  -0.2929270   1.0070900   0.0000000   0.0000000   0.0051750  -0.0389004   0.0387776   0.0389004   0.0000000   0.0000000   0.0000000  -0.0258835   0.0254650   0.0258835   0.0000000   0.0000000   0.0000000
 0.4350000  -2.5072800  -0.2927330   1.0072800   0.0000000   0.0000000   0.0051750  -0.0390210   0.0388962   0.0390210   0.0000000   0.0000000   0.0000000  -0.0224111   0.0220218   0.0224111   0.0000000   0.0000000   0.0000000
 0.4400000  -2.5074800  -0.2925380   1.0074800   0.0000000   0.0000000   0.0051750  -0.0391249   0.0389982   0.0391249   0.0000000   0.0000000   0.0000000  -0.0191886   0.0188285   0.0191886   0.0000000   0.0000000   0.0000000
 0.4450000  -2.5076700  -0.2923430   1.0076700   0.0000000   0.0000000   0.0051750  -0.0392133   0.0390849   0.0392133   0.0000000   0.0000000   0.0000000  -0.0162161   0.0158852   0.0162161   0.0000000   0.0000000   0.0000000
 0.4500000  -2.5078700  -0.2921470   1.0078700   0.0000000   0.0000000   0.0051750  -0.0392875   0.0391575   0.0392875   0.0000000   0.0000000   0.0000000  -0.0134937   0.0131920   0.0134937   0.0000000   0.0000000   0.0000000
 0.4550000  -2.5080700  -0.2919510   1.0080700   0.0000000   0.0000000   0.0051750  -0.0393487   0.0392172   0.0393487   0.0000000   0.0000000   0.0000000  -0.0110212   0.0107487   0.0110212   0.0000000   0.0000000   0.0000000
 0.4600000  -2.5082600  -0.2917550   1.0082600   0.0000000   0.0000000   0.0051750  -0.0393981   0.0392654   0.0393981   0.0000000   0.0000000   0.0000000  -0.0087987   0.0085554   0.0087987   0.0000000   0.0000000   0.0000000
 0.4650000  -2.5084600  -0.2915590   1.0084600   0.0000000   0.0000000   0.0051750  -0.0394371   0.0393032   0.0394371   0.0000000   0.0000000   0.0000000  -0.0068263   0.0066122   0.0068263   0.0000000   0.0000000   0.0000000
 0.4700000  -2.5086600  -0.2913620   1.0086600   0.0000000   0.0000000   0.0051750  -0.0394668   0.0393319   0.0394668   0.0000000   0.0000000   0.0000000  -0.0051038   0.0049189   0.0051038   0.0000000   0.0000000   0.0000000
 0.4750000  -2.5088500  -0.2911650   1.0088500   0.0000000   0.0000000   0.0051750  -0.0394885   0.0393528   0.0394885   0.0000000   0.0000000   0.0000000  -0.0036313   0.0034756   0.0036313   0.0000000   0.0000000   0.0000000
 0.4800000  -2.5090500  -0.2909690   1.0090500   0.0000000   0.0000000   0.0051750  -0.0395035   0.0393671   0.0395035   0.0000000   0.0000000   0.0000000  -0.0024089   0.0022824   0.0024089   0.0000000   0.0000000   0.0000000
 0.4850000  -2.5092500  -0.2907720   1.0092500   0.0000000   0.0000000   0.0051750  -0.0395130   0.0393761   0.0395130   0.0000000   0.0000000   0.0000000  -0.0014364   0.0013391   0.0014364   0.0000000   0.0000000   0.0000000
 0.4900000  -2.5094500  -0.2905750   1.0094500   0.0000000   0.0000000   0.0051750  -0.0395183   0.0393809   0.0395183   0.0000000   0.0000000   0.0000000  -0.0007139   0.0006459   0.0007139   0.0000000   0.0000000   0.0000000
 0.4950000  -2.5096400  -0.2903780   1.0096400   0.0000000   0.0000000   0.0051750  -0.0395206   0.0393829   0.0395206   0.0000000   0.0000000   0.0000000  -0.0002415   0.0002026   0.0002415   0.0000000   0.0000000   0.0000000
 0.5000000  -2.5098400  -0.2901810   1.0098400   0.0000000   0.0000000   0.0051750  -0.0395211   0.0393834   0.0395211   0.0000000   0.0000000   0.0000000  -0.0000190   0.0000093   0.0000190   0.0000000   0.0000000   0.0000000
 0.5050000  -2.5100400  -0.2899840   1.0100400   0.0000000   0.0000000   0.0051750  -0.0395211   0.0393834   0.0395211   0.0000000   0.0000000   0.0000000   0.0000228  -0.0000089  -0.0000228   0.0000000   0.0000000   0.0000000
 0.5100000  -2.5102400  -0.2897870   1.0102400   0.0000000   0.0000000   0.0051750  -0.0395206   0.0393829   0.0395206   0.0000000   0.0000000   0.0000000   0.0002544  -0.0002004  -0.0002544   0.0000000   0.0000000   0.0000000
 0.5150000  -2.5104300  -0.2895900   1.0104300   0.0000000   0.0000000   0.0051750  -0.0395182   0.0393809   0.0395182   0.0000000   0.0000000   0.0000000   0.0007361  -0.0006420  -0.0007361   0.0000000   0.0000000   0.0000000
 0.5200000  -2.5106300  -0.2893930   1.0106300   0.0000000   0.0000000   0.0051750  -0.0395128   0.0393761   0.0395128   0.0000000   0.0000000   0.0000000   0.0014677  -0.0013336  -0.0014678   0.0000000   0.0000000   0.0000000
 0.5250000  -2.5108300  -0.2891970   1.0108300   0.0000000   0.0000000   0.0051750  -0.0395031   0.0393672   0.0395031   0.0000000   0.0000000   0.0000000   0.0024494  -0.0022752  -0.0024494   0.0000000   0.0000000   0.0000000
 0.5300000  -2.5110300  -0.2890000   1.0110300   0.0000000   0.0000000   0.0051750  -0.0394879   0.0393529   0.0394879   0.0000000   0.0000000   0.0000000   0.0036811  -0.0034668  -0.0036811   0.0000000   0.0000000   0.0000000
 0.5350000  -2.5112200  -0.2888030   1.0112200   0.0000000   0.0000000   0.0051750  -0.0394659   0.0393321   0.0394659   0.0000000   0.0000000   0.0000000   0.0051627  -0.0049084  -0.0051628   0.0000000   0.0000000   0.0000000
 0.5400000  -2.5114200  -0.2886060   1.0114200   0.0000000   0.0000000   0.0051750  -0.0394358   0.0393034   0.0394358   0.0000000   0.0000000   0.0000000   0.0068944  -0.0066000  -0.0068944   0.0000000   0.0000000   0.0000000
 0.5450000  -2.5116200  -0.2884100   1.0116200   0.0000000   0.0000000   0.0051750  -0.0393965   0.0392657   0.0393965   0.0000000   0.0000000   0.0000000   0.0088760  -0.0085415  -0.0088761   0.0000000   0.0000000   0.0000000
 0.5500000  -2.5118200  -0.2882140   1.0118200   0.0000000   0.0000000   0.0051750  -0.0393466   0.0392176   0.0393466   0.0000000   0.0000000   0.0000000   0.0111077  -0.0107331  -0.0111078   0.0000000   0.0000000   0.0000000
 0.5550000  -2.5120100  -0.2880180   1.0120100   0.0000000   0.0000000   0.0051750  -0.0392850   0.0391579   0.0392850   0.0000000   0.0000000   0.0000000   0.0135894  -0.0131747  -0.0135895   0.0000000   0.0000000   0.0000000
 0.5600000  -2.5122100  -0.2878220   1.0122100   0.0000000   0.0000000   0.0051750  -0.0392103   0.0390854   0.0392103   0.0000000   0.0000000   0.0000000   0.0163210  -0.0158663  -0.0163211   0.0000000   0.0000000   0.0000000
 0.5650000  -2.5124000  -0.2876270   1.0124000   0.0000000   0.0000000   0.0051750  -0.0391214   0.0389989   0.0391214   0.0000000   0.0000000   0.0000000   0.0193027  -0.0188079  -0.0193028   0.0000000   0.0000000   0.0000000
 0.5700000  -2.5126000  -0.2874320   1.0126000   0.0000000   0.0000000   0.0051750  -0.0390169   0.0388970   0.0390169   0.0000000   0.0000000   0.0000000   0.0225344  -0.0219995  -0.0225345   0.0000000   0.0000000   0.0000000
 0.5750000  -2.5127900  -0.2872380   1.0127900   0.0000000   0.0000000   0.0051750  -0.0388956   0.0387785   0.0388956   0.0000000   0.0000000   0.0000000   0.0260160  -0.0254410  -0.0260161   0.0000000   0.0000000   0.0000000
 0.5800000  -2.5129900  -0.2870450   1.0129900   0.0000000   0.0000000   0.0051750  -0.0387563   0.0386421   0.0387563   0.0000000   0.0000000   0.0000000   0.0297477  -0.0291326  -0.0297478   0.0000000   0.0000000   0.0000000
 0.5850000  -2.5131800  -0.2868520   1.0131800   0.0000000   0.0000000   0.0051750  -0.0385977   0.0384867   0.0385977   0.0000000   0.0000000   0.0000000   0.0337293  -0.0330742  -0.0337295   0.0000000   0.0000000   0.0000000
 0.5900000  -2.5133700  -0.2866600   1.0133700   0.0000000   0.0000000   0.0051750  -0.0384186   0.0383110   0.0384186   0.0000000   0.0000000   0.0000000   0.0379610  -0.0372658  -0.0379612   0.0000000   0.0000000   0.0000000
 0.5950000  -2.5135700  -0.2864690   1.0135700   0.0000000   0.0000000   0.0051750  -0.0382177   0.0381136   0.0382177   0.0000000   0.0000000   0.0000000   0.0424427  -0.0417074  -0.0424428   0.0000000   0.0000000   0.0000000
 0.6000000  -2.5137600  -0.2862790   1.0137600   0.0000000   0.0000000   0.0051750  -0.0379938   0.0378935   0.0379937   0.0000000   0.0000000   0.0000000   0.0471743  -0.0463990  -0.0471745   0.0000000   0.0000000   0.0000000
 0.6050000  -2.5139500  -0.2860900   1.0139500   0.0000000   0.0000000   0.0051750  -0.0377455   0.0376492   0.0377455   0.0000000   0.0000000   0.0000000   0.0521560  -0.0513405  -0.0521562   0.0000000   0.0000000   0.0000000
 0.6100000  -2.5141300  -0.2859020   1.0141300   0.0000000   0.0000000   0.0051750  -0.0374718   0.0373797   0.0374718   0.0000000   0.0000000   0.0000000   0.0573877  -0.0565321  -0.0573878   0.0000000   0.0000000   0.0000000
 0.6150000  -2.5143200  -0.2857160   1.0143200   0.0000000   0.0000000   0.0051750  -0.0371712   0.0370835   0.0371712   0.0000000   0.0000000   0.0000000   0.0628693  -0.0619737  -0.0628695   0.0000000   0.0000000   0.0000000
 0.6200000  -2.5145100  -0.2855310   1.0145100   0.0000000   0.0000000   0.0051750  -0.0368427   0.0367595   0.0368427   0.0000000   0.0000000   0.0000000   0.0686010  -0.0676653  -0.0686012   0.0000000   0.0000000   0.0000000
 0.6250000  -2.5146900  -0.2853480   1.0146900   0.0000000   0.0000000   0.0051750  -0.0364848   0.0364064   0.0364848   0.0000000   0.0000000   0.0000000   0.0745826  -0.0736069  -0.0745829   0.0000000   0.0000000   0.0000000
 0.6300000  -2.5148700  -0.2851670   1.0148700   0.0000000   0.0000000   0.0051750  -0.0360964   0.0360230   0.0360964   0.0000000   0.0000000   0.0000000   0.0808143  -0.0797985  -0.0808145   0.0000000   0.0000000   0.0000000
 0.6350000  -2.5150500  -0.2849880   1.0150500   0.0000000   0.0000000   0.0051750  -0.0356763   0.0356080   0.0356762   0.0000000   0.0000000   0.0000000   0.0872960  -0.0862400  -0.0872962   0.0000000   0.0000000   0.0000000
 0.6400000  -2.5152300  -0.2848110   1.0152300   0.0000000   0.0000000   0.0051750  -0.0352231   0.0351602   0.0352230   0.0000000   0.0000000   0.0000000   0.0940276  -0.0929316  -0.0940279   0.0000000   0.0000000   0.0000000
 0.6450000  -2.5154000  -0.2846370   1.0154000   0.0000000   0.0000000   0.0051750  -0.0347356   0.0346783   0.0347355   0.0000000   0.0000000   0.0000000   0.1010090  -0.0998732  -0.1010100   0.0000000   0.0000000   0.0000000
 0.6500000  -2.5155700  -0.2844650   1.0155700   0.0000000   0.0000000   0.0051750  -0.0342125   0.0341610   0.0342125   0.0000000   0.0000000   0.0000000   0.1082410  -0.1070650  -0.1082410   0.0000000   0.0000000   0.0000000
 0.6550000  -2.5157400  -0.2842950   1.0157400   0.0000000   0.0000000   0.0051750  -0.0336527   0.0336072   0.0336527   0.0000000   0.0000000   0.0000000   0.1157230  -0.1145060  -0.1157230   0.0000000   0.0000000   0.0000000
 0.6600000  -2.5159100  -0.2841290   1.0159100   0.0000000   0.0000000   0.0051750  -0.0330549   0.0330156   0.0330549   0.0000000   0.0000000   0.0000000   0.1234540  -0.1221980  -0.1234550   0.0000000   0.0000000   0.0000000
 0.6650000  -2.5160700  -0.2839650   1.0160700   0.0000000   0.0000000   0.0051750  -0.0324178   0.0323848   0.0324178   0.0000000   0.0000000   0.0000000   0.1314360  -0.1301400  -0.1314360   0.0000000   0.0000000   0.0000000
 0.6700000  -2.5162400  -0.2838050   1.0162400   0.0000000   0.0000000   0.0051750  -0.0317401   0.0317138   0.0317401   0.0000000   0.0000000   0.0000000   0.1396680  -0.1383310  -0.1396680   0.0000000   0.0000000   0.0000000
 0.6750000  -2.5163900  -0.2836480   1.0163900   0.0000000   0.0000000   0.0051750  -0.0310207   0.0310011   0.0310207   0.0000000   0.0000000   0.0000000   0.1481030  -0.1467510  -0.1481030   0.0000000   0.0000000   0.0000000
 0.6800000  -2.5165500  -0.2834950   1.0165500   0.0000000   0.0000000   0.0051750  -0.0302594   0.0302465   0.0302594   0.0000000   0.0000000   0.0000000   0.1563690  -0.1550430  -0.1563690   0.0000000   0.0000000   0.0000000
 0.6850000  -2.5166900  -0.2833460   1.0166900   0.0000000   0.0000000   0.0051750  -0.0294574   0.0294511   0.0294574   0.0000000   0.0000000   0.0000000   0.1643860  -0.1630860  -0.1643860   0.0000000   0.0000000   0.0000000
 0.6900000  -2.5168400  -0.2832000   1.0168400   0.0000000   0.0000000   0.0051750  -0.0286160   0.0286161   0.0286160   0.0000000   0.0000000   0.0000000   0.1721520  -0.1708780  -0.1721520   0.0000000   0.0000000   0.0000000
 0.6950000  -2.5169800  -0.2830590   1.0169800   0.0000000   0.0000000   0.0051750  -0.0277363   0.0277427   0.0277363   0.0000000   0.0000000   0.0000000   0.1796680  -0.1784210  -0.1796680   0.0000000   0.0000000   0.0000000
 0.7000000  -2.5171200  -0.2829230   1.0171200   0.0000000   0.0000000   0.0051750  -0.0268197   0.0268323   0.0268197   0.0000000   0.0000000   0.0000000   0.1869340  -0.1857130  -0.1869350   0.0000000   0.0000000   0.0000000
 0.7050000  -2.5172500  -0.2827910   1.0172500   0.0000000   0.0000000   0.0051750  -0.0258674   0.0258860   0.0258674   0.0000000   0.0000000   0.0000000   0.1939510  -0.1927560  -0.1939510   0.0000000   0.0000000   0.0000000
 0.7100000  -2.5173800  -0.2826640   1.0173800   0.0000000   0.0000000   0.0051750  -0.0248806   0.0249052   0.0248806   0.0000000   0.0000000   0.0000000   0.2007170  -0.1995480  -0.2007170   0.0000000   0.0000000   0.0000000
 0.7150000  -2.5175000  -0.2825420   1.0175000   0.0000000   0.0000000   0.0051750  -0.0238607   0.0238909   0.0238606   0.0000000   0.0000000   0.0000000   0.2072330  -0.2060910  -0.2072340   0.0000000   0.0000000   0.0000000
 0.7200000  -2.5176100  -0.2824250   1.0176100   0.0000000   0.0000000   0.0051750  -0.0228087   0.0228447   0.0228087   0.0000000   0.0000000   0.0000000   0.2135000  -0.2123840  -0.2135000   0.0000000   0.0000000   0.0000000
 0.7250000  -2.5177300  -0.2823140   1.0177300   0.0000000   0.0000000   0.0051750  -0.0217261   0.0217675   0.0217260   0.0000000   0.0000000   0.0000000   0.2195160  -0.2184260  -0.2195160   0.0000000   0.0000000   0.0000000
 0.7300000  -2.5178300  -0.2822080   1.0178300   0.0000000   0.0000000   0.0051750  -0.0206140   0.0206608   0.0206139   0.0000000   0.0000000   0.0000000   0.2252820  -0.2242190  -0.2252830   0.0000000   0.0000000   0.0000000
 0.7350000  -2.5179300  -0.2821070   1.0179300   0.0000000   0.0000000   0.0051750  -0.0194737   0.0195258   0.0194736   0.0000000   0.0000000   0.0000000   0.2307990  -0.2297610  -0.2307990   0.0000000   0.0000000   0.0000000
 0.7400000  -2.5180300  -0.2820130   1.0180300   0.0000000   0.0000000   0.0051750  -0.0183064   0.0183636   0.0183064   0.0000000   0.0000000   0.0000000   0.2360650  -0.2350540  -0.2360650   0.0000000   0.0000000   0.0000000
 0.7450000  -2.5181100  -0.2819240   1.0181100   0.0000000   0.0000000   0.0051750  -0.0171134   0.0171756   0.0171134   0.0000000   0.0000000   0.0000000   0.2410810  -0.2400960  -0.2410820   0.0000000   0.0000000   0.0000000
 0.7500000  -2.5182000  -0.2818410   1.0182000   0.0000000   0.0000000   0.0051750  -0.0158960   0.0159631   0.0158960   0.0000000   0.0000000   0.0000000   0.2458480  -0.2448890  -0.2458480   0.0000000   0.0000000   0.0000000
 0.7550000  -2.5182700  -0.2817640   1.0182700   0.0000000   0.0000000   0.0051750  -0.0146554   0.0147272   0.0146553   0.0000000   0.0000000   0.0000000   0.2503640  -0.2494320  -0.2503640   0.0000000   0.0000000   0.0000000
 0.7600000  -2.5183400  -0.2816940   1.0183400   0.0000000   0.0000000   0.0051750  -0.0133928   0.0134692   0.0133927   0.0000000   0.0000000   0.0000000   0.2546300  -0.2537240  -0.2546300   0.0000000   0.0000000   0.0000000
 0.7650000  -2.5184100  -0.2816290   1.0184100   0.0000000   0.0000000   0.0051750  -0.0121095   0.0121903   0.0121094   0.0000000   0.0000000   0.0000000   0.2586470  -0.2577670  -0.2586470   0.0000000   0.0000000   0.0000000
 0.7700000  -2.5184600  -0.2815720   1.0184600   0.0000000   0.0000000   0.0051750  -0.0108067   0.0108919   0.0108067   0.0000000   0.0000000   0.0000000   0.2624130  -0.2615590  -0.2624130   0.0000000   0.0000000   0.0000000
 0.7750000  -2.5185200  -0.2815210   1.0185200   0.0000000   0.0000000   0.0051750  -0.0094858   0.0095752   0.0094857   0.0000000   0.0000000   0.0000000   0.2659290  -0.2651020  -0.2659290   0.0000000   0.0000000   0.0000000
 0.7800000  -2.5185600  -0.2814760   1.0185600   0.0000000   0.0000000   0.0051750  -0.0081479   0.0082413   0.0081478   0.0000000   0.0000000   0.0000000   0.2691960  -0.2683940  -0.2691960   0.0000000   0.0000000   0.0000000
 0.7850000  -2.5186000  -0.2814380   1.0186000   0.0000000   0.0000000   0.0051750  -0.0067942   0.0068916   0.0067942   0.0000000   0.0000000   0.0000000   0.2722120  -0.2714370  -0.2722120   0.0000000   0.0000000   0.0000000
 0.7900000  -2.5186300  -0.2814070   1.0186300   0.0000000   0.0000000   0.0051750  -0.0054262   0.0055274   0.0054261   0.0000000   0.0000000   0.0000000   0.2749780  -0.2742300  -0.2749780   0.0000000   0.0000000   0.0000000
 0.7950000  -2.5186500  -0.2813830   1.0186500   0.0000000   0.0000000   0.0051750  -0.0040449   0.0041498   0.0040448   0.0000000   0.0000000   0.0000000   0.2774950  -0.2767720  -0.2774950   0.0000000   0.0000000   0.0000000
 0.8000000  -2.5186700  -0.2813660   1.0186700   0.0000000   0.0000000   0.0051750  -0.0026516   0.0027601   0.0026516   0.0000000   0.0000000   0.0000000   0.2797610  -0.2790650  -0.2797610   0.0000000   0.0000000   0.0000000
 0.8050000  -2.5186800  -0.2813550   1.0186800   0.0000000   0.0000000   0.0051750  -0.0012477   0.0013595   0.0012476   0.0000000   0.0000000   0.0000000   0.2817770  -0.2811070  -0.2817770   0.0000000   0.0000000   0.0000000
 0.8100000  -2.5186800  -0.2813520   1.0186800   0.0000000   0.0000000   0.0051750   0.0001657  -0.0000506  -0.0001658   0.0000000   0.0000000   0.0000000   0.2835430  -0.2829000  -0.2835440   0.0000000   0.0000000   0.0000000
 0.8150000  -2.5186800  -0.2813560   1.0186800   0.0000000   0.0000000   0.0051750   0.0015873  -0.0014691  -0.0015874   0.0000000   0.0000000   0.0000000   0.2850600  -0.2844420  -0.2850600   0.0000000   0.0000000   0.0000000
 0.8200000  -2.5186600  -0.2813670   1.0186600   0.0000000   0.0000000   0.0051750   0.0030159  -0.0028946  -0.0030159   0.0000000   0.0000000   0.0000000   0.2863260  -0.2857350  -0.2863260   0.0000000   0.0000000   0.0000000
 0.8250000  -2.5186500  -0.2813850   1.0186500   0.0000000   0.0000000   0.0051750   0.0044502  -0.0043260  -0.0044502   0.0000000   0.0000000   0.0000000   0.2873420  -0.2867780  -0.2873420   0.0000000   0.0000000   0.0000000
 0.8300000  -2.5186200  -0.2814100   1.0186200   0.0000000   0.0000000   0.0051750   0.0058889  -0.0057620  -0.0058890   0.0000000   0.0000000   0.0000000   0.2881090  -0.2875700  -0.2881090   0.0000000   0.0000000   0.0000000
 0.8350000  -2.5185900  -0.2814420   1.0185900   0.0000000   0.0000000   0.0051750   0.0073308  -0.0072013  -0.0073309   0.0000000   0.0000000   0.0000000   0.2886250  -0.2881130  -0.2886250   0.0000000   0.0000000   0.0000000
 0.8400000  -2.5185500  -0.2814820   1.0185500   0.0000000   0.0000000   0.0051750   0.0087747  -0.0086427  -0.0087748   0.0000000   0.0000000   0.0000000   0.2888910  -0.2884050  -0.2888910   0.0000000   0.0000000   0.0000000
 0.8450000  -2.5185000  -0.2815290   1.0185000   0.0000000   0.0000000   0.0051750   0.0102193  -0.0100849  -0.0102194   0.0000000   0.0000000   0.0000000   0.2889080  -0.2884480  -0.2889080   0.0000000   0.0000000   0.0000000
 0.8500000  -2.5184400  -0.2815830   1.0184400   0.0000000   0.0000000   0.0051750   0.0116634  -0.0115267  -0.0116635   0.0000000   0.0000000   0.0000000   0.2886740  -0.2882400  -0.2886740   0.0000000   0.0000000   0.0000000
 0.8550000  -2.5183800  -0.2816440   1.0183800   0.0000000   0.0000000   0.0051750   0.0131057  -0.0129669  -0.0131057   0.0000000   0.0000000   0.0000000   0.2881900  -0.2877830  -0.2881900   0.0000000   0.0000000   0.0000000
 0.8600000  -2.5183100  -0.2817130   1.0183100   0.0000000   0.0000000   0.0051750   0.0145449  -0.0144041  -0.0145449   0.0000000   0.0000000   0.0000000   0.2874570  -0.2870750  -0.2874570   0.0000000   0.0000000   0.0000000
 0.8650000  -2.5182400  -0.2817880   1.0182400   0.0000000   0.0000000   0.0051750   0.0159798  -0.0158372  -0.0159799   0.0000000   0.0000000   0.0000000   0.2864730  -0.2861180  -0.2864730   0.0000000   0.0000000   0.0000000
 0.8700000  -2.5181500  -0.2818710   1.0181500   0.0000000   0.0000000   0.0051750   0.0174092  -0.0172649  -0.0174093   0.0000000   0.0000000   0.0000000   0.2852390  -0.2849110  -0.2852390   0.0000000   0.0000000   0.0000000
 0.8750000  -2.5180600  -0.2819610   1.0180600   0.0000000   0.0000000   0.0051750   0.0188318  -0.0186859  -0.0188318   0.0000000   0.0000000   0.0000000   0.2837560  -0.2834530  -0.2837560   0.0000000   0.0000000   0.0000000
 0.8800000  -2.5179700  -0.2820580   1.0179700   0.0000000   0.0000000   0.0051750   0.0202463  -0.0200990  -0.0202464   0.0000000   0.0000000   0.0000000   0.2820220  -0.2817460  -0.2820220   0.0000000   0.0000000   0.0000000
 0.8850000  -2.5178600  -0.2821620   1.0178600   0.0000000   0.0000000   0.0051750   0.0216516  -0.0215030  -0.0216517   0.0000000   0.0000000   0.0000000   0.2800380  -0.2797880  -0.2800380   0.0000000   0.0000000   0.0000000
 0.8900000  -2.5177500  -0.2822730   1.0177500   0.0000000   0.0000000   0.0051750   0.0230463  -0.0228965  -0.0230464   0.0000000   0.0000000   0.0000000   0.2778050  -0.2775810  -0.2778050   0.0000000   0.0000000   0.0000000
 0.8950000  -2.5176300  -0.2823910   1.0176300   0.0000000   0.0000000   0.0051750   0.0244292  -0.0242784  -0.0244293   0.0000000   0.0000000   0.0000000   0.2753210  -0.2751230  -0.2753210   0.0000000   0.0000000   0.0000000
 0.9000000  -2.5175000  -0.2825160   1.0175000   0.0000000   0.0000000   0.0051750   0.0257991  -0.0256473  -0.0257992   0.0000000   0.0000000   0.0000000   0.2725870  -0.2724160  -0.2725870   0.0000000   0.0000000   0.0000000
 0.9050000  -2.5173700  -0.2826470   1.0173700   0.0000000   0.0000000   0.0051750   0.0271547  -0.0270021  -0.0271547   0.0000000   0.0000000   0.0000000   0.2696030  -0.2694590  -0.2696030   0.0000000   0.0000000   0.0000000
 0.9100000  -2.5172300  -0.2827860   1.0172300   0.0000000   0.0000000   0.0051750   0.0284947  -0.0283415  -0.0284948   0.0000000   0.0000000   0.0000000   0.2663700  -0.2662510  -0.2663700   0.0000000   0.0000000   0.0000000
 0.9150000  -2.5170900  -0.2829310   1.0170900   0.0000000   0.0000000   0.0051750   0.0298180  -0.0296642  -0.0298180   0.0000000   0.0000000   0.0000000   0.2628860  -0.2627940  -0.2628860   0.0000000   0.0000000   0.0000000
 0.9200000  -2.5169400  -0.2830820   1.0169400   0.0000000   0.0000000   0.0051750   0.0311232  -0.0309690  -0.0311232   0.0000000   0.0000000   0.0000000   0.2591520  -0.2590860  -0.2591520   0.0000000   0.0000000   0.0000000
 0.9250000  -2.5167800  -0.2832400   1.0167800   0.0000000   0.0000000   0.0051750   0.0324091  -0.0322546  -0.0324091   0.0000000   0.0000000   0.0000000   0.2551690  -0.2551290  -0.2551690   0.0000000   0.0000000   0.0000000
 0.9300000  -2.5166100  -0.2834050   1.0166100   0.0000000   0.0000000   0.0051750   0.0336744  -0.0335199  -0.0336745   0.0000000   0.0000000   0.0000000   0.2509350  -0.2509210  -0.2509350   0.0000000   0.0000000   0.0000000
 0.9350000  -2.5164400  -0.2835750   1.0164400   0.0000000   0.0000000   0.0051750   0.0349180  -0.0347634  -0.0349181   0.0000000   0.0000000   0.0000000   0.2464510  -0.2464640  -0.2464510   0.0000000   0.0000000   0.0000000
 0.9400000  -2.5162600  -0.2837520   1.0162600   0.0000000   0.0000000   0.0051750   0.0361385  -0.0359841  -0.0361386   0.0000000   0.0000000   0.0000000   0.2417180  -0.2417570  -0.2417180   0.0000000   0.0000000   0.0000000
 0.9450000  -2.5160800  -0.2839350   1.0160800   0.0000000   0.0000000   0.0051750   0.0373348  -0.0371806  -0.0373348   0.0000000   0.0000000   0.0000000   0.2367340  -0.2367990  -0.2367340   0.0000000   0.0000000   0.0000000
 0.9500000  -2.5158900  -0.2841240   1.0158900   0.0000000   0.0000000   0.0051750   0.0385055  -0.0383517  -0.0385055   0.0000000   0.0000000   0.0000000   0.2315000  -0.2315920  -0.2315000   0.0000000   0.0000000   0.0000000
 0.9550000  -2.5156900  -0.2843190   1.0156900   0.0000000   0.0000000   0.0051750   0.0396494  -0.0394961  -0.0396494   0.0000000   0.0000000   0.0000000   0.2260170  -0.2261340  -0.2260170   0.0000000   0.0000000   0.0000000
 0.9600000  -2.5154900  -0.2845190   1.0154900   0.0000000   0.0000000   0.0051750   0.0407652  -0.0406126  -0.0407653   0.0000000   0.0000000   0.0000000   0.2202830  -0.2204270  -0.2202830   0.0000000   0.0000000   0.0000000
 0.9650000  -2.5152900  -0.2847250   1.0152900   0.0000000   0.0000000   0.0051750   0.0418518  -0.0416999  -0.0418518   0.0000000   0.0000000   0.0000000   0.2142990  -0.2144690  -0.2142990   0.0000000   0.0000000   0.0000000
 0.9700000  -2.5150700  -0.2849360   1.0150700   0.0000000   0.0000000   0.0051750   0.0429078  -0.0427569  -0.0429078   0.0000000   0.0000000   0.0000000   0.2080660  -0.2082620  -0.2080650   0.0000000   0.0000000   0.0000000
 0.9750000  -2.5148600  -0.2851520   1.0148600   0.0000000   0.0000000   0.0051750   0.0439320  -0.0437821  -0.0439320   0.0000000   0.0000000   0.0000000   0.2015820  -0.2018040  -0.2015820   0.0000000   0.0000000   0.0000000
 0.9800000  -2.5146300  -0.2853740   1.0146300   0.0000000   0.0000000   0.0051750   0.0449232  -0.0447745  -0.0449232   0.0000000   0.0000000   0.0000000   0.1948480  -0.1950970  -0.1948480   0.0000000   0.0000000   0.0000000
 0.9850000  -2.5144100  -0.2856000   1.0144100   0.0000000   0.0000000   0.0051750   0.0458801  -0.0457327  -0.0458801   0.0000000   0.0000000   0.0000000   0.1878650  -0.1881400  -0.1878640   0.0000000   0.0000000   0.0000000
 0.9900000  -2.5141800  -0.2858310   1.0141800   0.0000000   0.0000000   0.0051750   0.0468014  -0.0466555  -0.0468015   0.0000000   0.0000000   0.0000000   0.1806310  -0.1809320  -0.1806310   0.0000000   0.0000000   0.0000000
 0.9950000  -2.5139400  -0.2860660   1.0139400   0.0000000   0.0000000   0.0051750   0.0476860  -0.0475416  -0.0476860   0.0000000   0.0000000   0.0000000   0.1731470  -0.1734750  -0.1731470   0.0000000   0.0000000   0.0000000
 1.0000000  -2.5137000  -0.2863060   1.0137000   0.0000000   0.0000000   0.0051750   0.0485325  -0.0483898  -0.0485325   0.0000000   0.0000000   0.0000000   0.1654140  -0.1657670  -0.1654130   0.0000000   0.0000000   0.0000000
 1.0050000  -2.5134500  -0.2865500   1.0134500   0.0000000   0.0000000   0.0051750   0.0493397  -0.0491989  -0.0493397   0.0000000   0.0000000   0.0000000   0.1574300  -0.1578100  -0.1574300   0.0000000   0.0000000   0.0000000
 1.0100000  -2.5132100  -0.2867980   1.0132100   0.0000000   0.0000000   0.0051750   0.0501063  -0.0499675  -0.0501064   0.0000000   0.0000000   0.0000000   0.1491960  -0.1496020  -0.1491960   0.0000000   0.0000000   0.0000000
 1.0150000  -2.5129500  -0.2870500   1.0129500   0.0000000   0.0000000   0.0051750   0.0508312  -0.0506945  -0.0508313   0.0000000   0.0000000   0.0000000   0.1407120  -0.1411450  -0.1407120   0.0000000   0.0000000   0.0000000
 1.0200000  -2.5127000  -0.2873050   1.0127000   0.0000000   0.0000000   0.0051750   0.0515131  -0.0513785  -0.0515131   0.0000000   0.0000000   0.0000000   0.1319790  -0.1324380  -0.1319790   0.0000000   0.0000000   0.0000000
 1.0250000  -2.5124400  -0.2875640   1.0124400   0.0000000   0.0000000   0.0051750   0.0521506  -0.0520184  -0.0521506   0.0000000   0.0000000   0.0000000   0.1229950  -0.1234800  -0.1229950   0.0000000   0.0000000   0.0000000
 1.0300000  -2.5121800  -0.2878250   1.0121800   0.0000000   0.0000000   0.0051750   0.0527426  -0.0526129  -0.0527426   0.0000000   0.0000000   0.0000000   0.1137610  -0.1142730  -0.1137610   0.0000000   0.0000000   0.0000000
 1.0350000  -2.5119100  -0.2880900   1.0119100   0.0000000   0.0000000   0.0051750   0.0532878  -0.0531607  -0.0532878   0.0000000   0.0000000   0.0000000   0.1042780  -0.1048150  -0.1042770   0.0000000   0.0000000   0.0000000
 1.0400000  -2.5116400  -0.2883570   1.0116400   0.0000000   0.0000000   0.0051750   0.0537850  -0.0536606  -0.0537850   0.0000000   0.0000000   0.0000000   0.0945440  -0.0951079  -0.0945438   0.0000000   0.0000000   0.0000000
 1.0450000  -2.5113700  -0.2886260   1.0113700   0.0000000   0.0000000   0.0051750   0.0542328  -0.0541114  -0.0542328   0.0000000   0.0000000   0.0000000   0.0845604  -0.0851504  -0.0845601   0.0000000   0.0000000   0.0000000
 1.0500000  -2.5111000  -0.2888980   1.0111000   0.0000000   0.0000000   0.0051750   0.0546301  -0.0545117  -0.0546302   0.0000000   0.0000000   0.0000000   0.0743267  -0.0749430  -0.0743264   0.0000000   0.0000000   0.0000000
 1.0550000  -2.5108300  -0.2891710   1.0108300   0.0000000   0.0000000   0.0051750   0.0549757  -0.0548604  -0.0549757   0.0000000   0.0000000   0.0000000   0.0638430  -0.0644856  -0.0638427   0.0000000   0.0000000   0.0000000
 1.0600000  -2.5105500  -0.2894460   1.0105500   0.0000000   0.0000000   0.0051750   0.0552682  -0.0551562  -0.0552682   0.0000000   0.0000000   0.0000000   0.0531093  -0.0537781  -0.0531090   0.0000000   0.0000000   0.0000000
 1.0650000  -2.5102700  -0.2897230   1.0102700   0.0000000   0.0000000   0.0051750   0.0555063  -0.0553978  -0.0555064   0.0000000   0.0000000   0.0000000   0.0421256  -0.0428207  -0.0421253   0.0000000   0.0000000   0.0000000
 1.0700000  -2.5100000  -0.2900000   1.0100000   0.0000000   0.0000000   0.0051750   0.0556890  -0.0555840  -0.0556890   0.0000000   0.0000000   0.0000000   0.0308920  -0.0316133  -0.0308917   0.0000000   0.0000000   0.0000000
 1.0750000  -2.5097200  -0.2902780   1.0097200   0.0000000   0.0000000   0.0051750   0.0558148  -0.0557135  -0.0558149   0.0000000   0.0000000   0.0000000   0.0194083  -0.0201558  -0.0194080   0.0000000   0.0000000   0.0000000
 1.0800000  -2.5094400  -0.2905570   1.0094400   0.0000000   0.0000000   0.0051750   0.0558827  -0.0557851  -0.0558827   0.0000000   0.0000000   0.0000000   0.0076746  -0.0084484  -0.0076743   0.0000000   0.0000000   0.0000000
 1.0850000  -2.5091600  -0.2908360   1.0091600   0.0000000   0.0000000   0.0051750   0.0558912  -0.0557976  -0.0558912   0.0000000   0.0000000   0.0000000  -0.0043091   0.0035090   0.0043094   0.0000000   0.0000000   0.0000000
 1.0900000  -2.5088800  -0.2911150   1.0088800   0.0000000   0.0000000   0.0051750   0.0558392  -0.0557496  -0.0558392   0.0000000   0.0000000   0.0000000  -0.0165428   0.0157165   0.0165431   0.0000000   0.0000000   0.0000000
 1.0950000  -2.5086000  -0.2913940   1.0086000   0.0000000   0.0000000   0.0051750   0.0557253  -0.0556400  -0.0557253   0.0000000   0.0000000   0.0000000  -0.0290265   0.0281739   0.0290268   0.0000000   0.0000000   0.0000000
 1.1000000  -2.5083200  -0.2916710   1.0083200   0.0000000   0.0000000   0.0051750   0.0555485  -0.0554674  -0.0555485   0.0000000   0.0000000   0.0000000  -0.0417601   0.0408813   0.0417605   0.0000000   0.0000000   0.0000000
 1.1050000  -2.5080500  -0.2919480   1.0080500   0.0000000   0.0000000   0.0051750   0.0553073  -0.0552307  -0.0553073   0.0000000   0.0000000   0.0000000  -0.0547438   0.0538388   0.0547442   0.0000000   0.0000000   0.0000000
 1.1100000  -2.5077700  -0.2922240   1.0077700   0.0000000   0.0000000   0.0051750   0.0550006  -0.0549286  -0.0550006   0.0000000   0.0000000   0.0000000  -0.0679775   0.0670462   0.0679779   0.0000000   0.0000000   0.0000000
 1.1150000  -2.5075000  -0.2924970   1.0075000   0.0000000   0.0000000   0.0051750   0.0546271  -0.0545599  -0.0546271   0.0000000   0.0000000   0.0000000  -0.0814612   0.0805036   0.0814616   0.0000000   0.0000000   0.0000000
 1.1200000  -2.5072200  -0.2927690   1.0072200   0.0000000   0.0000000   0.0051750   0.0541856  -0.0541232  -0.0541856   0.0000000   0.0000000   0.0000000  -0.0951949   0.0942111   0.0951952   0.0000000   0.0000000   0.0000000
 1.1250000  -2.5069500  -0.2930380   1.0069500   0.0000000   0.0000000   0.0051750   0.0536748  -0.0536173  -0.0536748   0.0000000   0.0000000   0.0000000  -0.1091790   0.1081690   0.1091790   0.0000000   0.0000000   0.0000000
 1.1300000  -2.5066900  -0.2933050   1.0066900   0.0000000   0.0000000   0.0051750   0.0530935  -0.0530411  -0.0530935   0.0000000   0.0000000   0.0000000  -0.1233190   0.1223050   0.1233190   0.0000000   0.0000000   0.0000000
 1.1350000  -2.5064200  -0.2935690   1.0064200   0.0000000   0.0000000   0.0051750   0.0524420  -0.0523947  -0.0524420   0.0000000   0.0000000   0.0000000  -0.1372470   0.1362470   0.1372480   0.0000000   0.0000000   0.0000000
 1.1400000  -2.5061600  -0.2938290   1.0061600   0.0000000   0.0000000   0.0051750   0.0517214  -0.0516791  -0.0517214   0.0000000   0.0000000   0.0000000  -0.1509260   0.1499380   0.1509260   0.0000000   0.0000000   0.0000000
 1.1450000  -2.5059100  -0.2940850   1.0059100   0.0000000   0.0000000   0.0051750   0.0509331  -0.0508957  -0.0509331   0.0000000   0.0000000   0.0000000  -0.1643540   0.1633800   0.1643540   0.0000000   0.0000000   0.0000000
 1.1500000  -2.5056500  -0.2943380   1.0056500   0.0000000   0.0000000   0.0051750   0.0500783  -0.0500457  -0.0500783   0.0000000   0.0000000   0.0000000  -0.1775320   0.1765710   0.1775330   0.0000000   0.0000000   0.0000000
 1.1550000  -2.5054000  -0.2945860   1.0054000   0.0000000   0.0000000   0.0051750   0.0491582  -0.0491304  -0.0491582   0.0000000   0.0000000   0.0000000  -0.1904610   0.1895130   0.1904610   0.0000000   0.0000000   0.0000000
 1.1600000  -2.5051600  -0.2948290   1.0051600   0.0000000   0.0000000   0.0051750   0.0481741  -0.0481510  -0.0481741   0.0000000   0.0000000   0.0000000  -0.2031390   0.2022040   0.2031390   0.0000000   0.0000000   0.0000000
 1.1650000  -2.5049200  -0.2950670   1.0049200   0.0000000   0.0000000   0.0051750   0.0471272  -0.0471088  -0.0471272   0.0000000   0.0000000   0.0000000  -0.2155670   0.2146460   0.2155680   0.0000000   0.0000000   0.0000000
 1.1700000  -2.5046900  -0.2953000   1.0046900   0.0000000   0.0000000   0.0051750   0.0460189  -0.0460050  -0.0460188   0.0000000   0.0000000   0.0000000  -0.2277460   0.2268370   0.2277460   0.0000000   0.0000000   0.0000000
 1.1750000  -2.5044600  -0.2955270   1.0044600   0.0000000   0.0000000   0.0051750   0.0448502  -0.0448408  -0.0448502   0.0000000   0.0000000   0.0000000  -0.2396740   0.2387790   0.2396740   0.0000000   0.0000000   0.0000000
 1.1800000  -2.5042400  -0.2957480   1.0042400   0.0000000   0.0000000   0.0051750   0.0436225  -0.0436176  -0.0436225   0.0000000   0.0000000   0.0000000  -0.2513520   0.2504700   0.2513530   0.0000000   0.0000000   0.0000000
 1.1850000  -2.5040300  -0.2959630   1.0040300   0.0000000   0.0000000   0.0051750   0.0423371  -0.0423365  -0.0423371   0.0000000   0.0000000   0.0000000  -0.2627810   0.2619120   0.2627810   0.0000000   0.0000000   0.0000000
 1.1900000  -2.5038200  -0.2961720   1.0038200   0.0000000   0.0000000   0.0051750   0.0409951  -0.0409989  -0.0409951   0.0000000   0.0000000   0.0000000  -0.2739590   0.2731030   0.2739590   0.0000000   0.0000000   0.0000000
 1.1950000  -2.5036200  -0.2963730   1.0036200   0.0000000   0.0000000   0.0051750   0.0395979  -0.0396059  -0.0395979   0.0000000   0.0000000   0.0000000  -0.2848870   0.2840450   0.2848880   0.0000000   0.0000000   0.0000000
 1.2000000  -2.5034200  -0.2965670   1.0034200   0.0000000   0.0000000   0.0051750   0.0381467  -0.0381589  -0.0381467   0.0000000   0.0000000   0.0000000  -0.2955660   0.2947360   0.2955660   0.0000000   0.0000000   0.0000000
 1.2050000  -2.5032400  -0.2967550   1.0032400   0.0000000   0.0000000   0.0051750   0.0366427  -0.0366590  -0.0366427   0.0000000   0.0000000   0.0000000  -0.3059940   0.3051780   0.3059940   0.0000000   0.0000000   0.0000000
 1.2100000  -2.5030600  -0.2969340   1.0030600   0.0000000   0.0000000   0.0051750   0.0350872  -0.0351075  -0.0350871   0.0000000   0.0000000   0.0000000  -0.3161720   0.3153690   0.3161730   0.0000000   0.0000000   0.0000000
 1.2150000  -2.5028800  -0.2971060   1.0028800   0.0000000   0.0000000   0.0051750   0.0334814  -0.0335057  -0.0334813   0.0000000   0.0000000   0.0000000  -0.3261010   0.3253110   0.3261010   0.0000000   0.0000000   0.0000000
 1.2200000  -2.5027200  -0.2972690   1.0027200   0.0000000   0.0000000   0.0051750   0.0318266  -0.0318548  -0.0318265   0.0000000   0.0000000   0.0000000  -0.3357790   0.3350020   0.3357790   0.0000000   0.0000000   0.0000000
 1.2250000  -2.5025700  -0.2974240   1.0025700   0.0000000   0.0000000   0.0051750   0.0301240  -0.0301561  -0.0301240   0.0000000   0.0000000   0.0000000  -0.3452070   0.3444440   0.3452080   0.0000000   0.0000000   0.0000000
 1.2300000  -2.5024200  -0.2975700   1.0024200   0.0000000   0.0000000   0.0051750   0.0283749  -0.0284108  -0.0283749   0.0000000   0.0000000   0.0000000  -0.3543860   0.3536350   0.3543860   0.0000000   0.0000000   0.0000000
 1.2350000  -2.5022800  -0.2977080   1.0022800   0.0000000   0.0000000   0.0051750   0.0265806  -0.0266201  -0.0265805   0.0000000   0.0000000   0.0000000  -0.3633140   0.3625770   0.3633140   0.0000000   0.0000000   0.0000000
 1.2400000  -2.5021500  -0.2978370   1.0021500   0.0000000   0.0000000   0.0051750   0.0247422  -0.0247854  -0.0247422   0.0000000   0.0000000   0.0000000  -0.3719920   0.3712680   0.3719930   0.0000000   0.0000000   0.0000000
 1.2450000  -2.5020400  -0.2979560   1.0020400   0.0000000   0.0000000   0.0051750   0.0228610  -0.0229079  -0.0228610   0.0000000   0.0000000   0.0000000  -0.3804210   0.3797100   0.3804210   0.0000000   0.0000000   0.0000000
 1.2500000  -2.5019300  -0.2980660   1.0019300   0.0000000   0.0000000   0.0051750   0.0209384  -0.0209887  -0.0209384   0.0000000   0.0000000   0.0000000  -0.3885990   0.3879010   0.3885990   0.0000000   0.0000000   0.0000000
 1.2550000  -2.5018300  -0.2981660   1.0018300   0.0000000   0.0000000   0.0051750   0.0189755  -0.0190293  -0.0189754   0.0000000   0.0000000   0.0000000  -0.3965270   0.3958430   0.3965280   0.0000000   0.0000000   0.0000000
 1.2600000  -2.5017400  -0.2982560   1.0017400   0.0000000   0.0000000   0.0051750   0.0169735  -0.0170307  -0.0169735   0.0000000   0.0000000   0.0000000  -0.4042060   0.4035340   0.4042060   0.0000000   0.0000000   0.0000000
 1.2650000  -2.5016600  -0.2983360   1.0016600   0.0000000   0.0000000   0.0051750   0.0149338  -0.0149944  -0.0149338   0.0000000   0.0000000   0.0000000  -0.4116340   0.4109760   0.4116340   0.0000000   0.0000000   0.0000000
 1.2700000  -2.5015900  -0.2984060   1.0015900   0.0000000   0.0000000   0.0051750   0.0128576  -0.0129214  -0.0128576   0.0000000   0.0000000   0.0000000  -0.4188120   0.4181670   0.4188130   0.0000000   0.0000000   0.0000000
 1.2750000  -2.5015300  -0.2984650   1.0015300   0.0000000   0.0000000   0.0051750   0.0107461  -0.0108131  -0.0107461   0.0000000   0.0000000   0.0000000  -0.4257410   0.4251090   0.4257410   0.0000000   0.0000000   0.0000000
 1.2800000  -2.5014800  -0.2985140   1.0014800   0.0000000   0.0000000   0.0051750   0.0086006  -0.0086707  -0.0086006   0.0000000   0.0000000   0.0000000  -0.4324190   0.4318000   0.4324190   0.0000000   0.0000000   0.0000000
 1.2850000  -2.5014400  -0.2985520   1.0014400   0.0000000   0.0000000   0.0051750   0.0064224  -0.0064955  -0.0064223   0.0000000   0.0000000   0.0000000  -0.4388470   0.4382420   0.4388480   0.0000000   0.0000000   0.0000000
 1.2900000  -2.5014200  -0.2985790   1.0014200   0.0000000   0.0000000   0.0051750   0.0042126  -0.0042887  -0.0042125   0.0000000   0.0000000   0.0000000  -0.4450260   0.4444330   0.4450260   0.0000000   0.0000000   0.0000000
 1.2950000  -2.5014000  -0.2985950   1.0014000   0.0000000   0.0000000   0.0051750   0.0019725  -0.0020516  -0.0019725   0.0000000   0.0000000   0.0000000  -0.4509540   0.4503750   0.4509540   0.0000000   0.0000000   0.0000000
 1.3000000  -2.5014000  -0.2985990   1.0014000   0.0000000   0.0000000   0.0051750  -0.0002966   0.0002146   0.0002966   0.0000000   0.0000000   0.0000000  -0.4566320   0.4560660   0.4566330   0.0000000   0.0000000   0.0000000
 1.3050000  -2.5014000  -0.2985920   1.0014000   0.0000000   0.0000000   0.0051750  -0.0025934   0.0025086   0.0025934   0.0000000   0.0000000   0.0000000  -0.4620610   0.4615080   0.4620610   0.0000000   0.0000000   0.0000000
 1.3100000  -2.5014200  -0.2985740   1.0014200   0.0000000   0.0000000   0.0051750  -0.0049168   0.0048293   0.0049168   0.0000000   0.0000000   0.0000000  -0.4672390   0.4666990   0.4672390   0.0000000   0.0000000   0.0000000
 1.3150000  -2.5014500  -0.2985440   1.0014500   0.0000000   0.0000000   0.0051750  -0.0072654   0.0071752   0.0072654   0.0000000   0.0000000   0.0000000  -0.4721680   0.4716410   0.4721680   0.0000000   0.0000000   0.0000000
