ts fx fy fz tx ty tz exfx exfy exfz extx exty extz xd yd zd rolld pitchd yawd vxd vyd vzd wxd wyd wzd axd ayd azd e_x e_y e_z e_vx e_vy e_vz e_rx e_ry e_rz e_wx e_wy e_wz
1704197871.459420000  0  0  11.7738  0.0690955  -0.148265  0.0278926  nan  nan  nan  nan  nan  nan  -2.5  -0.3  1  0.00968484  -0.0403093  -0.000390296  0  0  0  0  0  0  0  0  0  0.027919  -0.00258575  -0.0254941  -0.0092686  0.0184077  0.00459103  -0.0173385  0.0412946  -0.0333221  0.0213234  -0.0833801  -0.0154357 
1704197871.463395000  0  0  11.8059  0.101613  -0.188614  0.0243218  nan  nan  nan  nan  nan  nan  -2.5  -0.3  1  0.0102017  -0.039455  -0.000402418  0  0  0  0  0  0  0  0  0  0.0278722  -0.00251262  -0.0255026  -0.010141  0.0189583  0.00189745  -0.0183722  0.0410686  -0.0329183  -0.0342026  -0.000603773  0.0251605 
1704197871.468394000  0  0  11.7768  0.0635976  -0.14562  0.0248241  nan  nan  nan  nan  nan  nan  -2.5  -0.3  1  0.00713724  -0.0368713  -0.000263104  0  0  0  0  0  0  0  0  0  0.0279257  -0.00275511  -0.0254996  -0.0137794  0.0154567  0.00437045  -0.0148042  0.0379867  -0.0328955  0.00900336  -0.0582388  0.0186535 
1704197871.473375000  0  0  11.7788  0.0381162  -0.133907  0.0308957  nan  nan  nan  nan  nan  nan  -2.5  -0.3  1  0.00944196  -0.0391605  -0.000369668  0  0  0  0  0  0  0  0  0  0.0278908  -0.00265217  -0.0254818  -0.0106923  0.018243  0.00419337  -0.0162705  0.0393214  -0.0336474  0.0734558  -0.0939432  -0.0497227 
1704197871.478376000  0  0  11.7905  0.127107  -0.225079  0.022559  nan  nan  nan  nan  nan  nan  -2.5  -0.3  1  0.00994408  -0.0394475  -0.000392181  0  0  0  0  0  0  0  0  0  0.0279015  -0.00267609  -0.0254567  -0.0102832  0.0189669  0.00307553  -0.0183063  0.0411589  -0.0327575  -0.0857967  0.0714973  0.0455869 
1704197871.483371000  0  0  11.7746  0.0585217  -0.165355  0.0252162  nan  nan  nan  nan  nan  nan  -2.5  -0.3  1  0.00662593  -0.037141  -0.000246041  0  0  0  0  0  0  0  0  0  0.0279893  -0.00296318  -0.0254608  -0.0135767  0.0152487  0.00447407  -0.014154  0.0383098  -0.0329043  0.0131736  -0.0217414  0.0138405 
1704197871.488369000  0  0  11.7862  0.0454153  -0.16025  0.0316701  nan  nan  nan  nan  nan  nan  -2.5  -0.3  1  0.00908553  -0.0389064  -0.000353406  0  0  0  0  0  0  0  0  0  0.027949  -0.00285733  -0.0254498  -0.0111225  0.0182404  0.00349843  -0.0159556  0.0394463  -0.0337618  0.0559612  -0.0424073  -0.0582583 
1704197871.493381000  0  0  11.7664  0.121021  -0.222478  0.0252265  nan  nan  nan  nan  nan  nan  -2.5  -0.3  1  0.00895099  -0.039089  -0.000349805  0  0  0  0  0  0  0  0  0  0.0279493  -0.00288877  -0.0254021  -0.0109661  0.0181153  0.0049754  -0.0172841  0.0408652  -0.033127  -0.0830283  0.0689964  0.0159382 
1704197871.498397000  0  0  11.7954  0.0485705  -0.155457  0.0279656  nan  nan  nan  nan  nan  nan  -2.5  -0.3  1  0.00833673  -0.0362465  -0.000302118  0  0  0  0  0  0  0  0  0  0.0278653  -0.00280829  -0.0253991  -0.0143883  0.0171612  0.00261228  -0.015552  0.0372332  -0.033409  0.0459376  -0.0316313  -0.0154791 
1704197871.503406000  0  0  11.7977  0.0644966  -0.168318  0.0303376  nan  nan  nan  nan  nan  nan  -2.5  -0.3  1  0.00891833  -0.0381968  -0.000340577  0  0  0  0  0  0  0  0  0  0.0279914  -0.00300737  -0.0254217  -0.0120984  0.0183668  0.00247225  -0.0160501  0.0390078  -0.0338538  0.0186681  -0.0222356  -0.0406818 
1704197871.508387000  0  0  11.7676  0.129076  -0.230174  0.0244001  nan  nan  nan  nan  nan  nan  -2.5  -0.3  1  0.00915201  -0.0397248  -0.000363477  0  0  0  0  0  0  0  0  0  0.0280052  -0.00302988  -0.0253596  -0.0102513  0.0186926  0.00477763  -0.0177011  0.0417134  -0.0331636  -0.0953033  0.076585  0.0266348 
1704197871.513398000  0  0  11.8296  0.0882802  -0.192456  0.027152  nan  nan  nan  nan  nan  nan  -2.5  -0.3  1  0.00943317  -0.0366688  -0.000345836  0  0  0  0  0  0  0  0  0  0.0279185  -0.00294022  -0.0253849  -0.0138092  0.018927  -0.000321749  -0.0174288  0.0384792  -0.0334217  -0.0162158  0.0309025  -0.00518292 
1704197871.518466000  0  0  11.6311  0.0948081  -0.199951  0.0283176  nan  nan  nan  nan  nan  nan  -2.5  -0.3  0.995  0.00870094  -0.0389369  -0.000338711  2e-07  2e-07  2e-07  0  0  0  0.000125  0.000125  0.000125  0.0280378  -0.00315915  -0.0203603  -0.0119323  0.0182746  0.00576528  -0.0168835  0.0407822  -0.0336324  -0.0342883  0.0247056  -0.0176452 
1704197871.523368000  0  0  11.6406  0.113536  -0.224366  0.0264049  nan  nan  nan  nan  nan  nan  -2.5  -0.3  0.995  0.00964573  -0.0400558  -0.000386276  1.7e-06  1.7e-06  1.7e-06  0  0  0  0.0005  0.0005  0.0005  0.0279927  -0.00306494  -0.020348  -0.0102909  0.0193432  0.00494956  -0.0183074  0.0423829  -0.033428  -0.0586432  0.0588088  0.00421916 
1704197871.528373000  0  0  11.7033  0.114063  -0.215806  0.024769  nan  nan  nan  nan  nan  nan  -2.5  -0.3  0.995  0.00955546  -0.0367801  -0.000351382  5.6e-06  5.6e-06  5.6e-06  0  0  0  0.001125  0.001125  0.001125  0.0279557  -0.00309547  -0.0203906  -0.0141165  0.0194419  -0.000145592  -0.0183668  0.0395463  -0.0332075  -0.0591511  0.0677871  0.0224625 
1704197871.533356000  0  0  11.6417  0.0830429  -0.180572  0.0287666  nan  nan  nan  nan  nan  nan  -2.5  -0.3  0.995  0.00775245  -0.0378892  -0.00029377  1.33e-05  1.33e-05  1.33e-05  0  0  0  0.002  0.002  0.002  0.028077  -0.00335515  -0.0203763  -0.0130935  0.0177323  0.0050809  -0.0162503  0.0400924  -0.0336714  -0.0165827  -0.00770613  -0.022869 
1704197871.538402000  0  0  11.6659  0.110589  -0.218931  0.0287677  nan  nan  nan  nan  nan  nan  -2.5  -0.3  0.995  0.00941242  -0.0395793  -0.000372751  2.6e-05  2.6e-05  2.6e-05  0  0  0  0.003125  0.003125  0.003125  0.0280347  -0.00325002  -0.0203732  -0.0105563  0.0198126  0.00311792  -0.0184113  0.0423207  -0.0337862  -0.0517951  0.0485112  -0.0217348 
1704197871.543390000  0  0  11.7053  0.124496  -0.212266  0.02311  nan  nan  nan  nan  nan  nan  -2.5  -0.3  0.995  0.00873945  -0.0361388  -0.000316272  4.5e-05  4.5e-05  4.5e-05  0  0  0  0.0045  0.0045  0.0045  0.0279974  -0.00327041  -0.0203609  -0.0146084  0.0192002  -7.17271e-05  -0.0182643  0.0393751  -0.0331176  -0.0809601  0.0622813  0.042302 
1704197871.548383000  0  0  11.6711  0.066903  -0.151457  0.0292014  nan  nan  nan  nan  nan  nan  -2.5  -0.299999  0.995  0.00873703  -0.0360663  -0.000316052  7.15e-05  7.15e-05  7.15e-05  0  0  0  0.006125  0.006125  0.006125  0.0279296  -0.00317776  -0.0203265  -0.0144859  0.0191634  0.0029166  -0.0173785  0.0381508  -0.0337674  0.0260762  -0.0480731  -0.0273436 
1704197871.553382000  0  0  11.6914  0.106093  -0.204813  0.0271586  nan  nan  nan  nan  nan  nan  -2.5  -0.299999  0.995  0.00840812  -0.0378623  -0.000319982  0.0001067  0.0001067  0.0001067  0  0  0  0.008  0.008  0.008  0.0280627  -0.00341243  -0.0203672  -0.0121239  0.0195148  0.00144771  -0.0176704  0.0407263  -0.0336696  -0.0496186  0.0349433  -0.00278605 
1704197871.558383000  0  0  11.7154  0.105965  -0.189727  0.022406  nan  nan  nan  nan  nan  nan  -2.5  -0.299998  0.995  0.00794511  -0.0354744  -0.000284494  0.0001519  0.0001519  0.0001519  0  0  0  0.010125  0.010125  0.010125  0.028015  -0.00341863  -0.0203924  -0.0147615  0.0192188  -0.00029689  -0.0174513  0.0385085  -0.0329977  -0.0513769  0.0251769  0.0499018 
1704197871.563381000  0  0  11.7158  0.0584132  -0.147065  0.0282951  nan  nan  nan  nan  nan  nan  -2.5  -0.299997  0.995  0.00786586  -0.0347778  -0.000277707  0.0002083  0.0002083  0.0002083  0  0  0  0.0125  0.0125  0.0125  0.0279421  -0.00332509  -0.020386  -0.0152074  0.0192089  -6.74121e-05  -0.0165284  0.0369637  -0.0336099  0.035235  -0.0459366  -0.0175905 
1704197871.568377000  0  0  11.7106  0.08782  -0.182114  0.0255811  nan  nan  nan  nan  nan  nan  -2.5  -0.299996  0.995  0.00672757  -0.0360452  -0.000248548  0.0002773  0.0002773  0.0002773  0  0  0  0.015125  0.015125  0.015125  0.0280491  -0.00356561  -0.0204119  -0.0134805  0.0185908  0.0006474  -0.0158547  0.0387142  -0.0333542  -0.0297764  0.00805847  0.0137784 
1704197871.573385000  0  0  11.7562  0.0736518  -0.163832  0.0249508  nan  nan  nan  nan  nan  nan  -2.49999  -0.299995  0.99501  0.00732779  -0.0344357  -0.000260893  0.00036  0.00036  0.00036  0  0  0  0.018  0.018  0.018  0.0279611  -0.00346682  -0.0204484  -0.0148434  0.0195539  -0.00279134  -0.0162006  0.036904  -0.0331843  0.00174209  -0.0118529  0.0199582 
1704197871.578371000  0  0  11.7613  0.0570801  -0.155251  0.0262931  nan  nan  nan  nan  nan  nan  -2.49999  -0.299993  0.99501  0.00610582  -0.0330626  -0.00021374  0.0004577  0.0004577  0.0004577  0  0  0  0.021125  0.021125  0.021125  0.0279452  -0.00350436  -0.0204302  -0.0161909  0.0184414  -0.00293679  -0.0146627  0.0354161  -0.0333116  0.0207366  -0.0153265  0.00445194 
1704197871.583379000  0  0  11.7153  0.042155  -0.151269  0.0280435  nan  nan  nan  nan  nan  nan  -2.49999  -0.29999  0.99501  0.00457652  -0.0341596  -0.000172303  0.0005717  0.0005717  0.0005717  0  0  0  0.0245  0.0245  0.0245  0.0280586  -0.0037416  -0.0202852  -0.0147564  0.0173747  0.000948652  -0.0127515  0.0361534  -0.0335577  0.0330039  -0.0300734  -0.0149669 
1704197871.588381000  0  0  11.8016  0.0565754  -0.169857  0.0266348  nan  nan  nan  nan  nan  nan  -2.49999  -0.299987  0.99501  0.00595928  -0.0329366  -0.000217345  0.0007031  0.0007031  0.0007031  0  0  0  0.028125  0.028125  0.028125  0.0279833  -0.00363816  -0.0203421  -0.0154058  0.019461  -0.00580328  -0.0140785  0.0352505  -0.0334453  0.0163715  0.01541  0.00151798 
1704197871.593399000  0  0  11.7491  0.0484915  -0.163965  0.0253917  nan  nan  nan  nan  nan  nan  -2.49998  -0.299983  0.99502  0.00402972  -0.0306712  -0.000150878  0.0008533  0.0008533  0.0008533  0  0  0  0.0319374  0.032  0.032  0.0279119  -0.00365733  -0.0203535  -0.0179183  0.0174422  -0.00102583  -0.0120495  0.0332589  -0.0332525  0.0138728  0.021949  0.015128 
1704197871.598384000  0  0  11.7135  0.0126371  -0.139639  0.030485  nan  nan  nan  nan  nan  nan  -2.49998  -0.299978  0.99502  0.00420899  -0.0314033  -0.000166955  0.0010221  0.0010235  0.0010235  0  0  0  0.0355621  0.036125  0.036125  0.0278442  -0.00356768  -0.0203257  -0.016477  0.0179826  0.00230559  -0.0113735  0.0334022  -0.0338883  0.0793619  -0.0280218  -0.0421791 
1704197871.603377000  0  0  11.8115  0.0699436  -0.19646  0.025602  nan  nan  nan  nan  nan  nan  -2.49997  -0.299973  0.99503  0.00529708  -0.0309477  -0.000207608  0.0012085  0.001215  0.001215  0  0  0  0.0389369  0.0405  0.0405  0.0278121  -0.00359486  -0.0204562  -0.0162313  0.0200711  -0.00522921  -0.0131141  0.0340719  -0.0334427  -0.0192374  0.0794596  0.0144025 
1704197871.608376000  0  0  11.7416  0.0575292  -0.175983  0.0256406  nan  nan  nan  nan  nan  nan  -2.49997  -0.299966  0.99503  0.00281223  -0.0287021  -0.000135006  0.0014111  0.001429  0.001429  0  0  0  0.0420616  0.045125  0.045125  0.0277553  -0.00363147  -0.0204387  -0.0188838  0.0174567  0.00101677  -0.0106945  0.032127  -0.033327  -0.0166688  0.0563974  0.0127635 
1704197871.613392000  0  0  11.7432  0.021586  -0.152517  0.0326801  nan  nan  nan  nan  nan  nan  -2.49996  -0.299958  0.99504  0.0033634  -0.0293218  -0.000165307  0.0016287  0.0016667  0.0016667  0  0  0  0.0449364  0.05  0.05  0.0276749  -0.00353388  -0.0204396  -0.0175267  0.0185767  0.0013648  -0.010429  0.0322906  -0.0342633  0.0527747  0.00795984  -0.0658675 
1704197871.618379000  0  0  11.8363  0.0906065  -0.223938  0.0248989  nan  nan  nan  nan  nan  nan  -2.49995  -0.299949  0.99505  0.00220259  -0.0299955  -0.000147058  0.00186  0.0019294  0.0019294  0  0  0  0.0475611  0.055125  0.055125  0.0278005  -0.00398902  -0.0207086  -0.0162807  0.0187459  -0.00540132  -0.0104019  0.034623  -0.0334721  -0.0855153  0.129345  0.0234847 
1704197871.623377000  0  0  11.7911  0.0631252  -0.193099  0.0243692  nan  nan  nan  nan  nan  nan  -2.49994  -0.299939  0.99506  0.000422626  -0.0281845  -0.00010941  0.0021039  0.0022183  0.0022183  0  0  0  0.0499359  0.0605  0.0605  0.0276994  -0.0039162  -0.0206875  -0.0182817  0.0169227  -0.00115631  -0.00865833  0.0330062  -0.0332436  -0.0465938  0.0825409  0.0278211 
1704197871.628361000  0  0  11.8049  0.0472923  -0.179755  0.0297955  nan  nan  nan  nan  nan  nan  -2.49993  -0.299927  0.99507  0.000600392  -0.0280831  -0.000133059  0.002359  0.0025348  0.0025348  0  0  0  0.0520606  0.066125  0.066125  0.0276559  -0.00390683  -0.0207155  -0.0180055  0.0178481  -0.00170878  -0.00858535  0.0329105  -0.0338759  -0.0155993  0.0567331  -0.0336846 
1704197871.633375000  0  0  11.8541  0.0925653  -0.225975  0.025018  nan  nan  nan  nan  nan  nan  -2.49992  -0.299914  0.99509  -0.000948023  -0.0292877  -0.000109639  0.0026241  0.00288  0.00288  0  0  0  0.0539354  0.072  0.072  0.0277749  -0.00430985  -0.0209135  -0.016289  0.0174517  -0.00488297  -0.00807176  0.0353813  -0.0333045  -0.11087  0.126442  0.0203207 
1704197871.638371000  0  0  11.853  0.0750347  -0.213262  0.0254616  nan  nan  nan  nan  nan  nan  -2.4999  -0.299898  0.9951  -0.00225361  -0.0279187  -9.82903e-05  0.0028979  0.0032552  0.0032552  0  0  0  0.0555601  0.078125  0.078125  0.0276749  -0.00423901  -0.020921  -0.0176695  0.0163511  -0.00419042  -0.00701451  0.0345018  -0.0332237  -0.085536  0.109107  0.013967 
1704197871.643372000  0  0  11.8378  0.0693178  -0.195494  0.0280499  nan  nan  nan  nan  nan  nan  -2.49989  -0.299881  0.99512  -0.00243534  -0.0269454  -0.000122087  0.0031792  0.0036617  0.0036617  0  0  0  0.0569349  0.0845  0.0845  0.0276206  -0.00421692  -0.0209358  -0.0187032  0.0168742  -0.00228867  -0.00703806  0.0337179  -0.0334991  -0.0738854  0.0807825  -0.0156326 
1704197871.648371000  0  0  11.8719  0.100218  -0.221065  0.0271098  nan  nan  nan  nan  nan  nan  -2.49987  -0.299862  0.99514  -0.00133467  -0.0282946  -0.000179141  0.0034668  0.0041006  0.0041006  0  0  0  0.0580596  0.091125  0.091125  0.0275461  -0.00411702  -0.0209682  -0.0165095  0.0189331  -0.00448545  -0.00906047  0.0357941  -0.0333995  -0.11708  0.112825  -0.00487738 
1704197871.653389000  0  0  11.9287  0.103497  -0.235463  0.0249175  nan  nan  nan  nan  nan  nan  -2.49985  -0.29984  0.99516  -0.00386256  -0.0271029  -0.000144426  0.0037594  0.0045733  0.0045733  0  0  0  0.0589343  0.098  0.098  0.0276116  -0.00441783  -0.0211398  -0.0179469  0.0171136  -0.00821505  -0.00722033  0.0356866  -0.0330397  -0.140567  0.142609  0.0189287 
1704197871.658383000  0  0  11.8445  0.0780054  -0.18617  0.0289201  nan  nan  nan  nan  nan  nan  -2.49983  -0.299816  0.99518  -0.00487605  -0.0259655  -0.000157704  0.0040558  0.005081  0.005081  0  0  0  0.0595591  0.105125  0.105125  0.0275095  -0.00434184  -0.0210993  -0.0193939  0.0165496  -0.000578794  -0.00637732  0.0342615  -0.0334543  -0.0973394  0.057135  -0.0269587 
1704197871.663369000  0  0  11.9103  0.095604  -0.213632  0.0295924  nan  nan  nan  nan  nan  nan  -2.49981  -0.299789  0.99521  -0.00377973  -0.0276419  -0.000218034  0.0043546  0.005625  0.005625  0  0  0  0.0599338  0.1125  0.1125  0.0274748  -0.00430059  -0.0211629  -0.0168568  0.0188059  -0.00528068  -0.00814364  0.0365074  -0.0336593  -0.116287  0.0913961  -0.0333116 
1704197871.668371000  0  0  11.9433  0.123577  -0.236253  0.0240089  nan  nan  nan  nan  nan  nan  -2.49979  -0.299759  0.99524  -0.00636988  -0.0262608  -0.000196639  0.0046547  0.0062065  0.0062065  0  0  0  0.0600586  0.120125  0.120125  0.0275274  -0.00455344  -0.0212953  -0.0186916  0.0168823  -0.00703721  -0.00678642  0.0363185  -0.0329553  -0.184719  0.138375  0.0294415 
1704197871.673384000  0  0  11.8879  0.0610829  -0.167755  0.029727  nan  nan  nan  nan  nan  nan  -2.49977  -0.299727  0.99527  -0.00777814  -0.0252361  -0.000212327  0.0049548  0.0068267  0.0068267  0  0  0  0.0599333  0.128  0.128  0.0274277  -0.00447929  -0.0212733  -0.0200047  0.0158943  -0.00166286  -0.00498907  0.0345561  -0.0335479  -0.0762663  0.0175931  -0.0361092 
1704197871.678372000  0  0  11.9611  0.0951108  -0.203011  0.0304538  nan  nan  nan  nan  nan  nan  -2.49974  -0.299691  0.99531  -0.00643893  -0.026525  -0.000285725  0.0052536  0.0074869  0.0074869  0  0  0  0.0595581  0.136125  0.136125  0.0273924  -0.00443897  -0.021334  -0.0180524  0.0185487  -0.00691667  -0.00721945  0.0364296  -0.0338097  -0.123803  0.0708691  -0.0425752 
1704197871.683371000  0  0  11.9372  0.121565  -0.212853  0.0239361  nan  nan  nan  nan  nan  nan  -2.49971  -0.299652  0.99535  -0.00889731  -0.0261469  -0.000275083  0.0055499  0.0081883  0.0081883  0  0  0  0.0589328  0.1445  0.144461  0.0274306  -0.0046552  -0.0214102  -0.0187899  0.0168457  -0.00396898  -0.00609662  0.0367632  -0.0329909  -0.187041  0.0874842  0.0307075 
1704197871.688369000  0  0  11.9558  0.0601554  -0.157956  0.0292438  nan  nan  nan  nan  nan  nan  -2.49968  -0.299609  0.99539  -0.0100627  -0.0250865  -0.00030988  0.0058425  0.0089323  0.0089312  0  0  0  0.0580576  0.153125  0.15264  0.0273263  -0.00457813  -0.0214348  -0.0200277  0.0162005  -0.00464036  -0.00454779  0.0350129  -0.0335374  -0.0784712  -0.00620706  -0.030174 
1704197871.693376000  0  0  11.9862  0.101054  -0.190431  0.0273146  nan  nan  nan  nan  nan  nan  -2.49965  -0.299563  0.99544  -0.00940419  -0.0253319  -0.000382093  0.0061301  0.00972  0.0097143  0  0  0  0.0569323  0.162  0.160568  0.0272623  -0.00451977  -0.0214836  -0.0196158  0.0180364  -0.00635308  -0.00633676  0.0358837  -0.0333795  -0.143811  0.0507322  -0.00763748 
1704197871.698374000  0  0  11.964  0.109482  -0.189252  0.0234435  nan  nan  nan  nan  nan  nan  -2.49962  -0.299512  0.99549  -0.0101693  -0.0255371  -0.000421924  0.0064114  0.0105527  0.0105364  0  0  0  0.0555571  0.171125  0.168246  0.0271697  -0.00443331  -0.021487  -0.0193744  0.0180049  -0.00377475  -0.00655031  0.0363141  -0.0327989  -0.158701  0.0444146  0.0349448 
1704197871.703371000  0  0  12.016  0.0784488  -0.172259  0.0255304  nan  nan  nan  nan  nan  nan  -2.49959  -0.299457  0.99554  -0.0119676  -0.0243957  -0.000454458  0.0066853  0.0114317  0.0113963  0  0  0  0.0539318  0.1805  0.175674  0.027182  -0.0045513  -0.0215307  -0.0209887  0.0169949  -0.00726304  -0.0048223  0.0351123  -0.0328836  -0.112532  0.0214859  0.00970549 
1704197871.708371000  0  0  12.0001  0.0864098  -0.175887  0.0253234  nan  nan  nan  nan  nan  nan  -2.49956  -0.299398  0.9956  -0.0127032  -0.0246251  -0.000501696  0.0069503  0.0123581  0.0122928  0  0  0  0.0520566  0.190125  0.182852  0.0271173  -0.00451977  -0.0215511  -0.0208205  0.0171828  -0.00521694  -0.00482107  0.0355282  -0.0327302  -0.128466  0.024915  0.0107594 
1704197871.713379000  0  0  12.0371  0.0859388  -0.186506  0.0252666  nan  nan  nan  nan  nan  nan  -2.49952  -0.299333  0.99567  -0.0125556  -0.025689  -0.000563479  0.0072054  0.0133333  0.0132244  0  0  0  0.0499313  0.2  0.189781  0.0270239  -0.00442575  -0.0216036  -0.0193573  0.0183674  -0.00755839  -0.00554414  0.0367743  -0.0326088  -0.120871  0.0346889  0.010255 
1704197871.718380000  0  0  12.0712  0.0892617  -0.195743  0.0233085  nan  nan  nan  nan  nan  nan  -2.49948  -0.299264  0.99573  -0.0154436  -0.0240703  -0.000589075  0.0074492  0.0143585  0.0141901  0  0  0  0.0475561  0.210125  0.196459  0.0270401  -0.00462906  -0.0217387  -0.0217742  0.0161807  -0.00943732  -0.00340673  0.0358227  -0.0321612  -0.147181  0.0619184  0.0302551 
1704197871.723378000  0  0  12.0519  0.0452444  -0.161725  0.0296359  nan  nan  nan  nan  nan  nan  -2.49945  -0.29919  0.99581  -0.0164909  -0.0244994  -0.000634986  0.0076806  0.015435  0.0151886  0  0  0  0.0449308  0.2205  0.202887  0.0269466  -0.00455074  -0.0217642  -0.0213787  0.0159503  -0.00712806  -0.00220945  0.0357838  -0.0328011  -0.070162  -0.00576098  -0.0424376 
1704197871.728378000  0  0  12.0943  0.0763935  -0.209582  0.0291596  nan  nan  nan  nan  nan  nan  -2.49941  -0.29911  0.99589  -0.0155977  -0.0263746  -0.000709032  0.0078981  0.016564  0.0162186  0  0  0  0.0420556  0.231125  0.209065  0.0269  -0.00451164  -0.0218159  -0.0190005  0.0183271  -0.0100417  -0.00400388  0.03837  -0.0328961  -0.115951  0.0661605  -0.0355347 
1704197871.733372000  0  0  12.0925  0.0845624  -0.217892  0.02479  nan  nan  nan  nan  nan  nan  -2.49937  -0.299024  0.99597  -0.0194477  -0.0249419  -0.000719927  0.0081007  0.0177467  0.0172788  0  0  0  0.0389303  0.242  0.214994  0.0269133  -0.00473537  -0.0219322  -0.0213643  0.0150319  -0.00902539  -0.00114969  0.0377553  -0.0322909  -0.158548  0.088434  0.0130336 
1704197871.738370000  0  0  12.1171  0.0207779  -0.161587  0.03186  nan  nan  nan  nan  nan  nan  -2.49933  -0.298932  0.99606  -0.0202872  -0.0251594  -0.000782369  0.008287  0.0189844  0.0183681  0  0  0  0.0355551  0.253125  0.220672  0.0268118  -0.00465844  -0.0219892  -0.0212093  0.0150856  -0.0103695  0.000280689  0.037142  -0.0330966  -0.044138  -0.0185333  -0.0672847 
1704197871.743377000  0  0  12.1127  0.0837413  -0.227672  0.0275935  nan  nan  nan  nan  nan  nan  -2.49928  -0.298834  0.99615  -0.0197779  -0.0272007  -0.000845623  0.0084558  0.0202783  0.0194851  0  0  0  0.0319298  0.2645  0.2261  0.0267565  -0.00462847  -0.0220144  -0.0188072  0.0171491  -0.00951231  -0.00174236  0.0402503  -0.0327746  -0.151453  0.0850416  -0.0171733 
1704197871.748376000  0  0  12.1347  0.0881997  -0.229261  0.0230626  nan  nan  nan  nan  nan  nan  -2.49924  -0.298729  0.99625  -0.0220834  -0.0258603  -0.000906188  0.0086059  0.0216298  0.0206287  0  0  0  0.0281174  0.276125  0.231278  0.0266432  -0.00456145  -0.0220701  -0.020787  0.0153154  -0.0106993  -0.000505796  0.0395996  -0.0320933  -0.171746  0.0942045  0.0326506 
1704197871.753384000  0  0  12.1642  0.0392137  -0.189148  0.0296414  nan  nan  nan  nan  nan  nan  -2.4992  -0.298618  0.99636  -0.0239445  -0.0259259  -0.000953166  0.0087374  0.02304  0.0217975  0  0  0  0.0244929  0.288  0.236207  0.0266596  -0.00471588  -0.0222149  -0.0211152  0.0145736  -0.0123253  0.00159449  0.0392417  -0.0327161  -0.0930968  0.0172727  -0.0433573 
1704197871.758378000  0  0  12.1092  0.0863129  -0.236838  0.02584  nan  nan  nan  nan  nan  nan  -2.49915  -0.298499  0.99647  -0.0246283  -0.0285039  -0.00097135  0.0088513  0.0245102  0.0229903  0  0  0  0.0211184  0.300125  0.240885  0.0266111  -0.00470795  -0.0222103  -0.0181214  0.0153105  -0.00736211  0.000729147  0.0426345  -0.0322993  -0.179334  0.0814375  -7.11972e-06 
1704197871.763369000  0  0  12.1734  0.0833284  -0.241697  0.023962  nan  nan  nan  nan  nan  nan  -2.49911  -0.298372  0.99659  -0.0255071  -0.027512  -0.00107368  0.008949  0.0260417  0.0242059  0  0  0  0.017994  0.3125  0.245313  0.0265077  -0.00463383  -0.0222979  -0.0194327  0.0153475  -0.0120952  0.000751855  0.0422505  -0.0319036  -0.173574  0.0946886  0.0195112 
1704197871.768370000  0  0  12.1535  0.0612143  -0.204463  0.0261407  nan  nan  nan  nan  nan  nan  -2.49907  -0.298238  0.99671  -0.0285737  -0.0269784  -0.00110911  0.0090316  0.0276356  0.0254431  0  0  0  0.0151195  0.325125  0.249491  0.0265595  -0.00484509  -0.0223851  -0.0207036  0.0133314  -0.0097582  0.00331338  0.0415066  -0.0319547  -0.152912  0.0270644  -0.00721238 
1704197871.773378000  0  0  12.1038  0.0724611  -0.225635  0.027097  nan  nan  nan  nan  nan  nan  -2.49902  -0.298096  0.99684  -0.0289853  -0.0300843  -0.00111498  0.0091006  0.0292933  0.0267004  0  0  0  0.012495  0.338  0.253419  0.0264859  -0.00476784  -0.0223938  -0.0168398  0.0143858  -0.00526868  0.00268662  0.0448348  -0.0320224  -0.169639  0.0387892  -0.0184881 
1704197871.778372000  0  0  12.1741  0.107677  -0.255897  0.0237159  nan  nan  nan  nan  nan  nan  -2.49897  -0.297945  0.99698  -0.0295265  -0.0286627  -0.00124986  0.009157  0.031016  0.0279768  0  0  0  0.0101205  0.351125  0.257098  0.0264054  -0.00476543  -0.0224657  -0.0186582  0.015083  -0.0106294  0.00169234  0.0443587  -0.0315319  -0.230923  0.103694  0.0188701 
1704197871.783368000  0  0  12.1149  0.0804856  -0.193841  0.0265608  nan  nan  nan  nan  nan  nan  -2.49893  -0.297786  0.99712  -0.0323923  -0.0275768  -0.00131423  0.0092022  0.032805  0.029271  0  0  0  0.007996  0.3645  0.260526  0.0263421  -0.00478777  -0.0224449  -0.0204508  0.0131656  -0.00528689  0.00376909  0.0425996  -0.0316917  -0.195647  -0.00423369  -0.0150935 
1704197871.788376000  0  0  12.1129  0.0817455  -0.210416  0.031075  nan  nan  nan  nan  nan  nan  -2.49888  -0.297617  0.99727  -0.0321553  -0.0307946  -0.00133051  0.0092374  0.0346615  0.0305817  0  0  0  0.0061215  0.378125  0.263704  0.0262737  -0.00470249  -0.0224747  -0.0162064  0.0150176  -0.00480378  0.00264706  0.0457152  -0.0323115  -0.187844  0.000251296  -0.0653228 
1704197871.793379000  0  0  12.1563  0.146666  -0.258866  0.0234039  nan  nan  nan  nan  nan  nan  -2.49884  -0.297439  0.99743  -0.0336201  -0.0290444  -0.00145919  0.0092638  0.0365867  0.0319076  0  0  0  0.004497  0.391986  0.266632  0.0262213  -0.00479189  -0.0225932  -0.018523  0.014838  -0.00787342  0.00181248  0.0452594  -0.0314216  -0.310007  0.101345  0.0216667 
1704197871.798378000  0  0  12.1023  0.0778624  -0.165522  0.0284596  nan  nan  nan  nan  nan  nan  -2.49879  -0.297251  0.99759  -0.0360308  -0.0280719  -0.00154074  0.0092828  0.0385811  0.0332476  0  0  0  0.0031225  0.40574  0.269311  0.0261099  -0.00473075  -0.0225839  -0.0199469  0.0134083  -0.00298734  0.00398473  0.0429126  -0.0318802  -0.192384  -0.0637512  -0.0369438 
1704197871.803377000  0  0  12.1318  0.10075  -0.197357  0.0305793  nan  nan  nan  nan  nan  nan  -2.49874  -0.297053  0.99776  -0.0364416  -0.0311578  -0.00153464  0.0092955  0.0406436  0.0346003  0  0  0  0.001998  0.419245  0.271739  0.0261414  -0.00481264  -0.0226455  -0.0159041  0.0146174  -0.00511434  0.00306809  0.0459971  -0.0322595  -0.229727  -0.0284583  -0.0596465 
1704197871.808376000  0  0  12.1521  0.152708  -0.22991  0.0220375  nan  nan  nan  nan  nan  nan  -2.4987  -0.296844  0.99794  -0.038312  -0.0298648  -0.00164503  0.0093032  0.0427731  0.0359646  0  0  0  0.0011235  0.4325  0.273917  0.0260851  -0.00490657  -0.0227405  -0.0175788  0.0138972  -0.00634714  0.00262725  0.0455226  -0.0311885  -0.329587  0.0410125  0.0364157 
1704197871.813377000  0  0  12.1562  0.0705368  -0.139147  0.0286698  nan  nan  nan  nan  nan  nan  -2.49865  -0.296625  0.99812  -0.0400513  -0.0288571  -0.00175368  0.0093071  0.0449682  0.0373391  0  0  0  0.000499  0.445505  0.275845  0.025981  -0.00484272  -0.0227667  -0.0187909  0.013041  -0.00629423  0.00445541  0.042862  -0.0318165  -0.182063  -0.116036  -0.0402078 
1704197871.818370000  0  0  12.1517  0.11053  -0.18601  0.026616  nan  nan  nan  nan  nan  nan  -2.4986  -0.296395  0.99831  -0.0411369  -0.0307275  -0.00176655  0.0093086  0.0472277  0.0387226  0  0  0  0.0001245  0.45826  0.277524  0.0259508  -0.00485679  -0.0227752  -0.0162626  0.0132335  -0.00573149  0.00380303  0.04497  -0.0316515  -0.256048  -0.0417037  -0.0161857 
1704197871.823843000  0  0  12.1689  0.103135  -0.197654  0.0221021  nan  nan  nan  nan  nan  nan  -2.49856  -0.296153  0.99851  -0.0436329  -0.0307239  -0.00181189  0.0093088  0.0495504  0.0401139  0  0  0  0  0.470764  0.278952  0.0260123  -0.00515428  -0.0227457  -0.0163739  0.0120235  -0.0069901  0.00488736  0.0449787  -0.0309184  -0.251235  -0.018495  0.0329072 
1704197871.828377000  0  0  12.1838  0.0557042  -0.15631  0.0262204  nan  nan  nan  nan  nan  nan  -2.49851  -0.295899  0.99871  -0.0456754  -0.0291351  -0.00194431  0.0093088  0.051935  0.0415117  0  0  0  0  0.483019  0.28013  0.0259105  -0.00513354  -0.0227975  -0.0182676  0.010698  -0.00787348  0.00678034  0.0425899  -0.0312334  -0.173788  -0.0792061  -0.0154218 
1704197871.833375000  0  0  12.1489  0.0552142  -0.185671  0.0258932  nan  nan  nan  nan  nan  nan  -2.49846  -0.295633  0.99892  -0.0485059  -0.0314484  -0.00187272  0.0093088  0.0543802  0.0429148  0  0  0  0  0.495024  0.281058  0.025952  -0.00537113  -0.0227744  -0.0153551  0.00909492  -0.00483292  0.00848698  0.0448403  -0.0311598  -0.188509  -0.0411884  -0.0120666 
1704197871.838371000  0  0  12.2086  0.0598731  -0.2108  0.0244737  nan  nan  nan  nan  nan  nan  -2.49842  -0.295355  0.99914  -0.0483643  -0.0312853  -0.00200878  0.0093088  0.0568848  0.0443219  0  0  0  0  0.506779  0.281736  0.0258786  -0.0053125  -0.0228466  -0.0152137  0.0103194  -0.00959954  0.0074422  0.045037  -0.0308973  -0.188214  0.00725965  0.00305137 
1704197871.843370000  0  0  12.18  0.0401703  -0.193641  0.0238626  nan  nan  nan  nan  nan  nan  -2.49837  -0.295064  0.99937  -0.0521248  -0.0300584  -0.00207893  0.0093088  0.0594476  0.0457317  0  0  0  0  0.518283  0.282165  0.0258801  -0.00555305  -0.0228488  -0.0169997  0.00738143  -0.00698187  0.0103728  0.0435588  -0.0306622  -0.175771  -0.0134599  0.0083401 
1704197871.848367000  0  0  12.1694  0.00561816  -0.188512  0.0299591  nan  nan  nan  nan  nan  nan  -2.49832  -0.294761  0.9996  -0.0533259  -0.0319999  -0.00206355  0.0093088  0.0620672  0.0471431  0  0  0  0  0.529538  0.282343  0.0258168  -0.00551406  -0.0228727  -0.0142729  0.00714936  -0.00598524  0.0113326  0.0451203  -0.031353  -0.115496  -0.0380832  -0.0609593 
1704197871.853389000  0  0  12.2446  0.0555488  -0.237023  0.0252608  nan  nan  nan  nan  nan  nan  -2.49828  -0.294444  0.99984  -0.0539768  -0.0319484  -0.00217015  0.0093088  0.0647425  0.0485547  0  0  0  0  0.540543  0.282271  0.0258347  -0.00569817  -0.0229365  -0.0141266  0.00761609  -0.0121083  0.0103028  0.0457974  -0.0308744  -0.205883  0.0527104  -0.00701635 
1704197871.858370000  0  0  12.1953  0.0297574  -0.203992  0.0247036  nan  nan  nan  nan  nan  nan  -2.49823  -0.294113  1.00009  -0.0569422  -0.0305496  -0.00227963  0.0093088  0.0674722  0.0499654  0  0  0  0  0.551298  0.281949  0.0257632  -0.0057398  -0.0229487  -0.0160618  0.00535492  -0.00784106  0.0125583  0.0441488  -0.0306596  -0.175051  0.00181509  -0.00219864 
1704197871.863370000  0  0  12.2065  0.00134907  -0.202894  0.0311055  nan  nan  nan  nan  nan  nan  -2.49818  -0.293769  1.00034  -0.0576873  -0.0319351  -0.00230162  0.0093088  0.0702551  0.0513738  0  0  0  0  0.561803  0.281378  0.0256986  -0.0057062  -0.0229934  -0.0140067  0.00552148  -0.00870429  0.0130424  0.045321  -0.0314811  -0.122688  -0.0111661  -0.0740087 
1704197871.868369000  0  0  12.2522  0.0703018  -0.252377  0.0243383  nan  nan  nan  nan  nan  nan  -2.49814  -0.29341  1.0006  -0.0585776  -0.0316428  -0.00241523  0.0093088  0.0730898  0.0527788  0  0  0  0  0.572057  0.280556  0.0256848  -0.00588415  -0.0230819  -0.0142255  0.00570696  -0.0123747  0.0118106  0.0459687  -0.0307468  -0.249261  0.0818418  0.00323846 
1704197871.873378000  0  0  12.2006  0.0378877  -0.209575  0.025685  nan  nan  nan  nan  nan  nan  -2.49809  -0.293038  1.00087  -0.0605132  -0.0312245  -0.00250411  0.0093088  0.0759752  0.054179  0  0  0  0  0.582062  0.279484  0.0256023  -0.00586196  -0.0230991  -0.0148089  0.00464014  -0.00801319  0.0130782  0.0450932  -0.0307574  -0.196095  0.00429252  -0.0134884 
1704197871.878378000  0  0  12.2247  0.0420301  -0.223116  0.0286862  nan  nan  nan  nan  nan  nan  -2.49805  -0.292651  1.00114  -0.0617609  -0.0317559  -0.00255726  0.0093088  0.07891  0.0555732  0  0  0  0  0.591817  0.278162  0.0255665  -0.00589674  -0.0231534  -0.0139359  0.00409153  -0.00997152  0.0132442  0.0458274  -0.0311365  -0.205907  0.024619  -0.0472129 
1704197871.883371000  0  0  12.2552  0.0844435  -0.238022  0.0251619  nan  nan  nan  nan  nan  nan  -2.498  -0.292249  1.00142  -0.0617382  -0.031975  -0.00266945  0.0093088  0.081893  0.0569602  0  0  0  0  0.601322  0.276591  0.0255156  -0.00592889  -0.0232216  -0.0134266  0.00518252  -0.0125244  0.0113569  0.0464497  -0.030717  -0.27337  0.0487072  -0.00735354 
1704197871.888371000  0  0  12.2179  0.0835236  -0.232394  0.0266363  nan  nan  nan  nan  nan  nan  -2.49795  -0.291832  1.00171  -0.0627867  -0.0317855  -0.0027727  0.0093088  0.0849228  0.0583387  0  0  0  0  0.610577  0.274769  0.0254415  -0.0059035  -0.0232514  -0.0136664  0.00513072  -0.00945991  0.0110944  0.0463905  -0.0308044  -0.269115  0.0379952  -0.0249102 
1704197871.893374000  0  0  12.1971  0.0932945  -0.225049  0.0279846  nan  nan  nan  nan  nan  nan  -2.49791  -0.291399  1.00201  -0.064567  -0.0316419  -0.00285018  0.0093088  0.0879983  0.0597074  0  0  0  0  0.619581  0.272697  0.0254025  -0.00595612  -0.0232921  -0.0138654  0.00412131  -0.00772956  0.0112544  0.0463134  -0.0309588  -0.29013  0.0240149  -0.0402192 
1704197871.898850000  0  0  12.2581  0.107789  -0.220173  0.0284034  nan  nan  nan  nan  nan  nan  -2.49786  -0.290952  1.00231  -0.0635731  -0.0326976  -0.00293968  0.0093088  0.0911182  0.0610652  0  0  0  0  0.628336  0.270375  0.0253659  -0.00594941  -0.02337  -0.0121357  0.00612089  -0.0129113  0.00861111  0.0471676  -0.0310689  -0.294801  0.00640353  -0.0443537 
1704197871.903386000  0  0  12.2453  0.14305  -0.242178  0.0239092  nan  nan  nan  nan  nan  nan  -2.49781  -0.290488  1.00262  -0.0650281  -0.0317907  -0.00307595  0.0093088  0.0942813  0.0624108  0  0  0  0  0.636841  0.267804  0.0252888  -0.00597257  -0.0234424  -0.0132655  0.0053627  -0.0118563  0.00799484  0.0468982  -0.0304904  -0.359652  0.0528931  0.00603937 
1704197871.908528000  0  0  12.2007  0.0902177  -0.184212  0.0292603  nan  nan  nan  nan  nan  nan  -2.49777  -0.290009  1.00293  -0.0674224  -0.031746  -0.00312753  0.0093088  0.0974862  0.0637428  0  0  0  0  0.645096  0.264982  0.0252722  -0.00609682  -0.0235316  -0.0134685  0.00376708  -0.0080321  0.00953221  0.0459569  -0.0309759  -0.268132  -0.05438  -0.0559947 
1704197871.913330000  0  0  12.2939  0.112163  -0.20717  0.028336  nan  nan  nan  nan  nan  nan  -2.49772  -0.289513  1.00325  -0.066281  -0.0324323  -0.00324348  0.0093088  0.100732  0.0650602  0  0  0  0  0.653101  0.26191  0.0252141  -0.0060802  -0.0236554  -0.0120788  0.00559318  -0.0158942  0.00690942  0.0467339  -0.0310085  -0.287893  -0.0156119  -0.0441149 
1704197871.918381000  0  0  12.2536  0.156547  -0.236057  0.0222764  nan  nan  nan  nan  nan  nan  -2.49767  -0.289001  1.00358  -0.0688192  -0.0315887  -0.00334392  0.0093088  0.104017  0.0663615  0  0  0  0  0.660855  0.258588  0.0251554  -0.00620264  -0.0237878  -0.0132674  0.00369389  -0.012428  0.00697162  0.0466281  -0.0302006  -0.377234  0.0431352  0.0235506 
1704197871.923325000  0  0  12.2152  0.0735538  -0.172241  0.0283497  nan  nan  nan  nan  nan  nan  -2.49763  -0.288473  1.00392  -0.0711412  -0.0313005  -0.00341575  0.0093088  0.10734  0.0676456  0  0  0  0  0.66836  0.255016  0.0251405  -0.00629452  -0.0238303  -0.0137847  0.00199916  -0.00928195  0.00914691  0.0451971  -0.030797  -0.231259  -0.0713318  -0.0464005 
1704197871.928319000  0  0  12.291  0.114984  -0.204224  0.0268016  nan  nan  nan  nan  nan  nan  -2.49758  -0.287928  1.00426  -0.0697251  -0.0319144  -0.00354253  0.0093088  0.1107  0.0689113  0  0  0  0  0.675615  0.251195  0.0250812  -0.0062608  -0.0239424  -0.0125556  0.00416548  -0.0158122  0.00602148  0.0460189  -0.0307145  -0.285365  -0.0149268  -0.0278749 
1704197871.933375000  0  0  12.2253  0.117006  -0.212053  0.0231985  nan  nan  nan  nan  nan  nan  -2.49753  -0.287366  1.00461  -0.0713317  -0.031973  -0.00361183  0.0093088  0.114096  0.0701572  0  0  0  0  0.68262  0.247123  0.0250132  -0.00624122  -0.0239648  -0.0125749  0.00333652  -0.0105799  0.00601691  0.046283  -0.0301682  -0.289368  -0.00169711  0.0117015 
1704197871.938467000  0  0  12.2507  0.0638129  -0.179505  0.0288276  nan  nan  nan  nan  nan  nan  -2.49749  -0.286787  1.00496  -0.0728334  -0.0309647  -0.0037621  0.0093088  0.117526  0.0713821  0  0  0  0  0.689374  0.242801  0.0249812  -0.00632102  -0.0240356  -0.0138139  0.00213292  -0.0128082  0.00723294  0.0446152  -0.0307651  -0.194169  -0.0514488  -0.0526933 
1704197871.943318000  0  0  12.258  0.0917985  -0.194678  0.0261395  nan  nan  nan  nan  nan  nan  -2.49744  -0.286191  1.00532  -0.073145  -0.0318302  -0.00381411  0.0093088  0.120989  0.0725848  0  0  0  0  0.695879  0.238229  0.024956  -0.00641393  -0.0241342  -0.0125633  0.00267158  -0.0136235  0.00610064  0.0454744  -0.0305157  -0.239723  -0.0290089  -0.0215871 
1704197871.948319000  0  0  12.2197  0.0888248  -0.209331  0.0244219  nan  nan  nan  nan  nan  nan  -2.49739  -0.285577  1.00569  -0.0740794  -0.0323483  -0.00387079  0.0093088  0.124484  0.073764  0  0  0  0  0.702134  0.233408  0.0248961  -0.00640228  -0.0241768  -0.0118745  0.00247582  -0.010752  0.00588605  0.0461492  -0.0302366  -0.231801  -0.00591116  -0.00290863 
1704197871.953331000  0  0  12.2684  0.0583683  -0.189786  0.0257217  nan  nan  nan  nan  nan  nan  -2.49735  -0.284946  1.00606  -0.0758278  -0.0301931  -0.00410258  0.0093088  0.12801  0.0749184  0  0  0  0  0.708139  0.228336  0.0248375  -0.00649477  -0.0243017  -0.0145452  0.000673959  -0.0148588  0.00713598  0.0437968  -0.0302912  -0.182388  -0.023358  -0.0186088 
1704197871.958369000  0  0  12.2238  0.0477607  -0.183452  0.0273751  nan  nan  nan  nan  nan  nan  -2.4973  -0.284297  1.00644  -0.0763678  -0.0321044  -0.00406501  0.0093088  0.131565  0.0760469  0  0  0  0  0.713894  0.223014  0.0248175  -0.00662293  -0.0243968  -0.0120568  0.0013171  -0.0114212  0.00701973  0.0452229  -0.0304821  -0.160103  -0.0491473  -0.0373673 
1704197871.963318000  0  0  12.2506  0.0862007  -0.237721  0.0241711  nan  nan  nan  nan  nan  nan  -2.49725  -0.28363  1.00682  -0.0766185  -0.032531  -0.00414928  0.0093088  0.135148  0.0771481  0  0  0  0  0.719398  0.217442  0.0247573  -0.00662255  -0.0244808  -0.0112583  0.00143426  -0.014022  0.00573363  0.046528  -0.030112  -0.225151  0.0473849  -0.00101937 
1704197871.968319000  0  0  12.2484  0.045666  -0.194618  0.0254448  nan  nan  nan  nan  nan  nan  -2.49721  -0.282945  1.00721  -0.0791265  -0.0303164  -0.00436772  0.0093088  0.138759  0.0782209  0  0  0  0  0.724653  0.211621  0.0247261  -0.00677513  -0.0245385  -0.0142537  -0.000933197  -0.014036  0.00791193  0.0438715  -0.0301338  -0.164122  -0.0143824  -0.0167217 
1704197871.973331000  0  0  12.2221  0.0391597  -0.19423  0.0309116  nan  nan  nan  nan  nan  nan  -2.49716  -0.282242  1.0076  -0.0783345  -0.0326515  -0.00433368  0.0093088  0.142395  0.0792639  0  0  0  0  0.729658  0.205549  0.0246811  -0.00675684  -0.0245881  -0.0110636  0.000944495  -0.0123956  0.00658825  0.0457617  -0.0308569  -0.138931  -0.0325481  -0.0778262 
1704197871.978323000  0  0  12.2303  0.109786  -0.262333  0.0234751  nan  nan  nan  nan  nan  nan  -2.49711  -0.281521  1.008  -0.0790311  -0.0330304  -0.00440581  0.0093088  0.146055  0.080276  0  0  0  0  0.734413  0.199227  0.0246636  -0.00687628  -0.0246769  -0.0104932  0.000783821  -0.0134946  0.00511669  0.0474421  -0.0301006  -0.266645  0.0881976  0.00756646 
1704197871.983318000  0  0  12.2243  0.0543079  -0.200764  0.0256399  nan  nan  nan  nan  nan  nan  -2.49707  -0.280782  1.0084  -0.0810479  -0.0312895  -0.0046052  0.0093088  0.149738  0.0812558  0  0  0  0  0.738918  0.192655  0.0246413  -0.00700912  -0.0247389  -0.012869  -0.0010177  -0.0132831  0.00689525  0.0450171  -0.0301701  -0.172052  -0.0126285  -0.0187974 
1704197871.988316000  0  0  12.2129  0.0702412  -0.208985  0.0291441  nan  nan  nan  nan  nan  nan  -2.49702  -0.280024  1.00881  -0.0801266  -0.0330935  -0.00461443  0.0093088  0.153444  0.0822021  0  0  0  0  0.743172  0.185833  0.0245973  -0.00699432  -0.0248048  -0.0103582  0.000820613  -0.0129251  0.0049739  0.0466231  -0.0306505  -0.186242  -0.0109625  -0.0577967 
1704197871.993324000  0  0  12.1789  0.126866  -0.254887  0.0218638  nan  nan  nan  nan  nan  nan  -2.49697  -0.279247  1.00923  -0.0810737  -0.0339383  -0.00463928  0.0093088  0.15717  0.0831137  0  0  0  0  0.747177  0.178762  0.0245863  -0.00712126  -0.0248607  -0.0093258  0.000620677  -0.0106213  0.00378856  0.0483632  -0.0297949  -0.288586  0.0648321  0.0246512 
1704197871.999024000  0  0  12.2256  0.0653743  -0.204702  0.0268181  nan  nan  nan  nan  nan  nan  -2.49693  -0.278452  1.00964  -0.0816677  -0.0323979  -0.00487011  0.0093088  0.160915  0.0839893  0  0  0  0  0.750932  0.17144  0.0245653  -0.00716333  -0.0249465  -0.0112282  -2.57677e-05  -0.0149223  0.00422912  0.0462107  -0.0301608  -0.169656  -0.0157348  -0.0336182 
1704197872.003317000  0  0  12.1813  0.0915083  -0.222691  0.0262255  nan  nan  nan  nan  nan  nan  -2.49688  -0.277638  1.01006  -0.0820391  -0.0335011  -0.00489234  0.0093088  0.164679  0.0848277  0  0  0  0  0.754437  0.163868  0.0245201  -0.00726991  -0.0250357  -0.00979945  0.000541899  -0.0117667  0.00335144  0.0474868  -0.0301046  -0.21385  0.00850282  -0.0267728 
1704197872.008362000  0  0  12.1384  0.100533  -0.24382  0.0233708  nan  nan  nan  nan  nan  nan  -2.49683  -0.276805  1.01049  -0.0850388  -0.0356799  -0.00473054  0.0093088  0.168459  0.0856276  0  0  0  0  0.757692  0.156046  0.024656  -0.00786045  -0.0250623  -0.00733623  -0.00139825  -0.00868485  0.00513977  0.0498349  -0.029726  -0.248351  0.0291585  0.00512477 
1704197872.013368000  0  0  12.1883  0.0863184  -0.22866  0.0245213  nan  nan  nan  nan  nan  nan  -2.49679  -0.275953  1.01092  -0.0851048  -0.0334732  -0.00504142  0.0093088  0.172255  0.0863877  0  0  0  0  0.760696  0.147975  0.0245961  -0.00787241  -0.0251559  -0.0100291  -0.0015395  -0.0133635  0.00446751  0.0476608  -0.0297119  -0.213738  0.0188397  -0.00939809 
1704197872.018364000  0  0  12.1198  0.0741507  -0.21236  0.0276045  nan  nan  nan  nan  nan  nan  -2.49674  -0.275083  1.01135  -0.0861808  -0.0346423  -0.00502919  0.0093088  0.176065  0.0871069  0  0  0  0  0.763451  0.139661  0.0245885  -0.00800133  -0.0252063  -0.00870185  -0.00171205  -0.00826482  0.00468147  0.0484335  -0.0300252  -0.191371  -0.0208681  -0.0448035 
1704197872.023310000  0  0  12.1228  0.101547  -0.236631  0.0265462  nan  nan  nan  nan  nan  nan  -2.4967  -0.274193  1.01179  -0.0851737  -0.0361971  -0.00505666  0.0093088  0.179889  0.0877845  0  0  0  0  0.765956  0.13143  0.024567  -0.00800778  -0.0252715  -0.00654339  -7.6178e-05  -0.009268  0.00233306  0.0501715  -0.0299721  -0.224558  0.0116852  -0.0321063 
1704197872.028369000  0  0  12.1653  0.110758  -0.226442  0.0228084  nan  nan  nan  nan  nan  nan  -2.49665  -0.273284  1.01223  -0.0860284  -0.0335466  -0.00537905  0.0093088  0.183725  0.0884216  0  0  0  0  0.768211  0.123448  0.0245073  -0.00812285  -0.0254104  -0.00986637  -0.00107257  -0.0131667  0.00199517  0.047676  -0.0294657  -0.239871  0.0142648  0.0095528 
1704197872.033376000  0  0  12.0851  0.0515445  -0.186908  0.0283764  nan  nan  nan  nan  nan  nan  -2.4966  -0.272356  1.01268  -0.0878789  -0.035523  -0.00526748  0.0093088  0.187571  0.0890194  0  0  0  0  0.770215  0.115717  0.0245868  -0.00838159  -0.025422  -0.00769703  -0.00196828  -0.00703373  0.00384501  0.0485714  -0.0300794  -0.138463  -0.0730409  -0.0539116 
1704197872.038373000  0  0  12.1253  0.110292  -0.237371  0.0250584  nan  nan  nan  nan  nan  nan  -2.49656  -0.271408  1.01312  -0.0863707  -0.0365182  -0.00536034  0.0093088  0.191426  0.0895792  0  0  0  0  0.77197  0.108235  0.0245629  -0.00837766  -0.0254966  -0.006142  -0.0001407  -0.0110931  0.000651472  0.0500801  -0.0297977  -0.226577  0.0140055  -0.0152528 
1704197872.043327000  0  0  12.1098  0.104033  -0.209814  0.0212509  nan  nan  nan  nan  nan  nan  -2.49651  -0.270441  1.01357  -0.0884764  -0.0347967  -0.00556049  0.0093088  0.19529  0.0901022  0  0  0  0  0.773475  0.101004  0.0245878  -0.00868383  -0.0255373  -0.00862075  -0.00193059  -0.0101783  0.00179888  0.048017  -0.029207  -0.224615  -0.0221284  0.0264334 
1704197872.048368000  0  0  12.0817  0.0493676  -0.174661  0.0282548  nan  nan  nan  nan  nan  nan  -2.49646  -0.269455  1.01402  -0.0887074  -0.0355932  -0.00560669  0.0093088  0.199161  0.0905897  0  0  0  0  0.77473  0.0940222  0.0245497  -0.008684  -0.0255672  -0.00758556  -0.0018113  -0.0083947  0.0021218  0.0478039  -0.0299313  -0.118256  -0.0904744  -0.0538718 
1704197872.053384000  0  0  12.1168  0.109316  -0.220899  0.0235095  nan  nan  nan  nan  nan  nan  -2.49642  -0.26845  1.01448  -0.0877867  -0.0362958  -0.00570292  0.0093088  0.203037  0.0910428  0  0  0  0  0.775735  0.0872908  0.0245536  -0.00879321  -0.025696  -0.00651338  -0.000567601  -0.0117881  -0.000517734  0.0489381  -0.0294032  -0.213869  -0.00843205  0.000163107 
1704197872.058387000  0  0  12.1142  0.0897644  -0.197326  0.0233843  nan  nan  nan  nan  nan  nan  -2.49637  -0.267425  1.01493  -0.0883978  -0.0352821  -0.00589534  0.0093088  0.206918  0.091463  0  0  0  0  0.776489  0.0808093  0.0245252  -0.00893274  -0.0257928  -0.00785404  -0.000949614  -0.0118967  -0.000507836  0.0475199  -0.0292068  -0.174857  -0.0425312  -0.000235524 
1704197872.063388000  0  0  12.0894  0.069563  -0.186626  0.0268419  nan  nan  nan  nan  nan  nan  -2.49632  -0.26638  1.01539  -0.0888701  -0.0350308  -0.00602604  0.0093088  0.210801  0.0918513  0  0  0  0  0.776994  0.0745778  0.0244792  -0.00894351  -0.0258376  -0.00820639  -0.00125071  -0.0102742  -0.000396184  0.0468332  -0.0295712  -0.135481  -0.0576141  -0.039812 
1704197872.068382000  0  0  12.1154  0.0929978  -0.206309  0.0250929  nan  nan  nan  nan  nan  nan  -2.49628  -0.265317  1.01585  -0.0886567  -0.0362024  -0.0060545  0.0093088  0.214687  0.0922092  0  0  0  0  0.777249  0.0685964  0.0244444  -0.00917036  -0.0260993  -0.00645576  -0.000703347  -0.0124968  -0.00152987  0.0481454  -0.0293563  -0.171921  -0.0303193  -0.0200981 
1704197872.073348000  0  0  12.1461  0.102253  -0.215403  0.0239149  nan  nan  nan  nan  nan  nan  -2.49623  -0.264234  1.01631  -0.0878456  -0.0353392  -0.00628506  0.0093088  0.218574  0.0925377  0  0  0  0  0.777254  0.0628649  0.0243964  -0.00917904  -0.0261872  -0.00740802  0.000105608  -0.0154746  -0.00318801  0.047386  -0.0291517  -0.175176  -0.00514383  -0.00741956 
1704197872.078395000  0  0  12.0826  0.0753809  -0.194831  0.0256936  nan  nan  nan  nan  nan  nan  -2.49618  -0.263131  1.01678  -0.0901628  -0.0344396  -0.00640881  0.0093088  0.222459  0.0928382  0  0  0  0  0.777009  0.0573834  0.0243437  -0.00941819  -0.0263797  -0.00878552  -0.00186661  -0.0100946  -0.00112006  0.046321  -0.029276  -0.140457  -0.0364906  -0.028409 
1704197872.083394000  0  0  12.1278  0.0684405  -0.200938  0.0285368  nan  nan  nan  nan  nan  nan  -2.49614  -0.262009  1.01724  -0.0890974  -0.0361585  -0.00641744  0.0093088  0.226343  0.093112  0  0  0  0  0.776513  0.052152  0.0242975  -0.00956264  -0.0266486  -0.00618923  -0.00065468  -0.0138919  -0.0023892  0.04782  -0.0296791  -0.1149  -0.0380684  -0.0599193 
1704197872.088526000  0  0  12.1621  0.119151  -0.237035  0.0219927  nan  nan  nan  nan  nan  nan  -2.49609  -0.260868  1.01771  -0.0885603  -0.0345079  -0.00670847  0.0093088  0.230224  0.0933602  0  0  0  0  0.775768  0.0471705  0.0242382  -0.00953904  -0.0267415  -0.00817461  -0.000412907  -0.017091  -0.00447112  0.0469075  -0.0289628  -0.197167  0.0425209  0.0147194 
1704197872.093564000  0  0  12.0959  0.0413076  -0.172592  0.0284994  nan  nan  nan  nan  nan  nan  -2.49604  -0.259707  1.01818  -0.0917517  -0.0345723  -0.00671654  0.0093088  0.2341  0.0935841  0  0  0  0  0.774773  0.0424391  0.0241856  -0.00998921  -0.0270832  -0.00826509  -0.00315789  -0.0109977  -0.000526499  0.0462099  -0.0295325  -0.0777713  -0.0799466  -0.0609178 
1704197872.098393000  0  0  12.155  0.056452  -0.206273  0.0308925  nan  nan  nan  nan  nan  nan  -2.496  -0.258527  1.01864  -0.0895576  -0.0359043  -0.00679858  0.0093088  0.237971  0.093785  0  0  0  0  0.773528  0.0379576  0.0241667  -0.0100249  -0.027201  -0.00618597  -0.000910701  -0.0163104  -0.00316865  0.0476109  -0.0300119  -0.0837524  -0.0254751  -0.086037 
1704197872.103530000  0  0  12.1589  0.116078  -0.246032  0.022767  nan  nan  nan  nan  nan  nan  -2.49595  -0.257327  1.01911  -0.090118  -0.0348664  -0.00699702  0.0093088  0.241835  0.0939641  0  0  0  0  0.772033  0.0337261  0.0241183  -0.010154  -0.0273755  -0.00749187  -0.0016073  -0.0166643  -0.00417879  0.0476349  -0.0291403  -0.193712  0.0538227  0.00681508 
1704197872.108398000  0  0  12.1031  0.0514471  -0.186485  0.0284718  nan  nan  nan  nan  nan  nan  -2.4959  -0.256108  1.01958  -0.0907952  -0.0344614  -0.00713507  0.0093088  0.245691  0.0941227  0  0  0  0  0.770287  0.0297447  0.0240705  -0.0102001  -0.0274295  -0.00816908  -0.00206799  -0.0121791  -0.00311649  0.0462719  -0.0297252  -0.0742226  -0.0527311  -0.058645 
1704197872.113399000  0  0  12.158  0.0784716  -0.221584  0.0288225  nan  nan  nan  nan  nan  nan  -2.49586  -0.25487  1.02006  -0.0892986  -0.0354645  -0.0072223  0.0093088  0.249538  0.094262  0  0  0  0  0.768292  0.0260132  0.0240698  -0.0103355  -0.0276482  -0.00659809  -0.000582881  -0.0168169  -0.00516424  0.0476669  -0.0299355  -0.109432  0.00463335  -0.0609262 
1704197872.118395000  0  0  12.1307  0.110842  -0.248558  0.023091  nan  nan  nan  nan  nan  nan  -2.49581  -0.253613  1.02053  -0.09007  -0.0359015  -0.00728039  0.0093088  0.253374  0.0943832  0  0  0  0  0.766047  0.0225317  0.0240937  -0.0106099  -0.0276593  -0.00618507  -0.00103591  -0.0148219  -0.00544816  0.048744  -0.0292954  -0.17156  0.0486701  0.00431671 
1704197872.123402000  0  0  12.1011  0.0673003  -0.2123  0.0273841  nan  nan  nan  nan  nan  nan  -2.49576  -0.252336  1.021  -0.0903456  -0.0350825  -0.00746956  0.0093088  0.257198  0.0944877  0  0  0  0  0.763552  0.0193003  0.0240476  -0.0106224  -0.0277121  -0.00732529  -0.00139004  -0.0125039  -0.00503312  0.0474364  -0.0297272  -0.0882958  -0.0118152  -0.0450289 
1704197872.128396000  0  0  12.0993  0.0868687  -0.229527  0.0268554  nan  nan  nan  nan  nan  nan  -2.49572  -0.251041  1.02147  -0.0893703  -0.0356346  -0.00757961  0.0093088  0.261009  0.0945766  0  0  0  0  0.760807  0.0163188  0.0240451  -0.0107437  -0.0278523  -0.0065841  -0.000159573  -0.0124618  -0.00656735  0.0483  -0.0297071  -0.113318  0.0146936  -0.0386216 
1704197872.133397000  0  0  12.0824  0.109343  -0.244676  0.0242434  nan  nan  nan  nan  nan  nan  -2.49567  -0.249726  1.02194  -0.0879355  -0.036515  -0.00767866  0.0093088  0.264805  0.0946513  0  0  0  0  0.757811  0.0135873  0.0240192  -0.0107361  -0.0279076  -0.0054017  0.00151107  -0.0113692  -0.00888547  0.0494276  -0.0293832  -0.13694  0.0346175  -0.00920975 
1704197872.138343000  0  0  12.088  0.0985593  -0.231015  0.0250158  nan  nan  nan  nan  nan  nan  -2.49562  -0.248393  1.02242  -0.0890112  -0.035092  -0.007891  0.0093088  0.268587  0.0947129  0  0  0  0  0.754566  0.0111059  0.0239974  -0.0109383  -0.0280225  -0.00728015  6.63873e-05  -0.0117165  -0.00807578  0.048124  -0.0294046  -0.122821  0.0192899  -0.0186518 
1704197872.143530000  0  0  12.0571  0.0866615  -0.208028  0.0292254  nan  nan  nan  nan  nan  nan  -2.49558  -0.247041  1.02289  -0.0874131  -0.0363491  -0.00796241  0.0093088  0.272351  0.0947628  0  0  0  0  0.751071  0.0088744  0.0240129  -0.0109652  -0.0280567  -0.00573665  0.00210251  -0.00943332  -0.00986549  0.048743  -0.0298891  -0.0825605  -0.0323785  -0.0664259 
1704197872.149049000  0  0  12.0696  0.131794  -0.241722  0.0254716  nan  nan  nan  nan  nan  nan  -2.49553  -0.245669  1.02337  -0.0860343  -0.0365447  -0.00812113  0.0093088  0.276097  0.0948021  0  0  0  0  0.747326  0.0068929  0.0239957  -0.0109626  -0.0281211  -0.00538205  0.00332708  -0.0107056  -0.0122264  0.0494741  -0.0296265  -0.151105  0.0282822  -0.0221291 
1704197872.153397000  0  0  12.0479  0.116037  -0.21148  0.0251267  nan  nan  nan  nan  nan  nan  -2.49549  -0.24428  1.02384  -0.0868885  -0.034908  -0.00835717  0.0093088  0.279824  0.0948321  0  0  0  0  0.74333  0.0051615  0.0239513  -0.0111418  -0.0282108  -0.00759894  0.00230503  -0.00876386  -0.0117251  0.0475332  -0.029543  -0.124204  -0.014345  -0.0186533 
1704197872.158532000  0  0  12.0286  0.0903385  -0.186127  0.0301882  nan  nan  nan  nan  nan  nan  -2.49544  -0.242871  1.02431  -0.0858902  -0.0365441  -0.00837648  0.0093088  0.28353  0.0948541  0  0  0  0  0.739085  0.00368  0.0240336  -0.011325  -0.0280804  -0.0056602  0.00366804  -0.0076389  -0.0123776  0.0482489  -0.0302034  -0.0668032  -0.0716371  -0.0753191 
1704197872.163535000  0  0  12.0232  0.154843  -0.225482  0.0226123  nan  nan  nan  nan  nan  nan  -2.49539  -0.241444  1.02479  -0.08442  -0.0365906  -0.00855166  0.0093088  0.287214  0.0948693  0  0  0  0  0.73459  0.0024485  0.0240011  -0.0113024  -0.0281276  -0.00554151  0.00504205  -0.00740354  -0.0152753  0.0487196  -0.0294797  -0.169153  0.00274384  0.0121429 
1704197872.168394000  0  0  12.0088  0.119508  -0.183736  0.023603  nan  nan  nan  nan  nan  nan  -2.49535  -0.239999  1.02526  -0.0853146  -0.0355693  -0.00873109  0.0093088  0.290875  0.094879  0  0  0  0  0.729845  0.0014671  0.0239732  -0.01148  -0.0282076  -0.0069342  0.00379442  -0.00599707  -0.0143223  0.0470908  -0.0294319  -0.10725  -0.0657639  -0.000718391 
1704197872.173329000  0  0  12.0486  0.101987  -0.167397  0.0277839  nan  nan  nan  nan  nan  nan  -2.4953  -0.238536  1.02574  -0.0833246  -0.0352654  -0.00895273  0.0093088  0.294512  0.0948844  0  0  0  0  0.72485  0.0007356  0.0239357  -0.0114684  -0.0282848  -0.00709761  0.0054097  -0.00937365  -0.0161594  0.046025  -0.0298946  -0.0553071  -0.088635  -0.048352 
1704197872.178394000  0  0  12.0081  0.138045  -0.191179  0.0226698  nan  nan  nan  nan  nan  nan  -2.49525  -0.237054  1.02621  -0.0827809  -0.0366552  -0.00898179  0.0093088  0.298123  0.0948868  0  0  0  0  0.719604  0.0002541  0.0239092  -0.0116524  -0.0284814  -0.00533463  0.00622506  -0.00573537  -0.0173428  0.0476965  -0.0292063  -0.116536  -0.0564508  0.00869029 
1704197872.183531000  0  0  12.0601  0.0985422  -0.169659  0.0241944  nan  nan  nan  nan  nan  nan  -2.49521  -0.235554  1.02669  -0.0822397  -0.0353862  -0.00923139  0.0093088  0.301708  0.0948874  0  0  0  0  0.714109  2.27e-05  0.0238724  -0.0116993  -0.0286177  -0.00676418  0.0058886  -0.00980483  -0.0174202  0.0458874  -0.0291743  -0.0368183  -0.0828468  -0.0106869 
1704197872.188395000  0  0  12.0743  0.0993591  -0.165118  0.0250024  nan  nan  nan  nan  nan  nan  -2.49516  -0.234037  1.02716  -0.0812218  -0.0345407  -0.00946142  0.0093088  0.305264  0.0948874  0  0  0  0  0.708364  0  0.0238281  -0.0117127  -0.0286791  -0.00775316  0.00642726  -0.0109284  -0.0184904  0.0446181  -0.0292056  -0.0286068  -0.0802504  -0.0204736 
1704197872.193399000  0  0  12.0177  0.0967812  -0.174553  0.0253927  nan  nan  nan  nan  nan  nan  -2.49511  -0.232502  1.02764  -0.080065  -0.0366472  -0.00945772  0.0093088  0.308791  0.0948874  0  0  0  0  0.702369  0  0.0238108  -0.0118019  -0.0287648  -0.00509731  0.00788268  -0.0061633  -0.0195133  0.0463845  -0.0291566  -0.0140401  -0.0776309  -0.0258434 
1704197872.198347000  0  0  12.0769  0.113485  -0.203265  0.0231804  nan  nan  nan  nan  nan  nan  -2.49507  -0.230949  1.02811  -0.0782436  -0.0357286  -0.00972185  0.0093088  0.312287  0.0948874  0  0  0  0  0.696124  0  0.0237793  -0.0117788  -0.0288465  -0.0060183  0.00894715  -0.0111106  -0.0215171  0.0457394  -0.0288772  -0.0290137  -0.014272  -0.000983112 
1704197872.203531000  0  0  12.0566  0.0686967  -0.161541  0.0267467  nan  nan  nan  nan  nan  nan  -2.49502  -0.229379  1.02858  -0.0784614  -0.0348061  -0.00991161  0.0093088  0.315752  0.0948874  0  0  0  0  0.689628  0  0.0237451  -0.0118288  -0.0289349  -0.00728185  0.00813458  -0.0091562  -0.0205033  0.0440764  -0.0291112  0.0512372  -0.082422  -0.0432215 
1704197872.208391000  0  0  12.0408  0.0649486  -0.174859  0.0299416  nan  nan  nan  nan  nan  nan  -2.49497  -0.227792  1.02906  -0.0767444  -0.0372054  -0.00991234  0.0093089  0.319183  0.0948874  0  0  0  0.0001052  0.682883  0  0.023764  -0.0119642  -0.0289755  -0.00413378  0.00996803  -0.00791695  -0.0215936  0.0460952  -0.0295997  0.0687638  -0.0743582  -0.0782728 
1704197872.213385000  0  0  12.0734  0.122301  -0.233079  0.0218422  nan  nan  nan  nan  nan  nan  -2.49493  -0.226187  1.02953  -0.074899  -0.0363  -0.0101743  0.0093103  0.32258  0.0948874  0  0  0  0.0004596  0.675888  0  0.0237348  -0.0119143  -0.0290404  -0.00509619  0.0111559  -0.0107276  -0.0241258  0.0461487  -0.0287963  -0.022645  0.0415897  0.0149354 
1704197872.218393000  0  0  12.0563  0.0599802  -0.173527  0.0247486  nan  nan  nan  nan  nan  nan  -2.49488  -0.224566  1.03001  -0.0754158  -0.0349556  -0.010382  0.0093139  0.325942  0.0948874  0  0  0  0.001064  0.668643  0  0.0237212  -0.011964  -0.0290327  -0.00689053  0.009823  -0.00918594  -0.02243  0.0439046  -0.0289616  0.0863959  -0.0568684  -0.0197411 
1704197872.223350000  0  0  12.0574  0.0683875  -0.189422  0.0284319  nan  nan  nan  nan  nan  nan  -2.49483  -0.222928  1.03048  -0.0722186  -0.0369634  -0.0104742  0.0093213  0.329266  0.0948874  0  0  0  0.0019184  0.661148  0  0.0237091  -0.0119043  -0.0290803  -0.0040134  0.0129613  -0.00948493  -0.0250578  0.0455487  -0.0294553  0.0937565  -0.0402037  -0.0608459 
1704197872.228375000  0  0  12.0575  0.126394  -0.244949  0.0204625  nan  nan  nan  nan  nan  nan  -2.49479  -0.221273  1.03096  -0.0718309  -0.0369277  -0.0106162  0.0093335  0.332553  0.0948874  0  0  0  0.0030228  0.653402  0  0.0237397  -0.0120908  -0.0290971  -0.00399226  0.0128984  -0.00955923  -0.025938  0.0466131  -0.0285727  -0.0141573  0.0610578  0.029946 
1704197872.233565000  0  0  12.0541  0.0373052  -0.17516  0.0276235  nan  nan  nan  nan  nan  nan  -2.49474  -0.219602  1.03143  -0.0723404  -0.0357509  -0.0108076  0.0093519  0.3358  0.0948874  0  0  0  0.0043771  0.645407  0  0.0237545  -0.0121846  -0.0291071  -0.00547558  0.0114627  -0.00909772  -0.0234904  0.0444728  -0.0292423  0.141501  -0.0588289  -0.0528709 
1704197872.238395000  0  0  12.04  0.0626855  -0.193593  0.0268492  nan  nan  nan  nan  nan  nan  -2.49469  -0.217915  1.03191  -0.0699774  -0.0368479  -0.0109407  0.0093777  0.339006  0.0948874  0  0  0  0.0059815  0.637162  0  0.0237393  -0.0121727  -0.0291642  -0.00379409  0.0136307  -0.00803006  -0.0255116  0.0454586  -0.0292568  0.109335  -0.0310338  -0.0430465 
1704197872.243531000  0  0  12.0586  0.0892029  -0.226097  0.0227484  nan  nan  nan  nan  nan  nan  -2.49465  -0.216212  1.03238  -0.0691071  -0.0369017  -0.0110942  0.0094122  0.342171  0.0948874  0  0  0  0.0078359  0.628667  0  0.0237406  -0.0122915  -0.0292026  -0.00341152  0.013824  -0.00960765  -0.0261423  0.046127  -0.0288042  0.0621031  0.0278249  0.00368735 
1704197872.248400000  0  0  12.0502  0.0623951  -0.195139  0.0251208  nan  nan  nan  nan  nan  nan  -2.4946  -0.214494  1.03285  -0.0683283  -0.0350537  -0.0113744  0.0094565  0.345292  0.0948874  0  0  0  0.0099403  0.619921  0  0.0236987  -0.0122772  -0.0292491  -0.00557194  0.0138143  -0.00882646  -0.0259784  0.0439109  -0.0289879  0.114211  -0.0137029  -0.0241307 
1704197872.253396000  0  0  11.991  0.0577346  -0.191419  0.0267887  nan  nan  nan  nan  nan  nan  -2.49455  -0.21276  1.03333  -0.0672622  -0.0363669  -0.0114486  0.009512  0.34837  0.0948874  0  0  0  0.0122947  0.610926  0  0.0237099  -0.0123591  -0.0292876  -0.00376161  0.014699  -0.00389684  -0.0261137  0.0449333  -0.0292487  0.124777  -0.0305483  -0.0423715 
1704197872.258487000  0  0  12.0549  0.0965123  -0.233872  0.0233249  nan  nan  nan  nan  nan  nan  -2.4945  -0.21101  1.0338  -0.0652808  -0.0367932  -0.0116181  0.0095799  0.351401  0.0948874  0  0  0  0.014899  0.601681  0  0.0237154  -0.0124681  -0.0293642  -0.00259486  0.015917  -0.00926429  -0.0278985  0.0459888  -0.0289103  0.0636413  0.0446459  -0.00245741 
1704197872.263531000  0  0  12.0086  0.0825741  -0.196439  0.0241863  nan  nan  nan  nan  nan  nan  -2.49446  -0.209246  1.03428  -0.0646671  -0.0345745  -0.0119094  0.0096614  0.354386  0.0948874  0  0  0  0.0177534  0.592186  0  0.0236816  -0.0123853  -0.0293757  -0.00531843  0.0157168  -0.00539063  -0.0278866  0.043461  -0.0289026  0.0914085  -0.00696338  -0.0133019 
