    ts      x      y      z   roll  pitch    yaw     vx     vy     vz     wx     wy     wz     ax     ay     az    dwx    dwy    dwz
 0.0050000  -2.5000000  -0.3000000   1.0000000   0.0000000   0.0000000  -0.0100000   0.0000002   0.0000002   0.0000002   0.0000000   0.0000000   0.0000000   0.0001250   0.0001250   0.0001250   0.0000000   0.0000000   0.0000000
 0.0100000  -2.5000000  -0.3000000   1.0000000   0.0000000   0.0000000  -0.0100000   0.0000017   0.0000017   0.0000017   0.0000000   0.0000000   0.0000000   0.0005000   0.0005000   0.0005000   0.0000000   0.0000000   0.0000000
 0.0150000  -2.5000000  -0.3000000   1.0000000   0.0000000   0.0000000  -0.0100000   0.0000056   0.0000056   0.0000056   0.0000000   0.0000000   0.0000000   0.0011250   0.0011250   0.0011250   0.0000000   0.0000000   0.0000000
 0.0200000  -2.5000000  -0.3000000   1.0000000   0.0000000   0.0000000  -0.0100001   0.0000133   0.0000133   0.0000133   0.0000000   0.0000000   0.0000000   0.0020000   0.0020000   0.0020000   0.0000000   0.0000000   0.0000000
 0.0250000  -2.5000000  -0.3000000   1.0000000   0.0000000   0.0000000  -0.0100003   0.0000260   0.0000260   0.0000260   0.0000000   0.0000000   0.0000000   0.0031250   0.0031250   0.0031250   0.0000000   0.0000000   0.0000000
 0.0300000  -2.5000000  -0.3000000   1.0000000   0.0000000   0.0000000  -0.0100005   0.0000450   0.0000450   0.0000450   0.0000000   0.0000000   0.0000000   0.0045000   0.0045000   0.0045000   0.0000000   0.0000000   0.0000000
 0.0350000  -2.5000000  -0.2999990   1.0000000   0.0000000   0.0000000  -0.0100010   0.0000715   0.0000715   0.0000715   0.0000000   0.0000000   0.0000000   0.0061250   0.0061250   0.0061250   0.0000000   0.0000000   0.0000000
 0.0400000  -2.5000000  -0.2999990   1.0000000   0.0000000   0.0000000  -0.0100017   0.0001067   0.0001067   0.0001067   0.0000000   0.0000000   0.0000000   0.0080000   0.0080000   0.0080000   0.0000000   0.0000000   0.0000000
 0.0450000  -2.5000000  -0.2999980   1.0000000   0.0000000   0.0000000  -0.0100027   0.0001519   0.0001519   0.0001519   0.0000000   0.0000000   0.0000000   0.0101250   0.0101250   0.0101250   0.0000000   0.0000000   0.0000000
 0.0500000  -2.5000000  -0.2999970   1.0000000   0.0000000   0.0000000  -0.0100042   0.0002083   0.0002083   0.0002083   0.0000000   0.0000000   0.0000000   0.0125000   0.0125000   0.0125000   0.0000000   0.0000000   0.0000000
 0.0550000  -2.5000000  -0.2999960   1.0000000   0.0000000   0.0000000  -0.0100061   0.0002773   0.0002773   0.0002773   0.0000000   0.0000000   0.0000000   0.0151250   0.0151250   0.0151250   0.0000000   0.0000000   0.0000000
 0.0600000  -2.4999900  -0.2999950   1.0000100   0.0000000   0.0000000  -0.0100086   0.0003600   0.0003600   0.0003600   0.0000000   0.0000000   0.0000000   0.0180000   0.0180000   0.0180000   0.0000000   0.0000000   0.0000000
 0.0650000  -2.4999900  -0.2999930   1.0000100   0.0000000   0.0000000  -0.0100119   0.0004577   0.0004577   0.0004577   0.0000000   0.0000000   0.0000000   0.0211250   0.0211250   0.0211250   0.0000000   0.0000000   0.0000000
 0.0700000  -2.4999900  -0.2999900   1.0000100   0.0000000   0.0000000  -0.0100160   0.0005717   0.0005717   0.0005717   0.0000000   0.0000000   0.0000000   0.0245000   0.0245000   0.0245000   0.0000000   0.0000000   0.0000000
 0.0750000  -2.4999900  -0.2999870   1.0000100   0.0000000   0.0000000  -0.0100211   0.0007031   0.0007031   0.0007031   0.0000000   0.0000000   0.0000000   0.0281250   0.0281250   0.0281250   0.0000000   0.0000000   0.0000000
 0.0800000  -2.4999800  -0.2999830   1.0000200   0.0000000   0.0000000  -0.0100273   0.0008533   0.0008533   0.0008533   0.0000000   0.0000000   0.0000000   0.0320000   0.0320000   0.0320000   0.0000000   0.0000000   0.0000000
 0.0850000  -2.4999800  -0.2999780   1.0000200   0.0000000   0.0000000  -0.0100348   0.0010235   0.0010235   0.0010235   0.0000000   0.0000000   0.0000000   0.0361250   0.0361250   0.0361250   0.0000000   0.0000000   0.0000000
 0.0900000  -2.4999700  -0.2999730   1.0000300   0.0000000   0.0000000  -0.0100437   0.0012150   0.0012150   0.0012150   0.0000000   0.0000000   0.0000000   0.0405000   0.0405000   0.0405000   0.0000000   0.0000000   0.0000000
 0.0950000  -2.4999700  -0.2999660   1.0000300   0.0000000   0.0000000  -0.0100543   0.0014290   0.0014290   0.0014290   0.0000000   0.0000000   0.0000000   0.0451250   0.0451250   0.0451250   0.0000000   0.0000000   0.0000000
 0.1000000  -2.4999600  -0.2999580   1.0000400   0.0000000   0.0000000  -0.0100667   0.0016667   0.0016667   0.0016667   0.0000000   0.0000000   0.0000000   0.0500000   0.0500000   0.0500000   0.0000000   0.0000000   0.0000000
 0.1050000  -2.4999500  -0.2999490   1.0000500   0.0000000   0.0000000  -0.0100810   0.0019294   0.0019294   0.0019294   0.0000000   0.0000000   0.0000000   0.0551250   0.0551250   0.0551250   0.0000000   0.0000000   0.0000000
 0.1100000  -2.4999400  -0.2999390   1.0000600   0.0000000   0.0000000  -0.0100976   0.0022183   0.0022183   0.0022183   0.0000000   0.0000000   0.0000000   0.0605000   0.0605000   0.0605000   0.0000000   0.0000000   0.0000000
 0.1150000  -2.4999300  -0.2999270   1.0000700   0.0000000   0.0000000  -0.0101166   0.0025348   0.0025348   0.0025348   0.0000000   0.0000000   0.0000000   0.0661250   0.0661250   0.0661250   0.0000000   0.0000000   0.0000000
 0.1200000  -2.4999100  -0.2999140   1.0000900   0.0000000   0.0000000  -0.0101382   0.0028800   0.0028800   0.0028800   0.0000000   0.0000000   0.0000000   0.0720000   0.0720000   0.0720000   0.0000000   0.0000000   0.0000000
 0.1250000  -2.4999000  -0.2998980   1.0001000   0.0000000   0.0000000  -0.0101628   0.0032552   0.0032552   0.0032550   0.0000000   0.0000000   0.0000000   0.0781250   0.0781250   0.0779792   0.0000000   0.0000000   0.0000000
 0.1300000  -2.4998800  -0.2998810   1.0001200   0.0000000   0.0000000  -0.0101904   0.0036617   0.0036617   0.0036594   0.0000000   0.0000000   0.0000000   0.0845000   0.0845000   0.0837224   0.0000000   0.0000000   0.0000000
 0.1350000  -2.4998600  -0.2998620   1.0001400   0.0000000   0.0000000  -0.0102214   0.0041006   0.0041006   0.0040918   0.0000000   0.0000000   0.0000000   0.0911250   0.0911250   0.0892156   0.0000000   0.0000000   0.0000000
 0.1400000  -2.4998400  -0.2998400   1.0001600   0.0000000   0.0000000  -0.0102560   0.0045733   0.0045733   0.0045511   0.0000000   0.0000000   0.0000000   0.0980000   0.0980000   0.0944588   0.0000000   0.0000000   0.0000000
 0.1450000  -2.4998200  -0.2998160   1.0001800   0.0000000   0.0000000  -0.0102945   0.0050810   0.0050810   0.0050360   0.0000000   0.0000000   0.0000000   0.1051250   0.1051250   0.0994520   0.0000000   0.0000000   0.0000000
 0.1500000  -2.4997900  -0.2997890   1.0002100   0.0000000   0.0000000  -0.0103370   0.0056250   0.0056250   0.0055452   0.0000000   0.0000000   0.0000000   0.1125000   0.1125000   0.1041950   0.0000000   0.0000000   0.0000000
 0.1550000  -2.4997600  -0.2997590   1.0002400   0.0000000   0.0000000  -0.0103837   0.0062065   0.0062065   0.0060775   0.0000000   0.0000000   0.0000000   0.1201250   0.1201250   0.1086880   0.0000000   0.0000000   0.0000000
 0.1600000  -2.4997300  -0.2997270   1.0002700   0.0000000   0.0000000  -0.0104349   0.0068267   0.0068267   0.0066317   0.0000000   0.0000000   0.0000000   0.1280000   0.1280000   0.1129320   0.0000000   0.0000000   0.0000000
 0.1650000  -2.4996900  -0.2996910   1.0003100   0.0000000   0.0000000  -0.0104907   0.0074869   0.0074869   0.0072064   0.0000000   0.0000000   0.0000000   0.1361250   0.1361250   0.1169250   0.0000000   0.0000000   0.0000000
 0.1700000  -2.4996500  -0.2996520   1.0003400   0.0000000   0.0000000  -0.0105513   0.0081883   0.0081883   0.0078005   0.0000000   0.0000000   0.0000000   0.1445000   0.1445000   0.1206680   0.0000000   0.0000000   0.0000000
 0.1750000  -2.4996100  -0.2996090   1.0003800   0.0000000   0.0000000  -0.0106169   0.0089323   0.0089323   0.0084127   0.0000000   0.0000000   0.0000000   0.1531250   0.1531250   0.1241610   0.0000000   0.0000000   0.0000000
 0.1800000  -2.4995600  -0.2995630   1.0004300   0.0000000   0.0000000  -0.0106876   0.0097200   0.0097200   0.0090417   0.0000000   0.0000000   0.0000000   0.1620000   0.1620000   0.1274040   0.0000000   0.0000000   0.0000000
 0.1850000  -2.4995100  -0.2995120   1.0004700   0.0000000   0.0000000  -0.0107636   0.0105527   0.0105527   0.0096863   0.0000000   0.0000000   0.0000000   0.1711250   0.1711250   0.1303980   0.0000000   0.0000000   0.0000000
 0.1900000  -2.4994600  -0.2994570   1.0005200   0.0000000   0.0000000  -0.0108450   0.0114317   0.0114317   0.0103453   0.0000000   0.0000000   0.0000000   0.1805000   0.1805000   0.1331410   0.0000000   0.0000000   0.0000000
 0.1950000  -2.4994000  -0.2993980   1.0005800   0.0000000   0.0000000  -0.0109319   0.0123581   0.0123581   0.0110173   0.0000000   0.0000000   0.0000000   0.1901250   0.1901250   0.1356340   0.0000000   0.0000000   0.0000000
 0.2000000  -2.4993300  -0.2993330   1.0006300   0.0000000   0.0000000  -0.0110245   0.0133333   0.0133333   0.0117012   0.0000000   0.0000000   0.0000000   0.2000000   0.2000000   0.1378770   0.0000000   0.0000000   0.0000000
 0.2050000  -2.4992600  -0.2992640   1.0006900   0.0000000   0.0000000  -0.0111228   0.0143585   0.0143585   0.0123957   0.0000000   0.0000000   0.0000000   0.2101250   0.2101250   0.1398700   0.0000000   0.0000000   0.0000000
 0.2100000  -2.4991900  -0.2991900   1.0007600   0.0000000   0.0000000  -0.0112269   0.0154350   0.0154350   0.0130995   0.0000000   0.0000000   0.0000000   0.2205000   0.2205000   0.1416130   0.0000000   0.0000000   0.0000000
 0.2150000  -2.4991100  -0.2991100   1.0008300   0.0000000   0.0000000  -0.0113370   0.0165640   0.0165640   0.0138114   0.0000000   0.0000000   0.0000000   0.2311250   0.2311250   0.1431070   0.0000000   0.0000000   0.0000000
 0.2200000  -2.4990200  -0.2990240   1.0009000   0.0000000   0.0000000  -0.0114531   0.0177467   0.0177467   0.0145301   0.0000000   0.0000000   0.0000000   0.2420000   0.2420000   0.1443500   0.0000000   0.0000000   0.0000000
 0.2250000  -2.4989300  -0.2989320   1.0009700   0.0000000   0.0000000  -0.0115753   0.0189844   0.0189844   0.0152545   0.0000000   0.0000000   0.0000000   0.2531250   0.2531250   0.1453430   0.0000000   0.0000000   0.0000000
 0.2300000  -2.4988300  -0.2988340   1.0010500   0.0000000   0.0000000  -0.0117035   0.0202783   0.0202783   0.0159831   0.0000000   0.0000000   0.0000000   0.2645000   0.2645000   0.1460860   0.0000000   0.0000000   0.0000000
 0.2350000  -2.4987300  -0.2987290   1.0011300   0.0000000   0.0000000  -0.0118380   0.0216298   0.0216298   0.0167149   0.0000000   0.0000000   0.0000000   0.2761250   0.2761250   0.1465790   0.0000000   0.0000000   0.0000000
 0.2400000  -2.4986200  -0.2986180   1.0012200   0.0000000   0.0000000  -0.0119786   0.0230400   0.0230400   0.0174485   0.0000000   0.0000000   0.0000000   0.2880000   0.2880000   0.1468230   0.0000000   0.0000000   0.0000000
 0.2450000  -2.4985000  -0.2984990   1.0013100   0.0000000   0.0000000  -0.0121255   0.0245102   0.0245102   0.0181827   0.0000000   0.0000000   0.0000000   0.3001250   0.3001250   0.1468160   0.0000000   0.0000000   0.0000000
 0.2500000  -2.4983700  -0.2983720   1.0014000   0.0000000   0.0000000  -0.0122787   0.0260417   0.0260417   0.0189163   0.0000000   0.0000000   0.0000000   0.3125000   0.3125000   0.1465590   0.0000000   0.0000000   0.0000000
 0.2550000  -2.4982400  -0.2982380   1.0014900   0.0000000   0.0000000  -0.0124380   0.0276356   0.0276356   0.0196479   0.0000000   0.0000000   0.0000000   0.3251250   0.3251250   0.1460520   0.0000000   0.0000000   0.0000000
 0.2600000  -2.4981000  -0.2980960   1.0015900   0.0000000   0.0000000  -0.0126037   0.0292933   0.0292933   0.0203764   0.0000000   0.0000000   0.0000000   0.3380000   0.3380000   0.1452950   0.0000000   0.0000000   0.0000000
 0.2650000  -2.4979500  -0.2979450   1.0017000   0.0000000   0.0000000  -0.0127755   0.0310160   0.0310160   0.0211004   0.0000000   0.0000000   0.0000000   0.3511250   0.3511250   0.1442890   0.0000000   0.0000000   0.0000000
 0.2700000  -2.4977900  -0.2977860   1.0018100   0.0000000   0.0000000  -0.0129537   0.0328050   0.0328050   0.0218188   0.0000000   0.0000000   0.0000000   0.3645000   0.3645000   0.1430320   0.0000000   0.0000000   0.0000000
 0.2750000  -2.4976200  -0.2976170   1.0019200   0.0000000   0.0000000  -0.0131380   0.0346615   0.0346615   0.0225303   0.0000000   0.0000000   0.0000000   0.3781250   0.3781250   0.1415250   0.0000000   0.0000000   0.0000000
 0.2800000  -2.4974400  -0.2974390   1.0020300   0.0000000   0.0000000  -0.0133287   0.0365867   0.0365867   0.0232337   0.0000000   0.0000000   0.0000000   0.3920000   0.3920000   0.1397680   0.0000000   0.0000000   0.0000000
 0.2850000  -2.4972500  -0.2972510   1.0021500   0.0000000   0.0000000  -0.0135255   0.0385819   0.0385819   0.0239276   0.0000000   0.0000000   0.0000000   0.4061250   0.4061250   0.1377610   0.0000000   0.0000000   0.0000000
 0.2900000  -2.4970500  -0.2970530   1.0022700   0.0000000   0.0000000  -0.0137287   0.0406483   0.0406483   0.0246109   0.0000000   0.0000000   0.0000000   0.4205000   0.4205000   0.1355050   0.0000000   0.0000000   0.0000000
 0.2950000  -2.4968400  -0.2968440   1.0023900   0.0000000   0.0000000  -0.0139380   0.0427873   0.0427873   0.0252822   0.0000000   0.0000000   0.0000000   0.4351250   0.4351250   0.1329980   0.0000000   0.0000000   0.0000000
 0.3000000  -2.4966200  -0.2966250   1.0025200   0.0000000   0.0000000  -0.0141537   0.0450000   0.0450000   0.0259404   0.0000000   0.0000000   0.0000000   0.4500000   0.4500000   0.1302410   0.0000000   0.0000000   0.0000000
 0.3050000  -2.4963900  -0.2963940   1.0026500   0.0000000   0.0000000  -0.0143755   0.0472877   0.0472877   0.0265842   0.0000000   0.0000000   0.0000000   0.4651250   0.4651250   0.1272340   0.0000000   0.0000000   0.0000000
 0.3100000  -2.4961500  -0.2961520   1.0027900   0.0000000   0.0000000  -0.0146036   0.0496517   0.0496517   0.0272124   0.0000000   0.0000000   0.0000000   0.4805000   0.4805000   0.1239770   0.0000000   0.0000000   0.0000000
 0.3150000  -2.4959000  -0.2958980   1.0029300   0.0000000   0.0000000  -0.0148380   0.0520931   0.0520931   0.0278236   0.0000000   0.0000000   0.0000000   0.4961250   0.4961250   0.1204710   0.0000000   0.0000000   0.0000000
 0.3200000  -2.4956300  -0.2956310   1.0030700   0.0000000   0.0000000  -0.0150786   0.0546133   0.0546133   0.0284166   0.0000000   0.0000000   0.0000000   0.5120000   0.5120000   0.1167140   0.0000000   0.0000000   0.0000000
 0.3250000  -2.4953500  -0.2953510   1.0032100   0.0000000   0.0000000  -0.0153255   0.0572135   0.0572135   0.0289903   0.0000000   0.0000000   0.0000000   0.5281250   0.5281250   0.1127070   0.0000000   0.0000000   0.0000000
 0.3300000  -2.4950600  -0.2950590   1.0033600   0.0000000   0.0000000  -0.0155786   0.0598950   0.0598950   0.0295433   0.0000000   0.0000000   0.0000000   0.5445000   0.5445000   0.1084500   0.0000000   0.0000000   0.0000000
 0.3350000  -2.4947500  -0.2947520   1.0035100   0.0000000   0.0000000  -0.0158380   0.0626590   0.0626590   0.0300744   0.0000000   0.0000000   0.0000000   0.5611250   0.5611250   0.1039430   0.0000000   0.0000000   0.0000000
 0.3400000  -2.4944300  -0.2944320   1.0036600   0.0000000   0.0000000  -0.0161037   0.0655067   0.0655067   0.0305823   0.0000000   0.0000000   0.0000000   0.5780000   0.5780000   0.0991865   0.0000000   0.0000000   0.0000000
 0.3450000  -2.4941000  -0.2940970   1.0038100   0.0000000   0.0000000  -0.0163755   0.0684394   0.0684390   0.0310658   0.0000000   0.0000000   0.0000000   0.5951250   0.5949110   0.0941797   0.0000000   0.0000000   0.0000000
 0.3500000  -2.4937500  -0.2937470   1.0039700   0.0000000   0.0000000  -0.0166536   0.0714583   0.0714554   0.0315237   0.0000000   0.0000000   0.0000000   0.6125000   0.6115720   0.0889229   0.0000000   0.0000000   0.0000000
 0.3550000  -2.4933800  -0.2933820   1.0041300   0.0000000   0.0000000  -0.0169380   0.0745648   0.0745544   0.0319546   0.0000000   0.0000000   0.0000000   0.6301250   0.6279840   0.0834161   0.0000000   0.0000000   0.0000000
 0.3600000  -2.4930000  -0.2930020   1.0042900   0.0000000   0.0000000  -0.0172286   0.0777600   0.0777348   0.0323574   0.0000000   0.0000000   0.0000000   0.6479550   0.6441460   0.0776593   0.0000000   0.0000000   0.0000000
 0.3650000  -2.4926000  -0.2926050   1.0044500   0.0000000   0.0000000  -0.0175255   0.0810440   0.0809954   0.0327308   0.0000000   0.0000000   0.0000000   0.6656190   0.6600580   0.0716736   0.0000000   0.0000000   0.0000000
 0.3700000  -2.4921900  -0.2921920   1.0046100   0.0000000   0.0000000  -0.0178287   0.0844157   0.0843349   0.0330744   0.0000000   0.0000000   0.0000000   0.6830320   0.6757200   0.0658122   0.0000000   0.0000000   0.0000000
 0.3750000  -2.4917600  -0.2917610   1.0047800   0.0000000   0.0000000  -0.0181380   0.0878739   0.0877522   0.0333894   0.0000000   0.0000000   0.0000000   0.7001960   0.6911320   0.0602008   0.0000000   0.0000000   0.0000000
 0.3800000  -2.4913100  -0.2913140   1.0049500   0.0000000   0.0000000  -0.0184537   0.0914173   0.0912458   0.0336769   0.0000000   0.0000000   0.0000000   0.7171100   0.7062940   0.0548394   0.0000000   0.0000000   0.0000000
 0.3850000  -2.4908500  -0.2908490   1.0051200   0.0000000   0.0000000  -0.0187755   0.0950446   0.0948147   0.0339382   0.0000000   0.0000000   0.0000000   0.7337730   0.7212050   0.0497281   0.0000000   0.0000000   0.0000000
 0.3900000  -2.4903600  -0.2903660   1.0052900   0.0000000   0.0000000  -0.0191036   0.0987546   0.0984575   0.0341746   0.0000000   0.0000000   0.0000000   0.7501870   0.7358670   0.0448667   0.0000000   0.0000000   0.0000000
 0.3950000  -2.4898600  -0.2898640   1.0054600   0.0000000   0.0000000  -0.0194380   0.1025460   0.1021730   0.0343873   0.0000000   0.0000000   0.0000000   0.7663500   0.7502790   0.0402553   0.0000000   0.0000000   0.0000000
 0.4000000  -2.4893400  -0.2893440   1.0056300   0.0000000   0.0000000  -0.0197787   0.1064180   0.1059600   0.0345775   0.0000000   0.0000000   0.0000000   0.7822640   0.7644410   0.0358939   0.0000000   0.0000000   0.0000000
 0.4050000  -2.4887900  -0.2888040   1.0058100   0.0000000   0.0000000  -0.0201255   0.1103680   0.1098170   0.0347466   0.0000000   0.0000000   0.0000000   0.7979280   0.7783530   0.0317825   0.0000000   0.0000000   0.0000000
 0.4100000  -2.4882300  -0.2882460   1.0059800   0.0000000   0.0000000  -0.0204786   0.1143970   0.1137430   0.0348958   0.0000000   0.0000000   0.0000000   0.8133410   0.7920150   0.0279211   0.0000000   0.0000000   0.0000000
 0.4150000  -2.4876500  -0.2876670   1.0061500   0.0000000   0.0000000  -0.0208380   0.1185010   0.1177370   0.0350263   0.0000000   0.0000000   0.0000000   0.8285050   0.8054270   0.0243098   0.0000000   0.0000000   0.0000000
 0.4200000  -2.4870500  -0.2870680   1.0063300   0.0000000   0.0000000  -0.0212036   0.1226810   0.1217970   0.0351393   0.0000000   0.0000000   0.0000000   0.8434180   0.8185890   0.0209484   0.0000000   0.0000000   0.0000000
 0.4250000  -2.4864200  -0.2864490   1.0065100   0.0000000   0.0000000  -0.0215755   0.1269350   0.1259220   0.0352362   0.0000000   0.0000000   0.0000000   0.8580820   0.8315000   0.0178370   0.0000000   0.0000000   0.0000000
 0.4300000  -2.4857800  -0.2858090   1.0066800   0.0000000   0.0000000  -0.0219536   0.1312620   0.1301110   0.0353181   0.0000000   0.0000000   0.0000000   0.8724950   0.8441620   0.0149756   0.0000000   0.0000000   0.0000000
 0.4350000  -2.4851100  -0.2851480   1.0068600   0.0000000   0.0000000  -0.0223380   0.1356600   0.1343630   0.0353863   0.0000000   0.0000000   0.0000000   0.8866590   0.8565740   0.0123642   0.0000000   0.0000000   0.0000000
 0.4400000  -2.4844200  -0.2844650   1.0070400   0.0000000   0.0000000  -0.0227286   0.1401280   0.1386770   0.0354421   0.0000000   0.0000000   0.0000000   0.9005730   0.8687360   0.0100028   0.0000000   0.0000000   0.0000000
 0.4450000  -2.4837100  -0.2837610   1.0072100   0.0000000   0.0000000  -0.0231255   0.1446650   0.1430500   0.0354868   0.0000000   0.0000000   0.0000000   0.9142360   0.8806480   0.0078914   0.0000000   0.0000000   0.0000000
 0.4500000  -2.4829700  -0.2830340   1.0073900   0.0000000   0.0000000  -0.0235286   0.1492700   0.1474830   0.0355215   0.0000000   0.0000000   0.0000000   0.9276500   0.8923100   0.0060301   0.0000000   0.0000000   0.0000000
 0.4550000  -2.4822200  -0.2822860   1.0075700   0.0000000   0.0000000  -0.0239380   0.1539410   0.1519730   0.0355475   0.0000000   0.0000000   0.0000000   0.9408130   0.9037220   0.0044187   0.0000000   0.0000000   0.0000000
 0.4600000  -2.4814300  -0.2815150   1.0077500   0.0000000   0.0000000  -0.0243536   0.1586770   0.1565200   0.0355661   0.0000000   0.0000000   0.0000000   0.9537270   0.9148830   0.0030573   0.0000000   0.0000000   0.0000000
 0.4650000  -2.4806300  -0.2807210   1.0079200   0.0000000   0.0000000  -0.0247755   0.1634780   0.1611210   0.0355785   0.0000000   0.0000000   0.0000000   0.9663910   0.9257950   0.0019459   0.0000000   0.0000000   0.0000000
 0.4700000  -2.4798000  -0.2799030   1.0081000   0.0000000   0.0000000  -0.0252036   0.1683410   0.1657770   0.0355859   0.0000000   0.0000000   0.0000000   0.9788040   0.9364570   0.0010845   0.0000000   0.0000000   0.0000000
 0.4750000  -2.4789500  -0.2790630   1.0082800   0.0000000   0.0000000  -0.0256380   0.1732650   0.1704860   0.0355897   0.0000000   0.0000000   0.0000000   0.9909680   0.9468690   0.0004731   0.0000000   0.0000000   0.0000000
 0.4800000  -2.4780700  -0.2781980   1.0084600   0.0000000   0.0000000  -0.0260786   0.1782500   0.1752450   0.0355911   0.0000000   0.0000000   0.0000000   1.0028800   0.9570310   0.0001118   0.0000000   0.0000000   0.0000000
 0.4850000  -2.4771600  -0.2773100   1.0086400   0.0000000   0.0000000  -0.0265255   0.1832940   0.1800550   0.0355913   0.0000000   0.0000000   0.0000000   1.0145400   0.9669430  -0.0000000   0.0000000   0.0000000   0.0000000
 0.4900000  -2.4762300  -0.2763980   1.0088100   0.0000000   0.0000000  -0.0269786   0.1883950   0.1849140   0.0355913   0.0000000   0.0000000   0.0000000   1.0259600   0.9766050  -0.0000000   0.0000000   0.0000000   0.0000000
 0.4950000  -2.4752800  -0.2754610   1.0089900   0.0000000   0.0000000  -0.0274380   0.1935530   0.1898210   0.0355913   0.0000000   0.0000000   0.0000000   1.0371200   0.9860170  -0.0000000   0.0000000   0.0000000   0.0000000
 0.5000000  -2.4743000  -0.2744990   1.0091700   0.0000000   0.0000000  -0.0279036   0.1987660   0.1947740   0.0355913   0.0000000   0.0000000   0.0000000   1.0480400   0.9951780  -0.0000000   0.0000000   0.0000000   0.0000000
 0.5050000  -2.4732900  -0.2735130   1.0093500   0.0000000   0.0000000  -0.0283755   0.2040330   0.1997720   0.0355913   0.0000000   0.0000000   0.0000000   1.0587000   1.0040900  -0.0000000   0.0000000   0.0000000   0.0000000
 0.5100000  -2.4722600  -0.2725020   1.0095300   0.0000000   0.0000000  -0.0288536   0.2093530   0.2048150   0.0355913   0.0000000   0.0000000   0.0000000   1.0691100   1.0127500  -0.0000000   0.0000000   0.0000000   0.0000000
 0.5150000  -2.4712000  -0.2714650   1.0097000   0.0000000   0.0000000  -0.0293380   0.2147240   0.2099000   0.0355913   0.0000000   0.0000000   0.0000000   1.0792800   1.0211600  -0.0000000   0.0000000   0.0000000   0.0000000
 0.5200000  -2.4701100  -0.2704030   1.0098800   0.0000000   0.0000000  -0.0298286   0.2201450   0.2150260   0.0355913   0.0000000   0.0000000   0.0000000   1.0891900   1.0293300  -0.0000000   0.0000000   0.0000000   0.0000000
 0.5250000  -2.4690000  -0.2693150   1.0100600   0.0000000   0.0000000  -0.0303255   0.2256150   0.2201920   0.0355913   0.0000000   0.0000000   0.0000000   1.0988500   1.0372400  -0.0000000   0.0000000   0.0000000   0.0000000
 0.5300000  -2.4678500  -0.2682010   1.0102400   0.0000000   0.0000000  -0.0308286   0.2311330   0.2253980   0.0355913   0.0000000   0.0000000   0.0000000   1.1082700   1.0449000  -0.0000000   0.0000000   0.0000000   0.0000000
 0.5350000  -2.4666800  -0.2670610   1.0104200   0.0000000   0.0000000  -0.0313380   0.2366970   0.2306410   0.0355913   0.0000000   0.0000000   0.0000000   1.1174300   1.0523100  -0.0000000   0.0000000   0.0000000   0.0000000
 0.5400000  -2.4654900  -0.2658940   1.0105900   0.0000000   0.0000000  -0.0318536   0.2423070   0.2359210   0.0355913   0.0000000   0.0000000   0.0000000   1.1263400   1.0594700  -0.0000000   0.0000000   0.0000000   0.0000000
 0.5450000  -2.4642600  -0.2647010   1.0107700   0.0000000   0.0000000  -0.0323754   0.2479600   0.2412350   0.0355913   0.0000000   0.0000000   0.0000000   1.1350100   1.0663900  -0.0000000   0.0000000   0.0000000   0.0000000
 0.5500000  -2.4630100  -0.2634820   1.0109500   0.0000000   0.0000000  -0.0329034   0.2536570   0.2465840   0.0355913   0.0000000   0.0000000   0.0000000   1.1434200   1.0730500  -0.0000000   0.0000000   0.0000000   0.0000000
 0.5550000  -2.4617200  -0.2622350   1.0111300   0.0000000   0.0000000  -0.0334375   0.2593940   0.2519650   0.0355913   0.0000000   0.0000000   0.0000000   1.1515900   1.0794600  -0.0000000   0.0000000   0.0000000   0.0000000
 0.5600000  -2.4604100  -0.2609620   1.0113100   0.0000000   0.0000000  -0.0339776   0.2651720   0.2573780   0.0355913   0.0000000   0.0000000   0.0000000   1.1595000   1.0856200  -0.0000000   0.0000000   0.0000000   0.0000000
 0.5650000  -2.4590700  -0.2596620   1.0114800   0.0000000   0.0000000  -0.0345238   0.2709890   0.2628210   0.0355913   0.0000000   0.0000000   0.0000000   1.1671600   1.0915300  -0.0000000   0.0000000   0.0000000   0.0000000
 0.5700000  -2.4577000  -0.2583340   1.0116600   0.0000000   0.0000000  -0.0350759   0.2768430   0.2682930   0.0355913   0.0000000   0.0000000   0.0000000   1.1745800   1.0971900  -0.0000000   0.0000000   0.0000000   0.0000000
 0.5750000  -2.4563000  -0.2569790   1.0118400   0.0000000   0.0000000  -0.0356338   0.2827340   0.2737930   0.0355913   0.0000000   0.0000000   0.0000000   1.1817400   1.1026100  -0.0000000   0.0000000   0.0000000   0.0000000
 0.5800000  -2.4548800  -0.2555960   1.0120200   0.0000000   0.0000000  -0.0361975   0.2886600   0.2793190   0.0355913   0.0000000   0.0000000   0.0000000   1.1886500   1.1077700  -0.0000000   0.0000000   0.0000000   0.0000000
 0.5850000  -2.4534200  -0.2541850   1.0121900   0.0000000   0.0000000  -0.0367668   0.2946200   0.2848700   0.0355913   0.0000000   0.0000000   0.0000000   1.1953200   1.1126800  -0.0000000   0.0000000   0.0000000   0.0000000
 0.5900000  -2.4519300  -0.2527470   1.0123700   0.0000000   0.0000000  -0.0373417   0.3006130   0.2904450   0.0355913   0.0000000   0.0000000   0.0000000   1.2017300   1.1173400  -0.0000000   0.0000000   0.0000000   0.0000000
 0.5950000  -2.4504100  -0.2512810   1.0125500   0.0000000   0.0000000  -0.0379219   0.3066370   0.2960430   0.0355913   0.0000000   0.0000000   0.0000000   1.2078900   1.1217500  -0.0000000   0.0000000   0.0000000   0.0000000
 0.6000000  -2.4488600  -0.2497870   1.0127300   0.0000000   0.0000000  -0.0385074   0.3126910   0.3016620   0.0355913   0.0000000   0.0000000   0.0000000   1.2138100   1.1259200  -0.0000000   0.0000000   0.0000000   0.0000000
 0.6050000  -2.4472800  -0.2482640   1.0129100   0.0000000   0.0000000  -0.0390980   0.3187750   0.3073020   0.0355913   0.0000000   0.0000000   0.0000000   1.2194700   1.1298300  -0.0000000   0.0000000   0.0000000   0.0000000
 0.6100000  -2.4456800  -0.2467140   1.0130800   0.0000000   0.0000000  -0.0396936   0.3248860   0.3129600   0.0355913   0.0000000   0.0000000   0.0000000   1.2248800   1.1334900  -0.0000000   0.0000000   0.0000000   0.0000000
 0.6150000  -2.4440400  -0.2451350   1.0132600   0.0000000   0.0000000  -0.0402940   0.3310230   0.3186360   0.0355913   0.0000000   0.0000000   0.0000000   1.2300500   1.1369000  -0.0000000   0.0000000   0.0000000   0.0000000
 0.6200000  -2.4423700  -0.2435270   1.0134400   0.0000000   0.0000000  -0.0408991   0.3371860   0.3243290   0.0355913   0.0000000   0.0000000   0.0000000   1.2349600   1.1400600  -0.0000000   0.0000000   0.0000000   0.0000000
 0.6250000  -2.4406600  -0.2418910   1.0136200   0.0000000   0.0000000  -0.0415085   0.3433720   0.3300360   0.0355913   0.0000000   0.0000000   0.0000000   1.2396300   1.1429800  -0.0000000   0.0000000   0.0000000   0.0000000
 0.6300000  -2.4389300  -0.2402270   1.0138000   0.0000000   0.0000000  -0.0421222   0.3495820   0.3357580   0.0355913   0.0000000   0.0000000   0.0000000   1.2440400   1.1456400  -0.0000000   0.0000000   0.0000000   0.0000000
 0.6350000  -2.4371700  -0.2385340   1.0139700   0.0000000   0.0000000  -0.0427400   0.3558120   0.3414920   0.0355913   0.0000000   0.0000000   0.0000000   1.2482000   1.1480500  -0.0000000   0.0000000   0.0000000   0.0000000
 0.6400000  -2.4353700  -0.2368120   1.0141500   0.0000000   0.0000000  -0.0433616   0.3620630   0.3472380   0.0355913   0.0000000   0.0000000   0.0000000   1.2521200   1.1502100  -0.0000000   0.0000000   0.0000000   0.0000000
 0.6450000  -2.4335500  -0.2350610   1.0143300   0.0000000   0.0000000  -0.0439867   0.3683330   0.3529940   0.0355913   0.0000000   0.0000000   0.0000000   1.2557800   1.1521200  -0.0000000   0.0000000   0.0000000   0.0000000
 0.6500000  -2.4316900  -0.2332820   1.0145100   0.0000000   0.0000000  -0.0446153   0.3746210   0.3587590   0.0355913   0.0000000   0.0000000   0.0000000   1.2591900   1.1537800  -0.0000000   0.0000000   0.0000000   0.0000000
 0.6550000  -2.4298000  -0.2314740   1.0146900   0.0000000   0.0000000  -0.0452469   0.3809250   0.3645310   0.0355913   0.0000000   0.0000000   0.0000000   1.2623600   1.1552000  -0.0000000   0.0000000   0.0000000   0.0000000
 0.6600000  -2.4278800  -0.2296370   1.0148600   0.0000000   0.0000000  -0.0458814   0.3872440   0.3703100   0.0355913   0.0000000   0.0000000   0.0000000   1.2652700   1.1563600  -0.0000000   0.0000000   0.0000000   0.0000000
 0.6650000  -2.4259300  -0.2277710   1.0150400   0.0000000   0.0000000  -0.0465186   0.3935770   0.3760950   0.0355913   0.0000000   0.0000000   0.0000000   1.2679300   1.1572700  -0.0000000   0.0000000   0.0000000   0.0000000
 0.6700000  -2.4239500  -0.2258760   1.0152200   0.0000000   0.0000000  -0.0471582   0.3999230   0.3818830   0.0355913   0.0000000   0.0000000   0.0000000   1.2703500   1.1579300  -0.0000000   0.0000000   0.0000000   0.0000000
 0.6750000  -2.4219300  -0.2239520   1.0154000   0.0000000   0.0000000  -0.0478000   0.4062800   0.3876730   0.0355913   0.0000000   0.0000000   0.0000000   1.2725100   1.1583400  -0.0000000   0.0000000   0.0000000   0.0000000
 0.6800000  -2.4198800  -0.2219990   1.0155800   0.0000000   0.0000000  -0.0484437   0.4126470   0.3934660   0.0355913   0.0000000   0.0000000   0.0000000   1.2744200   1.1585100  -0.0000000   0.0000000   0.0000000   0.0000000
 0.6850000  -2.4178000  -0.2200170   1.0157500   0.0000000   0.0000000  -0.0490893   0.4190240   0.3992580   0.0355913   0.0000000   0.0000000   0.0000000   1.2760900   1.1584200  -0.0000000   0.0000000   0.0000000   0.0000000
 0.6900000  -2.4156900  -0.2180060   1.0159300   0.0000000   0.0000000  -0.0497365   0.4254080   0.4050490   0.0355913   0.0000000   0.0000000   0.0000000   1.2775000   1.1580800  -0.0000000   0.0000000   0.0000000   0.0000000
 0.6950000  -2.4135500  -0.2159670   1.0161100   0.0000000   0.0000000  -0.0503852   0.4317980   0.4108390   0.0355913   0.0000000   0.0000000   0.0000000   1.2786700   1.1574900  -0.0000000   0.0000000   0.0000000   0.0000000
 0.7000000  -2.4113700  -0.2138980   1.0162900   0.0000000   0.0000000  -0.0510351   0.4381940   0.4166240   0.0355913   0.0000000   0.0000000   0.0000000   1.2795800   1.1566500  -0.0000000   0.0000000   0.0000000   0.0000000
 0.7050000  -2.4091700  -0.2118000   1.0164700   0.0000000   0.0000000  -0.0516861   0.4445940   0.4224050   0.0355913   0.0000000   0.0000000   0.0000000   1.2802400   1.1555600  -0.0000000   0.0000000   0.0000000   0.0000000
 0.7100000  -2.4069300  -0.2096740   1.0166400   0.0000000   0.0000000  -0.0523381   0.4509960   0.4281790   0.0355913   0.0000000   0.0000000   0.0000000   1.2806600   1.1542300  -0.0000000   0.0000000   0.0000000   0.0000000
 0.7150000  -2.4046600  -0.2075190   1.0168200   0.0000000   0.0000000  -0.0529910   0.4574000   0.4339460   0.0355913   0.0000000   0.0000000   0.0000000   1.2808200   1.1526400  -0.0000000   0.0000000   0.0000000   0.0000000
 0.7200000  -2.4023500  -0.2053340   1.0170000   0.0000000   0.0000000  -0.0536446   0.4638040   0.4397050   0.0355913   0.0000000   0.0000000   0.0000000   1.2807300   1.1508000  -0.0000000   0.0000000   0.0000000   0.0000000
 0.7250000  -2.4000200  -0.2031210   1.0171800   0.0000000   0.0000000  -0.0542987   0.4702070   0.4454540   0.0355913   0.0000000   0.0000000   0.0000000   1.2804000   1.1487100  -0.0000000   0.0000000   0.0000000   0.0000000
 0.7300000  -2.3976500  -0.2008800   1.0173600   0.0000000   0.0000000  -0.0549534   0.4766070   0.4511920   0.0355913   0.0000000   0.0000000   0.0000000   1.2798100   1.1463700  -0.0000000   0.0000000   0.0000000   0.0000000
 0.7350000  -2.3952500  -0.1986100   1.0175300   0.0000000   0.0000000  -0.0556085   0.4830050   0.4569170   0.0355913   0.0000000   0.0000000   0.0000000   1.2789700   1.1437900  -0.0000000   0.0000000   0.0000000   0.0000000
 0.7400000  -2.3928200  -0.1963110   1.0177100   0.0000000   0.0000000  -0.0562639   0.4893970   0.4626290   0.0355913   0.0000000   0.0000000   0.0000000   1.2778900   1.1409500  -0.0000000   0.0000000   0.0000000   0.0000000
 0.7450000  -2.3903600  -0.1939830   1.0178900   0.0000000   0.0000000  -0.0569195   0.4957830   0.4683260   0.0355913   0.0000000   0.0000000   0.0000000   1.2765500   1.1378600  -0.0000000   0.0000000   0.0000000   0.0000000
 0.7500000  -2.3878600  -0.1916270   1.0180700   0.0000000   0.0000000  -0.0575754   0.5021620   0.4740080   0.0355913   0.0000000   0.0000000   0.0000000   1.2749600   1.1345200  -0.0000000   0.0000000   0.0000000   0.0000000
 0.7550000  -2.3853400  -0.1892430   1.0182500   0.0000000   0.0000000  -0.0582313   0.5085320   0.4796710   0.0355913   0.0000000   0.0000000   0.0000000   1.2731300   1.1309300  -0.0000000   0.0000000   0.0000000   0.0000000
 0.7600000  -2.3827800  -0.1868310   1.0184200   0.0000000   0.0000000  -0.0588873   0.5148930   0.4853160   0.0355913   0.0000000   0.0000000   0.0000000   1.2710400   1.1271000  -0.0000000   0.0000000   0.0000000   0.0000000
 0.7650000  -2.3801900  -0.1843900   1.0186000   0.0000000   0.0000000  -0.0595434   0.5212420   0.4909420   0.0355913   0.0000000   0.0000000   0.0000000   1.2687100   1.1230100  -0.0000000   0.0000000   0.0000000   0.0000000
 0.7700000  -2.3775700  -0.1819210   1.0187800   0.0000000   0.0000000  -0.0601995   0.5275790   0.4965460   0.0355913   0.0000000   0.0000000   0.0000000   1.2661200   1.1186700  -0.0000000   0.0000000   0.0000000   0.0000000
 0.7750000  -2.3749100  -0.1794250   1.0189600   0.0000000   0.0000000  -0.0608556   0.5339030   0.5021280   0.0355913   0.0000000   0.0000000   0.0000000   1.2632800   1.1140800  -0.0000000   0.0000000   0.0000000   0.0000000
 0.7800000  -2.3722300  -0.1769000   1.0191400   0.0000000   0.0000000  -0.0615117   0.5402120   0.5076860   0.0355913   0.0000000   0.0000000   0.0000000   1.2602000   1.1092400  -0.0000000   0.0000000   0.0000000   0.0000000
 0.7850000  -2.3695100  -0.1743480   1.0193100   0.0000000   0.0000000  -0.0621678   0.5465050   0.5132200   0.0355913   0.0000000   0.0000000   0.0000000   1.2568600   1.1041500  -0.0000000   0.0000000   0.0000000   0.0000000
 0.7900000  -2.3667600  -0.1717680   1.0194900   0.0000000   0.0000000  -0.0628239   0.5527800   0.5187280   0.0355913   0.0000000   0.0000000   0.0000000   1.2532700   1.0988200  -0.0000000   0.0000000   0.0000000   0.0000000
 0.7950000  -2.3639800  -0.1691610   1.0196700   0.0000000   0.0000000  -0.0634800   0.5590370   0.5242080   0.0355913   0.0000000   0.0000000   0.0000000   1.2494400   1.0932300  -0.0000000   0.0000000   0.0000000   0.0000000
 0.8000000  -2.3611700  -0.1665260   1.0198500   0.0000000   0.0000000  -0.0641361   0.5652740   0.5296590   0.0355913   0.0000000   0.0000000   0.0000000   1.2453500   1.0873900  -0.0000000   0.0000000   0.0000000   0.0000000
 0.8050000  -2.3583300  -0.1638640   1.0200200   0.0000000   0.0000000  -0.0647922   0.5714900   0.5350810   0.0355913   0.0000000   0.0000000   0.0000000   1.2410100   1.0813000  -0.0000000   0.0000000   0.0000000   0.0000000
 0.8100000  -2.3554600  -0.1611750   1.0202000   0.0000000   0.0000000  -0.0654483   0.5776840   0.5404720   0.0355913   0.0000000   0.0000000   0.0000000   1.2364300   1.0749600  -0.0000000   0.0000000   0.0000000   0.0000000
 0.8150000  -2.3525500  -0.1584590   1.0203800   0.0000000   0.0000000  -0.0661044   0.5838540   0.5458310   0.0355913   0.0000000   0.0000000   0.0000000   1.2315900   1.0683800  -0.0000000   0.0000000   0.0000000   0.0000000
 0.8200000  -2.3496200  -0.1557170   1.0205600   0.0000000   0.0000000  -0.0667605   0.5899990   0.5511550   0.0355913   0.0000000   0.0000000   0.0000000   1.2265100   1.0615400  -0.0000000   0.0000000   0.0000000   0.0000000
 0.8250000  -2.3466500  -0.1529480   1.0207400   0.0000000   0.0000000  -0.0674166   0.5961180   0.5564450   0.0355913   0.0000000   0.0000000   0.0000000   1.2211700   1.0544500  -0.0000000   0.0000000   0.0000000   0.0000000
 0.8300000  -2.3436600  -0.1501530   1.0209100   0.0000000   0.0000000  -0.0680727   0.6022100   0.5617000   0.0355913   0.0000000   0.0000000   0.0000000   1.2155800   1.0471100  -0.0000000   0.0000000   0.0000000   0.0000000
 0.8350000  -2.3406300  -0.1473310   1.0210900   0.0000000   0.0000000  -0.0687288   0.6082740   0.5669160   0.0355913   0.0000000   0.0000000   0.0000000   1.2097500   1.0395200  -0.0000000   0.0000000   0.0000000   0.0000000
 0.8400000  -2.3375700  -0.1444830   1.0212700   0.0000000   0.0000000  -0.0693849   0.6143070   0.5720940   0.0355913   0.0000000   0.0000000   0.0000000   1.2036600   1.0316900  -0.0000000   0.0000000   0.0000000   0.0000000
 0.8450000  -2.3344900  -0.1416100   1.0214500   0.0000000   0.0000000  -0.0700410   0.6203100   0.5772330   0.0355913   0.0000000   0.0000000   0.0000000   1.1973200   1.0236000  -0.0000000   0.0000000   0.0000000   0.0000000
 0.8500000  -2.3313700  -0.1387110   1.0216300   0.0000000   0.0000000  -0.0706971   0.6262800   0.5823300   0.0355913   0.0000000   0.0000000   0.0000000   1.1907400   1.0152600  -0.0000000   0.0000000   0.0000000   0.0000000
 0.8550000  -2.3282300  -0.1357870   1.0218000   0.0000000   0.0000000  -0.0713532   0.6322170   0.5873850   0.0355913   0.0000000   0.0000000   0.0000000   1.1839000   1.0066700  -0.0000000   0.0000000   0.0000000   0.0000000
 0.8600000  -2.3250500  -0.1328370   1.0219800   0.0000000   0.0000000  -0.0720093   0.6381190   0.5923960   0.0355913   0.0000000   0.0000000   0.0000000   1.1768100   0.9978330  -0.0000000   0.0000000   0.0000000   0.0000000
 0.8650000  -2.3218400  -0.1298630   1.0221600   0.0000000   0.0000000  -0.0726654   0.6439850   0.5973630   0.0355913   0.0000000   0.0000000   0.0000000   1.1694800   0.9887450  -0.0000000   0.0000000   0.0000000   0.0000000
 0.8700000  -2.3186100  -0.1268640   1.0223400   0.0000000   0.0000000  -0.0733215   0.6498130   0.6022830   0.0355913   0.0000000   0.0000000   0.0000000   1.1618900   0.9794070  -0.0000000   0.0000000   0.0000000   0.0000000
 0.8750000  -2.3153500  -0.1238400   1.0225200   0.0000000   0.0000000  -0.0739776   0.6556030   0.6071560   0.0355913   0.0000000   0.0000000   0.0000000   1.1540500   0.9698180  -0.0000000   0.0000000   0.0000000   0.0000000
 0.8800000  -2.3120500  -0.1207920   1.0226900   0.0000000   0.0000000  -0.0746337   0.6613530   0.6119810   0.0355913   0.0000000   0.0000000   0.0000000   1.1459700   0.9599800  -0.0000000   0.0000000   0.0000000   0.0000000
 0.8850000  -2.3087300  -0.1177210   1.0228700   0.0000000   0.0000000  -0.0752898   0.6670620   0.6167560   0.0355913   0.0000000   0.0000000   0.0000000   1.1376300   0.9498920  -0.0000000   0.0000000   0.0000000   0.0000000
 0.8900000  -2.3053800  -0.1146250   1.0230500   0.0000000   0.0000000  -0.0759459   0.6727290   0.6214790   0.0355913   0.0000000   0.0000000   0.0000000   1.1290500   0.9395540  -0.0000000   0.0000000   0.0000000   0.0000000
 0.8950000  -2.3020100  -0.1115060   1.0232300   0.0000000   0.0000000  -0.0766020   0.6783530   0.6261510   0.0355913   0.0000000   0.0000000   0.0000000   1.1202100   0.9289660  -0.0000000   0.0000000   0.0000000   0.0000000
 0.9000000  -2.2986000  -0.1083640   1.0234100   0.0000000   0.0000000  -0.0772581   0.6839310   0.6307690   0.0355913   0.0000000   0.0000000   0.0000000   1.1111200   0.9181280  -0.0000000   0.0000000   0.0000000   0.0000000
 0.9050000  -2.2951700  -0.1051980   1.0235800   0.0000000   0.0000000  -0.0779142   0.6894630   0.6353320   0.0355913   0.0000000   0.0000000   0.0000000   1.1017900   0.9070400  -0.0000000   0.0000000   0.0000000   0.0000000
 0.9100000  -2.2917100  -0.1020100   1.0237600   0.0000000   0.0000000  -0.0785703   0.6949480   0.6398390   0.0355913   0.0000000   0.0000000   0.0000000   1.0922000   0.8957010  -0.0000000   0.0000000   0.0000000   0.0000000
 0.9150000  -2.2882200  -0.0988000   1.0239400   0.0000000   0.0000000  -0.0792264   0.7003850   0.6442880   0.0355913   0.0000000   0.0000000   0.0000000   1.0823600   0.8841130  -0.0000000   0.0000000   0.0000000   0.0000000
 0.9200000  -2.2847000  -0.0955675   1.0241200   0.0000000   0.0000000  -0.0798825   0.7057720   0.6486790   0.0355913   0.0000000   0.0000000   0.0000000   1.0722800   0.8722750  -0.0000000   0.0000000   0.0000000   0.0000000
 0.9250000  -2.2811600  -0.0923133   1.0243000   0.0000000   0.0000000  -0.0805386   0.7111070   0.6530110   0.0355913   0.0000000   0.0000000   0.0000000   1.0619400   0.8601870  -0.0000000   0.0000000   0.0000000   0.0000000
 0.9300000  -2.2775900  -0.0890375   1.0244700   0.0000000   0.0000000  -0.0811947   0.7163910   0.6572810   0.0355913   0.0000000   0.0000000   0.0000000   1.0513500   0.8478490  -0.0000000   0.0000000   0.0000000   0.0000000
 0.9350000  -2.2740000  -0.0857406   1.0246500   0.0000000   0.0000000  -0.0818508   0.7216200   0.6614890   0.0355913   0.0000000   0.0000000   0.0000000   1.0405200   0.8352610  -0.0000000   0.0000000   0.0000000   0.0000000
 0.9400000  -2.2703700  -0.0824227   1.0248300   0.0000000   0.0000000  -0.0825069   0.7267950   0.6656330   0.0355913   0.0000000   0.0000000   0.0000000   1.0294300   0.8224230  -0.0000000   0.0000000   0.0000000   0.0000000
 0.9450000  -2.2667300  -0.0790843   1.0250100   0.0000000   0.0000000  -0.0831630   0.7319140   0.6697130   0.0355913   0.0000000   0.0000000   0.0000000   1.0180900   0.8093350  -0.0000000   0.0000000   0.0000000   0.0000000
 0.9500000  -2.2630600  -0.0757257   1.0251900   0.0000000   0.0000000  -0.0838191   0.7369760   0.6737260   0.0355913   0.0000000   0.0000000   0.0000000   1.0065100   0.7959960  -0.0000000   0.0000000   0.0000000   0.0000000
 0.9550000  -2.2593600  -0.0723472   1.0253600   0.0000000   0.0000000  -0.0844752   0.7419790   0.6776720   0.0355913   0.0000000   0.0000000   0.0000000   0.9946720   0.7824080  -0.0000000   0.0000000   0.0000000   0.0000000
 0.9600000  -2.2556400  -0.0689491   1.0255400   0.0000000   0.0000000  -0.0851313   0.7469220   0.6815500   0.0355913   0.0000000   0.0000000   0.0000000   0.9825850   0.7685700  -0.0000000   0.0000000   0.0000000   0.0000000
 0.9650000  -2.2518900  -0.0655318   1.0257200   0.0000000   0.0000000  -0.0857874   0.7518040   0.6853570   0.0355913   0.0000000   0.0000000   0.0000000   0.9702490   0.7544820  -0.0000000   0.0000000   0.0000000   0.0000000
 0.9700000  -2.2481200  -0.0620957   1.0259000   0.0000000   0.0000000  -0.0864435   0.7566240   0.6890940   0.0355913   0.0000000   0.0000000   0.0000000   0.9576630   0.7401440  -0.0000000   0.0000000   0.0000000   0.0000000
 0.9750000  -2.2443200  -0.0586410   1.0260800   0.0000000   0.0000000  -0.0870996   0.7613810   0.6927580   0.0355913   0.0000000   0.0000000   0.0000000   0.9448260   0.7255560  -0.0000000   0.0000000   0.0000000   0.0000000
 0.9800000  -2.2405000  -0.0551682   1.0262500   0.0000000   0.0000000  -0.0877557   0.7660720   0.6963490   0.0355913   0.0000000   0.0000000   0.0000000   0.9317400   0.7107180  -0.0000000   0.0000000   0.0000000   0.0000000
 0.9850000  -2.2366600  -0.0516776   1.0264300   0.0000000   0.0000000  -0.0884118   0.7706980   0.6998650   0.0355913   0.0000000   0.0000000   0.0000000   0.9184030   0.6956290  -0.0000000   0.0000000   0.0000000   0.0000000
 0.9900000  -2.2328000  -0.0481697   1.0266100   0.0000000   0.0000000  -0.0890679   0.7752560   0.7033050   0.0355913   0.0000000   0.0000000   0.0000000   0.9048170   0.6802910  -0.0000000   0.0000000   0.0000000   0.0000000
 0.9950000  -2.2289100  -0.0446447   1.0267900   0.0000000   0.0000000  -0.0897240   0.7797450   0.7066680   0.0355913   0.0000000   0.0000000   0.0000000   0.8909800   0.6647030  -0.0000000   0.0000000   0.0000000   0.0000000
 1.0000000  -2.2250000  -0.0411031   1.0269700   0.0000000   0.0000000  -0.0903801   0.7841650   0.7099520   0.0355913   0.0000000   0.0000000   0.0000000   0.8768940   0.6488650  -0.0000000   0.0000000   0.0000000   0.0000000
 1.0050000  -2.2210700  -0.0375453   1.0271400   0.0000000   0.0000000  -0.0910362   0.7885140   0.7131560   0.0355913   0.0000000   0.0000000   0.0000000   0.8625580   0.6327770  -0.0000000   0.0000000   0.0000000   0.0000000
 1.0100000  -2.2171200  -0.0339717   1.0273200   0.0000000   0.0000000  -0.0916923   0.7927900   0.7162790   0.0355913   0.0000000   0.0000000   0.0000000   0.8479710   0.6164390  -0.0000000   0.0000000   0.0000000   0.0000000
 1.0150000  -2.2131400  -0.0303827   1.0275000   0.0000000   0.0000000  -0.0923484   0.7969930   0.7193200   0.0355913   0.0000000   0.0000000   0.0000000   0.8331350   0.5998510  -0.0000000   0.0000000   0.0000000   0.0000000
 1.0200000  -2.2091500  -0.0267786   1.0276800   0.0000000   0.0000000  -0.0930044   0.8011210   0.7222770   0.0355913   0.0000000   0.0000000   0.0000000   0.8180480   0.5830130  -0.0000000   0.0000000   0.0000000   0.0000000
 1.0250000  -2.2051300  -0.0231600   1.0278600   0.0000000   0.0000000  -0.0936605   0.8051730   0.7251500   0.0355913   0.0000000   0.0000000   0.0000000   0.8027120   0.5660760  -0.0000000   0.0000000   0.0000000   0.0000000
 1.0300000  -2.2010900  -0.0195273   1.0280300   0.0000000   0.0000000  -0.0943166   0.8091480   0.7279380   0.0355913   0.0000000   0.0000000   0.0000000   0.7871260   0.5493770  -0.0000000   0.0000000   0.0000000   0.0000000
 1.0350000  -2.1970400  -0.0158808   1.0282100   0.0000000   0.0000000  -0.0949727   0.8130440   0.7306440   0.0355913   0.0000000   0.0000000   0.0000000   0.7712890   0.5329290  -0.0000000   0.0000000   0.0000000   0.0000000
 1.0400000  -2.1929600  -0.0122210   1.0283900   0.0000000   0.0000000  -0.0956288   0.8168600   0.7332680   0.0355913   0.0000000   0.0000000   0.0000000   0.7552030   0.5167300  -0.0000000   0.0000000   0.0000000   0.0000000
 1.0450000  -2.1888700  -0.0085483   1.0285700   0.0000000   0.0000000  -0.0962849   0.8205960   0.7358120   0.0355913   0.0000000   0.0000000   0.0000000   0.7388660   0.5007810  -0.0000000   0.0000000   0.0000000   0.0000000
 1.0500000  -2.1847600  -0.0048630   1.0287400   0.0000000   0.0000000  -0.0969410   0.8242490   0.7382760   0.0355913   0.0000000   0.0000000   0.0000000   0.7222800   0.4850820  -0.0000000   0.0000000   0.0000000   0.0000000
 1.0550000  -2.1806300  -0.0011656   1.0289200   0.0000000   0.0000000  -0.0975971   0.8278180   0.7406630   0.0355913   0.0000000   0.0000000   0.0000000   0.7054430   0.4696340  -0.0000000   0.0000000   0.0000000   0.0000000
 1.0600000  -2.1764800   0.0025435   1.0291000   0.0000000   0.0000000  -0.0982532   0.8313030   0.7429730   0.0355913   0.0000000   0.0000000   0.0000000   0.6883570   0.4544350  -0.0000000   0.0000000   0.0000000   0.0000000
 1.0650000  -2.1723100   0.0062640   1.0292800   0.0000000   0.0000000  -0.0989093   0.8347010   0.7452080   0.0355913   0.0000000   0.0000000   0.0000000   0.6710210   0.4394860  -0.0000000   0.0000000   0.0000000   0.0000000
 1.0700000  -2.1681300   0.0099955   1.0294600   0.0000000   0.0000000  -0.0995654   0.8380120   0.7473680   0.0355913   0.0000000   0.0000000   0.0000000   0.6534340   0.4247870  -0.0000000   0.0000000   0.0000000   0.0000000
 1.0750000  -2.1639300   0.0137375   1.0296300   0.0000000   0.0000000  -0.1002215   0.8412350   0.7494560   0.0355913   0.0000000   0.0000000   0.0000000   0.6356160   0.4103390  -0.0000000   0.0000000   0.0000000   0.0000000
 1.0800000  -2.1597200   0.0174899   1.0298100   0.0000000   0.0000000  -0.1008776   0.8443690   0.7514720   0.0355913   0.0000000   0.0000000   0.0000000   0.6179140   0.3961400  -0.0000000   0.0000000   0.0000000   0.0000000
 1.0850000  -2.1554900   0.0212522   1.0299900   0.0000000   0.0000000  -0.1015337   0.8474150   0.7534180   0.0355913   0.0000000   0.0000000   0.0000000   0.6004620   0.3821910  -0.0000000   0.0000000   0.0000000   0.0000000
 1.0900000  -2.1512500   0.0250240   1.0301700   0.0000000   0.0000000  -0.1021898   0.8503740   0.7552940   0.0355913   0.0000000   0.0000000   0.0000000   0.5832590   0.3684920  -0.0000000   0.0000000   0.0000000   0.0000000
 1.0950000  -2.1469900   0.0288050   1.0303500   0.0000000   0.0000000  -0.1028459   0.8532480   0.7571030   0.0355913   0.0000000   0.0000000   0.0000000   0.5663070   0.3550440  -0.0000000   0.0000000   0.0000000   0.0000000
 1.1000000  -2.1427100   0.0325949   1.0305200   0.0000000   0.0000000  -0.1035020   0.8560370   0.7588450   0.0355913   0.0000000   0.0000000   0.0000000   0.5496050   0.3418450  -0.0000000   0.0000000   0.0000000   0.0000000
 1.1050000  -2.1384300   0.0363933   1.0307000   0.0000000   0.0000000  -0.1041581   0.8587440   0.7605220   0.0355913   0.0000000   0.0000000   0.0000000   0.5331530   0.3288960  -0.0000000   0.0000000   0.0000000   0.0000000
 1.1100000  -2.1341300   0.0402000   1.0308800   0.0000000   0.0000000  -0.1048142   0.8613690   0.7621350   0.0355913   0.0000000   0.0000000   0.0000000   0.5169510   0.3161980  -0.0000000   0.0000000   0.0000000   0.0000000
 1.1150000  -2.1298100   0.0440146   1.0310600   0.0000000   0.0000000  -0.1054703   0.8639140   0.7636840   0.0355913   0.0000000   0.0000000   0.0000000   0.5009990   0.3037490  -0.0000000   0.0000000   0.0000000   0.0000000
 1.1200000  -2.1254900   0.0478367   1.0312400   0.0000000   0.0000000  -0.1061264   0.8663800   0.7651730   0.0355913   0.0000000   0.0000000   0.0000000   0.4852960   0.2915500  -0.0000000   0.0000000   0.0000000   0.0000000
 1.1250000  -2.1211500   0.0516662   1.0314100   0.0000000   0.0000000  -0.1067825   0.8687670   0.7666000   0.0355913   0.0000000   0.0000000   0.0000000   0.4698440   0.2796010  -0.0000000   0.0000000   0.0000000   0.0000000
 1.1300000  -2.1168000   0.0555026   1.0315900   0.0000000   0.0000000  -0.1074386   0.8710790   0.7679690   0.0355913   0.0000000   0.0000000   0.0000000   0.4546420   0.2679030  -0.0000000   0.0000000   0.0000000   0.0000000
 1.1350000  -2.1124400   0.0593458   1.0317700   0.0000000   0.0000000  -0.1080947   0.8733140   0.7692800   0.0355913   0.0000000   0.0000000   0.0000000   0.4396900   0.2564540  -0.0000000   0.0000000   0.0000000   0.0000000
 1.1400000  -2.1080700   0.0631953   1.0319500   0.0000000   0.0000000  -0.1087508   0.8754760   0.7705340   0.0355913   0.0000000   0.0000000   0.0000000   0.4249880   0.2452550  -0.0000000   0.0000000   0.0000000   0.0000000
 1.1450000  -2.1036800   0.0670510   1.0321300   0.0000000   0.0000000  -0.1094069   0.8775650   0.7717330   0.0355913   0.0000000   0.0000000   0.0000000   0.4105360   0.2343060  -0.0000000   0.0000000   0.0000000   0.0000000
 1.1500000  -2.0992900   0.0709126   1.0323000   0.0000000   0.0000000  -0.1100630   0.8795820   0.7728770   0.0355913   0.0000000   0.0000000   0.0000000   0.3963330   0.2236080  -0.0000000   0.0000000   0.0000000   0.0000000
 1.1550000  -2.0948900   0.0747797   1.0324800   0.0000000   0.0000000  -0.1107190   0.8815280   0.7739690   0.0355913   0.0000000   0.0000000   0.0000000   0.3823810   0.2131590  -0.0000000   0.0000000   0.0000000   0.0000000
 1.1600000  -2.0904800   0.0786522   1.0326600   0.0000000   0.0000000  -0.1113750   0.8834060   0.7750090   0.0355913   0.0000000   0.0000000   0.0000000   0.3686790   0.2029600  -0.0000000   0.0000000   0.0000000   0.0000000
 1.1650000  -2.0860500   0.0825297   1.0328400   0.0000000   0.0000000  -0.1120310   0.8852160   0.7759990   0.0355913   0.0000000   0.0000000   0.0000000   0.3552270   0.1930110  -0.0000000   0.0000000   0.0000000   0.0000000
 1.1700000  -2.0816200   0.0864121   1.0330200   0.0000000   0.0000000  -0.1126870   0.8869590   0.7769400   0.0355913   0.0000000   0.0000000   0.0000000   0.3420250   0.1833130  -0.0000000   0.0000000   0.0000000   0.0000000
 1.1750000  -2.0771900   0.0902990   1.0331900   0.0000000   0.0000000  -0.1133440   0.8886360   0.7778330   0.0355913   0.0000000   0.0000000   0.0000000   0.3290720   0.1738640  -0.0000000   0.0000000   0.0000000   0.0000000
 1.1800000  -2.0727400   0.0941903   1.0333700   0.0000000   0.0000000  -0.1140000   0.8902500   0.7786790   0.0355913   0.0000000   0.0000000   0.0000000   0.3163700   0.1646650  -0.0000000   0.0000000   0.0000000   0.0000000
 1.1850000  -2.0682800   0.0980858   1.0335500   0.0000000   0.0000000  -0.1146560   0.8918000   0.7794800   0.0355913   0.0000000   0.0000000   0.0000000   0.3039180   0.1557170  -0.0000000   0.0000000   0.0000000   0.0000000
 1.1900000  -2.0638200   0.1019850   1.0337300   0.0000000   0.0000000  -0.1153120   0.8932890   0.7802370   0.0355913   0.0000000   0.0000000   0.0000000   0.2917160   0.1470180  -0.0000000   0.0000000   0.0000000   0.0000000
 1.1950000  -2.0593500   0.1058880   1.0339100   0.0000000   0.0000000  -0.1159680   0.8947180   0.7809500   0.0355913   0.0000000   0.0000000   0.0000000   0.2797640   0.1385690  -0.0000000   0.0000000   0.0000000   0.0000000
 1.2000000  -2.0548700   0.1097950   1.0340800   0.0000000   0.0000000  -0.1166240   0.8960870   0.7816230   0.0355913   0.0000000   0.0000000   0.0000000   0.2680620   0.1303700  -0.0000000   0.0000000   0.0000000   0.0000000
 1.2050000  -2.0503900   0.1137040   1.0342600   0.0000000   0.0000000  -0.1172800   0.8973990   0.7822550   0.0355913   0.0000000   0.0000000   0.0000000   0.2566090   0.1224220  -0.0000000   0.0000000   0.0000000   0.0000000
 1.2100000  -2.0459000   0.1176170   1.0344400   0.0000000   0.0000000  -0.1179360   0.8986540   0.7828470   0.0355913   0.0000000   0.0000000   0.0000000   0.2454070   0.1147230  -0.0000000   0.0000000   0.0000000   0.0000000
 1.2150000  -2.0414000   0.1215330   1.0346200   0.0000000   0.0000000  -0.1185920   0.8998530   0.7834020   0.0355913   0.0000000   0.0000000   0.0000000   0.2344550   0.1072740  -0.0000000   0.0000000   0.0000000   0.0000000
 1.2200000  -2.0369000   0.1254510   1.0348000   0.0000000   0.0000000  -0.1192480   0.9009990   0.7839200   0.0355913   0.0000000   0.0000000   0.0000000   0.2237530   0.1000750  -0.0000000   0.0000000   0.0000000   0.0000000
 1.2250000  -2.0323900   0.1293720   1.0349700   0.0000000   0.0000000  -0.1199050   0.9020910   0.7844030   0.0355913   0.0000000   0.0000000   0.0000000   0.2133010   0.0931267  -0.0000000   0.0000000   0.0000000   0.0000000
 1.2300000  -2.0278800   0.1332950   1.0351500   0.0000000   0.0000000  -0.1205610   0.9031320   0.7848520   0.0355913   0.0000000   0.0000000   0.0000000   0.2030990   0.0864279  -0.0000000   0.0000000   0.0000000   0.0000000
 1.2350000  -2.0233600   0.1372200   1.0353300   0.0000000   0.0000000  -0.1212170   0.9041230   0.7852680   0.0355913   0.0000000   0.0000000   0.0000000   0.1931460   0.0799792  -0.0000000   0.0000000   0.0000000   0.0000000
 1.2400000  -2.0188400   0.1411480   1.0355100   0.0000000   0.0000000  -0.1218730   0.9050640   0.7856520   0.0355913   0.0000000   0.0000000   0.0000000   0.1834440   0.0737805  -0.0000000   0.0000000   0.0000000   0.0000000
 1.2450000  -2.0143100   0.1450770   1.0356900   0.0000000   0.0000000  -0.1225290   0.9059580   0.7860060   0.0355913   0.0000000   0.0000000   0.0000000   0.1739920   0.0678317  -0.0000000   0.0000000   0.0000000   0.0000000
 1.2500000  -2.0097800   0.1490080   1.0358600   0.0000000   0.0000000  -0.1231850   0.9068040   0.7863310   0.0355913   0.0000000   0.0000000   0.0000000   0.1647900   0.0621330  -0.0000000   0.0000000   0.0000000   0.0000000
 1.2550000  -2.0052400   0.1529400   1.0360400   0.0000000   0.0000000  -0.1238410   0.9076060   0.7866280   0.0355913   0.0000000   0.0000000   0.0000000   0.1558380   0.0566843  -0.0000000   0.0000000   0.0000000   0.0000000
 1.2600000  -2.0007000   0.1568740   1.0362200   0.0000000   0.0000000  -0.1244970   0.9083630   0.7868980   0.0355913   0.0000000   0.0000000   0.0000000   0.1471360   0.0514855  -0.0000000   0.0000000   0.0000000   0.0000000
 1.2650000  -1.9961600   0.1608090   1.0364000   0.0000000   0.0000000  -0.1251530   0.9090780   0.7871430   0.0355913   0.0000000   0.0000000   0.0000000   0.1386830   0.0465368  -0.0000000   0.0000000   0.0000000   0.0000000
 1.2700000  -1.9916100   0.1647450   1.0365700   0.0000000   0.0000000  -0.1258090   0.9097510   0.7873640   0.0355913   0.0000000   0.0000000   0.0000000   0.1304810   0.0418381  -0.0000000   0.0000000   0.0000000   0.0000000
 1.2750000  -1.9870600   0.1686830   1.0367500   0.0000000   0.0000000  -0.1264650   0.9103830   0.7875620   0.0355913   0.0000000   0.0000000   0.0000000   0.1225290   0.0373893  -0.0000000   0.0000000   0.0000000   0.0000000
 1.2800000  -1.9825100   0.1726210   1.0369300   0.0000000   0.0000000  -0.1271220   0.9109760   0.7877380   0.0355913   0.0000000   0.0000000   0.0000000   0.1148270   0.0331906  -0.0000000   0.0000000   0.0000000   0.0000000
 1.2850000  -1.9779500   0.1765600   1.0371100   0.0000000   0.0000000  -0.1277780   0.9115320   0.7878940   0.0355913   0.0000000   0.0000000   0.0000000   0.1073750   0.0292419  -0.0000000   0.0000000   0.0000000   0.0000000
 1.2900000  -1.9733900   0.1805000   1.0372900   0.0000000   0.0000000  -0.1284340   0.9120500   0.7880310   0.0355913   0.0000000   0.0000000   0.0000000   0.1001730   0.0255431  -0.0000000   0.0000000   0.0000000   0.0000000
 1.2950000  -1.9688300   0.1844400   1.0374600   0.0000000   0.0000000  -0.1290900   0.9125340   0.7881500   0.0355913   0.0000000   0.0000000   0.0000000   0.0932205   0.0220944  -0.0000000   0.0000000   0.0000000   0.0000000
 1.3000000  -1.9642700   0.1883810   1.0376400   0.0000000   0.0000000  -0.1297460   0.9129830   0.7882530   0.0355913   0.0000000   0.0000000   0.0000000   0.0865183   0.0188957  -0.0000000   0.0000000   0.0000000   0.0000000
 1.3050000  -1.9597000   0.1923230   1.0378200   0.0000000   0.0000000  -0.1304020   0.9133990   0.7883400   0.0355913   0.0000000   0.0000000   0.0000000   0.0800661   0.0159469  -0.0000000   0.0000000   0.0000000   0.0000000
 1.3100000  -1.9551300   0.1962650   1.0380000   0.0000000   0.0000000  -0.1310580   0.9137840   0.7884130   0.0355913   0.0000000   0.0000000   0.0000000   0.0738639   0.0132482  -0.0000000   0.0000000   0.0000000   0.0000000
 1.3150000  -1.9505600   0.2002070   1.0381800   0.0000000   0.0000000  -0.1317140   0.9141380   0.7884730   0.0355913   0.0000000   0.0000000   0.0000000   0.0679118   0.0107995  -0.0000000   0.0000000   0.0000000   0.0000000
