ts x y z roll pitch yaw vx vy vz wx wy wz ax ay az dwx dwy dwz jx jy jz ddwx ddwy ddwz
1704458759.104950000  -2.5  -0.3  1  0  0  0  2e-07  2e-07  2e-07  0  0  0  0.000125  0.000125  0.000125  0  0  0  0  0  0  0  0  0 
1704458759.109932000  -2.5  -0.3  1  0  0  0  1.7e-06  1.7e-06  1.7e-06  0  0  0  0.0005  0.0005  0.0005  0  0  0  0  0  0  0  0  0 
1704458759.114949000  -2.5  -0.3  1  0  0  0  5.6e-06  5.6e-06  5.6e-06  0  0  0  0.001125  0.001125  0.001125  0  0  0  0  0  0  0  0  0 
1704458759.119945000  -2.5  -0.3  1  0  0  -1e-07  1.33e-05  1.33e-05  1.33e-05  0  0  0  0.002  0.002  0.002  0  0  0  0  0  0  0  0  0 
1704458759.124921000  -2.5  -0.3  1  0  0  -3e-07  2.6e-05  2.6e-05  2.6e-05  0  0  0  0.003125  0.003125  0.003125  0  0  0  0  0  0  0  0  0 
1704458759.129917000  -2.5  -0.3  1  0  0  -5e-07  4.5e-05  4.5e-05  4.5e-05  0  0  0  0.0045  0.0045  0.0045  0  0  0  0  0  0  0  0  0 
1704458759.134914000  -2.5  -0.299999  1  0  0  -1e-06  7.15e-05  7.15e-05  7.15e-05  0  0  0  0.006125  0.006125  0.006125  0  0  0  0  0  0  0  0  0 
1704458759.139942000  -2.5  -0.299999  1  0  0  -1.7e-06  0.0001067  0.0001067  0.0001067  0  0  0  0.008  0.008  0.008  0  0  0  0  0  0  0  0  0 
1704458759.144940000  -2.5  -0.299998  1  0  0  -2.7e-06  0.0001519  0.0001519  0.0001519  0  0  0  0.010125  0.010125  0.010125  0  0  0  0  0  0  0  0  0 
1704458759.149941000  -2.5  -0.299997  1  0  0  -4.2e-06  0.0002083  0.0002083  0.0002083  0  0  0  0.0125  0.0125  0.0125  0  0  0  0  0  0  0  0  0 
1704458759.154936000  -2.5  -0.299996  1  0  0  -6.1e-06  0.0002773  0.0002773  0.0002773  0  0  0  0.015125  0.015125  0.015125  0  0  0  0  0  0  0  0  0 
1704458759.159942000  -2.49999  -0.299995  1.00001  0  0  -8.6e-06  0.00036  0.00036  0.00036  0  0  0  0.018  0.018  0.018  0  0  0  0  0  0  0  0  0 
1704458759.164940000  -2.49999  -0.299993  1.00001  0  0  -1.19e-05  0.0004577  0.0004577  0.0004577  0  0  0  0.021125  0.021125  0.021125  0  0  0  0  0  0  0  0  0 
1704458759.169938000  -2.49999  -0.29999  1.00001  0  0  -1.6e-05  0.0005717  0.0005717  0.0005717  0  0  0  0.0245  0.0245  0.0245  0  0  0  0  0  0  0  0  0 
1704458759.174931000  -2.49999  -0.299987  1.00001  0  0  -2.11e-05  0.0007031  0.0007031  0.0007031  0  0  0  0.028125  0.028125  0.028125  0  0  0  0  0  0  0  0  0 
1704458759.179951000  -2.49998  -0.299983  1.00002  0  0  -2.73e-05  0.0008533  0.0008533  0.0008533  0  0  0  0.032  0.032  0.032  0  0  0  0  0  0  0  0  0 
1704458759.184925000  -2.49998  -0.299978  1.00002  0  0  -3.48e-05  0.0010235  0.0010235  0.0010235  0  0  0  0.036125  0.036125  0.036125  0  0  0  0  0  0  0  0  0 
1704458759.189917000  -2.49997  -0.299973  1.00003  0  0  -4.37e-05  0.001215  0.001215  0.001215  0  0  0  0.0405  0.0405  0.0405  0  0  0  0  0  0  0  0  0 
1704458759.194940000  -2.49997  -0.299966  1.00003  0  0  -5.43e-05  0.001429  0.001429  0.001429  0  0  0  0.045125  0.045125  0.045125  0  0  0  0  0  0  0  0  0 
1704458759.199940000  -2.49996  -0.299958  1.00004  0  0  -6.67e-05  0.0016667  0.0016667  0.0016667  0  0  0  0.05  0.05  0.05  0  0  0  0  0  0  0  0  0 
1704458759.204927000  -2.49995  -0.299949  1.00005  0  0  -8.1e-05  0.0019294  0.0019294  0.0019294  0  0  0  0.055125  0.055125  0.055125  0  0  0  0  0  0  0  0  0 
1704458759.209924000  -2.49994  -0.299939  1.00006  0  0  -9.76e-05  0.0022183  0.0022183  0.0022183  0  0  0  0.0605  0.0605  0.0605  0  0  0  0  0  0  0  0  0 
1704458759.214926000  -2.49993  -0.299927  1.00007  0  0  -0.0001166  0.0025348  0.0025348  0.0025348  0  0  0  0.066125  0.066125  0.066125  0  0  0  0  0  0  0  0  0 
1704458759.219946000  -2.49991  -0.299914  1.00009  0  0  -0.0001382  0.00288  0.00288  0.00288  0  0  0  0.072  0.072  0.072  0  0  0  0  0  0  0  0  0 
1704458759.224916000  -2.4999  -0.299898  1.0001  0  0  -0.0001628  0.0032552  0.0032552  0.0032552  0  0  0  0.078125  0.078125  0.078125  0  0  0  0  0  0  0  0  0 
1704458759.229919000  -2.49988  -0.299881  1.00012  0  0  -0.0001904  0.0036617  0.0036617  0.0036617  0  0  0  0.0845  0.0845  0.0845  0  0  0  0  0  0  0  0  0 
1704458759.234926000  -2.49986  -0.299862  1.00014  0  0  -0.0002214  0.0041006  0.0041006  0.0041006  0  0  0  0.091125  0.091125  0.0910848  0  0  0  0  0  0  0  0  0 
1704458759.239938000  -2.49984  -0.29984  1.00016  0  0  -0.000256  0.0045733  0.0045733  0.0045722  0  0  0  0.098  0.098  0.0975095  0  0  0  0  0  0  0  0  0 
1704458759.244915000  -2.49982  -0.299816  1.00018  0  0  -0.0002945  0.005081  0.005081  0.0050753  0  0  0  0.105125  0.105125  0.103684  0  0  0  0  0  0  0  0  0 
1704458759.249930000  -2.49979  -0.299789  1.00021  0  0  -0.000337  0.005625  0.005625  0.0056086  0  0  0  0.1125  0.1125  0.109609  0  0  0  0  0  0  0  0  0 
1704458759.254923000  -2.49976  -0.299759  1.00024  0  0  -0.0003837  0.0062065  0.0062065  0.0061709  0  0  0  0.120125  0.120125  0.115283  0  0  0  0  0  0  0  0  0 
1704458759.259945000  -2.49973  -0.299727  1.00027  0  0  -0.0004349  0.0068267  0.0068267  0.006761  0  0  0  0.128  0.128  0.120708  0  0  0  0  0  0  0  0  0 
1704458759.264929000  -2.49969  -0.299691  1.00031  0  0  -0.0004907  0.0074869  0.0074869  0.0073776  0  0  0  0.136125  0.136125  0.125883  0  0  0  0  0  0  0  0  0 
1704458759.269923000  -2.49965  -0.299652  1.00035  0  0  -0.0005513  0.0081883  0.0081883  0.0080194  0  0  0  0.1445  0.1445  0.130807  0  0  0  0  0  0  0  0  0 
1704458759.274950000  -2.49961  -0.299609  1.00039  0  0  -0.0006169  0.0089323  0.0089323  0.0086853  0  0  0  0.153125  0.153125  0.135482  0  0  0  0  0  0  0  0  0 
1704458759.279942000  -2.49956  -0.299563  1.00043  0  0  -0.0006876  0.0097199  0.00972  0.0093738  0  0  0  0.16193  0.162  0.139906  0  0  0  0  0  0  0  0  0 
1704458759.284924000  -2.49951  -0.299512  1.00048  0  0  -0.0007636  0.0105512  0.0105527  0.0100839  0  0  0  0.170542  0.171125  0.144081  0  0  0  0  0  0  0  0  0 
1704458759.289932000  -2.49946  -0.299457  1.00053  0  0  -0.000845  0.0114249  0.0114317  0.0108142  0  0  0  0.178903  0.1805  0.148006  0  0  0  0  0  0  0  0  0 
1704458759.294940000  -2.4994  -0.299398  1.00059  0  0  -0.0009319  0.0123398  0.0123581  0.0115636  0  0  0  0.187014  0.190125  0.15168  0  0  0  0  0  0  0  0  0 
1704458759.299945000  -2.49933  -0.299333  1.00065  0  0  -0.0010245  0.0132947  0.0133333  0.0123306  0  0  0  0.194876  0.2  0.155105  0  0  0  0  0  0  0  0  0 
1704458759.304920000  -2.49926  -0.299264  1.00071  0  0  -0.0011228  0.0142882  0.0143585  0.0131142  0  0  0  0.202487  0.210125  0.15828  0  0  0  0  0  0  0  0  0 
1704458759.309936000  -2.49919  -0.29919  1.00078  0  0  -0.0012269  0.0153191  0.015435  0.013913  0  0  0  0.209848  0.2205  0.161204  0  0  0  0  0  0  0  0  0 
1704458759.314941000  -2.49911  -0.29911  1.00085  0  0  -0.001337  0.0163862  0.016564  0.0147258  0  0  0  0.216959  0.231125  0.163879  0  0  0  0  0  0  0  0  0 
1704458759.319943000  -2.49903  -0.299024  1.00093  0  0  -0.0014531  0.0174883  0.0177467  0.0155514  0  0  0  0.223821  0.242  0.166303  0  0  0  0  0  0  0  0  0 
1704458759.324941000  -2.49894  -0.298932  1.00101  0  0  -0.0015753  0.018624  0.0189844  0.0163884  0  0  0  0.230432  0.253125  0.168478  0  0  0  0  0  0  0  0  0 
1704458759.329918000  -2.49884  -0.298834  1.00109  0  0  -0.0017035  0.0197922  0.0202783  0.0172357  0  0  0  0.236793  0.2645  0.170403  0  0  0  0  0  0  0  0  0 
1704458759.334913000  -2.49874  -0.298729  1.00118  0  0  -0.001838  0.0209915  0.0216298  0.018092  0  0  0  0.242904  0.276125  0.172077  0  0  0  0  0  0  0  0  0 
1704458759.339924000  -2.49863  -0.298618  1.00127  0  0  -0.0019786  0.0222208  0.02304  0.0189561  0  0  0  0.248766  0.288  0.173502  0  0  0  0  0  0  0  0  0 
1704458759.344914000  -2.49852  -0.298499  1.00137  0  0  -0.0021255  0.0234788  0.0245102  0.0198266  0  0  0  0.254377  0.300125  0.174676  0  0  0  0  0  0  0  0  0 
1704458759.349929000  -2.4984  -0.298372  1.00147  0  0  -0.0022787  0.0247642  0.0260417  0.0207024  0  0  0  0.259738  0.3125  0.175601  0  0  0  0  0  0  0  0  0 
1704458759.354918000  -2.49827  -0.298238  1.00158  0  0  -0.002438  0.0260757  0.0276356  0.0215822  0  0  0  0.264849  0.325125  0.176276  0  0  0  0  0  0  0  0  0 
1704458759.359924000  -2.49813  -0.298096  1.00169  0  0  -0.0026036  0.0274123  0.0292933  0.0224648  0  0  0  0.269711  0.338  0.1767  0  0  0  0  0  0  0  0  0 
1704458759.364918000  -2.49799  -0.297945  1.0018  0  0  -0.0027755  0.0287724  0.031016  0.0233488  0  0  0  0.274322  0.351125  0.176875  0  0  0  0  0  0  0  0  0 
1704458759.369926000  -2.49785  -0.297786  1.00192  0  0  -0.0029536  0.0301551  0.032805  0.0242331  0  0  0  0.278683  0.3645  0.1768  0  0  0  0  0  0  0  0  0 
1704458759.374930000  -2.49769  -0.297617  1.00204  0  0  -0.003138  0.0315589  0.0346615  0.0251164  0  0  0  0.282795  0.378125  0.176474  0  0  0  0  0  0  0  0  0 
1704458759.379948000  -2.49753  -0.297439  1.00217  0  0  -0.0033286  0.0329826  0.0365867  0.0259974  0  0  0  0.286656  0.392  0.175899  0  0  0  0  0  0  0  0  0 
1704458759.384925000  -2.49736  -0.297251  1.0023  0  0  -0.0035255  0.034425  0.0385819  0.026875  0  0  0  0.290267  0.406125  0.175073  0  0  0  0  0  0  0  0  0 
1704458759.389928000  -2.49719  -0.297053  1.00244  0  0  -0.0037287  0.0358848  0.0406483  0.0277478  0  0  0  0.293628  0.4205  0.173998  0  0  0  0  0  0  0  0  0 
1704458759.394910000  -2.497  -0.296844  1.00258  0  0  -0.003938  0.0373609  0.0427873  0.0286145  0  0  0  0.29674  0.435125  0.172673  0  0  0  0  0  0  0  0  0 
1704458759.399930000  -2.49681  -0.296625  1.00273  0  0  -0.0041537  0.0388518  0.045  0.0294741  0  0  0  0.299601  0.45  0.171097  0  0  0  0  0  0  0  0  0 
1704458759.404941000  -2.49662  -0.296394  1.00288  0  0  -0.0043755  0.0403565  0.0472877  0.0303251  0  0  0  0.302212  0.465125  0.169272  0  0  0  0  0  0  0  0  0 
1704458759.409931000  -2.49641  -0.296152  1.00303  0  0  -0.0046036  0.0418735  0.0496517  0.0311664  0  0  0  0.304573  0.4805  0.167197  0  0  0  0  0  0  0  0  0 
1704458759.414934000  -2.4962  -0.295898  1.00319  0  0  -0.004838  0.0434018  0.0520931  0.0319966  0  0  0  0.306685  0.496125  0.164871  0  0  0  0  0  0  0  0  0 
1704458759.419939000  -2.49598  -0.295631  1.00335  0  0  -0.0050786  0.04494  0.0546133  0.0328147  0  0  0  0.308546  0.512  0.162296  0  0  0  0  0  0  0  0  0 
1704458759.424919000  -2.49575  -0.295351  1.00352  0  0  -0.0053255  0.0464868  0.0572135  0.0336192  0  0  0  0.310157  0.528125  0.15947  0  0  0  0  0  0  0  0  0 
1704458759.429941000  -2.49551  -0.295059  1.00369  0  0  -0.0055787  0.0480411  0.059895  0.0344089  0  0  0  0.311518  0.5445  0.156395  0  0  0  0  0  0  0  0  0 
1704458759.434917000  -2.49527  -0.294752  1.00386  0  0  -0.005838  0.0496016  0.062659  0.0351827  0  0  0  0.31263  0.561125  0.15307  0  0  0  0  0  0  0  0  0 
1704458759.439957000  -2.49501  -0.294432  1.00404  0  0  -0.0061037  0.051167  0.0655067  0.0359392  0  0  0  0.313491  0.578  0.149494  0  0  0  0  0  0  0  0  0 
1704458759.444913000  -2.49476  -0.294097  1.00422  0  0  -0.0063755  0.0527361  0.0684394  0.0366772  0  0  0  0.314102  0.595125  0.145669  0  0  0  0  0  0  0  0  0 
1704458759.449922000  -2.49449  -0.293747  1.0044  0  0  -0.0066536  0.0543076  0.0714583  0.0373955  0  0  0  0.314464  0.6125  0.141593  0  0  0  0  0  0  0  0  0 
1704458759.454950000  -2.49421  -0.293382  1.00459  0  0  -0.006938  0.0558803  0.0745648  0.0380928  0  0  0  0.314575  0.630125  0.137268  0  0  0  0  0  0  0  0  0 
1704458759.459934000  -2.49393  -0.293002  1.00479  0  0  -0.0072286  0.0574529  0.07776  0.0387678  0  0  0  0.314436  0.648  0.132693  0  0  0  0  0  0  0  0  0 
1704458759.464930000  -2.49364  -0.292605  1.00498  0  0  -0.0075255  0.0590242  0.0810452  0.0394193  0  0  0  0.314047  0.666125  0.127867  0  0  0  0  0  0  0  0  0 
1704458759.469923000  -2.49334  -0.292191  1.00518  0  0  -0.0078286  0.060593  0.0844217  0.040046  0  0  0  0.313409  0.6845  0.122792  0  0  0  0  0  0  0  0  0 
1704458759.474915000  -2.49303  -0.29176  1.00538  0  0  -0.008138  0.0621579  0.0878905  0.0406468  0  0  0  0.31252  0.703027  0.117467  0  0  0  0  0  0  0  0  0 
1704458759.479961000  -2.49272  -0.291312  1.00559  0  0  -0.0084537  0.0637178  0.0914515  0.0412203  0  0  0  0.311381  0.721338  0.111891  0  0  0  0  0  0  0  0  0 
1704458759.484915000  -2.49239  -0.290846  1.00579  0  0  -0.0087755  0.0652713  0.0951035  0.0417653  0  0  0  0.309992  0.739399  0.106066  0  0  0  0  0  0  0  0  0 
1704458759.489932000  -2.49206  -0.290361  1.006  0  0  -0.0091036  0.0668173  0.0988451  0.0422805  0  0  0  0.308354  0.75721  0.0999904  0  0  0  0  0  0  0  0  0 
1704458759.494930000  -2.49173  -0.289857  1.00622  0  0  -0.009438  0.0683544  0.102675  0.0427648  0  0  0  0.306465  0.774771  0.0936651  0  0  0  0  0  0  0  0  0 
1704458759.499934000  -2.49138  -0.289334  1.00643  0  0  -0.0097786  0.0698815  0.106592  0.0432167  0  0  0  0.304326  0.792082  0.0870999  0  0  0  0  0  0  0  0  0 
1704458759.504917000  -2.49103  -0.288791  1.00665  0  0  -0.0101255  0.0713973  0.110596  0.043636  0  0  0  0.301937  0.809144  0.0806257  0  0  0  0  0  0  0  0  0 
1704458759.509931000  -2.49067  -0.288228  1.00687  0  0  -0.0104786  0.0729005  0.114683  0.0440234  0  0  0  0.299299  0.825955  0.0744014  0  0  0  0  0  0  0  0  0 
1704458759.514933000  -2.4903  -0.287644  1.00709  0  0  -0.010838  0.0743898  0.118855  0.0443804  0  0  0  0.29641  0.842516  0.0684272  0  0  0  0  0  0  0  0  0 
1704458759.519943000  -2.48992  -0.287039  1.00731  0  0  -0.0112036  0.0758641  0.123108  0.0447081  0  0  0  0.293271  0.858827  0.062703  0  0  0  0  0  0  0  0  0 
1704458759.524929000  -2.48954  -0.286413  1.00754  0  0  -0.0115755  0.0773221  0.127443  0.0450078  0  0  0  0.289883  0.874888  0.0572287  0  0  0  0  0  0  0  0  0 
1704458759.529937000  -2.48915  -0.285765  1.00776  0  0  -0.0119536  0.0787626  0.131857  0.0452808  0  0  0  0.286244  0.8907  0.0520045  0  0  0  0  0  0  0  0  0 
1704458759.534927000  -2.48875  -0.285094  1.00799  0  0  -0.012338  0.0801842  0.136349  0.0455283  0  0  0  0.282355  0.906261  0.0470302  0  0  0  0  0  0  0  0  0 
1704458759.539941000  -2.48835  -0.284401  1.00822  0  0  -0.0127286  0.0815857  0.140919  0.0457515  0  0  0  0.278216  0.921572  0.042306  0  0  0  0  0  0  0  0  0 
1704458759.544923000  -2.48794  -0.283685  1.00845  0  0  -0.0131255  0.0829659  0.145564  0.0459518  0  0  0  0.273828  0.936633  0.0378318  0  0  0  0  0  0  0  0  0 
1704458759.549927000  -2.48752  -0.282945  1.00868  0  0  -0.0135286  0.0843236  0.150285  0.0461303  0  0  0  0.269189  0.951444  0.0336075  0  0  0  0  0  0  0  0  0 
1704458759.554931000  -2.48709  -0.282182  1.00891  0  0  -0.013938  0.0856574  0.155078  0.0462883  0  0  0  0.2643  0.966006  0.0296333  0  0  0  0  0  0  0  0  0 
1704458759.559932000  -2.48666  -0.281394  1.00914  0  0  -0.0143536  0.0869661  0.159944  0.046427  0  0  0  0.259161  0.980317  0.025909  0  0  0  0  0  0  0  0  0 
1704458759.564930000  -2.48622  -0.280582  1.00937  0  0  -0.0147755  0.0882486  0.164881  0.0465478  0  0  0  0.253773  0.994378  0.0224348  0  0  0  0  0  0  0  0  0 
1704458759.569920000  -2.48578  -0.279745  1.0096  0  0  -0.0152036  0.0895034  0.169888  0.0466518  0  0  0  0.248134  1.00819  0.0192106  0  0  0  0  0  0  0  0  0 
1704458759.574919000  -2.48533  -0.278883  1.00984  0  0  -0.015638  0.0907295  0.174963  0.0467403  0  0  0  0.242245  1.02175  0.0162363  0  0  0  0  0  0  0  0  0 
1704458759.579958000  -2.48487  -0.277996  1.01007  0  0  -0.0160786  0.0919255  0.180105  0.0468146  0  0  0  0.236107  1.03506  0.0135121  0  0  0  0  0  0  0  0  0 
1704458759.584915000  -2.48441  -0.277082  1.01031  0  0  -0.0165255  0.0930901  0.185313  0.0468758  0  0  0  0.229718  1.04812  0.0110379  0  0  0  0  0  0  0  0  0 
1704458759.589925000  -2.48394  -0.276142  1.01054  0  0  -0.0169786  0.0942222  0.190586  0.0469254  0  0  0  0.223079  1.06093  0.0088136  0  0  0  0  0  0  0  0  0 
1704458759.594926000  -2.48347  -0.275176  1.01078  0  0  -0.017438  0.0953205  0.195922  0.0469644  0  0  0  0.21619  1.0735  0.0068394  0  0  0  0  0  0  0  0  0 
1704458759.599950000  -2.48299  -0.274183  1.01101  0  0  -0.0179036  0.0963837  0.20132  0.0469942  0  0  0  0.209052  1.08581  0.0051151  0  0  0  0  0  0  0  0  0 
1704458759.604924000  -2.4825  -0.273163  1.01125  0  0  -0.0183755  0.0974106  0.206779  0.047016  0  0  0  0.201663  1.09787  0.0036409  0  0  0  0  0  0  0  0  0 
1704458759.609916000  -2.48201  -0.272115  1.01148  0  0  -0.0188536  0.0983999  0.212298  0.047031  0  0  0  0.194024  1.10968  0.0024166  0  0  0  0  0  0  0  0  0 
1704458759.614922000  -2.48152  -0.27104  1.01172  0  0  -0.019338  0.0993504  0.217876  0.0470405  0  0  0  0.186135  1.12124  0.0014424  0  0  0  0  0  0  0  0  0 
1704458759.619929000  -2.48102  -0.269936  1.01195  0  0  -0.0198286  0.100261  0.22351  0.0470458  0  0  0  0.177997  1.13255  0.0007182  0  0  0  0  0  0  0  0  0 
1704458759.624922000  -2.48052  -0.268804  1.01219  0  0  -0.0203255  0.10113  0.229201  0.0470481  0  0  0  0.169608  1.14361  0.0002439  0  0  0  0  0  0  0  0  0 
1704458759.629920000  -2.48001  -0.267644  1.01242  0  0  -0.0208286  0.101957  0.234946  0.0470487  0  0  0  0.160969  1.15442  1.97e-05  0  0  0  0  0  0  0  0  0 
1704458759.634934000  -2.4795  -0.266455  1.01266  0  0  -0.021338  0.102739  0.240745  0.0470487  0  0  0  0.152165  1.16498  -0  0  0  0  0  0  0  0  0  0 
1704458759.639944000  -2.47898  -0.265237  1.01289  0  0  -0.0218536  0.103479  0.246596  0.0470487  0  0  0  0.143568  1.1753  -0  0  0  0  0  0  0  0  0  0 
1704458759.644922000  -2.47846  -0.263989  1.01313  0  0  -0.0223755  0.104175  0.252497  0.0470487  0  0  0  0.13522  1.18536  -0  0  0  0  0  0  0  0  0  0 
1704458759.649923000  -2.47794  -0.262712  1.01336  0  0  -0.0229036  0.104831  0.258449  0.0470487  0  0  0  0.127123  1.19517  -0  0  0  0  0  0  0  0  0  0 
1704458759.654920000  -2.47741  -0.261404  1.0136  0  0  -0.023438  0.105447  0.264449  0.0470487  0  0  0  0.119275  1.20473  -0  0  0  0  0  0  0  0  0  0 
1704458759.659931000  -2.47689  -0.260067  1.01383  0  0  -0.0239786  0.106024  0.270496  0.0470487  0  0  0  0.111678  1.21404  -0  0  0  0  0  0  0  0  0  0 
1704458759.664923000  -2.47635  -0.258699  1.01407  0  0  -0.0245255  0.106564  0.276589  0.0470487  0  0  0  0.10433  1.2231  -0  0  0  0  0  0  0  0  0  0 
1704458759.669923000  -2.47582  -0.257301  1.0143  0  0  -0.0250786  0.107068  0.282726  0.0470487  0  0  0  0.0972325  1.23191  -0  0  0  0  0  0  0  0  0  0 
1704458759.674925000  -2.47528  -0.255872  1.01454  0  0  -0.025638  0.107537  0.288907  0.0470487  0  0  0  0.090385  1.24047  -0  0  0  0  0  0  0  0  0  0 
1704458759.679948000  -2.47475  -0.254412  1.01477  0  0  -0.0262036  0.107972  0.29513  0.0470487  0  0  0  0.0837874  1.24879  -0  0  0  0  0  0  0  0  0  0 
1704458759.684915000  -2.4742  -0.252921  1.01501  0  0  -0.0267755  0.108375  0.301395  0.0470487  0  0  0  0.0774399  1.25685  -0  0  0  0  0  0  0  0  0  0 
1704458759.689922000  -2.47366  -0.251398  1.01524  0  0  -0.0273536  0.108747  0.307699  0.0470487  0  0  0  0.0713424  1.26466  -0  0  0  0  0  0  0  0  0  0 
1704458759.694921000  -2.47312  -0.249844  1.01548  0  0  -0.027938  0.109089  0.314041  0.0470487  0  0  0  0.0654948  1.27222  -0  0  0  0  0  0  0  0  0  0 
1704458759.699959000  -2.47257  -0.248257  1.01571  0  0  -0.0285286  0.109403  0.32042  0.0470487  0  0  0  0.0598973  1.27953  -0  0  0  0  0  0  0  0  0  0 
1704458759.704932000  -2.47202  -0.246639  1.01595  0  0  -0.0291255  0.109689  0.326836  0.0470487  0  0  0  0.0545498  1.28659  -0  0  0  0  0  0  0  0  0  0 
1704458759.709927000  -2.47147  -0.244989  1.01619  0  0  -0.0297286  0.109948  0.333286  0.0470487  0  0  0  0.0494522  1.2934  -0  0  0  0  0  0  0  0  0  0 
1704458759.714935000  -2.47092  -0.243306  1.01642  0  0  -0.030338  0.110183  0.339769  0.0470487  0  0  0  0.0446047  1.29996  -0  0  0  0  0  0  0  0  0  0 
1704458759.719934000  -2.47037  -0.241591  1.01666  0  0  -0.0309536  0.110395  0.346285  0.0470487  0  0  0  0.0400071  1.30627  -0  0  0  0  0  0  0  0  0  0 
1704458759.724924000  -2.46982  -0.239843  1.01689  0  0  -0.0315755  0.110584  0.352832  0.0470487  0  0  0  0.0356596  1.31234  -0  0  0  0  0  0  0  0  0  0 
1704458759.729930000  -2.46927  -0.238063  1.01713  0  0  -0.0322036  0.110752  0.359408  0.0470487  0  0  0  0.0315621  1.31815  -0  0  0  0  0  0  0  0  0  0 
1704458759.734933000  -2.46871  -0.236249  1.01736  0  0  -0.032838  0.1109  0.366013  0.0470487  0  0  0  0.0277145  1.32371  -0  0  0  0  0  0  0  0  0  0 
1704458759.739950000  -2.46816  -0.234403  1.0176  0  0  -0.0334786  0.111029  0.372645  0.0470487  0  0  0  0.024117  1.32902  -0  0  0  0  0  0  0  0  0  0 
1704458759.744927000  -2.4676  -0.232523  1.01783  0  0  -0.0341255  0.111142  0.379302  0.0470487  0  0  0  0.0207695  1.33408  -0  0  0  0  0  0  0  0  0  0 
1704458759.749924000  -2.46705  -0.23061  1.01807  0  0  -0.0347786  0.111238  0.385985  0.0470487  0  0  0  0.0176719  1.33889  -0  0  0  0  0  0  0  0  0  0 
1704458759.754925000  -2.46649  -0.228663  1.0183  0  0  -0.035438  0.111319  0.392691  0.0470487  0  0  0  0.0148244  1.34345  -0  0  0  0  0  0  0  0  0  0 
1704458759.759930000  -2.46593  -0.226683  1.01854  0  0  -0.0361036  0.111386  0.399419  0.0470487  0  0  0  0.0122269  1.34776  -0  0  0  0  0  0  0  0  0  0 
1704458759.764934000  -2.46538  -0.224669  1.01877  0  0  -0.0367755  0.111441  0.406168  0.0470487  0  0  0  0.0098793  1.35183  -0  0  0  0  0  0  0  0  0  0 
1704458759.769932000  -2.46482  -0.222621  1.01901  0  0  -0.0374536  0.111485  0.412937  0.0470487  0  0  0  0.0077818  1.35564  -0  0  0  0  0  0  0  0  0  0 
1704458759.774925000  -2.46426  -0.220539  1.01924  0  0  -0.038138  0.11152  0.419724  0.0470487  0  0  0  0.0059343  1.3592  -0  0  0  0  0  0  0  0  0  0 
1704458759.779940000  -2.4637  -0.218424  1.01948  0  0  -0.0388286  0.111545  0.426529  0.0470487  0  0  0  0.0043367  1.36251  -0  0  0  0  0  0  0  0  0  0 
1704458759.784928000  -2.46315  -0.216274  1.01971  0  0  -0.0395255  0.111563  0.433349  0.0470487  0  0  0  0.0029892  1.36557  -0  0  0  0  0  0  0  0  0  0 
1704458759.789932000  -2.46259  -0.21409  1.01995  0  0  -0.0402286  0.111576  0.440184  0.0470487  0  0  0  0.0018916  1.36838  -0  0  0  0  0  0  0  0  0  0 
1704458759.794932000  -2.46203  -0.211872  1.02018  0  0  -0.040938  0.111583  0.447032  0.0470487  0  0  0  0.0010441  1.37094  -0  0  0  0  0  0  0  0  0  0 
1704458759.799941000  -2.46147  -0.20962  1.02042  0  0  -0.0416536  0.111586  0.453893  0.0470487  0  0  0  0.0004466  1.37325  -0  0  0  0  0  0  0  0  0  0 
1704458759.804933000  -2.46091  -0.207333  1.02065  0  0  -0.0423755  0.111588  0.460764  0.0470487  0  0  0  9.9e-05  1.37531  -0  0  0  0  0  0  0  0  0  0 
1704458759.809923000  -2.46036  -0.205012  1.02089  0  0  -0.0431036  0.111588  0.467646  0.0470487  0  0  0  0  1.37713  -0  0  0  0  0  0  0  0  0  0 
1704458759.814929000  -2.4598  -0.202657  1.02113  0  0  -0.043838  0.111588  0.474535  0.0470487  0  0  0  0  1.37869  -0  0  0  0  0  0  0  0  0  0 
1704458759.819944000  -2.45924  -0.200267  1.02136  0  0  -0.0445786  0.111588  0.481432  0.0470487  0  0  0  0  1.38  -0  0  0  0  0  0  0  0  0  0 
1704458759.824930000  -2.45868  -0.197842  1.0216  0  0  -0.0453255  0.111588  0.488335  0.0470487  0  0  0  0  1.38106  -0  0  0  0  0  0  0  0  0  0 
1704458759.829937000  -2.45812  -0.195383  1.02183  0  0  -0.0460786  0.111588  0.495242  0.0470487  0  0  0  0  1.38187  -0  0  0  0  0  0  0  0  0  0 
1704458759.834923000  -2.45757  -0.19289  1.02207  0  0  -0.046838  0.111588  0.502153  0.0470487  0  0  0  0  1.38243  -0  0  0  0  0  0  0  0  0  0 
1704458759.839956000  -2.45701  -0.190362  1.0223  0  0  -0.0476036  0.111588  0.509066  0.0470487  0  0  0  0  1.38274  -0  0  0  0  0  0  0  0  0  0 
1704458759.844941000  -2.45645  -0.187799  1.02254  0  0  -0.0483755  0.111588  0.51598  0.0470487  0  0  0  0  1.3828  -0  0  0  0  0  0  0  0  0  0 
1704458759.849953000  -2.45589  -0.185202  1.02277  0  0  -0.0491536  0.111588  0.522894  0.0470487  0  0  0  0  1.38262  -0  0  0  0  0  0  0  0  0  0 
1704458759.854953000  -2.45533  -0.18257  1.02301  0  0  -0.049938  0.111588  0.529806  0.0470487  0  0  0  0  1.38218  -0  0  0  0  0  0  0  0  0  0 
1704458759.859936000  -2.45478  -0.179904  1.02324  0  0  -0.0507286  0.111588  0.536715  0.0470487  0  0  0  0  1.38149  -0  0  0  0  0  0  0  0  0  0 
1704458759.864931000  -2.45422  -0.177203  1.02348  0  0  -0.0515255  0.111588  0.54362  0.0470487  0  0  0  0  1.38055  -0  0  0  0  0  0  0  0  0  0 
1704458759.869932000  -2.45366  -0.174468  1.02371  0  0  -0.0523286  0.111588  0.55052  0.0470487  0  0  0  0  1.37936  -0  0  0  0  0  0  0  0  0  0 
1704458759.874929000  -2.4531  -0.171698  1.02395  0  0  -0.053138  0.111588  0.557413  0.0470487  0  0  0  0  1.37792  -0  0  0  0  0  0  0  0  0  0 
1704458759.879923000  -2.45254  -0.168894  1.02418  0  0  -0.0539536  0.111588  0.564299  0.0470487  0  0  0  0  1.37623  -0  0  0  0  0  0  0  0  0  0 
1704458759.884932000  -2.45199  -0.166055  1.02442  0  0  -0.0547755  0.111588  0.571175  0.0470487  0  0  0  0  1.37429  -0  0  0  0  0  0  0  0  0  0 
1704458759.889923000  -2.45143  -0.163182  1.02465  0  0  -0.0556036  0.111588  0.578041  0.0470487  0  0  0  0  1.37211  -0  0  0  0  0  0  0  0  0  0 
1704458759.894924000  -2.45087  -0.160275  1.02489  0  0  -0.056438  0.111588  0.584896  0.0470487  0  0  0  0  1.36967  -0  0  0  0  0  0  0  0  0  0 
1704458759.899941000  -2.45031  -0.157333  1.02512  0  0  -0.0572786  0.111588  0.591738  0.0470487  0  0  0  0  1.36698  -0  0  0  0  0  0  0  0  0  0 
1704458759.904920000  -2.44975  -0.154357  1.02536  0  0  -0.0581255  0.111588  0.598565  0.0470487  0  0  0  0  1.36404  -0  0  0  0  0  0  0  0  0  0 
1704458759.909934000  -2.4492  -0.151347  1.02559  0  0  -0.0589786  0.111588  0.605378  0.0470487  0  0  0  0  1.36085  -0  0  0  0  0  0  0  0  0  0 
1704458759.914942000  -2.44864  -0.148304  1.02583  0  0  -0.059838  0.111588  0.612173  0.0470487  0  0  0  0  1.35741  -0  0  0  0  0  0  0  0  0  0 
1704458759.919942000  -2.44808  -0.145226  1.02607  0  0  -0.0607036  0.111588  0.618951  0.0470487  0  0  0  0  1.35372  -0  0  0  0  0  0  0  0  0  0 
1704458759.924925000  -2.44752  -0.142114  1.0263  0  0  -0.0615755  0.111588  0.62571  0.0470487  0  0  0  0  1.34978  -0  0  0  0  0  0  0  0  0  0 
1704458759.929926000  -2.44697  -0.138969  1.02654  0  0  -0.0624536  0.111588  0.632449  0.0470487  0  0  0  0  1.34559  -0  0  0  0  0  0  0  0  0  0 
1704458759.934922000  -2.44641  -0.13579  1.02677  0  0  -0.063338  0.111588  0.639166  0.0470487  0  0  0  0  1.34116  -0  0  0  0  0  0  0  0  0  0 
1704458759.939934000  -2.44585  -0.132577  1.02701  0  0  -0.0642286  0.111588  0.64586  0.0470487  0  0  0  0  1.33647  -0  0  0  0  0  0  0  0  0  0 
1704458759.944926000  -2.44529  -0.129331  1.02724  0  0  -0.0651255  0.111588  0.65253  0.0470487  0  0  0  0  1.33153  -0  0  0  0  0  0  0  0  0  0 
1704458759.949939000  -2.44473  -0.126052  1.02748  0  0  -0.0660286  0.111588  0.659175  0.0470487  0  0  0  0  1.32634  -0  0  0  0  0  0  0  0  0  0 
1704458759.954935000  -2.44418  -0.122739  1.02771  0  0  -0.066938  0.111588  0.665793  0.0470487  0  0  0  0  1.3209  -0  0  0  0  0  0  0  0  0  0 
1704458759.959938000  -2.44362  -0.119394  1.02795  0  0  -0.0678536  0.111588  0.672383  0.0470487  0  0  0  0  1.31521  -0  0  0  0  0  0  0  0  0  0 
1704458759.964922000  -2.44306  -0.116016  1.02818  0  0  -0.0687755  0.111588  0.678945  0.0470487  0  0  0  0  1.30927  -0  0  0  0  0  0  0  0  0  0 
1704458759.969922000  -2.4425  -0.112605  1.02842  0  0  -0.0697036  0.111588  0.685476  0.0470487  0  0  0  0  1.30308  -0  0  0  0  0  0  0  0  0  0 
1704458759.974929000  -2.44194  -0.109161  1.02865  0  0  -0.0706378  0.111588  0.691975  0.0470487  0  0  0  0  1.29665  -0  0  0  0  0  0  0  0  0  0 
1704458759.979947000  -2.44139  -0.105685  1.02889  0  0  -0.0715783  0.111588  0.698442  0.0470487  0  0  0  0  1.28996  -0  0  0  0  0  0  0  0  0  0 
1704458759.984925000  -2.44083  -0.102177  1.02912  0  0  -0.0725248  0.111588  0.704874  0.0470487  0  0  0  0  1.28302  -0  0  0  0  0  0  0  0  0  0 
1704458759.989924000  -2.44027  -0.0986362  1.02936  0  0  -0.0734773  0.111588  0.711271  0.0470487  0  0  0  0  1.27583  -0  0  0  0  0  0  0  0  0  0 
1704458759.994927000  -2.43971  -0.0950639  1.02959  0  0  -0.0744358  0.111588  0.717632  0.0470487  0  0  0  0  1.26839  -0  0  0  0  0  0  0  0  0  0 
1704458759.999931000  -2.43915  -0.0914599  1.02983  0  0  -0.0754002  0.111588  0.723955  0.0470487  0  0  0  0  1.2607  -0  0  0  0  0  0  0  0  0  0 
1704458760.004918000  -2.4386  -0.0878244  1.03006  0  0  -0.0763704  0.111588  0.730239  0.0470487  0  0  0  0  1.25276  -0  0  0  0  0  0  0  0  0  0 
1704458760.009914000  -2.43804  -0.0841576  1.0303  0  0  -0.0773463  0.111588  0.736482  0.0470487  0  0  0  0  1.24457  -0  0  0  0  0  0  0  0  0  0 
1704458760.014921000  -2.43748  -0.0804596  1.03053  0  0  -0.0783278  0.111588  0.742684  0.0470487  0  0  0  0  1.23613  -0  0  0  0  0  0  0  0  0  0 
1704458760.019945000  -2.43692  -0.0767308  1.03077  0  0  -0.0793147  0.111588  0.748843  0.0470487  0  0  0  0  1.22745  -0  0  0  0  0  0  0  0  0  0 
1704458760.024925000  -2.43636  -0.0729713  1.03101  0  0  -0.080307  0.111588  0.754958  0.0470487  0  0  0  0  1.21851  -0  0  0  0  0  0  0  0  0  0 
1704458760.029931000  -2.43581  -0.0691813  1.03124  0  0  -0.0813044  0.111588  0.761028  0.0470487  0  0  0  0  1.20932  -0  0  0  0  0  0  0  0  0  0 
1704458760.034918000  -2.43525  -0.0653611  1.03148  0  0  -0.0823069  0.111588  0.767051  0.0470487  0  0  0  0  1.19988  -0  0  0  0  0  0  0  0  0  0 
1704458760.039947000  -2.43469  -0.0615109  1.03171  0  0  -0.0833143  0.111588  0.773026  0.0470487  0  0  0  0  1.19019  -0  0  0  0  0  0  0  0  0  0 
1704458760.044926000  -2.43413  -0.0576309  1.03195  0  0  -0.0843264  0.111588  0.778952  0.0470487  0  0  0  0  1.18025  -0  0  0  0  0  0  0  0  0  0 
1704458760.049953000  -2.43357  -0.0537214  1.03218  0  0  -0.085343  0.111588  0.784828  0.0470487  0  0  0  0  1.17006  -0  0  0  0  0  0  0  0  0  0 
1704458760.054944000  -2.43302  -0.0497827  1.03242  0  0  -0.086364  0.111588  0.790653  0.0470487  0  0  0  0  1.15962  -0  0  0  0  0  0  0  0  0  0 
1704458760.059932000  -2.43246  -0.045815  1.03265  0  0  -0.0873891  0.111588  0.796424  0.0470487  0  0  0  0  1.14894  -0  0  0  0  0  0  0  0  0  0 
1704458760.064924000  -2.4319  -0.0418186  1.03289  0  0  -0.0884182  0.111588  0.802142  0.0470487  0  0  0  0  1.138  -0  0  0  0  0  0  0  0  0  0 
1704458760.069920000  -2.43134  -0.0377937  1.03312  0  0  -0.0894509  0.111588  0.807804  0.0470487  0  0  0  0  1.12681  -0  0  0  0  0  0  0  0  0  0 
1704458760.074926000  -2.43078  -0.0337406  1.03336  0  0  -0.0904872  0.111588  0.813409  0.0470487  0  0  0  0  1.11537  -0  0  0  0  0  0  0  0  0  0 
1704458760.079937000  -2.43023  -0.0296597  1.03359  0  0  -0.0915267  0.111588  0.818957  0.0470487  0  0  0  0  1.10368  -0  0  0  0  0  0  0  0  0  0 
1704458760.084916000  -2.42967  -0.0255512  1.03383  0  0  -0.0925691  0.111588  0.824446  0.0470487  0  0  0  0  1.09174  -0  0  0  0  0  0  0  0  0  0 
1704458760.089921000  -2.42911  -0.0214153  1.03406  0  0  -0.0936144  0.111588  0.829874  0.0470487  0  0  0  0  1.07955  -0  0  0  0  0  0  0  0  0  0 
1704458760.094923000  -2.42855  -0.0172525  1.0343  0  0  -0.0946621  0.111588  0.835241  0.0470487  0  0  0  0  1.06711  -0  0  0  0  0  0  0  0  0  0 
1704458760.099974000  -2.428  -0.013063  1.03453  0  0  -0.0957122  0.111588  0.840545  0.0470487  0  0  0  0  1.05442  -0  0  0  0  0  0  0  0  0  0 
1704458760.104923000  -2.42744  -0.0088472  1.03477  0  0  -0.0967643  0.111588  0.845784  0.0470487  0  0  0  0  1.04149  -0  0  0  0  0  0  0  0  0  0 
1704458760.109914000  -2.42688  -0.0046053  1.035  0  0  -0.0978184  0.111588  0.850959  0.0470487  0  0  0  0  1.0283  -0  0  0  0  0  0  0  0  0  0 
1704458760.114922000  -2.42632  -0.0003377  1.03524  0  0  -0.0988742  0.111588  0.856067  0.0470487  0  0  0  0  1.01486  -0  0  0  0  0  0  0  0  0  0 
1704458760.119936000  -2.42576  0.0039553  1.03548  0  0  -0.0999314  0.111588  0.861107  0.0470487  0  0  0  0  1.00117  -0  0  0  0  0  0  0  0  0  0 
1704458760.124915000  -2.42521  0.0082733  1.03571  0  0  -0.10099  0.111588  0.866078  0.0470487  0  0  0  0  0.987231  -0  0  0  0  0  0  0  0  0  0 
1704458760.129924000  -2.42465  0.0126159  1.03595  0  0  -0.10205  0.111588  0.870979  0.0470487  0  0  0  0  0.973042  -0  0  0  0  0  0  0  0  0  0 
1704458760.134916000  -2.42409  0.0169829  1.03618  0  0  -0.103111  0.111588  0.875808  0.0470487  0  0  0  0  0.958603  -0  0  0  0  0  0  0  0  0  0 
1704458760.139938000  -2.42353  0.0213739  1.03642  0  0  -0.104173  0.111588  0.880565  0.0470487  0  0  0  0  0.943914  -0  0  0  0  0  0  0  0  0  0 
1704458760.144928000  -2.42297  0.0257885  1.03665  0  0  -0.105235  0.111588  0.885247  0.0470487  0  0  0  0  0.928976  -0  0  0  0  0  0  0  0  0  0 
1704458760.149939000  -2.42242  0.0302262  1.03689  0  0  -0.106298  0.111588  0.889854  0.0470487  0  0  0  0  0.913787  -0  0  0  0  0  0  0  0  0  0 
1704458760.154935000  -2.42186  0.0346869  1.03712  0  0  -0.107362  0.111588  0.894385  0.0470487  0  0  0  0  0.898348  -0  0  0  0  0  0  0  0  0  0 
1704458760.159945000  -2.4213  0.03917  1.03736  0  0  -0.108426  0.111588  0.898837  0.0470487  0  0  0  0  0.882659  -0  0  0  0  0  0  0  0  0  0 
1704458760.164948000  -2.42074  0.0436751  1.03759  0  0  -0.109491  0.111588  0.903211  0.0470487  0  0  0  0  0.86672  -0  0  0  0  0  0  0  0  0  0 
1704458760.169942000  -2.42018  0.0482019  1.03783  0  0  -0.110556  0.111588  0.907504  0.0470487  0  0  0  0  0.850532  -0  0  0  0  0  0  0  0  0  0 
1704458760.174930000  -2.41963  0.05275  1.03806  0  0  -0.111621  0.111588  0.911716  0.0470487  0  0  0  0  0.834093  -0  0  0  0  0  0  0  0  0  0 
1704458760.179938000  -2.41907  0.0573189  1.0383  0  0  -0.112686  0.111588  0.915844  0.0470487  0  0  0  0  0.817404  -0  0  0  0  0  0  0  0  0  0 
1704458760.184917000  -2.41851  0.0619083  1.03853  0  0  -0.113752  0.111588  0.919889  0.0470487  0  0  0  0  0.800465  -0  0  0  0  0  0  0  0  0  0 
1704458760.189915000  -2.41795  0.0665177  1.03877  0  0  -0.114817  0.111588  0.923849  0.0470487  0  0  0  0  0.783276  -0  0  0  0  0  0  0  0  0  0 
1704458760.194927000  -2.41739  0.0711467  1.039  0  0  -0.115882  0.111588  0.927722  0.0470487  0  0  0  0  0.765837  -0  0  0  0  0  0  0  0  0  0 
1704458760.199932000  -2.41684  0.0757948  1.03924  0  0  -0.116948  0.111588  0.931507  0.0470487  0  0  0  0  0.748149  -0  0  0  0  0  0  0  0  0  0 
1704458760.204940000  -2.41628  0.0804616  1.03947  0  0  -0.118013  0.111588  0.935203  0.0470487  0  0  0  0  0.73021  -0  0  0  0  0  0  0  0  0  0 
1704458760.209931000  -2.41572  0.0851466  1.03971  0  0  -0.119079  0.111588  0.938808  0.0470487  0  0  0  0  0.712021  -0  0  0  0  0  0  0  0  0  0 
1704458760.214938000  -2.41516  0.0898495  1.03994  0  0  -0.120144  0.111588  0.942322  0.0470487  0  0  0  0  0.693582  -0  0  0  0  0  0  0  0  0  0 
1704458760.219935000  -2.4146  0.0945697  1.04018  0  0  -0.12121  0.111588  0.945744  0.0470487  0  0  0  0  0.675088  -0  0  0  0  0  0  0  0  0  0 
1704458760.224929000  -2.41405  0.0993068  1.04042  0  0  -0.122275  0.111588  0.949074  0.0470487  0  0  0  0  0.656841  -0  0  0  0  0  0  0  0  0  0 
1704458760.229940000  -2.41349  0.10406  1.04065  0  0  -0.12334  0.111588  0.952313  0.0470487  0  0  0  0  0.638843  -0  0  0  0  0  0  0  0  0  0 
1704458760.234924000  -2.41293  0.10883  1.04089  0  0  -0.124406  0.111588  0.955463  0.0470487  0  0  0  0  0.621096  -0  0  0  0  0  0  0  0  0  0 
1704458760.239935000  -2.41237  0.113615  1.04112  0  0  -0.125471  0.111588  0.958524  0.0470487  0  0  0  0  0.603599  -0  0  0  0  0  0  0  0  0  0 
1704458760.244925000  -2.41181  0.118415  1.04136  0  0  -0.126537  0.111588  0.961499  0.0470487  0  0  0  0  0.586351  -0  0  0  0  0  0  0  0  0  0 
1704458760.249929000  -2.41126  0.12323  1.04159  0  0  -0.127602  0.111588  0.964388  0.0470487  0  0  0  0  0.569354  -0  0  0  0  0  0  0  0  0  0 
1704458760.254924000  -2.4107  0.128059  1.04183  0  0  -0.128668  0.111588  0.967193  0.0470487  0  0  0  0  0.552607  -0  0  0  0  0  0  0  0  0  0 
1704458760.259938000  -2.41014  0.132901  1.04206  0  0  -0.129733  0.111588  0.969915  0.0470487  0  0  0  0  0.536109  -0  0  0  0  0  0  0  0  0  0 
1704458760.264937000  -2.40958  0.137758  1.0423  0  0  -0.130799  0.111588  0.972554  0.0470487  0  0  0  0  0.519862  -0  0  0  0  0  0  0  0  0  0 
1704458760.269935000  -2.40903  0.142627  1.04253  0  0  -0.131864  0.111588  0.975114  0.0470487  0  0  0  0  0.503865  -0  0  0  0  0  0  0  0  0  0 
1704458760.274931000  -2.40847  0.147509  1.04277  0  0  -0.132929  0.111588  0.977593  0.0470487  0  0  0  0  0.488117  -0  0  0  0  0  0  0  0  0  0 
1704458760.279944000  -2.40791  0.152403  1.043  0  0  -0.133995  0.111588  0.979995  0.0470487  0  0  0  0  0.47262  -0  0  0  0  0  0  0  0  0  0 
1704458760.284929000  -2.40735  0.157308  1.04324  0  0  -0.13506  0.111588  0.98232  0.0470487  0  0  0  0  0.457372  -0  0  0  0  0  0  0  0  0  0 
1704458760.289920000  -2.40679  0.162226  1.04347  0  0  -0.136126  0.111588  0.984569  0.0470487  0  0  0  0  0.442375  -0  0  0  0  0  0  0  0  0  0 
1704458760.294920000  -2.40624  0.167154  1.04371  0  0  -0.137191  0.111588  0.986744  0.0470487  0  0  0  0  0.427628  -0  0  0  0  0  0  0  0  0  0 
1704458760.299924000  -2.40568  0.172093  1.04394  0  0  -0.138257  0.111588  0.988846  0.0470487  0  0  0  0  0.41313  -0  0  0  0  0  0  0  0  0  0 
1704458760.304924000  -2.40512  0.177042  1.04418  0  0  -0.139322  0.111588  0.990876  0.0470487  0  0  0  0  0.398883  -0  0  0  0  0  0  0  0  0  0 
1704458760.309932000  -2.40456  0.182002  1.04441  0  0  -0.140388  0.111588  0.992835  0.0470487  0  0  0  0  0.384886  -0  0  0  0  0  0  0  0  0  0 
1704458760.314933000  -2.404  0.186971  1.04465  0  0  -0.141453  0.111588  0.994725  0.0470487  0  0  0  0  0.371138  -0  0  0  0  0  0  0  0  0  0 
1704458760.319944000  -2.40345  0.191949  1.04488  0  0  -0.142518  0.111588  0.996547  0.0470487  0  0  0  0  0.357641  -0  0  0  0  0  0  0  0  0  0 
1704458760.324933000  -2.40289  0.196936  1.04512  0  0  -0.143584  0.111588  0.998302  0.0470487  0  0  0  0  0.344393  -0  0  0  0  0  0  0  0  0  0 
1704458760.329916000  -2.40233  0.201932  1.04536  0  0  -0.144649  0.111588  0.999991  0.0470487  0  0  0  0  0.331396  -0  0  0  0  0  0  0  0  0  0 
1704458760.334936000  -2.40177  0.206936  1.04559  0  0  -0.145715  0.111588  1.00162  0.0470487  0  0  0  0  0.318649  -0  0  0  0  0  0  0  0  0  0 
1704458760.339947000  -2.40121  0.211948  1.04583  0  0  -0.14678  0.111588  1.00318  0.0470487  0  0  0  0  0.306151  -0  0  0  0  0  0  0  0  0  0 
1704458760.344934000  -2.40066  0.216967  1.04606  0  0  -0.147846  0.111588  1.00468  0.0470487  0  0  0  0  0.293904  -0  0  0  0  0  0  0  0  0  0 
1704458760.349933000  -2.4001  0.221994  1.0463  0  0  -0.148911  0.111588  1.00612  0.0470487  0  0  0  0  0.281907  -0  0  0  0  0  0  0  0  0  0 
1704458760.354934000  -2.39954  0.227029  1.04653  0  0  -0.149976  0.111588  1.0075  0.0470487  0  0  0  0  0.270159  -0  0  0  0  0  0  0  0  0  0 
1704458760.359948000  -2.39898  0.232069  1.04677  0  0  -0.151042  0.111588  1.00882  0.0470487  0  0  0  0  0.258662  -0  0  0  0  0  0  0  0  0  0 
1704458760.364955000  -2.39842  0.237117  1.047  0  0  -0.152107  0.111588  1.01008  0.0470487  0  0  0  0  0.247414  -0  0  0  0  0  0  0  0  0  0 
1704458760.369943000  -2.39787  0.24217  1.04724  0  0  -0.153173  0.111588  1.01129  0.0470487  0  0  0  0  0.236417  -0  0  0  0  0  0  0  0  0  0 
1704458760.374943000  -2.39731  0.247229  1.04747  0  0  -0.154238  0.111588  1.01245  0.0470487  0  0  0  0  0.22567  -0  0  0  0  0  0  0  0  0  0 
1704458760.379950000  -2.39675  0.252295  1.04771  0  0  -0.155304  0.111588  1.01355  0.0470487  0  0  0  0  0.215172  -0  0  0  0  0  0  0  0  0  0 
1704458760.384938000  -2.39619  0.257365  1.04794  0  0  -0.156369  0.111588  1.0146  0.0470487  0  0  0  0  0.204925  -0  0  0  0  0  0  0  0  0  0 
1704458760.389938000  -2.39563  0.26244  1.04818  0  0  -0.157435  0.111588  1.0156  0.0470487  0  0  0  0  0.194928  -0  0  0  0  0  0  0  0  0  0 
1704458760.394942000  -2.39508  0.267521  1.04841  0  0  -0.1585  0.111588  1.01655  0.0470487  0  0  0  0  0.18518  -0  0  0  0  0  0  0  0  0  0 
1704458760.399951000  -2.39452  0.272606  1.04865  0  0  -0.159565  0.111588  1.01745  0.0470487  0  0  0  0  0.175683  -0  0  0  0  0  0  0  0  0  0 
1704458760.404939000  -2.39396  0.277695  1.04888  0  0  -0.160631  0.111588  1.01831  0.0470487  0  0  0  0  0.166435  -0  0  0  0  0  0  0  0  0  0 
1704458760.409937000  -2.3934  0.282789  1.04912  0  0  -0.161696  0.111588  1.01912  0.0470487  0  0  0  0  0.157438  -0  0  0  0  0  0  0  0  0  0 
1704458760.414939000  -2.39285  0.287886  1.04935  0  0  -0.162762  0.111588  1.01988  0.0470487  0  0  0  0  0.148691  -0  0  0  0  0  0  0  0  0  0 
1704458760.419951000  -2.39229  0.292988  1.04959  0  0  -0.163827  0.111588  1.02061  0.0470487  0  0  0  0  0.140193  -0  0  0  0  0  0  0  0  0  0 
1704458760.424938000  -2.39173  0.298092  1.04982  0  0  -0.164893  0.111588  1.02129  0.0470487  0  0  0  0  0.131946  -0  0  0  0  0  0  0  0  0  0 
1704458760.429938000  -2.39117  0.3032  1.05006  0  0  -0.165958  0.111588  1.02193  0.0470487  0  0  0  0  0.123949  -0  0  0  0  0  0  0  0  0  0 
1704458760.434938000  -2.39061  0.308312  1.0503  0  0  -0.167024  0.111588  1.02253  0.0470487  0  0  0  0  0.116201  -0  0  0  0  0  0  0  0  0  0 
1704458760.439951000  -2.39006  0.313426  1.05053  0  0  -0.168089  0.111588  1.02309  0.0470487  0  0  0  0  0.108704  -0  0  0  0  0  0  0  0  0  0 
1704458760.444937000  -2.3895  0.318542  1.05077  0  0  -0.169154  0.111588  1.02361  0.0470487  0  0  0  0  0.101456  -0  0  0  0  0  0  0  0  0  0 
1704458760.449940000  -2.38894  0.323662  1.051  0  0  -0.17022  0.111588  1.0241  0.0470487  0  0  0  0  0.094459  -0  0  0  0  0  0  0  0  0  0 
1704458760.454935000  -2.38838  0.328783  1.05124  0  0  -0.171285  0.111588  1.02456  0.0470487  0  0  0  0  0.0877117  -0  0  0  0  0  0  0  0  0  0 
1704458760.459952000  -2.38782  0.333907  1.05147  0  0  -0.172351  0.111588  1.02498  0.0470487  0  0  0  0  0.0812143  -0  0  0  0  0  0  0  0  0  0 
1704458760.464936000  -2.38727  0.339033  1.05171  0  0  -0.173416  0.111588  1.02537  0.0470487  0  0  0  0  0.0749669  -0  0  0  0  0  0  0  0  0  0 
1704458760.469938000  -2.38671  0.344161  1.05194  0  0  -0.174482  0.111588  1.02573  0.0470487  0  0  0  0  0.0689696  -0  0  0  0  0  0  0  0  0  0 
1704458760.474916000  -2.38615  0.34929  1.05218  0  0  -0.175547  0.111588  1.02606  0.0470487  0  0  0  0  0.0632222  -0  0  0  0  0  0  0  0  0  0 
1704458760.479952000  -2.38559  0.354421  1.05241  0  0  -0.176613  0.111588  1.02636  0.0470487  0  0  0  0  0.0577248  -0  0  0  0  0  0  0  0  0  0 
1704458760.484936000  -2.38503  0.359554  1.05265  0  0  -0.177678  0.111588  1.02664  0.0470487  0  0  0  0  0.0524774  -0  0  0  0  0  0  0  0  0  0 
1704458760.489940000  -2.38448  0.364688  1.05288  0  0  -0.178743  0.111588  1.02689  0.0470487  0  0  0  0  0.0474801  -0  0  0  0  0  0  0  0  0  0 
1704458760.494933000  -2.38392  0.369823  1.05312  0  0  -0.179809  0.111588  1.02711  0.0470487  0  0  0  0  0.0427327  -0  0  0  0  0  0  0  0  0  0 
1704458760.499951000  -2.38336  0.374959  1.05335  0  0  -0.180874  0.111588  1.02732  0.0470487  0  0  0  0  0.0382353  -0  0  0  0  0  0  0  0  0  0 
1704458760.504935000  -2.3828  0.380096  1.05359  0  0  -0.18194  0.111588  1.0275  0.0470487  0  0  0  0  0.0339879  -0  0  0  0  0  0  0  0  0  0 
1704458760.509920000  -2.38224  0.385234  1.05382  0  0  -0.183005  0.111588  1.02766  0.0470487  0  0  0  0  0.0299906  -0  0  0  0  0  0  0  0  0  0 
1704458760.514938000  -2.38169  0.390372  1.05406  0  0  -0.184071  0.111588  1.0278  0.0470487  0  0  0  0  0.0262432  -0  0  0  0  0  0  0  0  0  0 
1704458760.519945000  -2.38113  0.395512  1.05429  0  0  -0.185136  0.111588  1.02792  0.0470487  0  0  0  0  0.0227458  -0  0  0  0  0  0  0  0  0  0 
1704458760.524934000  -2.38057  0.400652  1.05453  0  0  -0.186201  0.111588  1.02802  0.0470487  0  0  0  0  0.0194984  -0  0  0  0  0  0  0  0  0  0 
1704458760.529915000  -2.38001  0.405792  1.05477  0  0  -0.187267  0.111588  1.02811  0.0470487  0  0  0  0  0.0165011  -0  0  0  0  0  0  0  0  0  0 
1704458760.534933000  -2.37945  0.410933  1.055  0  0  -0.188332  0.111588  1.02819  0.0470487  0  0  0  0  0.0137537  -0  0  0  0  0  0  0  0  0  0 
1704458760.539946000  -2.3789  0.416074  1.05524  0  0  -0.189398  0.111588  1.02825  0.0470487  0  0  0  0  0.0112563  -0  0  0  0  0  0  0  0  0  0 
1704458760.544931000  -2.37834  0.421215  1.05547  0  0  -0.190463  0.111588  1.0283  0.0470487  0  0  0  0  0.0090089  -0  0  0  0  0  0  0  0  0  0 
1704458760.549934000  -2.37778  0.426357  1.05571  0  0  -0.191529  0.111588  1.02834  0.0470487  0  0  0  0  0.0070116  -0  0  0  0  0  0  0  0  0  0 
1704458760.554923000  -2.37722  0.431499  1.05594  0  0  -0.192594  0.111588  1.02837  0.0470487  0  0  0  0  0.0052642  -0  0  0  0  0  0  0  0  0  0 
1704458760.559935000  -2.37666  0.436641  1.05618  0  0  -0.19366  0.111588  1.0284  0.0470487  0  0  0  0  0.0037668  -0  0  0  0  0  0  0  0  0  0 
1704458760.564921000  -2.37611  0.441783  1.05641  0  0  -0.194725  0.111588  1.02841  0.0470487  0  0  0  0  0.0025194  -0  0  0  0  0  0  0  0  0  0 
1704458760.569917000  -2.37555  0.446925  1.05665  0  0  -0.19579  0.111588  1.02842  0.0470487  0  0  0  0  0.0015221  -0  0  0  0  0  0  0  0  0  0 
1704458760.574913000  -2.37499  0.452067  1.05688  0  0  -0.196856  0.111588  1.02843  0.0470487  0  0  0  0  0.0007747  -0  0  0  0  0  0  0  0  0  0 
1704458760.579936000  -2.37443  0.457209  1.05712  0  0  -0.197921  0.111588  1.02843  0.0470487  0  0  0  0  0.0002773  -0  0  0  0  0  0  0  0  0  0 
1704458760.584915000  -2.37388  0.462351  1.05735  0  0  -0.198987  0.111588  1.02843  0.0470487  0  0  0  0  3e-05  -0  0  0  0  0  0  0  0  0  0 
1704458760.589930000  -2.37332  0.467493  1.05759  0  0  -0.200052  0.111588  1.02843  0.0470487  0  0  0  0  -3.26e-05  -0  0  0  0  0  0  0  0  0  0 
1704458760.594929000  -2.37276  0.472635  1.05782  0  0  -0.201118  0.111588  1.02843  0.0470487  0  0  0  0  -0.0002852  -0  0  0  0  0  0  0  0  0  0 
1704458760.599939000  -2.3722  0.477778  1.05806  0  0  -0.202183  0.111588  1.02843  0.0470487  0  0  0  0  -0.0007878  -0  0  0  0  0  0  0  0  0  0 
1704458760.604929000  -2.37164  0.48292  1.05829  0  0  -0.203249  0.111588  1.02842  0.0470487  0  0  0  0  -0.0015405  -0  0  0  0  0  0  0  0  0  0 
1704458760.609926000  -2.37109  0.488062  1.05853  0  0  -0.204314  0.111588  1.02841  0.0470487  0  0  0  0  -0.0025431  -0  0  0  0  0  0  0  0  0  0 
1704458760.614926000  -2.37053  0.493204  1.05876  0  0  -0.205379  0.111588  1.0284  0.0470487  0  0  0  0  -0.0037957  -0  0  0  0  0  0  0  0  0  0 
1704458760.619941000  -2.36997  0.498346  1.059  0  0  -0.206445  0.111588  1.02837  0.0470487  0  0  0  0  -0.0052983  -0  0  0  0  0  0  0  0  0  0 
1704458760.624918000  -2.36941  0.503487  1.05923  0  0  -0.20751  0.111588  1.02834  0.0470487  0  0  0  0  -0.007051  -0  0  0  0  0  0  0  0  0  0 
1704458760.629927000  -2.36885  0.508629  1.05947  0  0  -0.208576  0.111588  1.0283  0.0470487  0  0  0  0  -0.0090536  -0  0  0  0  0  0  0  0  0  0 
1704458760.634924000  -2.3683  0.51377  1.05971  0  0  -0.209641  0.111588  1.02825  0.0470487  0  0  0  0  -0.0113062  -0  0  0  0  0  0  0  0  0  0 
1704458760.639926000  -2.36774  0.518912  1.05994  0  0  -0.210707  0.111588  1.02819  0.0470487  0  0  0  0  -0.0138088  -0  0  0  0  0  0  0  0  0  0 
1704458760.644932000  -2.36718  0.524052  1.06018  0  0  -0.211772  0.111588  1.02811  0.0470487  0  0  0  0  -0.0165615  -0  0  0  0  0  0  0  0  0  0 
1704458760.649930000  -2.36662  0.529193  1.06041  0  0  -0.212837  0.111588  1.02802  0.0470487  0  0  0  0  -0.0195641  -0  0  0  0  0  0  0  0  0  0 
1704458760.654932000  -2.36606  0.534333  1.06065  0  0  -0.213903  0.111588  1.02792  0.0470487  0  0  0  0  -0.0228167  -0  0  0  0  0  0  0  0  0  0 
1704458760.659932000  -2.36551  0.539472  1.06088  0  0  -0.214968  0.111588  1.02779  0.0470487  0  0  0  0  -0.0263193  -0  0  0  0  0  0  0  0  0  0 
1704458760.664937000  -2.36495  0.54461  1.06112  0  0  -0.216034  0.111588  1.02765  0.0470487  0  0  0  0  -0.030072  -0  0  0  0  0  0  0  0  0  0 
1704458760.669931000  -2.36439  0.549748  1.06135  0  0  -0.217099  0.111588  1.02749  0.0470487  0  0  0  0  -0.0340746  -0  0  0  0  0  0  0  0  0  0 
1704458760.674932000  -2.36383  0.554885  1.06159  0  0  -0.218165  0.111588  1.02731  0.0470487  0  0  0  0  -0.0383272  -0  0  0  0  0  0  0  0  0  0 
1704458760.679941000  -2.36327  0.560021  1.06182  0  0  -0.21923  0.111588  1.02711  0.0470487  0  0  0  0  -0.0428298  -0  0  0  0  0  0  0  0  0  0 
1704458760.684925000  -2.36272  0.565156  1.06206  0  0  -0.220296  0.111588  1.02688  0.0470487  0  0  0  0  -0.0475825  -0  0  0  0  0  0  0  0  0  0 
1704458760.689927000  -2.36216  0.57029  1.06229  0  0  -0.221361  0.111588  1.02663  0.0470487  0  0  0  0  -0.0525851  -0  0  0  0  0  0  0  0  0  0 
1704458760.694927000  -2.3616  0.575423  1.06253  0  0  -0.222426  0.111588  1.02636  0.0470487  0  0  0  0  -0.0578377  -0  0  0  0  0  0  0  0  0  0 
1704458760.699937000  -2.36104  0.580554  1.06276  0  0  -0.223492  0.111588  1.02605  0.0470487  0  0  0  0  -0.0633404  -0  0  0  0  0  0  0  0  0  0 
1704458760.704926000  -2.36048  0.585683  1.063  0  0  -0.224557  0.111588  1.02572  0.0470487  0  0  0  0  -0.069093  -0  0  0  0  0  0  0  0  0  0 
1704458760.709918000  -2.35993  0.590811  1.06323  0  0  -0.225623  0.111588  1.02536  0.0470487  0  0  0  0  -0.0750956  -0  0  0  0  0  0  0  0  0  0 
1704458760.714927000  -2.35937  0.595937  1.06347  0  0  -0.226688  0.111588  1.02497  0.0470487  0  0  0  0  -0.0813482  -0  0  0  0  0  0  0  0  0  0 
1704458760.719931000  -2.35881  0.601061  1.0637  0  0  -0.227754  0.111588  1.02455  0.0470487  0  0  0  0  -0.0878509  -0  0  0  0  0  0  0  0  0  0 
1704458760.724927000  -2.35825  0.606182  1.06394  0  0  -0.228819  0.111588  1.02409  0.0470487  0  0  0  0  -0.0946035  -0  0  0  0  0  0  0  0  0  0 
1704458760.729926000  -2.35769  0.611301  1.06417  0  0  -0.229885  0.111588  1.0236  0.0470487  0  0  0  0  -0.101606  -0  0  0  0  0  0  0  0  0  0 
1704458760.734934000  -2.35714  0.616418  1.06441  0  0  -0.23095  0.111588  1.02308  0.0470487  0  0  0  0  -0.108859  -0  0  0  0  0  0  0  0  0  0 
1704458760.739954000  -2.35658  0.621532  1.06465  0  0  -0.232015  0.111588  1.02251  0.0470487  0  0  0  0  -0.116361  -0  0  0  0  0  0  0  0  0  0 
1704458760.744917000  -2.35602  0.626643  1.06488  0  0  -0.233081  0.111588  1.02191  0.0470487  0  0  0  0  -0.124114  -0  0  0  0  0  0  0  0  0  0 
1704458760.749928000  -2.35546  0.631751  1.06512  0  0  -0.234146  0.111588  1.02127  0.0470487  0  0  0  0  -0.132117  -0  0  0  0  0  0  0  0  0  0 
1704458760.754926000  -2.35491  0.636856  1.06535  0  0  -0.235212  0.111588  1.02059  0.0470487  0  0  0  0  -0.140369  -0  0  0  0  0  0  0  0  0  0 
1704458760.759930000  -2.35435  0.641957  1.06559  0  0  -0.236277  0.111588  1.01987  0.0470487  0  0  0  0  -0.148872  -0  0  0  0  0  0  0  0  0  0 
1704458760.764911000  -2.35379  0.647054  1.06582  0  0  -0.237343  0.111588  1.0191  0.0470487  0  0  0  0  -0.157624  -0  0  0  0  0  0  0  0  0  0 
1704458760.769915000  -2.35323  0.652148  1.06606  0  0  -0.238408  0.111588  1.01829  0.0470487  0  0  0  0  -0.166627  -0  0  0  0  0  0  0  0  0  0 
1704458760.774923000  -2.35267  0.657237  1.06629  0  0  -0.239474  0.111588  1.01743  0.0470487  0  0  0  0  -0.17588  -0  0  0  0  0  0  0  0  0  0 
1704458760.779946000  -2.35212  0.662322  1.06653  0  0  -0.240539  0.111588  1.01653  0.0470487  0  0  0  0  -0.185382  -0  0  0  0  0  0  0  0  0  0 
1704458760.784915000  -2.35156  0.667403  1.06676  0  0  -0.241604  0.111588  1.01558  0.0470487  0  0  0  0  -0.195135  -0  0  0  0  0  0  0  0  0  0 
1704458760.789923000  -2.351  0.672478  1.067  0  0  -0.24267  0.111588  1.01458  0.0470487  0  0  0  0  -0.205138  -0  0  0  0  0  0  0  0  0  0 
1704458760.794919000  -2.35044  0.677548  1.06723  0  0  -0.243735  0.111588  1.01353  0.0470487  0  0  0  0  -0.21539  -0  0  0  0  0  0  0  0  0  0 
1704458760.799946000  -2.34988  0.682613  1.06747  0  0  -0.244801  0.111588  1.01243  0.0470487  0  0  0  0  -0.225893  -0  0  0  0  0  0  0  0  0  0 
1704458760.804930000  -2.34933  0.687672  1.0677  0  0  -0.245866  0.111588  1.01127  0.0470487  0  0  0  0  -0.236645  -0  0  0  0  0  0  0  0  0  0 
1704458760.809915000  -2.34877  0.692726  1.06794  0  0  -0.246932  0.111588  1.01006  0.0470487  0  0  0  0  -0.247648  -0  0  0  0  0  0  0  0  0  0 
1704458760.814918000  -2.34821  0.697773  1.06817  0  0  -0.247997  0.111588  1.00879  0.0470487  0  0  0  0  -0.258901  -0  0  0  0  0  0  0  0  0  0 
1704458760.819936000  -2.34765  0.702814  1.06841  0  0  -0.249062  0.111588  1.00747  0.0470487  0  0  0  0  -0.270403  -0  0  0  0  0  0  0  0  0  0 
1704458760.824919000  -2.34709  0.707848  1.06864  0  0  -0.250128  0.111588  1.00609  0.0470487  0  0  0  0  -0.282156  -0  0  0  0  0  0  0  0  0  0 
1704458760.829920000  -2.34654  0.712874  1.06888  0  0  -0.251193  0.111588  1.00465  0.0470487  0  0  0  0  -0.294159  -0  0  0  0  0  0  0  0  0  0 
1704458760.834944000  -2.34598  0.717894  1.06911  0  0  -0.252259  0.111588  1.00315  0.0470487  0  0  0  0  -0.306411  -0  0  0  0  0  0  0  0  0  0 
1704458760.839947000  -2.34542  0.722906  1.06935  0  0  -0.253324  0.111588  1.00158  0.0470487  0  0  0  0  -0.318914  -0  0  0  0  0  0  0  0  0  0 
1704458760.844930000  -2.34486  0.72791  1.06959  0  0  -0.25439  0.111588  0.999957  0.0470487  0  0  0  0  -0.331667  -0  0  0  0  0  0  0  0  0  0 
1704458760.849928000  -2.3443  0.732905  1.06982  0  0  -0.255455  0.111588  0.998266  0.0470487  0  0  0  0  -0.344669  -0  0  0  0  0  0  0  0  0  0 
1704458760.854940000  -2.34375  0.737892  1.07006  0  0  -0.256521  0.111588  0.99651  0.0470487  0  0  0  0  -0.357922  -0  0  0  0  0  0  0  0  0  0 
1704458760.859945000  -2.34319  0.74287  1.07029  0  0  -0.257586  0.111588  0.994686  0.0470487  0  0  0  0  -0.371424  -0  0  0  0  0  0  0  0  0  0 
1704458760.864917000  -2.34263  0.747839  1.07053  0  0  -0.258651  0.111588  0.992795  0.0470487  0  0  0  0  -0.385177  -0  0  0  0  0  0  0  0  0  0 
1704458760.869918000  -2.34207  0.752798  1.07076  0  0  -0.259717  0.111588  0.990834  0.0470487  0  0  0  0  -0.39918  -0  0  0  0  0  0  0  0  0  0 
1704458760.874933000  -2.34151  0.757747  1.071  0  0  -0.260782  0.111588  0.988803  0.0470487  0  0  0  0  -0.413432  -0  0  0  0  0  0  0  0  0  0 
1704458760.879939000  -2.34096  0.762686  1.07123  0  0  -0.261848  0.111588  0.986699  0.0470487  0  0  0  0  -0.427935  -0  0  0  0  0  0  0  0  0  0 
1704458760.884926000  -2.3404  0.767614  1.07147  0  0  -0.262913  0.111588  0.984523  0.0470487  0  0  0  0  -0.442688  -0  0  0  0  0  0  0  0  0  0 
1704458760.889930000  -2.33984  0.772531  1.0717  0  0  -0.263979  0.111588  0.982272  0.0470487  0  0  0  0  -0.45769  -0  0  0  0  0  0  0  0  0  0 
1704458760.894930000  -2.33928  0.777437  1.07194  0  0  -0.265044  0.111588  0.979946  0.0470487  0  0  0  0  -0.472943  -0  0  0  0  0  0  0  0  0  0 
1704458760.899932000  -2.33872  0.78233  1.07217  0  0  -0.26611  0.111588  0.977542  0.0470487  0  0  0  0  -0.488445  -0  0  0  0  0  0  0  0  0  0 
1704458760.904931000  -2.33817  0.787212  1.07241  0  0  -0.267175  0.111588  0.975061  0.0470487  0  0  0  0  -0.504198  -0  0  0  0  0  0  0  0  0  0 
1704458760.909932000  -2.33761  0.792081  1.07264  0  0  -0.26824  0.111588  0.9725  0.0470487  0  0  0  0  -0.520201  -0  0  0  0  0  0  0  0  0  0 
1704458760.914928000  -2.33705  0.796937  1.07288  0  0  -0.269306  0.111588  0.969858  0.0470487  0  0  0  0  -0.536453  -0  0  0  0  0  0  0  0  0  0 
1704458760.919933000  -2.33649  0.801779  1.07311  0  0  -0.270371  0.111588  0.967135  0.0470487  0  0  0  0  -0.552956  -0  0  0  0  0  0  0  0  0  0 
1704458760.924933000  -2.33594  0.806608  1.07335  0  0  -0.271437  0.111588  0.964328  0.0470487  0  0  0  0  -0.569709  -0  0  0  0  0  0  0  0  0  0 
1704458760.929930000  -2.33538  0.811422  1.07358  0  0  -0.272502  0.111588  0.961437  0.0470487  0  0  0  0  -0.586711  -0  0  0  0  0  0  0  0  0  0 
1704458760.934924000  -2.33482  0.816222  1.07382  0  0  -0.273568  0.111588  0.958461  0.0470487  0  0  0  0  -0.603964  -0  0  0  0  0  0  0  0  0  0 
1704458760.939934000  -2.33426  0.821007  1.07406  0  0  -0.274633  0.111588  0.955441  0.0470489  0  0  0  0.000125  -0.604089  0.000125  0  0  0  0  0  0  0  0  0 
1704458760.944919000  -2.3337  0.825777  1.07429  0  0  -0.275699  0.111589  0.952419  0.0470504  0  0  0  0.0005  -0.604464  0.0005  0  0  0  0  0  0  0  0  0 
1704458760.949917000  -2.33315  0.830531  1.07453  0  0  -0.276764  0.111593  0.949396  0.0470543  0  0  0  0.001125  -0.605089  0.001125  0  0  0  0  0  0  0  0  0 
1704458760.954917000  -2.33259  0.835271  1.07476  0  0  -0.277829  0.111601  0.946368  0.047062  0  0  0  0.002  -0.605964  0.002  0  0  0  0  0  0  0  0  0 
1704458760.959946000  -2.33203  0.839995  1.075  0  0  -0.278895  0.111614  0.943336  0.0470747  0  0  0  0.003125  -0.607089  0.003125  0  0  0  0  0  0  0  0  0 
1704458760.964919000  -2.33147  0.844704  1.07523  0  0  -0.279961  0.111633  0.940297  0.0470937  0  0  0  0.0045  -0.608464  0.0045  0  0  0  0  0  0  0  0  0 
1704458760.969925000  -2.33091  0.849398  1.07547  0  0  -0.281027  0.111659  0.937251  0.0471202  0  0  0  0.006125  -0.610089  0.006125  0  0  0  0  0  0  0  0  0 
1704458760.974923000  -2.33035  0.854076  1.0757  0  0  -0.282093  0.111694  0.934196  0.0471554  0  0  0  0.008  -0.611964  0.008  0  0  0  0  0  0  0  0  0 
1704458760.979942000  -2.3298  0.85874  1.07594  0  0  -0.283159  0.11174  0.931131  0.0472006  0  0  0  0.010125  -0.614089  0.010125  0  0  0  0  0  0  0  0  0 
1704458760.984920000  -2.32924  0.863388  1.07617  0  0  -0.284226  0.111796  0.928054  0.047257  0  0  0  0.0125  -0.616464  0.0125  0  0  0  0  0  0  0  0  0 
1704458760.989919000  -2.32868  0.86802  1.07641  0  0  -0.285294  0.111865  0.924965  0.047326  0  0  0  0.015125  -0.619089  0.015125  0  0  0  0  0  0  0  0  0 
1704458760.994925000  -2.32812  0.872637  1.07665  0  0  -0.286362  0.111948  0.921863  0.0474087  0  0  0  0.018  -0.621964  0.018  0  0  0  0  0  0  0  0  0 
1704458761.000027000  -2.32756  0.877239  1.07689  0  0  -0.28743  0.112046  0.918745  0.0475064  0  0  0  0.021125  -0.625089  0.021125  0  0  0  0  0  0  0  0  0 
1704458761.004926000  -2.327  0.881825  1.07712  0  0  -0.2885  0.112159  0.915612  0.0476204  0  0  0  0.0245  -0.628464  0.0245  0  0  0  0  0  0  0  0  0 
1704458761.009915000  -2.32644  0.886395  1.07736  0  0  -0.28957  0.112291  0.91246  0.0477518  0  0  0  0.028125  -0.632089  0.028125  0  0  0  0  0  0  0  0  0 
1704458761.014922000  -2.32588  0.890949  1.0776  0  0  -0.290642  0.112441  0.90929  0.047902  0  0  0  0.032  -0.635964  0.032  0  0  0  0  0  0  0  0  0 
