ts fx fy fz tx ty tz exfx exfy exfz extx exty extz xd yd zd rolld pitchd yawd vxd vyd vzd wxd wyd wzd axd ayd azd e_x e_y e_z e_vx e_vy e_vz e_rx e_ry e_rz e_wx e_wy e_wz
1704458759.031751000  0  0  11.4599  0.0497583  -0.0793228  0.0287071  nan  nan  nan  nan  nan  nan  -2.5  -0.3  1  0.0149759  -0.025529  -0.000382307  0  0  0  0  0  0  0  0  0  0.0159935  0.00552692  -0.0110297  -0.00982415  0.00581038  0.00269984  -0.011913  0.0221603  -0.0236913  0.03028  -0.0820633  -0.0612488 
1704458759.035759000  0  0  11.5327  0.0752579  -0.13786  0.0246317  nan  nan  nan  nan  nan  nan  -2.5  -0.3  1  0.0152191  -0.0265988  -0.000404792  0  0  0  0  0  0  0  0  0  0.0161112  0.00542402  -0.0109309  -0.0083202  0.00662849  -0.00556048  -0.0125817  0.0239767  -0.0235481  -0.0121697  0.0123845  -0.0198996 
1704458759.040768000  0  0  11.4561  0.0949348  -0.113175  0.0151189  nan  nan  nan  nan  nan  nan  -2.5  -0.3  1  0.0150032  -0.0237754  -0.000356702  0  0  0  0  0  0  0  0  0  0.0160247  0.0054541  -0.010863  -0.0125574  0.00606449  0.0025975  -0.0128911  0.0210814  -0.0224797  -0.0471288  -0.00473677  0.0691734 
1704458759.045771000  0  0  11.4364  0.0384313  -0.090304  0.0267578  nan  nan  nan  nan  nan  nan  -2.5  -0.3  1  0.0138283  -0.0253372  -0.000350355  0  0  0  0  0  0  0  0  0  0.0161455  0.00534761  -0.010704  -0.0106475  0.00458861  0.00432089  -0.0109596  0.0218205  -0.0235567  0.0421382  -0.0570888  -0.0421417 
1704458759.051230000  0  0  11.5298  0.0615062  -0.159454  0.0220895  nan  nan  nan  nan  nan  nan  -2.5  -0.3  1  0.0140626  -0.026179  -0.000368127  0  0  0  0  0  0  0  0  0  0.0161681  0.00531067  -0.0107041  -0.00913541  0.00522158  -0.00591533  -0.0114266  0.0237789  -0.0233386  0.00225162  0.0564817  0.00467521 
1704458759.055745000  0  0  11.4669  0.0738102  -0.142877  0.0139223  nan  nan  nan  nan  nan  nan  -2.5  -0.3  1  0.0138499  -0.0244512  -0.000338636  0  0  0  0  0  0  0  0  0  0.0161001  0.00533182  -0.0106522  -0.0117377  0.00472477  0.000796201  -0.0115288  0.0221869  -0.0223128  -0.0205816  0.0412247  0.0800477 
1704458759.061314000  0  0  11.4396  0.0335924  -0.136406  0.0262859  nan  nan  nan  nan  nan  nan  -2.5  -0.3  1  0.0133035  -0.0251465  -0.000334522  0  0  0  0  0  0  0  0  0  0.0161406  0.00528197  -0.0105441  -0.010907  0.00400787  0.00347961  -0.0102829  0.0227832  -0.0234269  0.0443305  0.0222845  -0.0385016 
1704458759.068250000  0  0  11.4277  0.0418367  -0.168225  0.0208825  nan  nan  nan  nan  nan  nan  -2.5  -0.3  1  0.0117833  -0.0267504  -0.000315185  0  0  0  0  0  0  0  0  0  0.0163973  0.00497327  -0.0101706  -0.00932111  0.00264449  0.00368329  -0.00878717  0.025137  -0.0232357  0.0123519  0.0590523  0.016308 
1704458759.072752000  0  0  11.3864  0.0440182  -0.16478  0.0237972  nan  nan  nan  nan  nan  nan  -2.5  -0.3  1  0.0117434  -0.0260386  -0.00030576  0  0  0  0  0  0  0  0  0  0.0163486  0.00498377  -0.0101204  -0.0103792  0.00249031  0.00804774  -0.00874994  0.0246681  -0.0234808  0.00771338  0.057356  -0.0118179 
1704458759.077755000  0  0  11.3629  0.0324106  -0.179538  0.027325  nan  nan  nan  nan  nan  nan  -2.5  -0.3  1  0.010202  -0.0276096  -0.000281648  0  0  0  0  0  0  0  0  0  0.0166484  0.0047377  -0.00975968  -0.00902631  0.000904805  0.00956703  -0.00713836  0.0266096  -0.0240686  0.0130983  0.0653479  -0.0429075 
1704458759.082814000  0  0  11.3678  0.050407  -0.190367  0.0227159  nan  nan  nan  nan  nan  nan  -2.5  -0.3  1  0.0104744  -0.0284699  -0.000298175  0  0  0  0  0  0  0  0  0  0.0166173  0.00474631  -0.0097234  -0.00763466  0.00128984  0.00890783  -0.00770455  0.0278725  -0.0237304  -0.0158557  0.0729371  0.00206859 
1704458759.087761000  0  0  11.3604  0.0623228  -0.199123  0.0207669  nan  nan  nan  nan  nan  nan  -2.5  -0.3  1  0.0100178  -0.0281009  -0.000281482  0  0  0  0  0  0  0  0  0  0.0167449  0.0045892  -0.00949398  -0.00859382  0.00107474  0.00903372  -0.00764847  0.027943  -0.023557  -0.0396221  0.0892103  0.0207802 
1704458759.093216000  0  0  11.2937  0.0536184  -0.174456  0.0224785  nan  nan  nan  nan  nan  nan  -2.5  -0.3  1  0.00912714  -0.0281542  -0.00025694  0  0  0  0  0  0  0  0  0  0.0168752  0.00445604  -0.00923035  -0.0091528  7.3187e-05  0.0155729  -0.00694196  0.0277587  -0.0236852  -0.0302312  0.0432146  0.00410456 
1704458759.097744000  0  0  11.3169  0.0599492  -0.18138  0.0242125  nan  nan  nan  nan  nan  nan  -2.5  -0.3  1  0.00934748  -0.0297417  -0.000277977  0  0  0  0  0  0  0  0  0  0.0168604  0.00445938  -0.00919401  -0.00667255  0.000416014  0.0129329  -0.00741699  0.0294254  -0.0238832  -0.0374752  0.038904  -0.0120999 
1704458759.102767000  0  0  11.3508  0.0945983  -0.186517  0.0195513  nan  nan  nan  nan  nan  nan  -2.5  -0.3  1  0.00998178  -0.0284911  -0.000284363  0  0  0  0  0  0  0  0  0  0.0168199  0.00446191  -0.00916088  -0.0082746  0.0013914  0.00910827  -0.00887483  0.0285834  -0.0233918  -0.0893003  0.0578712  0.0318724 
1704458759.107746000  0  0  11.2855  0.0919041  -0.14288  0.0222501  nan  nan  nan  nan  nan  nan  -2.5  -0.3  1  0.010054  -0.0273216  -0.000274668  2e-07  2e-07  2e-07  0  0  0  0.000125  0.000125  0.000125  0.0167629  0.00446707  -0.00904528  -0.010055  0.0014163  0.0159384  -0.00927963  0.0268775  -0.0235213  -0.0797454  -0.00878463  0.00484062 
1704458759.112688000  0  0  11.2908  0.0904926  -0.151895  0.026301  nan  nan  nan  nan  nan  nan  -2.5  -0.3  1  0.00970287  -0.0295323  -0.000286515  1.7e-06  1.7e-06  1.7e-06  0  0  0  0.0005  0.0005  0.0005  0.0169378  0.00435253  -0.00882694  -0.00724082  0.00130435  0.0147891  -0.00938062  0.0288309  -0.024025  -0.0759242  -0.0120853  -0.0325952 
1704458759.118208000  0  0  11.3275  0.12324  -0.151263  0.0203211  nan  nan  nan  nan  nan  nan  -2.5  -0.3  1  0.0102199  -0.0282661  -0.000288849  5.6e-06  5.6e-06  5.6e-06  0  0  0  0.001125  0.001125  0.001125  0.0168933  0.00435789  -0.00878024  -0.00874749  0.00219409  0.0107023  -0.0109136  0.0276459  -0.0234636  -0.123251  -0.000678346  0.0245152 
1704458759.122694000  0  0  11.3056  0.112181  -0.115815  0.0221694  nan  nan  nan  nan  nan  nan  -2.5  -0.3  1  0.0105582  -0.0271134  -0.000286344  1.33e-05  1.33e-05  1.33e-05  0  0  0  0.002  0.002  0.002  0.0168423  0.00437024  -0.00870425  -0.0102499  0.00275824  0.0130026  -0.0114665  0.0258586  -0.0235455  -0.0958522  -0.0505434  0.00593355 
1704458759.127757000  0  0  11.2951  0.108588  -0.115117  0.0243819  nan  nan  nan  nan  nan  nan  -2.5  -0.3  1  0.0102772  -0.0275123  -0.000283024  2.6e-05  2.6e-05  2.6e-05  0  0  0  0.003125  0.003125  0.003125  0.016856  0.0043481  -0.00861626  -0.00957156  0.00256307  0.0140476  -0.011504  0.0259788  -0.0238264  -0.0884654  -0.053182  -0.0144541 
1704458759.132749000  0  0  11.35  0.118525  -0.109263  0.0200443  nan  nan  nan  nan  nan  nan  -2.5  -0.3  1  0.0103699  -0.0270992  -0.000281492  4.5e-05  4.5e-05  4.5e-05  0  0  0  0.0045  0.0045  0.0045  0.0168105  0.00436204  -0.0086012  -0.00964548  0.0029377  0.00817184  -0.0121744  0.0252662  -0.023366  -0.10064  -0.0569663  0.0264321 
1704458759.137751000  0  0  11.3526  0.11848  -0.0969991  0.0210485  nan  nan  nan  nan  nan  nan  -2.5  -0.299999  1  0.0108261  -0.0258308  -0.000280627  7.15e-05  7.15e-05  7.15e-05  0  0  0  0.006125  0.006125  0.006125  0.016808  0.00433824  -0.00851642  -0.0112698  0.00393238  0.00784722  -0.0129843  0.0236261  -0.0233581  -0.0919155  -0.0633232  0.0158048 
1704458759.143256000  0  0  11.3047  0.113884  -0.0803511  0.0216299  nan  nan  nan  nan  nan  nan  -2.5  -0.299999  1  0.0101773  -0.0251753  -0.000257897  0.0001067  0.0001067  0.0001067  0  0  0  0.008  0.008  0.008  0.0167596  0.00433888  -0.00840453  -0.0119762  0.00318395  0.0130007  -0.0127657  0.0223733  -0.0233637  -0.0853105  -0.082335  0.00975576 
1704458759.147744000  0  0  11.3951  0.103191  -0.0935729  0.0221577  nan  nan  nan  nan  nan  nan  -2.5  -0.299998  1  0.0101959  -0.0259739  -0.000267506  0.0001519  0.0001519  0.0001519  0  0  0  0.010125  0.010125  0.010125  0.0167275  0.00435587  -0.00843396  -0.0100753  0.00359726  0.00348298  -0.0129075  0.0229863  -0.0233867  -0.0630067  -0.0631633  0.00444582 
1704458759.152746000  0  0  11.4019  0.113899  -0.108019  0.0197337  nan  nan  nan  nan  nan  nan  -2.5  -0.299997  1  0.010749  -0.0238726  -0.000260792  0.0002083  0.0002083  0.0002083  0  0  0  0.0125  0.0125  0.0125  0.0166715  0.0043688  -0.00839595  -0.0126625  0.00474686  0.00290567  -0.0138758  0.0211447  -0.023101  -0.0735025  -0.0154389  0.0270078 
1704458759.157752000  0  0  11.3122  0.0922846  -0.0691622  0.0219172  nan  nan  nan  nan  nan  nan  -2.5  -0.299996  1  0.00980663  -0.0228302  -0.000229975  0.0002773  0.0002773  0.0002773  0  0  0  0.015125  0.015125  0.015125  0.0166005  0.00438009  -0.0082766  -0.0138806  0.00358542  0.0127035  -0.0129308  0.019347  -0.0232173  -0.0415533  -0.0718202  0.00525409 
1704458759.162755000  0  0  11.4357  0.0739805  -0.104742  0.0272223  nan  nan  nan  nan  nan  nan  -2.49999  -0.299995  1.00001  0.00974881  -0.0249525  -0.00025184  0.00036  0.00036  0.00036  0  0  0  0.018  0.018  0.018  0.0165846  0.00438917  -0.00833743  -0.00986147  0.00405777  -0.000245301  -0.0127123  0.0215392  -0.0238575  -0.00829294  -0.0260159  -0.0439701 
1704458759.168250000  0  0  11.4478  0.104244  -0.134627  0.0187423  nan  nan  nan  nan  nan  nan  -2.49999  -0.299993  1.00001  0.00988583  -0.0225791  -0.000235102  0.0004577  0.0004577  0.0004577  0  0  0  0.021125  0.021125  0.021125  0.0165872  0.00434209  -0.00829649  -0.0129161  0.00488697  -0.00133381  -0.0134742  0.020055  -0.0231166  -0.0590118  0.0479166  0.0375767 
1704458759.172751000  0  0  11.3529  0.0614927  -0.0728395  0.0205234  nan  nan  nan  nan  nan  nan  -2.49999  -0.29999  1.00001  0.00860351  -0.0212697  -0.000198984  0.0005717  0.0005717  0.0005717  0  0  0  0.0245  0.0245  0.0245  0.0165158  0.00435026  -0.00818789  -0.0144242  0.00334058  0.00917075  -0.0117078  0.0177766  -0.0231169  0.00527676  -0.0479251  0.0188738 
1704458759.177748000  0  0  11.4791  0.0419964  -0.130143  0.0279211  nan  nan  nan  nan  nan  nan  -2.49999  -0.299987  1.00001  0.00851495  -0.0239188  -0.000224753  0.0007031  0.0007031  0.0007031  0  0  0  0.028125  0.028125  0.028125  0.0165201  0.00435747  -0.00825353  -0.00956859  0.00386751  -0.00397289  -0.011204  0.0209778  -0.0239782  0.0378115  0.0293581  -0.0500849 
1704458759.182710000  0  0  11.5055  0.0895517  -0.16035  0.0145107  nan  nan  nan  nan  nan  nan  -2.49998  -0.299983  1.00002  0.00890027  -0.0207623  -0.000212081  0.0008533  0.0008533  0.0008533  0  0  0  0.032  0.032  0.032  0.0164216  0.0043923  -0.00828229  -0.0133598  0.00495091  -0.00634591  -0.0123633  0.0190293  -0.0227038  -0.0422904  0.108867  0.0778342 
1704458759.187751000  0  0  11.3934  0.0363758  -0.101797  0.0188716  nan  nan  nan  nan  nan  nan  -2.49998  -0.299978  1.00002  0.00698359  -0.0203627  -0.000176997  0.0010235  0.0010235  0.0010235  0  0  0  0.036125  0.036125  0.036125  0.0164955  0.00428046  -0.00810114  -0.0138683  0.00291749  0.00593379  -0.00977903  0.0179035  -0.0227837  0.0335459  0.00702487  0.0328439 
1704458759.193221000  0  0  11.507  0.0159695  -0.16503  0.0270412  nan  nan  nan  nan  nan  nan  -2.49997  -0.299973  1.00003  0.00585333  -0.0230847  -0.000178812  0.001215  0.001215  0.001215  0  0  0  0.0405  0.0405  0.0405  0.0165923  0.00419512  -0.00813406  -0.00910832  0.00222957  -0.00584842  -0.00813692  0.0216632  -0.0237186  0.0557132  0.0898831  -0.0434766 
1704458759.197738000  0  0  11.5184  0.0622102  -0.17709  0.0143577  nan  nan  nan  nan  nan  nan  -2.49997  -0.299966  1.00003  0.00637355  -0.0203753  -0.000184156  0.001429  0.001429  0.001429  0  0  0  0.045125  0.045125  0.045125  0.016521  0.00422402  -0.00814719  -0.0122498  0.00362494  -0.00651725  -0.00933845  0.0199561  -0.0224551  -0.021383  0.131534  0.0769184 
1704458759.202741000  0  0  11.3992  0.0168213  -0.134951  0.0215486  nan  nan  nan  nan  nan  nan  -2.49996  -0.299958  1.00004  0.00447796  -0.0207259  -0.000159504  0.0016667  0.0016667  0.0016667  0  0  0  0.05  0.05  0.05  0.0166549  0.00408898  -0.00796652  -0.0117212  0.00183417  0.00661274  -0.00685816  0.0199526  -0.0229076  0.0404218  0.0496384  0.00598541 
1704458759.207745000  0  0  11.4831  0.00973664  -0.173024  0.0279404  nan  nan  nan  nan  nan  nan  -2.49995  -0.299949  1.00005  0.00368173  -0.021283  -0.000159353  0.0019294  0.0019294  0.0019294  0  0  0  0.055125  0.055125  0.055125  0.0166132  0.00409869  -0.00802774  -0.00976747  0.00142301  -0.00175556  -0.00579675  0.0214237  -0.0237121  0.042879  0.107979  -0.0529862 
1704458759.212738000  0  0  11.5186  0.0488747  -0.177537  0.0181824  nan  nan  nan  nan  nan  nan  -2.49994  -0.299939  1.00006  0.003556  -0.0200962  -0.000169058  0.0022183  0.0022183  0.0022183  0  0  0  0.0605  0.0605  0.0605  0.0166692  0.00401908  -0.00800743  -0.0108224  0.00229168  -0.00505483  -0.00626265  0.021033  -0.0228304  -0.0282513  0.12092  0.0405557 
1704458759.218205000  0  0  11.4105  0.0353453  -0.159761  0.0227304  nan  nan  nan  nan  nan  nan  -2.49993  -0.299927  1.00007  0.00206497  -0.0199002  -0.000157691  0.0025348  0.0025348  0.0025348  0  0  0  0.066125  0.066125  0.066125  0.0168041  0.00389713  -0.00782948  -0.0109656  0.00122297  0.00694661  -0.00483364  0.02108  -0.023133  -0.0171828  0.0858557  -0.00414086 
1704458759.222740000  0  0  11.4474  0.0316415  -0.161367  0.0267584  nan  nan  nan  nan  nan  nan  -2.49991  -0.299914  1.00009  0.00121912  -0.0195103  -0.000161984  0.00288  0.00288  0.00288  0  0  0  0.072  0.072  0.072  0.0167555  0.00389907  -0.00785001  -0.0104312  0.000837265  0.00370528  -0.00405087  0.0211306  -0.0236498  -0.0183279  0.0884385  -0.041205 
1704458759.227740000  0  0  11.4842  0.0589818  -0.168205  0.0198412  nan  nan  nan  nan  nan  nan  -2.4999  -0.299898  1.0001  0.000911549  -0.0193942  -0.000180478  0.0032552  0.0032552  0.0032552  0  0  0  0.078125  0.078125  0.078125  0.0168381  0.00381008  -0.00781307  -0.0098463  0.00156183  0.00032027  -0.00437578  0.0216085  -0.0230382  -0.0680224  0.0966394  0.0252416 
1704458759.232756000  0  0  11.4196  0.0723321  -0.150982  0.0196232  nan  nan  nan  nan  nan  nan  -2.49988  -0.299881  1.00012  0.000437979  -0.0173568  -0.000198002  0.0036617  0.0036617  0.0036617  0  0  0  0.0845  0.0845  0.0845  0.0167701  0.00381894  -0.00774025  -0.0118972  0.00177134  0.00796602  -0.00454377  0.0198879  -0.022845  -0.0921889  0.0814988  0.025571 
1704458759.237736000  0  0  11.3983  0.0577493  -0.126578  0.0244521  nan  nan  nan  nan  nan  nan  -2.49986  -0.299862  1.00014  -0.00111682  -0.0175945  -0.000201751  0.0041006  0.0041006  0.0041006  0  0  0  0.091125  0.091125  0.0910848  0.0168921  0.00370882  -0.00762255  -0.0109707  0.000772086  0.010781  -0.00323703  0.0199991  -0.0232831  -0.0777686  0.0328629  -0.0207006 
1704458759.242740000  0  0  11.5004  0.08815  -0.146737  0.0217837  nan  nan  nan  nan  nan  nan  -2.49984  -0.29984  1.00016  -0.000835914  -0.0172269  -0.0002416  0.0045733  0.0045733  0.0045722  0  0  0  0.098  0.098  0.0975095  0.0168496  0.00372492  -0.00767296  -0.0101347  0.00215552  0.000545073  -0.00443005  0.0202233  -0.0230521  -0.124157  0.0696684  0.00498112 
1704458759.247741000  0  0  11.4446  0.0981026  -0.127651  0.018062  nan  nan  nan  nan  nan  nan  -2.49982  -0.299816  1.00018  -0.00181104  -0.0151297  -0.0002671  0.005081  0.005081  0.0050753  0  0  0  0.105125  0.105125  0.103684  0.0168995  0.00364287  -0.00755181  -0.0124867  0.00201215  0.00707641  -0.0042942  0.0183529  -0.0225641  -0.144957  0.0525023  0.0391194 
1704458759.253301000  0  0  11.4196  0.0743469  -0.0963421  0.0258119  nan  nan  nan  nan  nan  nan  -2.49979  -0.299789  1.00021  -0.00339039  -0.0154612  -0.000284582  0.005625  0.005625  0.0056086  0  0  0  0.1125  0.1125  0.109609  0.0170281  0.00354096  -0.00742073  -0.0113289  0.00106597  0.0101856  -0.00310034  0.0182556  -0.0232697  -0.111498  -0.00733541  -0.0351183 
1704458759.257735000  0  0  11.5048  0.101822  -0.120563  0.0240349  nan  nan  nan  nan  nan  nan  -2.49976  -0.299759  1.00024  -0.00329325  -0.0148916  -0.00033466  0.0062065  0.0062065  0.0061709  0  0  0  0.120125  0.120125  0.115283  0.0169829  0.00355368  -0.00746231  -0.0107405  0.00227235  0.0016855  -0.0041639  0.0182015  -0.0232089  -0.153578  0.0403356  -0.0170716 
1704458759.262740000  0  0  11.473  0.112534  -0.0996894  0.0190536  nan  nan  nan  nan  nan  nan  -2.49973  -0.299727  1.00027  -0.00457905  -0.0127007  -0.000376744  0.0068267  0.0068267  0.006761  0  0  0  0.128  0.128  0.120708  0.017045  0.00345645  -0.00735183  -0.013102  0.00182482  0.00553682  -0.00390212  0.0160519  -0.022659  -0.177198  0.0226706  0.0296671 
1704458759.268261000  0  0  11.4418  0.0825378  -0.0821411  0.026374  nan  nan  nan  nan  nan  nan  -2.49969  -0.299691  1.00031  -0.00603485  -0.0128618  -0.000413082  0.0074869  0.0074869  0.0073776  0  0  0  0.136125  0.136125  0.125883  0.0171713  0.00336044  -0.00722243  -0.0120821  0.00116564  0.00924081  -0.00283906  0.0159145  -0.0233395  -0.130209  -0.00998431  -0.0403128 
1704458759.272735000  0  0  11.5083  0.0984603  -0.0991331  0.0232332  nan  nan  nan  nan  nan  nan  -2.49965  -0.299652  1.00035  -0.00641167  -0.011723  -0.000476137  0.0081883  0.0081883  0.0080194  0  0  0  0.1445  0.1445  0.130807  0.0171157  0.00336778  -0.00725056  -0.0122685  0.0017729  0.00266276  -0.00330376  0.015232  -0.023136  -0.156213  0.0303314  -0.00939115 
1704458759.277758000  0  0  11.5177  0.0961066  -0.0920977  0.0187184  nan  nan  nan  nan  nan  nan  -2.49961  -0.299609  1.00039  -0.00788508  -0.0104881  -0.000534201  0.0089323  0.0089323  0.0086853  0  0  0  0.153125  0.153125  0.135482  0.0171999  0.00326891  -0.00717867  -0.0130823  0.00113031  0.00203098  -0.00265042  0.0141479  -0.022591  -0.158603  0.0282119  0.0324986 
1704458759.282762000  0  0  11.4874  0.0763448  -0.0882307  0.0235435  nan  nan  nan  nan  nan  nan  -2.49956  -0.299563  1.00043  -0.00873805  -0.0086489  -0.000612025  0.0097199  0.00972  0.0093738  0  0  0  0.16193  0.162  0.139906  0.017126  0.00327506  -0.00712121  -0.0143523  0.0011866  0.00574189  -0.00213108  0.0125717  -0.0229332  -0.125717  0.0374999  -0.0147063 
1704458759.287756000  0  0  11.507  0.0706513  -0.0983897  0.0216012  nan  nan  nan  nan  nan  nan  -2.49951  -0.299512  1.00048  -0.0104022  -0.00852309  -0.000674939  0.0105512  0.0105527  0.0100839  0  0  0  0.170542  0.171125  0.144081  0.0172299  0.0031757  -0.00705714  -0.0135498  0.000319937  0.00395412  -0.00110278  0.0128672  -0.0227442  -0.125612  0.0541016  0.00377562 
1704458759.292758000  0  0  11.5647  0.0651368  -0.116955  0.020578  nan  nan  nan  nan  nan  nan  -2.49946  -0.299457  1.00053  -0.0110879  -0.00785176  -0.000757938  0.0114249  0.0114317  0.0108142  0  0  0  0.178903  0.1805  0.148006  0.0171762  0.0031808  -0.0070836  -0.0130944  0.000587539  -0.00177612  -0.000938881  0.0128961  -0.02252  -0.116638  0.0898898  0.0122485 
1704458759.297759000  0  0  11.5311  0.0581908  -0.120357  0.0213379  nan  nan  nan  nan  nan  nan  -2.4994  -0.299398  1.00059  -0.01256  -0.00560826  -0.000861457  0.0123398  0.0123581  0.0115636  0  0  0  0.187014  0.190125  0.15168  0.0172355  0.00309017  -0.0070041  -0.0154828  0.000127297  0.0021434  3.06497e-05  0.0114232  -0.0224919  -0.11347  0.11221  0.00398297 
1704458759.302765000  0  0  11.5197  0.032601  -0.113606  0.0245267  nan  nan  nan  nan  nan  nan  -2.49933  -0.299333  1.00065  -0.0147148  -0.00588453  -0.000937905  0.0132947  0.0133333  0.0123306  0  0  0  0.194876  0.2  0.155105  0.017323  0.00298681  -0.00694049  -0.0141701  -0.00131618  0.00366355  0.00195922  0.0120384  -0.0227708  -0.0842788  0.0925241  -0.0266798 
1704458759.307744000  0  0  11.6061  0.0340366  -0.159962  0.0238822  nan  nan  nan  nan  nan  nan  -2.49926  -0.299264  1.00071  -0.015361  -0.0061584  -0.00102819  0.0142882  0.0143585  0.0131142  0  0  0  0.202487  0.210125  0.15828  0.0172708  0.00298716  -0.0070005  -0.0123993  -0.000955469  -0.00521818  0.00213924  0.0136422  -0.0227696  -0.0889897  0.165555  -0.0199226 
1704458759.312744000  0  0  11.5477  0.0423499  -0.152044  0.0201735  nan  nan  nan  nan  nan  nan  -2.49919  -0.29919  1.00078  -0.017183  -0.00323439  -0.00117132  0.0153191  0.015435  0.013913  0  0  0  0.209848  0.2205  0.161204  0.0173144  0.00288824  -0.00691698  -0.0158996  -0.00173913  0.00133139  0.00320607  0.0116812  -0.0223305  -0.116529  0.171071  0.0145743 
1704458759.317732000  0  0  11.5511  0.000552559  -0.121613  0.0284038  nan  nan  nan  nan  nan  nan  -2.49911  -0.29911  1.00085  -0.0188991  -0.00342346  -0.00127229  0.0163862  0.016564  0.0147258  0  0  0  0.216959  0.231125  0.163879  0.0172543  0.00287334  -0.00690994  -0.0143775  -0.00270939  0.00129991  0.00506755  0.0119646  -0.0231039  -0.0551093  0.108879  -0.0640202 
1704458759.322758000  0  0  11.5941  0.0337754  -0.186407  0.0239595  nan  nan  nan  nan  nan  nan  -2.49903  -0.299024  1.00093  -0.0197031  -0.00431544  -0.00136806  0.0174883  0.0177467  0.0155514  0  0  0  0.223821  0.242  0.166303  0.0174413  0.00276831  -0.00693339  -0.0125499  -0.00209963  -0.00304692  0.00483178  0.0146108  -0.0228906  -0.117192  0.206645  -0.0195083 
1704458759.327753000  0  0  11.4991  0.0503677  -0.127338  0.0140828  nan  nan  nan  nan  nan  nan  -2.49894  -0.298932  1.00101  -0.0219425  -4.29546e-06  -0.00157521  0.018624  0.0189844  0.0163884  0  0  0  0.230432  0.253125  0.168478  0.0173923  0.00271492  -0.00688795  -0.0179607  -0.00339044  0.00757735  0.00603675  0.010636  -0.0217162  -0.162302  0.134179  0.0723127 
1704458759.332743000  0  0  11.5437  0.00286931  -0.118343  0.0291145  nan  nan  nan  nan  nan  nan  -2.49884  -0.298834  1.00109  -0.0233055  -0.00171612  -0.0016635  0.0197922  0.0202783  0.0172357  0  0  0  0.236793  0.2645  0.170403  0.0173412  0.00269924  -0.00690384  -0.0142824  -0.00383636  0.00299035  0.00748747  0.0124911  -0.0230089  -0.0854174  0.0969074  -0.0724476 
1704458759.337748000  0  0  11.5988  0.0599713  -0.19138  0.0211801  nan  nan  nan  nan  nan  nan  -2.49874  -0.298729  1.00118  -0.02426  -0.00268369  -0.00177288  0.0209915  0.0216298  0.018092  0  0  0  0.242904  0.276125  0.172077  0.0176058  0.00252907  -0.00687711  -0.0126941  -0.00320988  -0.00290656  0.00667269  0.0153022  -0.0223816  -0.187756  0.208943  0.00452144 
1704458759.343178000  0  0  11.5173  0.0666081  -0.134513  0.0142017  nan  nan  nan  nan  nan  nan  -2.49863  -0.298618  1.00127  -0.0260696  0.000336239  -0.00198737  0.0222208  0.02304  0.0189561  0  0  0  0.248766  0.288  0.173502  0.0175697  0.0024839  -0.00681563  -0.0162983  -0.00375891  0.00608913  0.00722873  0.0125892  -0.021339  -0.206589  0.127303  0.0672387 
1704458759.347739000  0  0  11.5702  0.0282512  -0.138216  0.0289017  nan  nan  nan  nan  nan  nan  -2.49852  -0.298499  1.00137  -0.0275749  -0.00048342  -0.00211217  0.0234788  0.0245102  0.0198266  0  0  0  0.254377  0.300125  0.174676  0.0175173  0.00245471  -0.00685645  -0.0140771  -0.00432278  0.000592554  0.00852048  0.0138611  -0.0225904  -0.145784  0.12094  -0.0744567 
1704458759.352750000  0  0  11.6077  0.0767443  -0.174545  0.0199494  nan  nan  nan  nan  nan  nan  -2.4984  -0.298372  1.00147  -0.0283976  0.000176365  -0.00228371  0.0247642  0.0260417  0.0207024  0  0  0  0.259738  0.3125  0.175601  0.0175095  0.00241531  -0.00693256  -0.0142628  -0.00373974  -0.00314495  0.00770637  0.0146901  -0.0218355  -0.23139  0.182737  0.011909 
1704458759.357754000  0  0  11.5241  0.0969786  -0.1262  0.0141449  nan  nan  nan  nan  nan  nan  -2.49827  -0.298238  1.00158  -0.0293283  0.0029117  -0.00252342  0.0260757  0.0276356  0.0215822  0  0  0  0.264849  0.325125  0.176276  0.0174094  0.00240598  -0.00686128  -0.0173296  -0.00290788  0.00595228  0.00705867  0.0120747  -0.0208909  -0.263826  0.116625  0.0632916 
1704458759.362753000  0  0  11.5618  0.0770157  -0.128811  0.0249734  nan  nan  nan  nan  nan  nan  -2.49813  -0.298096  1.00169  -0.0313028  0.00285597  -0.00269303  0.0274123  0.0292933  0.0224648  0  0  0  0.269711  0.338  0.1767  0.0174153  0.00234686  -0.00689417  -0.0165681  -0.00393726  0.00204405  0.00808434  0.0127569  -0.021712  -0.235948  0.114427  -0.0421083 
1704458759.368298000  0  0  11.5829  0.0998446  -0.143314  0.019612  nan  nan  nan  nan  nan  nan  -2.49799  -0.297945  1.0018  -0.0320945  0.00337995  -0.00288401  0.0287724  0.031016  0.0233488  0  0  0  0.274322  0.351125  0.176875  0.0173624  0.00233842  -0.00688764  -0.0165349  -0.00323579  -0.000225778  0.00712745  0.0131759  -0.0211598  -0.270132  0.138159  0.00860078 
1704458759.372745000  0  0  11.5502  0.115394  -0.12341  0.0175244  nan  nan  nan  nan  nan  nan  -2.49785  -0.297786  1.00192  -0.0330195  0.00528508  -0.00312817  0.0301551  0.032805  0.0242331  0  0  0  0.278683  0.3645  0.1768  0.0172673  0.0023165  -0.00686448  -0.0184746  -0.00242246  0.00334906  0.00656867  0.0116254  -0.0206563  -0.294407  0.115992  0.0254185 
1704458759.377733000  0  0  11.5489  0.0919553  -0.11815  0.0233562  nan  nan  nan  nan  nan  nan  -2.49769  -0.297617  1.00204  -0.0352237  0.00635074  -0.00336179  0.0315589  0.0346615  0.0251164  0  0  0  0.282795  0.378125  0.176474  0.0171939  0.00228104  -0.00684773  -0.0192697  -0.00359687  0.00349919  0.00770211  0.0111266  -0.0210096  -0.26092  0.111082  -0.0322454 
1704458759.382748000  0  0  11.575  0.0842638  -0.126166  0.0230205  nan  nan  nan  nan  nan  nan  -2.49753  -0.297439  1.00217  -0.0362568  0.00626887  -0.00355599  0.0329826  0.0365867  0.0259974  0  0  0  0.286656  0.392  0.175899  0.0171137  0.00226928  -0.00686008  -0.0183669  -0.00317354  0.000645512  0.00762593  0.0118531  -0.0209564  -0.245153  0.118922  -0.0292596 
1704458759.387755000  0  0  11.5779  0.111932  -0.137277  0.0197518  nan  nan  nan  nan  nan  nan  -2.49736  -0.297251  1.0023  -0.0371733  0.00798784  -0.00382257  0.034425  0.0385819  0.026875  0  0  0  0.290267  0.406125  0.175073  0.0170333  0.00224817  -0.0068525  -0.0202083  -0.00239  0.000281728  0.00677462  0.0110803  -0.0205178  -0.289872  0.148765  0.000621736 
1704458759.392737000  0  0  11.5483  0.0831758  -0.107944  0.0218815  nan  nan  nan  nan  nan  nan  -2.49719  -0.297053  1.00244  -0.0397335  0.00952876  -0.0041075  0.0358848  0.0406483  0.0277478  0  0  0  0.293628  0.4205  0.173998  0.0169292  0.00222152  -0.00682356  -0.0217173  -0.00387094  0.0034465  0.0083662  0.00983087  -0.0204904  -0.250931  0.105055  -0.0220233 
1704458759.397871000  0  0  11.5992  0.0716243  -0.133042  0.0244197  nan  nan  nan  nan  nan  nan  -2.497  -0.296844  1.00258  -0.0408782  0.0086235  -0.00429071  0.0373609  0.0427873  0.0286145  0  0  0  0.29674  0.435125  0.172673  0.016873  0.00219748  -0.00685326  -0.0197954  -0.00362057  -0.00217432  0.00849943  0.0115427  -0.0207415  -0.229892  0.135601  -0.0461335 
1704458759.402750000  0  0  11.6077  0.0940615  -0.147724  0.0180672  nan  nan  nan  nan  nan  nan  -2.49681  -0.296625  1.00273  -0.0422002  0.0104243  -0.00459386  0.0388518  0.045  0.0294741  0  0  0  0.299601  0.45  0.171097  0.0167877  0.00216272  -0.00687019  -0.0218792  -0.00332963  -0.00313984  0.00822583  0.0108314  -0.0200363  -0.2706  0.171732  0.0134315 
1704458759.407746000  0  0  11.5537  0.0615957  -0.116989  0.0205504  nan  nan  nan  nan  nan  nan  -2.49662  -0.296394  1.00288  -0.0446948  0.0118591  -0.00490588  0.0403565  0.0472877  0.0303251  0  0  0  0.302212  0.465125  0.169272  0.0166771  0.00213764  -0.00682566  -0.0232838  -0.00445005  0.00254782  0.00989269  0.00973474  -0.0199401  -0.225249  0.123667  -0.0136246 
1704458759.412746000  0  0  11.5931  0.0407337  -0.137189  0.0256827  nan  nan  nan  nan  nan  nan  -2.49641  -0.296152  1.00303  -0.0464258  0.0110071  -0.00511497  0.0418735  0.0496517  0.0311664  0  0  0  0.304573  0.4805  0.167197  0.0166156  0.00210181  -0.0068634  -0.0215461  -0.0049045  -0.00185392  0.0108514  0.0114279  -0.0203906  -0.194908  0.144889  -0.0629564 
1704458759.418251000  0  0  11.6084  0.0709372  -0.155194  0.0180234  nan  nan  nan  nan  nan  nan  -2.4962  -0.295898  1.00319  -0.047531  0.011938  -0.00540584  0.0434018  0.0520931  0.0319966  0  0  0  0.306685  0.496125  0.164871  0.0165596  0.00208348  -0.00688416  -0.0225245  -0.00427421  -0.00366989  0.010214  0.0117217  -0.0195831  -0.246838  0.176763  0.00929532 
1704458759.422741000  0  0  11.5588  0.0442216  -0.134453  0.0195935  nan  nan  nan  nan  nan  nan  -2.49598  -0.295631  1.00335  -0.0502939  0.0133566  -0.0057509  0.04494  0.0546133  0.0328147  0  0  0  0.308546  0.512  0.162296  0.0164274  0.00202941  -0.00686119  -0.0239578  -0.00558859  0.00153448  0.0122255  0.01078  -0.0194065  -0.216342  0.146477  -0.00898454 
1704458759.427748000  0  0  11.5851  0.0259935  -0.146572  0.0236415  nan  nan  nan  nan  nan  nan  -2.49575  -0.295351  1.00352  -0.0524215  0.0129484  -0.00600488  0.0464868  0.0572135  0.0336192  0  0  0  0.310157  0.528125  0.15947  0.0164119  0.00197845  -0.00699349  -0.0231378  -0.00642189  -0.00121608  0.0135392  0.012142  -0.0196275  -0.194908  0.155518  -0.0492576 
1704458759.432736000  0  0  11.6124  0.0487555  -0.15939  0.0183233  nan  nan  nan  nan  nan  nan  -2.49551  -0.295059  1.00369  -0.0538142  0.0130941  -0.00628401  0.0480411  0.059895  0.0344089  0  0  0  0.311518  0.5445  0.156395  0.0162973  0.00195357  -0.00702787  -0.0228924  -0.00619669  -0.00439474  0.01344  0.0129599  -0.0189963  -0.238108  0.171719  0.000194692 
1704458759.437736000  0  0  11.587  0.0407627  -0.162283  0.018404  nan  nan  nan  nan  nan  nan  -2.49527  -0.294752  1.00386  -0.0565947  0.0137507  -0.00661702  0.0496016  0.062659  0.0351827  0  0  0  0.31263  0.561125  0.15307  0.0163524  0.00181499  -0.00709906  -0.0238929  -0.00731627  -0.00165555  0.0149656  0.0132949  -0.0186254  -0.238834  0.173772  -0.00441362 
1704458759.442742000  0  0  11.5552  0.0176283  -0.142399  0.0223078  nan  nan  nan  nan  nan  nan  -2.49501  -0.294432  1.00404  -0.0589924  0.014449  -0.00695704  0.051167  0.0655067  0.0359392  0  0  0  0.313491  0.578  0.149494  0.0162245  0.00177633  -0.00708354  -0.0244262  -0.00805206  0.00148258  0.0165291  0.0130678  -0.0188002  -0.210525  0.137533  -0.0436396 
1704458759.447742000  0  0  11.6171  0.0377063  -0.170842  0.021673  nan  nan  nan  nan  nan  nan  -2.49476  -0.294097  1.00422  -0.060499  0.0130939  -0.00716861  0.0527361  0.0684394  0.0366772  0  0  0  0.314102  0.595125  0.145669  0.0161974  0.0017058  -0.00715008  -0.0223535  -0.00805914  -0.00550401  0.0164847  0.0154316  -0.0186693  -0.24909  0.16763  -0.0383 
1704458759.452741000  0  0  11.5743  0.051239  -0.176107  0.0174938  nan  nan  nan  nan  nan  nan  -2.49449  -0.293747  1.0044  -0.062853  0.014939  -0.00759376  0.0543076  0.0714583  0.0373955  0  0  0  0.314464  0.6125  0.141593  0.0161226  0.00162534  -0.00713259  -0.0248484  -0.00841377  -0.00117788  0.0171741  0.0146942  -0.0180298  -0.282753  0.18573  -0.000893414 
1704458759.457741000  0  0  11.5016  0.0240224  -0.128483  0.0239726  nan  nan  nan  nan  nan  nan  -2.49421  -0.293382  1.00459  -0.0655673  0.0156328  -0.00796443  0.0558803  0.0745648  0.0380928  0  0  0  0.314575  0.630125  0.137268  0.0159916  0.00158132  -0.00707612  -0.0253966  -0.00911555  0.00625187  0.018885  0.0139388  -0.0184203  -0.248078  0.101186  -0.0649761 
1704458759.462748000  0  0  11.6037  0.0416851  -0.187755  0.0247457  nan  nan  nan  nan  nan  nan  -2.49393  -0.293002  1.00479  -0.0675701  0.0124392  -0.00807038  0.0574529  0.07776  0.0387678  0  0  0  0.314436  0.648  0.132693  0.0161006  0.00143315  -0.00727879  -0.0211603  -0.00995356  -0.00486063  0.0192417  0.0184784  -0.0185707  -0.286223  0.168027  -0.0715711 
1704458759.468297000  0  0  11.5653  0.0704507  -0.191769  0.0161021  nan  nan  nan  nan  nan  nan  -2.49364  -0.292605  1.00498  -0.0698948  0.0138691  -0.00849643  0.0590242  0.0810452  0.0394193  0  0  0  0.314047  0.666125  0.127867  0.0162104  0.0012714  -0.00730449  -0.0237103  -0.00990598  -0.000973867  0.0193154  0.0182847  -0.0175398  -0.34294  0.177897  0.00875358 
1704458759.472759000  0  0  11.4721  0.0343788  -0.122523  0.0235331  nan  nan  nan  nan  nan  nan  -2.49334  -0.292191  1.00518  -0.0732934  0.0142767  -0.00887683  0.060593  0.0844217  0.040046  0  0  0  0.313409  0.6845  0.122792  0.0160716  0.00117965  -0.00724624  -0.0239026  -0.0111148  0.0086617  0.0216671  0.0172107  -0.017958  -0.297879  0.0547101  -0.0650483 
1704458759.477758000  0  0  11.5935  0.0589629  -0.194239  0.0245765  nan  nan  nan  nan  nan  nan  -2.49303  -0.29176  1.00538  -0.0749533  0.0106544  -0.00893806  0.0621579  0.0878905  0.0406468  0  0  0  0.31252  0.703027  0.117467  0.0161937  0.00101654  -0.00743247  -0.0191914  -0.0115886  -0.00471425  0.0213284  0.0221474  -0.0181164  -0.342068  0.141511  -0.0744015 
1704458759.482761000  0  0  11.5303  0.104544  -0.184228  0.0124359  nan  nan  nan  nan  nan  nan  -2.49272  -0.291312  1.00559  -0.0765788  0.0137046  -0.00950521  0.0637178  0.0914515  0.0412203  0  0  0  0.311381  0.721338  0.111891  0.0160535  0.000976261  -0.00739437  -0.0235153  -0.0105014  0.00165729  0.0202952  0.0198933  -0.0167111  -0.419676  0.146083  0.0388548 
1704458759.487751000  0  0  11.4425  0.0488856  -0.118642  0.0216525  nan  nan  nan  nan  nan  nan  -2.49239  -0.290846  1.00579  -0.080306  0.012671  -0.00979522  0.0652713  0.0951035  0.0417653  0  0  0  0.309992  0.739399  0.106066  0.0160934  0.000821012  -0.00737582  -0.0222187  -0.01204  0.0107204  0.022837  0.0201446  -0.017161  -0.33856  0.0158812  -0.0533798 
1704458759.493262000  0  0  11.5621  0.0788716  -0.188532  0.0236928  nan  nan  nan  nan  nan  nan  -2.49206  -0.290361  1.006  -0.0811666  0.0103215  -0.00994319  0.0668173  0.0988451  0.0422805  0  0  0  0.308354  0.75721  0.0999904  0.0160686  0.000796172  -0.00751864  -0.0190879  -0.0118954  -0.00265439  0.0213178  0.0237068  -0.0174647  -0.380665  0.113789  -0.0717286 
1704458759.497741000  0  0  11.5085  0.11944  -0.165582  0.0112311  nan  nan  nan  nan  nan  nan  -2.49173  -0.289857  1.00622  -0.0831661  0.0130533  -0.0105261  0.0683544  0.102675  0.0427648  0  0  0  0.306465  0.774771  0.0936651  0.0159127  0.000704555  -0.00750346  -0.0230187  -0.0113712  0.00268464  0.0207265  0.0212902  -0.0159509  -0.453238  0.0949318  0.0437989 
1704458759.502762000  0  0  11.4405  0.0639477  -0.117335  0.02144  nan  nan  nan  nan  nan  nan  -2.49138  -0.289334  1.00643  -0.0863343  0.0120133  -0.0108183  0.0698815  0.106592  0.0432167  0  0  0  0.304326  0.792082  0.0870999  0.0159107  0.000592177  -0.0075648  -0.0217418  -0.0124545  0.00970111  0.0226381  0.0217286  -0.0164433  -0.365725  -0.00355036  -0.0584259 
1704458759.507757000  0  0  11.5414  0.0819282  -0.160361  0.0232296  nan  nan  nan  nan  nan  nan  -2.49103  -0.288791  1.00665  -0.0877956  0.0107648  -0.011073  0.0713973  0.110596  0.043636  0  0  0  0.301937  0.809144  0.0806257  0.0158177  0.00052932  -0.00764007  -0.0201675  -0.0130739  -0.00177497  0.0219486  0.0236571  -0.0166456  -0.393334  0.0595428  -0.0751703 
1704458759.512828000  0  0  11.4903  0.106337  -0.134654  0.012881  nan  nan  nan  nan  nan  nan  -2.49067  -0.288228  1.00687  -0.089488  0.011981  -0.0115536  0.0729005  0.114683  0.0440234  0  0  0  0.299299  0.825955  0.0744014  0.0157648  0.000436663  -0.00774087  -0.0222328  -0.0122001  0.0035691  0.0212064  0.0224728  -0.0153449  -0.432879  0.0221877  0.0203252 
1704458759.517700000  0  0  11.4585  0.0619178  -0.122347  0.0214138  nan  nan  nan  nan  nan  nan  -2.4903  -0.287644  1.00709  -0.0927425  0.0110674  -0.0118674  0.0743898  0.118855  0.0443804  0  0  0  0.29641  0.842516  0.0684272  0.0158168  0.000251216  -0.00780243  -0.0214985  -0.0136765  0.00674509  0.0231068  0.0231944  -0.0157497  -0.366776  -0.00943562  -0.0651844 
1704458759.522750000  0  0  11.5142  0.0694447  -0.147342  0.0223312  nan  nan  nan  nan  nan  nan  -2.48992  -0.287039  1.00731  -0.0947353  0.0099556  -0.0121496  0.0758641  0.123108  0.0447081  0  0  0  0.293271  0.858827  0.062703  0.0157211  0.00018245  -0.00783456  -0.0201737  -0.0147184  0.000235609  0.0230588  0.0246463  -0.015844  -0.3809  0.023681  -0.0738641 
1704458759.527756000  0  0  11.5207  0.0871804  -0.146603  0.0143492  nan  nan  nan  nan  nan  nan  -2.48954  -0.286413  1.00754  -0.0965478  0.00971024  -0.0125159  0.0773221  0.127443  0.0450078  0  0  0  0.289883  0.874888  0.0572287  0.0157578  5.00528e-06  -0.00786207  -0.0205143  -0.014586  -0.000854673  0.0226403  0.024905  -0.0148675  -0.410921  0.019487  6.46345e-05 
1704458759.532807000  0  0  11.4504  0.0668285  -0.126744  0.0180702  nan  nan  nan  nan  nan  nan  -2.48915  -0.285765  1.00776  -0.0989652  0.0104962  -0.0129957  0.0787626  0.131857  0.0452808  0  0  0  0.286244  0.8907  0.0520045  0.015646  -5.97515e-05  -0.00778877  -0.0219047  -0.014726  0.00625195  0.023332  0.0238805  -0.0148461  -0.378726  -0.00820162  -0.0392317 
1704458759.537749000  0  0  11.5209  0.0520243  -0.137448  0.0208206  nan  nan  nan  nan  nan  nan  -2.48875  -0.285094  1.00799  -0.101752  0.00812724  -0.0131678  0.0801842  0.136349  0.0455283  0  0  0  0.282355  0.906261  0.0470302  0.0157183  -0.000271166  -0.00799771  -0.0193369  -0.0169148  -0.00122767  0.0245197  0.0262253  -0.0149283  -0.362606  -0.0123922  -0.067284 
1704458759.543264000  0  0  11.5523  0.0826298  -0.15786  0.0152426  nan  nan  nan  nan  nan  nan  -2.48835  -0.284401  1.00822  -0.102391  0.00797009  -0.0135475  0.0815857  0.140919  0.0457515  0  0  0  0.278216  0.921572  0.042306  0.0156734  -0.000304179  -0.00802954  -0.0196919  -0.0159012  -0.00501646  0.0226516  0.0267048  -0.0142241  -0.402194  0.0221819  -0.0158426 
1704458759.547758000  0  0  11.4732  0.0651972  -0.12536  0.0159876  nan  nan  nan  nan  nan  nan  -2.48794  -0.283685  1.00845  -0.105508  0.00933948  -0.0141145  0.0829659  0.145564  0.0459518  0  0  0  0.273828  0.936633  0.0378318  0.0155237  -0.000448531  -0.00798917  -0.0219914  -0.0167773  0.00335136  0.0241378  0.0249258  -0.0138989  -0.384146  -0.0220379  -0.0269647 
1704458759.552747000  0  0  11.546  0.036342  -0.134168  0.0223595  nan  nan  nan  nan  nan  nan  -2.48752  -0.282945  1.00868  -0.107948  0.0066897  -0.0142535  0.0843236  0.150285  0.0461303  0  0  0  0.269189  0.951444  0.0336075  0.0155683  -0.000656301  -0.00815768  -0.0190142  -0.0186781  -0.00442437  0.0251702  0.0273477  -0.0143287  -0.33905  -0.0307373  -0.0895269 
1704458759.557755000  0  0  11.5659  0.0745092  -0.160535  0.0167968  nan  nan  nan  nan  nan  nan  -2.48709  -0.282182  1.00891  -0.108871  0.00675536  -0.0146764  0.0856574  0.155078  0.0462883  0  0  0  0.2643  0.966006  0.0296333  0.0154604  -0.000734691  -0.00819244  -0.0196268  -0.0179283  -0.00681694  0.0236977  0.0276877  -0.013726  -0.397559  0.0169035  -0.037216 
1704458759.562745000  0  0  11.4977  0.058697  -0.124966  0.0163127  nan  nan  nan  nan  nan  nan  -2.48666  -0.281394  1.00914  -0.111731  0.00771596  -0.0152193  0.0869661  0.159944  0.046427  0  0  0  0.259161  0.980317  0.025909  0.0153804  -0.000888437  -0.00826135  -0.0216644  -0.018607  0.000752132  0.0248578  0.0262046  -0.013349  -0.379184  -0.0364414  -0.0359556 
1704458759.568295000  0  0  11.562  0.0397153  -0.137719  0.0235742  nan  nan  nan  nan  nan  nan  -2.48622  -0.280582  1.00937  -0.113609  0.00544908  -0.0153972  0.0882486  0.164881  0.0465478  0  0  0  0.253773  0.994378  0.0224348  0.0154022  -0.00101059  -0.00838387  -0.0192785  -0.0199603  -0.00614529  0.0250608  0.0282559  -0.014004  -0.344443  -0.0335183  -0.105577 
1704458759.572757000  0  0  11.5873  0.0688854  -0.156738  0.0170055  nan  nan  nan  nan  nan  nan  -2.48578  -0.279745  1.0096  -0.115045  0.00565404  -0.0158569  0.0895034  0.169888  0.0466518  0  0  0  0.248134  1.00819  0.0192106  0.0152643  -0.0011799  -0.00845334  -0.0201488  -0.0199171  -0.00887748  0.0243975  0.0283364  -0.0132905  -0.394086  0.0026044  -0.0438239 
1704458759.577755000  0  0  11.5241  0.0600339  -0.127247  0.0166914  nan  nan  nan  nan  nan  nan  -2.48533  -0.278883  1.00984  -0.117504  0.00582484  -0.0163256  0.0907295  0.174963  0.0467403  0  0  0  0.242245  1.02175  0.0162363  0.0151761  -0.00130562  -0.00844267  -0.0210947  -0.0202395  -0.0020436  0.0249604  0.0275532  -0.0129533  -0.382878  -0.0463865  -0.0439445 
1704458759.582755000  0  0  11.562  0.0456784  -0.143834  0.0232918  nan  nan  nan  nan  nan  nan  -2.48487  -0.277996  1.01007  -0.119272  0.00468661  -0.0166402  0.0919255  0.180105  0.0468146  0  0  0  0.236107  1.03506  0.0135121  0.0150778  -0.00141109  -0.00849323  -0.0201424  -0.0212043  -0.00613886  0.0250871  0.0286551  -0.0135092  -0.356317  -0.0258838  -0.107628 
1704458759.587756000  0  0  11.5761  0.0731473  -0.144149  0.0179334  nan  nan  nan  nan  nan  nan  -2.48441  -0.277082  1.01031  -0.1205  0.00431484  -0.017048  0.0930901  0.185313  0.0468758  0  0  0  0.229718  1.04812  0.0110379  0.0149959  -0.00153388  -0.00855788  -0.0204062  -0.0209537  -0.00758171  0.024031  0.0288506  -0.0129664  -0.398465  -0.0273562  -0.0568562 
1704458759.593277000  0  0  11.537  0.0748835  -0.138771  0.0175383  nan  nan  nan  nan  nan  nan  -2.48394  -0.276142  1.01054  -0.12209  0.00348155  -0.0174058  0.0942222  0.190586  0.0469254  0  0  0  0.223079  1.06093  0.0088136  0.0149577  -0.00158295  -0.00855269  -0.0201063  -0.0206804  -0.00338536  0.0234173  0.0292857  -0.0127075  -0.395297  -0.0424522  -0.0553327 
1704458759.597763000  0  0  11.5496  0.0682482  -0.144511  0.0195265  nan  nan  nan  nan  nan  nan  -2.48347  -0.275176  1.01078  -0.124211  0.00350652  -0.0178758  0.0953205  0.195922  0.0469644  0  0  0  0.21619  1.0735  0.0068394  0.0148163  -0.00177734  -0.0086132  -0.0208973  -0.0215988  -0.00450819  0.0238521  0.029204  -0.0127118  -0.387031  -0.0304219  -0.0761698 
1704458759.602761000  0  0  11.5563  0.0761713  -0.136114  0.0174893  nan  nan  nan  nan  nan  nan  -2.48299  -0.274183  1.01101  -0.126621  0.00141677  -0.018084  0.0963837  0.20132  0.0469942  0  0  0  0.209052  1.08581  0.0051151  0.0148604  -0.00208133  -0.00872874  -0.0190691  -0.0226356  -0.00480498  0.0241396  0.0307109  -0.0123598  -0.405503  -0.0628155  -0.0583432 
1704458759.607755000  0  0  11.5708  0.0900754  -0.155144  0.0173097  nan  nan  nan  nan  nan  nan  -2.4825  -0.273163  1.01125  -0.127745  0.000780681  -0.0184758  0.0974106  0.206779  0.047016  0  0  0  0.201663  1.09787  0.0036409  0.0147575  -0.00219168  -0.00877219  -0.0190199  -0.0224452  -0.00625048  0.0230597  0.0313482  -0.0121376  -0.421023  -0.0326103  -0.0587101 
1704458759.612763000  0  0  11.5495  0.0909176  -0.138363  0.0187645  nan  nan  nan  nan  nan  nan  -2.48201  -0.272115  1.01148  -0.129606  0.00135921  -0.0190308  0.0983999  0.212298  0.047031  0  0  0  0.194024  1.10968  0.0024166  0.0146702  -0.00234241  -0.00879639  -0.0209139  -0.0226384  -0.00367658  0.022781  0.0303301  -0.0120702  -0.419689  -0.0543829  -0.0746731 
1704458759.617765000  0  0  11.5595  0.0810447  -0.132072  0.0224845  nan  nan  nan  nan  nan  nan  -2.48152  -0.27104  1.01172  -0.13111  -0.00113035  -0.0191889  0.0993504  0.217876  0.0470405  0  0  0  0.186135  1.12124  0.0014424  0.0145954  -0.00245708  -0.00882976  -0.0182132  -0.0230729  -0.00460309  0.0224035  0.0321013  -0.0123881  -0.396467  -0.0854998  -0.110519 
1704458759.622755000  0  0  11.5922  0.119109  -0.16965  0.0182826  nan  nan  nan  nan  nan  nan  -2.48102  -0.269936  1.01195  -0.132053  -0.00104212  -0.0196902  0.100261  0.22351  0.0470458  0  0  0  0.177997  1.13255  0.0007182  0.0145353  -0.00263564  -0.00890082  -0.0195121  -0.0228167  -0.00783863  0.0207664  0.0323276  -0.0119429  -0.45302  -0.0148491  -0.0709023 
1704458759.627749000  0  0  11.5282  0.101641  -0.132597  0.0177939  nan  nan  nan  nan  nan  nan  -2.48052  -0.268804  1.01219  -0.134519  -0.000396082  -0.0202719  0.10113  0.229201  0.0470481  0  0  0  0.169608  1.14361  0.0002439  0.014461  -0.00281663  -0.00890459  -0.0216826  -0.0231783  -0.00049281  0.021249  0.0309095  -0.0116569  -0.424202  -0.0717713  -0.0686712 
1704458759.632745000  0  0  11.5618  0.080418  -0.135341  0.0262353  nan  nan  nan  nan  nan  nan  -2.48001  -0.267644  1.01242  -0.135513  -0.0036613  -0.0203294  0.101957  0.234946  0.0470487  0  0  0  0.160969  1.15442  1.97e-05  0.0143855  -0.00293248  -0.00894367  -0.0179044  -0.0234095  -0.00396152  0.0206463  0.0334335  -0.0125087  -0.376511  -0.0933491  -0.148688 
1704458759.637750000  0  0  11.603  0.134274  -0.176012  0.018345  nan  nan  nan  nan  nan  nan  -2.4795  -0.266455  1.01266  -0.136154  -0.00389776  -0.020804  0.102739  0.240745  0.0470487  0  0  0  0.152165  1.16498  -0  0.0143302  -0.00311595  -0.00904347  -0.0188091  -0.0229781  -0.00799669  0.0184702  0.0340254  -0.0118348  -0.458023  -0.0205828  -0.0726553 
1704458759.643270000  0  0  11.5423  0.112283  -0.127579  0.0166777  nan  nan  nan  nan  nan  nan  -2.47898  -0.265237  1.01289  -0.137995  -0.00368277  -0.0213421  0.103479  0.246596  0.0470487  0  0  0  0.143568  1.1753  -0  0.0142955  -0.0031766  -0.00902815  -0.0204871  -0.0229139  -0.00108346  0.0182668  0.0326488  -0.0114156  -0.413096  -0.100073  -0.0593943 
1704458759.647749000  0  0  11.5789  0.0824144  -0.136822  0.0251472  nan  nan  nan  nan  nan  nan  -2.47846  -0.263989  1.01313  -0.13939  -0.00658855  -0.0214511  0.104175  0.252497  0.0470487  0  0  0  0.13522  1.18536  -0  0.014179  -0.00340801  -0.00910238  -0.0170896  -0.0235808  -0.00467806  0.0184439  0.0348938  -0.0122064  -0.356908  -0.10604  -0.140326 
1704458759.652758000  0  0  11.6158  0.136907  -0.169903  0.0132635  nan  nan  nan  nan  nan  nan  -2.47794  -0.262712  1.01336  -0.140419  -0.00706995  -0.0219043  0.104831  0.258449  0.0470487  0  0  0  0.127123  1.19517  -0  0.0141212  -0.00359339  -0.00919391  -0.0175133  -0.0237957  -0.008213  0.01668  0.0354926  -0.0110239  -0.444053  -0.0481054  -0.0275088 
1704458759.657757000  0  0  11.5588  0.106521  -0.129511  0.0124922  nan  nan  nan  nan  nan  nan  -2.47741  -0.261404  1.0136  -0.141999  -0.00714369  -0.0224167  0.105447  0.264449  0.0470487  0  0  0  0.119275  1.20473  -0  0.0140126  -0.00370464  -0.00917402  -0.0184405  -0.0233515  -0.00176237  0.0166669  0.0344577  -0.0104583  -0.384832  -0.115606  -0.0251442 
1704458759.662753000  0  0  11.5943  0.0792085  -0.146178  0.0206445  nan  nan  nan  nan  nan  nan  -2.47689  -0.260067  1.01383  -0.143514  -0.00979188  -0.0225636  0.106024  0.270496  0.0470487  0  0  0  0.111678  1.21404  -0  0.014014  -0.00392491  -0.0092705  -0.0156702  -0.0243402  -0.00512547  0.016852  0.036534  -0.0110633  -0.333701  -0.105339  -0.104628 
1704458759.668287000  0  0  11.6361  0.119245  -0.164714  0.0121848  nan  nan  nan  nan  nan  nan  -2.47635  -0.258699  1.01407  -0.143858  -0.0106275  -0.0229861  0.106564  0.276589  0.0470487  0  0  0  0.10433  1.2231  -0  0.0140124  -0.00401324  -0.00939561  -0.0155726  -0.0240553  -0.00920385  0.0147003  0.0371014  -0.0100849  -0.388604  -0.075349  -0.0257028 
1704458759.672740000  0  0  11.5962  0.0884248  -0.142334  0.0144046  nan  nan  nan  nan  nan  nan  -2.47582  -0.257301  1.0143  -0.145706  -0.0104962  -0.0235384  0.107068  0.282726  0.0470487  0  0  0  0.0972325  1.23191  -0  0.013873  -0.00426567  -0.00940798  -0.0166369  -0.0240012  -0.00447804  0.0154135  0.0361807  -0.00985343  -0.336282  -0.109045  -0.0513627 
1704458759.677765000  0  0  11.6011  0.0586538  -0.150711  0.0216586  nan  nan  nan  nan  nan  nan  -2.47528  -0.255872  1.01454  -0.147622  -0.0126969  -0.02375  0.107537  0.288907  0.0470487  0  0  0  0.090385  1.24047  -0  0.0138724  -0.00450128  -0.00949787  -0.014468  -0.0250832  -0.00445548  0.0162223  0.0377555  -0.0104356  -0.287021  -0.109551  -0.121644 
1704458759.682810000  0  0  11.649  0.0878751  -0.169611  0.0165062  nan  nan  nan  nan  nan  nan  -2.47475  -0.254412  1.01477  -0.147747  -0.013837  -0.0241443  0.107972  0.29513  0.0470487  0  0  0  0.0837874  1.24879  -0  0.0138151  -0.00460948  -0.00956161  -0.0135983  -0.0246771  -0.00942126  0.0144295  0.0386002  -0.00990186  -0.324721  -0.0818081  -0.0729437 
1704458759.687754000  0  0  11.6277  0.0663774  -0.149874  0.016022  nan  nan  nan  nan  nan  nan  -2.4742  -0.252921  1.01501  -0.149561  -0.01339  -0.0247579  0.108375  0.301395  0.0470487  0  0  0  0.0774399  1.25685  -0  0.0137535  -0.00484471  -0.00964878  -0.0152716  -0.0250688  -0.00648178  0.0150538  0.037403  -0.00958762  -0.289579  -0.107418  -0.0710452 
1704458759.693276000  0  0  11.6107  0.0290782  -0.128935  0.0225406  nan  nan  nan  nan  nan  nan  -2.47366  -0.251398  1.01524  -0.150661  -0.0154421  -0.0250094  0.108747  0.307699  0.0470487  0  0  0  0.0713424  1.26466  -0  0.0137963  -0.00492253  -0.00970262  -0.0133519  -0.0250784  -0.00428822  0.0153863  0.0381517  -0.0102074  -0.220602  -0.156114  -0.133222 
1704458759.697764000  0  0  11.6837  0.0563178  -0.164575  0.0179146  nan  nan  nan  nan  nan  nan  -2.47312  -0.249844  1.01548  -0.15136  -0.0170076  -0.025344  0.109089  0.314041  0.0470487  0  0  0  0.0654948  1.27222  -0  0.0136963  -0.00519388  -0.00982296  -0.0115542  -0.0257025  -0.0117179  0.0145768  0.039562  -0.00973988  -0.264933  -0.101857  -0.0893777 
1704458759.702761000  0  0  11.6492  0.0544932  -0.138864  0.0128452  nan  nan  nan  nan  nan  nan  -2.47257  -0.248257  1.01571  -0.153211  -0.0156012  -0.0261196  0.109403  0.32042  0.0470487  0  0  0  0.0598973  1.27953  -0  0.0136428  -0.00544332  -0.00990033  -0.0146645  -0.0259073  -0.00733682  0.0150968  0.0372953  -0.00895944  -0.26693  -0.127678  -0.0440509 
1704458759.707754000  0  0  11.6139  0.00895193  -0.104818  0.0212884  nan  nan  nan  nan  nan  nan  -2.47202  -0.246639  1.01595  -0.154551  -0.0170506  -0.0264693  0.109689  0.326836  0.0470487  0  0  0  0.0545498  1.28659  -0  0.013575  -0.00557143  -0.00990591  -0.0132752  -0.0258418  -0.00323696  0.0160001  0.0372081  -0.00958526  -0.188014  -0.192945  -0.12638 
1704458759.712751000  0  0  11.7124  0.0407991  -0.157298  0.0192164  nan  nan  nan  nan  nan  nan  -2.47147  -0.244989  1.01619  -0.15489  -0.0192352  -0.0267254  0.109948  0.333286  0.0470487  0  0  0  0.0494522  1.2934  -0  0.0135989  -0.00586326  -0.0101354  -0.0107116  -0.0265569  -0.0131717  0.0148633  0.0392616  -0.00945234  -0.237814  -0.112802  -0.105965 
1704458759.716753000  0  0  11.6916  0.0547246  -0.140738  0.0110897  nan  nan  nan  nan  nan  nan  -2.47092  -0.243306  1.01642  -0.157214  -0.0176203  -0.027545  0.110183  0.339769  0.0470487  0  0  0  0.0446047  1.29996  -0  0.0134116  -0.00629978  -0.0101928  -0.0136531  -0.0272904  -0.0102503  0.0158144  0.037045  -0.00835944  -0.275031  -0.121364  -0.0316988 
1704458759.722750000  0  0  11.6227  0.0110513  -0.0931222  0.0231349  nan  nan  nan  nan  nan  nan  -2.47037  -0.241591  1.01666  -0.157827  -0.0191275  -0.0279097  0.110395  0.346285  0.0470487  0  0  0  0.0400071  1.30627  -0  0.0135026  -0.0062561  -0.0102294  -0.0125839  -0.0260522  -0.00252789  0.0158117  0.0365361  -0.00935473  -0.190087  -0.20852  -0.148109 
1704458759.726766000  0  0  11.6902  0.0399507  -0.139514  0.023437  nan  nan  nan  nan  nan  nan  -2.46982  -0.239843  1.01689  -0.159036  -0.0205018  -0.0282875  0.110584  0.352832  0.0470487  0  0  0  0.0356596  1.31234  -0  0.0133553  -0.00670292  -0.0103508  -0.010735  -0.0270979  -0.0092409  0.0156091  0.0378321  -0.00941392  -0.244117  -0.132138  -0.150682 
1704458759.732810000  0  0  11.6762  0.0688035  -0.124753  0.0119178  nan  nan  nan  nan  nan  nan  -2.46927  -0.238063  1.01713  -0.161183  -0.0206493  -0.0288464  0.110752  0.359408  0.0470487  0  0  0  0.0315621  1.31815  -0  0.0137009  -0.00723341  -0.0108201  -0.0124321  -0.0275931  -0.00589902  0.0157167  0.0368916  -0.00810355  -0.301364  -0.15081  -0.0429904 
1704458759.737744000  0  0  11.6326  0.0307514  -0.102712  0.0226065  nan  nan  nan  nan  nan  nan  -2.46871  -0.236249  1.01736  -0.162456  -0.022315  -0.0291809  0.1109  0.366013  0.0470487  0  0  0  0.0277145  1.32371  -0  0.0136727  -0.00745149  -0.0108475  -0.010655  -0.0271875  -0.000835046  0.0162971  0.0371205  -0.00893361  -0.233566  -0.196107  -0.146831 
1704458759.742742000  0  0  11.6909  0.0738426  -0.147946  0.0177982  nan  nan  nan  nan  nan  nan  -2.46816  -0.234403  1.0176  -0.162104  -0.0234589  -0.0296425  0.111029  0.372645  0.0470487  0  0  0  0.024117  1.32902  -0  0.0136307  -0.00758567  -0.0109288  -0.00930488  -0.0267619  -0.00692903  0.0140466  0.0380972  -0.00854243  -0.293354  -0.11857  -0.100298 
1704458759.747749000  0  0  11.6648  0.10217  -0.12408  0.0115446  nan  nan  nan  nan  nan  nan  -2.4676  -0.232523  1.01783  -0.162524  -0.0231946  -0.0303226  0.111142  0.379302  0.0470487  0  0  0  0.0207695  1.33408  -0  0.0135965  -0.00777492  -0.0109784  -0.0103531  -0.0255082  -0.00381026  0.012506  0.0367485  -0.00761153  -0.332005  -0.150591  -0.0440602 
1704458759.752759000  0  0  11.6303  0.0892064  -0.120661  0.021126  nan  nan  nan  nan  nan  nan  -2.46705  -0.23061  1.01807  -0.163212  -0.0243193  -0.0307742  0.111238  0.385985  0.0470487  0  0  0  0.0176719  1.33889  -0  0.0135957  -0.0079672  -0.0110163  -0.00935431  -0.024575  0.000204524  0.0119108  0.0369047  -0.00829944  -0.300453  -0.158905  -0.137713 
1704458759.757762000  0  0  11.6651  0.121859  -0.14085  0.0176518  nan  nan  nan  nan  nan  nan  -2.46649  -0.228663  1.0183  -0.163049  -0.0251961  -0.0312935  0.111319  0.392691  0.0470487  0  0  0  0.0148244  1.34345  -0  0.0135507  -0.00809029  -0.0110551  -0.00835899  -0.0240753  -0.00343355  0.00974847  0.0373048  -0.00796485  -0.340884  -0.123918  -0.104618 
1704458759.762762000  0  0  11.698  0.134606  -0.137776  0.0133128  nan  nan  nan  nan  nan  nan  -2.46593  -0.226683  1.01854  -0.163853  -0.0257169  -0.0318522  0.111386  0.399419  0.0470487  0  0  0  0.0122269  1.34776  -0  0.0135686  -0.00850077  -0.011466  -0.0081131  -0.0241522  -0.00559753  0.00884408  0.0370877  -0.00723349  -0.356025  -0.12758  -0.0664648 
1704458759.768305000  0  0  11.6558  0.128221  -0.137438  0.0181461  nan  nan  nan  nan  nan  nan  -2.46538  -0.224669  1.01877  -0.163441  -0.0258403  -0.0325146  0.111441  0.406168  0.0470487  0  0  0  0.0098793  1.35183  -0  0.0136022  -0.00846201  -0.0114867  -0.00863412  -0.0221546  -0.00101957  0.00690032  0.0364642  -0.00749424  -0.322884  -0.121587  -0.114582 
1704458759.772761000  0  0  11.6805  0.124544  -0.142083  0.0185772  nan  nan  nan  nan  nan  nan  -2.46482  -0.222621  1.01901  -0.164708  -0.0270338  -0.0329608  0.111485  0.412937  0.0470487  0  0  0  0.0077818  1.35564  -0  0.0135138  -0.00879317  -0.0115485  -0.00700081  -0.0231056  -0.00322843  0.00679773  0.0370635  -0.00742006  -0.314642  -0.118946  -0.119861 
1704458759.777780000  0  0  11.7283  0.133296  -0.157904  0.0172808  nan  nan  nan  nan  nan  nan  -2.46426  -0.220539  1.01924  -0.163968  -0.0276953  -0.0335563  0.11152  0.419724  0.0470487  0  0  0  0.0059343  1.3592  -0  0.0134893  -0.00894914  -0.0116967  -0.00617739  -0.0220699  -0.00808986  0.00457822  0.0373428  -0.00715939  -0.307992  -0.0911639  -0.108889 
1704458759.782786000  0  0  11.6335  0.133833  -0.138782  0.0183726  nan  nan  nan  nan  nan  nan  -2.4637  -0.218424  1.01948  -0.164581  -0.0269185  -0.0343585  0.111545  0.426529  0.0470487  0  0  0  0.0043367  1.36251  -0  0.0134348  -0.00904331  -0.0116419  -0.00792538  -0.0201487  0.00215511  0.0037449  0.0357845  -0.00712808  -0.300149  -0.111727  -0.120674 
1704458759.787772000  0  0  11.6914  0.110485  -0.136032  0.0210586  nan  nan  nan  nan  nan  nan  -2.46315  -0.216274  1.01971  -0.165434  -0.0286814  -0.0347375  0.111563  0.433349  0.0470487  0  0  0  0.0029892  1.36557  -0  0.013466  -0.00924388  -0.011748  -0.00555013  -0.0217358  -0.00358706  0.00362529  0.0366739  -0.00735822  -0.253478  -0.126559  -0.146549 
1704458759.793282000  0  0  11.7616  0.124849  -0.158819  0.01801  nan  nan  nan  nan  nan  nan  -2.46259  -0.21409  1.01995  -0.163542  -0.0294435  -0.0353707  0.111576  0.440184  0.0470487  0  0  0  0.0018916  1.36838  -0  0.0135433  -0.00921829  -0.0118627  -0.00462928  -0.0201097  -0.0112064  0.000445886  0.0370834  -0.00710545  -0.247504  -0.0866186  -0.117095 
1704458759.797762000  0  0  11.6611  0.125061  -0.126123  0.014214  nan  nan  nan  nan  nan  nan  -2.46203  -0.211872  1.02018  -0.165062  -0.0283203  -0.0362211  0.111583  0.447032  0.0470487  0  0  0  0.0010441  1.37094  -0  0.013437  -0.00952347  -0.0118169  -0.00673918  -0.0188939  -0.000131464  0.000793505  0.0349906  -0.00649318  -0.251623  -0.127876  -0.0834362 
1704458759.802760000  0  0  11.7212  0.0705508  -0.117607  0.0200257  nan  nan  nan  nan  nan  nan  -2.46147  -0.20962  1.02042  -0.166053  -0.0304877  -0.0365448  0.111586  0.453893  0.0470487  0  0  0  0.0004466  1.37325  -0  0.0134938  -0.00975276  -0.0119662  -0.00369536  -0.0207959  -0.00593665  0.00168586  0.0360377  -0.00691094  -0.155152  -0.1556  -0.140237 
1704458759.807756000  0  0  11.7718  0.090384  -0.144115  0.0160483  nan  nan  nan  nan  nan  nan  -2.46091  -0.207333  1.02065  -0.164679  -0.0303452  -0.0373334  0.111588  0.460764  0.0470487  0  0  0  9.9e-05  1.37531  -0  0.0134653  -0.00984379  -0.0120379  -0.00383283  -0.019247  -0.0114631  -0.000601678  0.0356337  -0.00648072  -0.169322  -0.0997501  -0.102827 
1704458759.812765000  0  0  11.6946  0.0901769  -0.111385  0.0118637  nan  nan  nan  nan  nan  nan  -2.46036  -0.205012  1.02089  -0.165534  -0.0293317  -0.0382041  0.111588  0.467646  0.0470487  0  0  0  0  1.37713  -0  0.013467  -0.00999335  -0.012067  -0.0058983  -0.0181037  -0.0028181  -0.000596951  0.0334971  -0.00580324  -0.16897  -0.140605  -0.0657488 
1704458759.818281000  0  0  11.7536  0.0472422  -0.114886  0.0186141  nan  nan  nan  nan  nan  nan  -2.4598  -0.202657  1.02113  -0.165272  -0.031127  -0.0386471  0.111588  0.474535  0.0470487  0  0  0  0  1.37869  -0  0.0135783  -0.00996455  -0.012172  -0.0034341  -0.0189677  -0.00889845  -0.00070756  0.0343023  -0.0062716  -0.0843106  -0.142385  -0.131895 
1704458759.822762000  0  0  11.7876  0.0617778  -0.139011  0.0148578  nan  nan  nan  nan  nan  nan  -2.45924  -0.200267  1.02136  -0.165159  -0.0309211  -0.0394256  0.111588  0.481432  0.0470487  0  0  0  0  1.38  -0  0.0134984  -0.0102864  -0.0122579  -0.00359016  -0.0183826  -0.01233  -0.00142958  0.0339482  -0.00576536  -0.104874  -0.0917022  -0.0975787 
1704458759.827739000  0  0  11.7254  0.0560203  -0.114076  0.012676  nan  nan  nan  nan  nan  nan  -2.45868  -0.197842  1.0216  -0.165815  -0.0304905  -0.0402237  0.111588  0.488335  0.0470487  0  0  0  0  1.38106  -0  0.0135201  -0.010469  -0.0122978  -0.00475012  -0.0173113  -0.00533219  -0.00118565  0.0325082  -0.00526945  -0.0962805  -0.124829  -0.0796931 
1704458759.832765000  0  0  11.7489  0.0298398  -0.109496  0.0197658  nan  nan  nan  nan  nan  nan  -2.45812  -0.195383  1.02183  -0.16591  -0.0309406  -0.0408985  0.111588  0.495242  0.0470487  0  0  0  0  1.38187  -0  0.0135033  -0.0105514  -0.0123476  -0.00412577  -0.017647  -0.00767486  -0.000984044  0.0321412  -0.00577029  -0.0475262  -0.12982  -0.149074 
1704458759.837769000  0  0  11.7622  0.0420162  -0.121073  0.0169955  nan  nan  nan  nan  nan  nan  -2.45757  -0.19289  1.02207  -0.16569  -0.0319968  -0.0414884  0.111588  0.502153  0.0470487  0  0  0  0  1.38243  -0  0.0135911  -0.0107776  -0.0124356  -0.00288287  -0.0169324  -0.00888042  -0.00156746  0.0326302  -0.00547539  -0.0649803  -0.112525  -0.12297 
