    ts      x      y      z   roll  pitch    yaw     vx     vy     vz     wx     wy     wz     ax     ay     az    dwx    dwy    dwz
 0.0050000  -2.5000000  -0.3000000   1.0000000   0.0000000   0.0000000  -0.0000000   0.0000002   0.0000002   0.0000002   0.0000000   0.0000000   0.0000000   0.0001250   0.0001250   0.0001250   0.0000000   0.0000000   0.0000000
 0.0100000  -2.5000000  -0.3000000   1.0000000   0.0000000   0.0000000  -0.0000000   0.0000017   0.0000017   0.0000017   0.0000000   0.0000000   0.0000000   0.0005000   0.0005000   0.0005000   0.0000000   0.0000000   0.0000000
 0.0150000  -2.5000000  -0.3000000   1.0000000   0.0000000   0.0000000  -0.0000000   0.0000056   0.0000056   0.0000056   0.0000000   0.0000000   0.0000000   0.0011250   0.0011250   0.0011250   0.0000000   0.0000000   0.0000000
 0.0200000  -2.5000000  -0.3000000   1.0000000   0.0000000   0.0000000  -0.0000001   0.0000133   0.0000133   0.0000133   0.0000000   0.0000000   0.0000000   0.0020000   0.0020000   0.0020000   0.0000000   0.0000000   0.0000000
 0.0250000  -2.5000000  -0.3000000   1.0000000   0.0000000   0.0000000  -0.0000003   0.0000260   0.0000260   0.0000260   0.0000000   0.0000000   0.0000000   0.0031250   0.0031250   0.0031250   0.0000000   0.0000000   0.0000000
 0.0300000  -2.5000000  -0.3000000   1.0000000   0.0000000   0.0000000  -0.0000005   0.0000450   0.0000450   0.0000450   0.0000000   0.0000000   0.0000000   0.0045000   0.0045000   0.0045000   0.0000000   0.0000000   0.0000000
 0.0350000  -2.5000000  -0.2999990   1.0000000   0.0000000   0.0000000  -0.0000010   0.0000715   0.0000715   0.0000715   0.0000000   0.0000000   0.0000000   0.0061250   0.0061250   0.0061250   0.0000000   0.0000000   0.0000000
 0.0400000  -2.5000000  -0.2999990   1.0000000   0.0000000   0.0000000  -0.0000017   0.0001067   0.0001067   0.0001067   0.0000000   0.0000000   0.0000000   0.0080000   0.0080000   0.0080000   0.0000000   0.0000000   0.0000000
 0.0450000  -2.5000000  -0.2999980   1.0000000   0.0000000   0.0000000  -0.0000027   0.0001519   0.0001519   0.0001519   0.0000000   0.0000000   0.0000000   0.0101250   0.0101250   0.0101250   0.0000000   0.0000000   0.0000000
 0.0500000  -2.5000000  -0.2999970   1.0000000   0.0000000   0.0000000  -0.0000042   0.0002083   0.0002083   0.0002083   0.0000000   0.0000000   0.0000000   0.0125000   0.0125000   0.0125000   0.0000000   0.0000000   0.0000000
 0.0550000  -2.5000000  -0.2999960   1.0000000   0.0000000   0.0000000  -0.0000061   0.0002773   0.0002773   0.0002773   0.0000000   0.0000000   0.0000000   0.0151250   0.0151250   0.0151250   0.0000000   0.0000000   0.0000000
 0.0600000  -2.4999900  -0.2999950   1.0000100   0.0000000   0.0000000  -0.0000086   0.0003600   0.0003600   0.0003600   0.0000000   0.0000000   0.0000000   0.0180000   0.0180000   0.0180000   0.0000000   0.0000000   0.0000000
 0.0650000  -2.4999900  -0.2999930   1.0000100   0.0000000   0.0000000  -0.0000119   0.0004577   0.0004577   0.0004577   0.0000000   0.0000000   0.0000000   0.0211250   0.0211250   0.0211250   0.0000000   0.0000000   0.0000000
 0.0700000  -2.4999900  -0.2999900   1.0000100   0.0000000   0.0000000  -0.0000160   0.0005717   0.0005717   0.0005717   0.0000000   0.0000000   0.0000000   0.0245000   0.0245000   0.0245000   0.0000000   0.0000000   0.0000000
 0.0750000  -2.4999900  -0.2999870   1.0000100   0.0000000   0.0000000  -0.0000211   0.0007031   0.0007031   0.0007031   0.0000000   0.0000000   0.0000000   0.0281250   0.0281250   0.0281250   0.0000000   0.0000000   0.0000000
 0.0800000  -2.4999800  -0.2999830   1.0000200   0.0000000   0.0000000  -0.0000273   0.0008533   0.0008533   0.0008533   0.0000000   0.0000000   0.0000000   0.0320000   0.0320000   0.0320000   0.0000000   0.0000000   0.0000000
 0.0850000  -2.4999800  -0.2999780   1.0000200   0.0000000   0.0000000  -0.0000348   0.0010235   0.0010235   0.0010235   0.0000000   0.0000000   0.0000000   0.0361250   0.0361250   0.0361250   0.0000000   0.0000000   0.0000000
 0.0900000  -2.4999700  -0.2999730   1.0000300   0.0000000   0.0000000  -0.0000437   0.0012150   0.0012150   0.0012150   0.0000000   0.0000000   0.0000000   0.0405000   0.0405000   0.0405000   0.0000000   0.0000000   0.0000000
 0.0950000  -2.4999700  -0.2999660   1.0000300   0.0000000   0.0000000  -0.0000543   0.0014290   0.0014290   0.0014290   0.0000000   0.0000000   0.0000000   0.0451250   0.0451250   0.0451250   0.0000000   0.0000000   0.0000000
 0.1000000  -2.4999600  -0.2999580   1.0000400   0.0000000   0.0000000  -0.0000667   0.0016667   0.0016667   0.0016667   0.0000000   0.0000000   0.0000000   0.0500000   0.0500000   0.0500000   0.0000000   0.0000000   0.0000000
 0.1050000  -2.4999500  -0.2999490   1.0000500   0.0000000   0.0000000  -0.0000810   0.0019294   0.0019294   0.0019294   0.0000000   0.0000000   0.0000000   0.0551250   0.0551250   0.0551250   0.0000000   0.0000000   0.0000000
 0.1100000  -2.4999400  -0.2999390   1.0000600   0.0000000   0.0000000  -0.0000976   0.0022183   0.0022183   0.0022183   0.0000000   0.0000000   0.0000000   0.0605000   0.0605000   0.0605000   0.0000000   0.0000000   0.0000000
 0.1150000  -2.4999300  -0.2999270   1.0000700   0.0000000   0.0000000  -0.0001166   0.0025348   0.0025348   0.0025348   0.0000000   0.0000000   0.0000000   0.0661250   0.0661250   0.0661250   0.0000000   0.0000000   0.0000000
 0.1200000  -2.4999100  -0.2999140   1.0000900   0.0000000   0.0000000  -0.0001382   0.0028800   0.0028800   0.0028800   0.0000000   0.0000000   0.0000000   0.0720000   0.0720000   0.0720000   0.0000000   0.0000000   0.0000000
 0.1250000  -2.4999000  -0.2998980   1.0001000   0.0000000   0.0000000  -0.0001628   0.0032552   0.0032552   0.0032552   0.0000000   0.0000000   0.0000000   0.0781250   0.0781250   0.0781250   0.0000000   0.0000000   0.0000000
 0.1300000  -2.4998800  -0.2998810   1.0001200   0.0000000   0.0000000  -0.0001904   0.0036617   0.0036617   0.0036617   0.0000000   0.0000000   0.0000000   0.0845000   0.0845000   0.0845000   0.0000000   0.0000000   0.0000000
 0.1350000  -2.4998600  -0.2998620   1.0001400   0.0000000   0.0000000  -0.0002214   0.0041006   0.0041006   0.0041006   0.0000000   0.0000000   0.0000000   0.0911250   0.0911250   0.0910848   0.0000000   0.0000000   0.0000000
 0.1400000  -2.4998400  -0.2998400   1.0001600   0.0000000   0.0000000  -0.0002560   0.0045733   0.0045733   0.0045722   0.0000000   0.0000000   0.0000000   0.0980000   0.0980000   0.0975095   0.0000000   0.0000000   0.0000000
 0.1450000  -2.4998200  -0.2998160   1.0001800   0.0000000   0.0000000  -0.0002945   0.0050810   0.0050810   0.0050753   0.0000000   0.0000000   0.0000000   0.1051250   0.1051250   0.1036840   0.0000000   0.0000000   0.0000000
 0.1500000  -2.4997900  -0.2997890   1.0002100   0.0000000   0.0000000  -0.0003370   0.0056250   0.0056250   0.0056086   0.0000000   0.0000000   0.0000000   0.1125000   0.1125000   0.1096090   0.0000000   0.0000000   0.0000000
 0.1550000  -2.4997600  -0.2997590   1.0002400   0.0000000   0.0000000  -0.0003837   0.0062065   0.0062065   0.0061709   0.0000000   0.0000000   0.0000000   0.1201250   0.1201250   0.1152830   0.0000000   0.0000000   0.0000000
 0.1600000  -2.4997300  -0.2997270   1.0002700   0.0000000   0.0000000  -0.0004349   0.0068267   0.0068267   0.0067610   0.0000000   0.0000000   0.0000000   0.1280000   0.1280000   0.1207080   0.0000000   0.0000000   0.0000000
 0.1650000  -2.4996900  -0.2996910   1.0003100   0.0000000   0.0000000  -0.0004907   0.0074869   0.0074869   0.0073776   0.0000000   0.0000000   0.0000000   0.1361250   0.1361250   0.1258830   0.0000000   0.0000000   0.0000000
 0.1700000  -2.4996500  -0.2996520   1.0003500   0.0000000   0.0000000  -0.0005513   0.0081883   0.0081883   0.0080194   0.0000000   0.0000000   0.0000000   0.1445000   0.1445000   0.1308070   0.0000000   0.0000000   0.0000000
 0.1750000  -2.4996100  -0.2996090   1.0003900   0.0000000   0.0000000  -0.0006169   0.0089323   0.0089323   0.0086853   0.0000000   0.0000000   0.0000000   0.1531250   0.1531250   0.1354820   0.0000000   0.0000000   0.0000000
 0.1800000  -2.4995600  -0.2995630   1.0004300   0.0000000   0.0000000  -0.0006876   0.0097199   0.0097200   0.0093738   0.0000000   0.0000000   0.0000000   0.1619300   0.1620000   0.1399060   0.0000000   0.0000000   0.0000000
 0.1850000  -2.4995100  -0.2995120   1.0004800   0.0000000   0.0000000  -0.0007636   0.0105512   0.0105527   0.0100839   0.0000000   0.0000000   0.0000000   0.1705420   0.1711250   0.1440810   0.0000000   0.0000000   0.0000000
 0.1900000  -2.4994600  -0.2994570   1.0005300   0.0000000   0.0000000  -0.0008450   0.0114249   0.0114317   0.0108142   0.0000000   0.0000000   0.0000000   0.1789030   0.1805000   0.1480060   0.0000000   0.0000000   0.0000000
 0.1950000  -2.4994000  -0.2993980   1.0005900   0.0000000   0.0000000  -0.0009319   0.0123398   0.0123581   0.0115636   0.0000000   0.0000000   0.0000000   0.1870140   0.1901250   0.1516800   0.0000000   0.0000000   0.0000000
 0.2000000  -2.4993300  -0.2993330   1.0006500   0.0000000   0.0000000  -0.0010245   0.0132947   0.0133333   0.0123306   0.0000000   0.0000000   0.0000000   0.1948760   0.2000000   0.1551050   0.0000000   0.0000000   0.0000000
 0.2050000  -2.4992600  -0.2992640   1.0007100   0.0000000   0.0000000  -0.0011228   0.0142882   0.0143585   0.0131142   0.0000000   0.0000000   0.0000000   0.2024870   0.2101250   0.1582800   0.0000000   0.0000000   0.0000000
 0.2100000  -2.4991900  -0.2991900   1.0007800   0.0000000   0.0000000  -0.0012269   0.0153191   0.0154350   0.0139130   0.0000000   0.0000000   0.0000000   0.2098480   0.2205000   0.1612040   0.0000000   0.0000000   0.0000000
 0.2150000  -2.4991100  -0.2991100   1.0008500   0.0000000   0.0000000  -0.0013370   0.0163862   0.0165640   0.0147258   0.0000000   0.0000000   0.0000000   0.2169590   0.2311250   0.1638790   0.0000000   0.0000000   0.0000000
 0.2200000  -2.4990300  -0.2990240   1.0009300   0.0000000   0.0000000  -0.0014531   0.0174883   0.0177467   0.0155514   0.0000000   0.0000000   0.0000000   0.2238210   0.2420000   0.1663030   0.0000000   0.0000000   0.0000000
 0.2250000  -2.4989400  -0.2989320   1.0010100   0.0000000   0.0000000  -0.0015753   0.0186240   0.0189844   0.0163884   0.0000000   0.0000000   0.0000000   0.2304320   0.2531250   0.1684780   0.0000000   0.0000000   0.0000000
 0.2300000  -2.4988400  -0.2988340   1.0010900   0.0000000   0.0000000  -0.0017035   0.0197922   0.0202783   0.0172357   0.0000000   0.0000000   0.0000000   0.2367930   0.2645000   0.1704030   0.0000000   0.0000000   0.0000000
 0.2350000  -2.4987400  -0.2987290   1.0011800   0.0000000   0.0000000  -0.0018380   0.0209915   0.0216298   0.0180920   0.0000000   0.0000000   0.0000000   0.2429040   0.2761250   0.1720770   0.0000000   0.0000000   0.0000000
 0.2400000  -2.4986300  -0.2986180   1.0012700   0.0000000   0.0000000  -0.0019786   0.0222208   0.0230400   0.0189561   0.0000000   0.0000000   0.0000000   0.2487660   0.2880000   0.1735020   0.0000000   0.0000000   0.0000000
 0.2450000  -2.4985200  -0.2984990   1.0013700   0.0000000   0.0000000  -0.0021255   0.0234788   0.0245102   0.0198266   0.0000000   0.0000000   0.0000000   0.2543770   0.3001250   0.1746760   0.0000000   0.0000000   0.0000000
 0.2500000  -2.4984000  -0.2983720   1.0014700   0.0000000   0.0000000  -0.0022787   0.0247642   0.0260417   0.0207024   0.0000000   0.0000000   0.0000000   0.2597380   0.3125000   0.1756010   0.0000000   0.0000000   0.0000000
 0.2550000  -2.4982700  -0.2982380   1.0015800   0.0000000   0.0000000  -0.0024380   0.0260757   0.0276356   0.0215822   0.0000000   0.0000000   0.0000000   0.2648490   0.3251250   0.1762760   0.0000000   0.0000000   0.0000000
 0.2600000  -2.4981300  -0.2980960   1.0016900   0.0000000   0.0000000  -0.0026036   0.0274123   0.0292933   0.0224648   0.0000000   0.0000000   0.0000000   0.2697110   0.3380000   0.1767000   0.0000000   0.0000000   0.0000000
 0.2650000  -2.4979900  -0.2979450   1.0018000   0.0000000   0.0000000  -0.0027755   0.0287724   0.0310160   0.0233488   0.0000000   0.0000000   0.0000000   0.2743220   0.3511250   0.1768750   0.0000000   0.0000000   0.0000000
 0.2700000  -2.4978500  -0.2977860   1.0019200   0.0000000   0.0000000  -0.0029536   0.0301551   0.0328050   0.0242331   0.0000000   0.0000000   0.0000000   0.2786830   0.3645000   0.1768000   0.0000000   0.0000000   0.0000000
 0.2750000  -2.4976900  -0.2976170   1.0020400   0.0000000   0.0000000  -0.0031380   0.0315589   0.0346615   0.0251164   0.0000000   0.0000000   0.0000000   0.2827950   0.3781250   0.1764740   0.0000000   0.0000000   0.0000000
 0.2800000  -2.4975300  -0.2974390   1.0021700   0.0000000   0.0000000  -0.0033286   0.0329826   0.0365867   0.0259974   0.0000000   0.0000000   0.0000000   0.2866560   0.3920000   0.1758990   0.0000000   0.0000000   0.0000000
 0.2850000  -2.4973600  -0.2972510   1.0023000   0.0000000   0.0000000  -0.0035255   0.0344250   0.0385819   0.0268750   0.0000000   0.0000000   0.0000000   0.2902670   0.4061250   0.1750730   0.0000000   0.0000000   0.0000000
 0.2900000  -2.4971900  -0.2970530   1.0024400   0.0000000   0.0000000  -0.0037287   0.0358848   0.0406483   0.0277478   0.0000000   0.0000000   0.0000000   0.2936280   0.4205000   0.1739980   0.0000000   0.0000000   0.0000000
 0.2950000  -2.4970000  -0.2968440   1.0025800   0.0000000   0.0000000  -0.0039380   0.0373609   0.0427873   0.0286145   0.0000000   0.0000000   0.0000000   0.2967400   0.4351250   0.1726730   0.0000000   0.0000000   0.0000000
 0.3000000  -2.4968100  -0.2966250   1.0027300   0.0000000   0.0000000  -0.0041537   0.0388518   0.0450000   0.0294741   0.0000000   0.0000000   0.0000000   0.2996010   0.4500000   0.1710970   0.0000000   0.0000000   0.0000000
 0.3050000  -2.4966200  -0.2963940   1.0028800   0.0000000   0.0000000  -0.0043755   0.0403565   0.0472877   0.0303251   0.0000000   0.0000000   0.0000000   0.3022120   0.4651250   0.1692720   0.0000000   0.0000000   0.0000000
 0.3100000  -2.4964100  -0.2961520   1.0030300   0.0000000   0.0000000  -0.0046036   0.0418735   0.0496517   0.0311664   0.0000000   0.0000000   0.0000000   0.3045730   0.4805000   0.1671970   0.0000000   0.0000000   0.0000000
 0.3150000  -2.4962000  -0.2958980   1.0031900   0.0000000   0.0000000  -0.0048380   0.0434018   0.0520931   0.0319966   0.0000000   0.0000000   0.0000000   0.3066850   0.4961250   0.1648710   0.0000000   0.0000000   0.0000000
 0.3200000  -2.4959800  -0.2956310   1.0033500   0.0000000   0.0000000  -0.0050786   0.0449400   0.0546133   0.0328147   0.0000000   0.0000000   0.0000000   0.3085460   0.5120000   0.1622960   0.0000000   0.0000000   0.0000000
 0.3250000  -2.4957500  -0.2953510   1.0035200   0.0000000   0.0000000  -0.0053255   0.0464868   0.0572135   0.0336192   0.0000000   0.0000000   0.0000000   0.3101570   0.5281250   0.1594700   0.0000000   0.0000000   0.0000000
 0.3300000  -2.4955100  -0.2950590   1.0036900   0.0000000   0.0000000  -0.0055787   0.0480411   0.0598950   0.0344089   0.0000000   0.0000000   0.0000000   0.3115180   0.5445000   0.1563950   0.0000000   0.0000000   0.0000000
 0.3350000  -2.4952700  -0.2947520   1.0038600   0.0000000   0.0000000  -0.0058380   0.0496016   0.0626590   0.0351827   0.0000000   0.0000000   0.0000000   0.3126300   0.5611250   0.1530700   0.0000000   0.0000000   0.0000000
 0.3400000  -2.4950100  -0.2944320   1.0040400   0.0000000   0.0000000  -0.0061037   0.0511670   0.0655067   0.0359392   0.0000000   0.0000000   0.0000000   0.3134910   0.5780000   0.1494940   0.0000000   0.0000000   0.0000000
 0.3450000  -2.4947600  -0.2940970   1.0042200   0.0000000   0.0000000  -0.0063755   0.0527361   0.0684394   0.0366772   0.0000000   0.0000000   0.0000000   0.3141020   0.5951250   0.1456690   0.0000000   0.0000000   0.0000000
 0.3500000  -2.4944900  -0.2937470   1.0044000   0.0000000   0.0000000  -0.0066536   0.0543076   0.0714583   0.0373955   0.0000000   0.0000000   0.0000000   0.3144640   0.6125000   0.1415930   0.0000000   0.0000000   0.0000000
 0.3550000  -2.4942100  -0.2933820   1.0045900   0.0000000   0.0000000  -0.0069380   0.0558803   0.0745648   0.0380928   0.0000000   0.0000000   0.0000000   0.3145750   0.6301250   0.1372680   0.0000000   0.0000000   0.0000000
 0.3600000  -2.4939300  -0.2930020   1.0047900   0.0000000   0.0000000  -0.0072286   0.0574529   0.0777600   0.0387678   0.0000000   0.0000000   0.0000000   0.3144360   0.6480000   0.1326930   0.0000000   0.0000000   0.0000000
 0.3650000  -2.4936400  -0.2926050   1.0049800   0.0000000   0.0000000  -0.0075255   0.0590242   0.0810452   0.0394193   0.0000000   0.0000000   0.0000000   0.3140470   0.6661250   0.1278670   0.0000000   0.0000000   0.0000000
 0.3700000  -2.4933400  -0.2921910   1.0051800   0.0000000   0.0000000  -0.0078286   0.0605930   0.0844217   0.0400460   0.0000000   0.0000000   0.0000000   0.3134090   0.6845000   0.1227920   0.0000000   0.0000000   0.0000000
 0.3750000  -2.4930300  -0.2917600   1.0053800   0.0000000   0.0000000  -0.0081380   0.0621579   0.0878905   0.0406468   0.0000000   0.0000000   0.0000000   0.3125200   0.7030270   0.1174670   0.0000000   0.0000000   0.0000000
 0.3800000  -2.4927200  -0.2913120   1.0055900   0.0000000   0.0000000  -0.0084537   0.0637178   0.0914515   0.0412203   0.0000000   0.0000000   0.0000000   0.3113810   0.7213380   0.1118910   0.0000000   0.0000000   0.0000000
 0.3850000  -2.4923900  -0.2908460   1.0057900   0.0000000   0.0000000  -0.0087755   0.0652713   0.0951035   0.0417653   0.0000000   0.0000000   0.0000000   0.3099920   0.7393990   0.1060660   0.0000000   0.0000000   0.0000000
 0.3900000  -2.4920600  -0.2903610   1.0060000   0.0000000   0.0000000  -0.0091036   0.0668173   0.0988451   0.0422805   0.0000000   0.0000000   0.0000000   0.3083540   0.7572100   0.0999904   0.0000000   0.0000000   0.0000000
 0.3950000  -2.4917300  -0.2898570   1.0062200   0.0000000   0.0000000  -0.0094380   0.0683544   0.1026750   0.0427648   0.0000000   0.0000000   0.0000000   0.3064650   0.7747710   0.0936651   0.0000000   0.0000000   0.0000000
 0.4000000  -2.4913800  -0.2893340   1.0064300   0.0000000   0.0000000  -0.0097786   0.0698815   0.1065920   0.0432167   0.0000000   0.0000000   0.0000000   0.3043260   0.7920820   0.0870999   0.0000000   0.0000000   0.0000000
 0.4050000  -2.4910300  -0.2887910   1.0066500   0.0000000   0.0000000  -0.0101255   0.0713973   0.1105960   0.0436360   0.0000000   0.0000000   0.0000000   0.3019370   0.8091440   0.0806257   0.0000000   0.0000000   0.0000000
 0.4100000  -2.4906700  -0.2882280   1.0068700   0.0000000   0.0000000  -0.0104786   0.0729005   0.1146830   0.0440234   0.0000000   0.0000000   0.0000000   0.2992990   0.8259550   0.0744014   0.0000000   0.0000000   0.0000000
 0.4150000  -2.4903000  -0.2876440   1.0070900   0.0000000   0.0000000  -0.0108380   0.0743898   0.1188550   0.0443804   0.0000000   0.0000000   0.0000000   0.2964100   0.8425160   0.0684272   0.0000000   0.0000000   0.0000000
 0.4200000  -2.4899200  -0.2870390   1.0073100   0.0000000   0.0000000  -0.0112036   0.0758641   0.1231080   0.0447081   0.0000000   0.0000000   0.0000000   0.2932710   0.8588270   0.0627030   0.0000000   0.0000000   0.0000000
 0.4250000  -2.4895400  -0.2864130   1.0075400   0.0000000   0.0000000  -0.0115755   0.0773221   0.1274430   0.0450078   0.0000000   0.0000000   0.0000000   0.2898830   0.8748880   0.0572287   0.0000000   0.0000000   0.0000000
 0.4300000  -2.4891500  -0.2857650   1.0077600   0.0000000   0.0000000  -0.0119536   0.0787626   0.1318570   0.0452808   0.0000000   0.0000000   0.0000000   0.2862440   0.8907000   0.0520045   0.0000000   0.0000000   0.0000000
 0.4350000  -2.4887500  -0.2850940   1.0079900   0.0000000   0.0000000  -0.0123380   0.0801842   0.1363490   0.0455283   0.0000000   0.0000000   0.0000000   0.2823550   0.9062610   0.0470302   0.0000000   0.0000000   0.0000000
 0.4400000  -2.4883500  -0.2844010   1.0082200   0.0000000   0.0000000  -0.0127286   0.0815857   0.1409190   0.0457515   0.0000000   0.0000000   0.0000000   0.2782160   0.9215720   0.0423060   0.0000000   0.0000000   0.0000000
 0.4450000  -2.4879400  -0.2836850   1.0084500   0.0000000   0.0000000  -0.0131255   0.0829659   0.1455640   0.0459518   0.0000000   0.0000000   0.0000000   0.2738280   0.9366330   0.0378318   0.0000000   0.0000000   0.0000000
 0.4500000  -2.4875200  -0.2829450   1.0086800   0.0000000   0.0000000  -0.0135286   0.0843236   0.1502850   0.0461303   0.0000000   0.0000000   0.0000000   0.2691890   0.9514440   0.0336075   0.0000000   0.0000000   0.0000000
 0.4550000  -2.4870900  -0.2821820   1.0089100   0.0000000   0.0000000  -0.0139380   0.0856574   0.1550780   0.0462883   0.0000000   0.0000000   0.0000000   0.2643000   0.9660060   0.0296333   0.0000000   0.0000000   0.0000000
 0.4600000  -2.4866600  -0.2813940   1.0091400   0.0000000   0.0000000  -0.0143536   0.0869661   0.1599440   0.0464270   0.0000000   0.0000000   0.0000000   0.2591610   0.9803170   0.0259090   0.0000000   0.0000000   0.0000000
 0.4650000  -2.4862200  -0.2805820   1.0093700   0.0000000   0.0000000  -0.0147755   0.0882486   0.1648810   0.0465478   0.0000000   0.0000000   0.0000000   0.2537730   0.9943780   0.0224348   0.0000000   0.0000000   0.0000000
 0.4700000  -2.4857800  -0.2797450   1.0096000   0.0000000   0.0000000  -0.0152036   0.0895034   0.1698880   0.0466518   0.0000000   0.0000000   0.0000000   0.2481340   1.0081900   0.0192106   0.0000000   0.0000000   0.0000000
 0.4750000  -2.4853300  -0.2788830   1.0098400   0.0000000   0.0000000  -0.0156380   0.0907295   0.1749630   0.0467403   0.0000000   0.0000000   0.0000000   0.2422450   1.0217500   0.0162363   0.0000000   0.0000000   0.0000000
 0.4800000  -2.4848700  -0.2779960   1.0100700   0.0000000   0.0000000  -0.0160786   0.0919255   0.1801050   0.0468146   0.0000000   0.0000000   0.0000000   0.2361070   1.0350600   0.0135121   0.0000000   0.0000000   0.0000000
 0.4850000  -2.4844100  -0.2770820   1.0103100   0.0000000   0.0000000  -0.0165255   0.0930901   0.1853130   0.0468758   0.0000000   0.0000000   0.0000000   0.2297180   1.0481200   0.0110379   0.0000000   0.0000000   0.0000000
 0.4900000  -2.4839400  -0.2761420   1.0105400   0.0000000   0.0000000  -0.0169786   0.0942222   0.1905860   0.0469254   0.0000000   0.0000000   0.0000000   0.2230790   1.0609300   0.0088136   0.0000000   0.0000000   0.0000000
 0.4950000  -2.4834700  -0.2751760   1.0107800   0.0000000   0.0000000  -0.0174380   0.0953205   0.1959220   0.0469644   0.0000000   0.0000000   0.0000000   0.2161900   1.0735000   0.0068394   0.0000000   0.0000000   0.0000000
 0.5000000  -2.4829900  -0.2741830   1.0110100   0.0000000   0.0000000  -0.0179036   0.0963837   0.2013200   0.0469942   0.0000000   0.0000000   0.0000000   0.2090520   1.0858100   0.0051151   0.0000000   0.0000000   0.0000000
 0.5050000  -2.4825000  -0.2731630   1.0112500   0.0000000   0.0000000  -0.0183755   0.0974106   0.2067790   0.0470160   0.0000000   0.0000000   0.0000000   0.2016630   1.0978700   0.0036409   0.0000000   0.0000000   0.0000000
 0.5100000  -2.4820100  -0.2721150   1.0114800   0.0000000   0.0000000  -0.0188536   0.0983999   0.2122980   0.0470310   0.0000000   0.0000000   0.0000000   0.1940240   1.1096800   0.0024166   0.0000000   0.0000000   0.0000000
 0.5150000  -2.4815200  -0.2710400   1.0117200   0.0000000   0.0000000  -0.0193380   0.0993504   0.2178760   0.0470405   0.0000000   0.0000000   0.0000000   0.1861350   1.1212400   0.0014424   0.0000000   0.0000000   0.0000000
 0.5200000  -2.4810200  -0.2699360   1.0119500   0.0000000   0.0000000  -0.0198286   0.1002610   0.2235100   0.0470458   0.0000000   0.0000000   0.0000000   0.1779970   1.1325500   0.0007182   0.0000000   0.0000000   0.0000000
 0.5250000  -2.4805200  -0.2688040   1.0121900   0.0000000   0.0000000  -0.0203255   0.1011300   0.2292010   0.0470481   0.0000000   0.0000000   0.0000000   0.1696080   1.1436100   0.0002439   0.0000000   0.0000000   0.0000000
 0.5300000  -2.4800100  -0.2676440   1.0124200   0.0000000   0.0000000  -0.0208286   0.1019570   0.2349460   0.0470487   0.0000000   0.0000000   0.0000000   0.1609690   1.1544200   0.0000197   0.0000000   0.0000000   0.0000000
 0.5350000  -2.4795000  -0.2664550   1.0126600   0.0000000   0.0000000  -0.0213380   0.1027390   0.2407450   0.0470487   0.0000000   0.0000000   0.0000000   0.1521650   1.1649800  -0.0000000   0.0000000   0.0000000   0.0000000
 0.5400000  -2.4789800  -0.2652370   1.0128900   0.0000000   0.0000000  -0.0218536   0.1034790   0.2465960   0.0470487   0.0000000   0.0000000   0.0000000   0.1435680   1.1753000  -0.0000000   0.0000000   0.0000000   0.0000000
 0.5450000  -2.4784600  -0.2639890   1.0131300   0.0000000   0.0000000  -0.0223755   0.1041750   0.2524970   0.0470487   0.0000000   0.0000000   0.0000000   0.1352200   1.1853600  -0.0000000   0.0000000   0.0000000   0.0000000
 0.5500000  -2.4779400  -0.2627120   1.0133600   0.0000000   0.0000000  -0.0229036   0.1048310   0.2584490   0.0470487   0.0000000   0.0000000   0.0000000   0.1271230   1.1951700  -0.0000000   0.0000000   0.0000000   0.0000000
 0.5550000  -2.4774100  -0.2614040   1.0136000   0.0000000   0.0000000  -0.0234380   0.1054470   0.2644490   0.0470487   0.0000000   0.0000000   0.0000000   0.1192750   1.2047300  -0.0000000   0.0000000   0.0000000   0.0000000
 0.5600000  -2.4768900  -0.2600670   1.0138300   0.0000000   0.0000000  -0.0239786   0.1060240   0.2704960   0.0470487   0.0000000   0.0000000   0.0000000   0.1116780   1.2140400  -0.0000000   0.0000000   0.0000000   0.0000000
 0.5650000  -2.4763500  -0.2586990   1.0140700   0.0000000   0.0000000  -0.0245255   0.1065640   0.2765890   0.0470487   0.0000000   0.0000000   0.0000000   0.1043300   1.2231000  -0.0000000   0.0000000   0.0000000   0.0000000
 0.5700000  -2.4758200  -0.2573010   1.0143000   0.0000000   0.0000000  -0.0250786   0.1070680   0.2827260   0.0470487   0.0000000   0.0000000   0.0000000   0.0972325   1.2319100  -0.0000000   0.0000000   0.0000000   0.0000000
 0.5750000  -2.4752800  -0.2558720   1.0145400   0.0000000   0.0000000  -0.0256380   0.1075370   0.2889070   0.0470487   0.0000000   0.0000000   0.0000000   0.0903850   1.2404700  -0.0000000   0.0000000   0.0000000   0.0000000
 0.5800000  -2.4747500  -0.2544120   1.0147700   0.0000000   0.0000000  -0.0262036   0.1079720   0.2951300   0.0470487   0.0000000   0.0000000   0.0000000   0.0837874   1.2487900  -0.0000000   0.0000000   0.0000000   0.0000000
 0.5850000  -2.4742000  -0.2529210   1.0150100   0.0000000   0.0000000  -0.0267755   0.1083750   0.3013950   0.0470487   0.0000000   0.0000000   0.0000000   0.0774399   1.2568500  -0.0000000   0.0000000   0.0000000   0.0000000
 0.5900000  -2.4736600  -0.2513980   1.0152400   0.0000000   0.0000000  -0.0273536   0.1087470   0.3076990   0.0470487   0.0000000   0.0000000   0.0000000   0.0713424   1.2646600  -0.0000000   0.0000000   0.0000000   0.0000000
 0.5950000  -2.4731200  -0.2498440   1.0154800   0.0000000   0.0000000  -0.0279380   0.1090890   0.3140410   0.0470487   0.0000000   0.0000000   0.0000000   0.0654948   1.2722200  -0.0000000   0.0000000   0.0000000   0.0000000
 0.6000000  -2.4725700  -0.2482570   1.0157100   0.0000000   0.0000000  -0.0285286   0.1094030   0.3204200   0.0470487   0.0000000   0.0000000   0.0000000   0.0598973   1.2795300  -0.0000000   0.0000000   0.0000000   0.0000000
 0.6050000  -2.4720200  -0.2466390   1.0159500   0.0000000   0.0000000  -0.0291255   0.1096890   0.3268360   0.0470487   0.0000000   0.0000000   0.0000000   0.0545498   1.2865900  -0.0000000   0.0000000   0.0000000   0.0000000
 0.6100000  -2.4714700  -0.2449890   1.0161900   0.0000000   0.0000000  -0.0297286   0.1099480   0.3332860   0.0470487   0.0000000   0.0000000   0.0000000   0.0494522   1.2934000  -0.0000000   0.0000000   0.0000000   0.0000000
 0.6150000  -2.4709200  -0.2433060   1.0164200   0.0000000   0.0000000  -0.0303380   0.1101830   0.3397690   0.0470487   0.0000000   0.0000000   0.0000000   0.0446047   1.2999600  -0.0000000   0.0000000   0.0000000   0.0000000
 0.6200000  -2.4703700  -0.2415910   1.0166600   0.0000000   0.0000000  -0.0309536   0.1103950   0.3462850   0.0470487   0.0000000   0.0000000   0.0000000   0.0400071   1.3062700  -0.0000000   0.0000000   0.0000000   0.0000000
 0.6250000  -2.4698200  -0.2398430   1.0168900   0.0000000   0.0000000  -0.0315755   0.1105840   0.3528320   0.0470487   0.0000000   0.0000000   0.0000000   0.0356596   1.3123400  -0.0000000   0.0000000   0.0000000   0.0000000
 0.6300000  -2.4692700  -0.2380630   1.0171300   0.0000000   0.0000000  -0.0322036   0.1107520   0.3594080   0.0470487   0.0000000   0.0000000   0.0000000   0.0315621   1.3181500  -0.0000000   0.0000000   0.0000000   0.0000000
 0.6350000  -2.4687100  -0.2362490   1.0173600   0.0000000   0.0000000  -0.0328380   0.1109000   0.3660130   0.0470487   0.0000000   0.0000000   0.0000000   0.0277145   1.3237100  -0.0000000   0.0000000   0.0000000   0.0000000
 0.6400000  -2.4681600  -0.2344030   1.0176000   0.0000000   0.0000000  -0.0334786   0.1110290   0.3726450   0.0470487   0.0000000   0.0000000   0.0000000   0.0241170   1.3290200  -0.0000000   0.0000000   0.0000000   0.0000000
 0.6450000  -2.4676000  -0.2325230   1.0178300   0.0000000   0.0000000  -0.0341255   0.1111420   0.3793020   0.0470487   0.0000000   0.0000000   0.0000000   0.0207695   1.3340800  -0.0000000   0.0000000   0.0000000   0.0000000
 0.6500000  -2.4670500  -0.2306100   1.0180700   0.0000000   0.0000000  -0.0347786   0.1112380   0.3859850   0.0470487   0.0000000   0.0000000   0.0000000   0.0176719   1.3388900  -0.0000000   0.0000000   0.0000000   0.0000000
 0.6550000  -2.4664900  -0.2286630   1.0183000   0.0000000   0.0000000  -0.0354380   0.1113190   0.3926910   0.0470487   0.0000000   0.0000000   0.0000000   0.0148244   1.3434500  -0.0000000   0.0000000   0.0000000   0.0000000
 0.6600000  -2.4659300  -0.2266830   1.0185400   0.0000000   0.0000000  -0.0361036   0.1113860   0.3994190   0.0470487   0.0000000   0.0000000   0.0000000   0.0122269   1.3477600  -0.0000000   0.0000000   0.0000000   0.0000000
 0.6650000  -2.4653800  -0.2246690   1.0187700   0.0000000   0.0000000  -0.0367755   0.1114410   0.4061680   0.0470487   0.0000000   0.0000000   0.0000000   0.0098793   1.3518300  -0.0000000   0.0000000   0.0000000   0.0000000
 0.6700000  -2.4648200  -0.2226210   1.0190100   0.0000000   0.0000000  -0.0374536   0.1114850   0.4129370   0.0470487   0.0000000   0.0000000   0.0000000   0.0077818   1.3556400  -0.0000000   0.0000000   0.0000000   0.0000000
 0.6750000  -2.4642600  -0.2205390   1.0192400   0.0000000   0.0000000  -0.0381380   0.1115200   0.4197240   0.0470487   0.0000000   0.0000000   0.0000000   0.0059343   1.3592000  -0.0000000   0.0000000   0.0000000   0.0000000
 0.6800000  -2.4637000  -0.2184240   1.0194800   0.0000000   0.0000000  -0.0388286   0.1115450   0.4265290   0.0470487   0.0000000   0.0000000   0.0000000   0.0043367   1.3625100  -0.0000000   0.0000000   0.0000000   0.0000000
 0.6850000  -2.4631500  -0.2162740   1.0197100   0.0000000   0.0000000  -0.0395255   0.1115630   0.4333490   0.0470487   0.0000000   0.0000000   0.0000000   0.0029892   1.3655700  -0.0000000   0.0000000   0.0000000   0.0000000
 0.6900000  -2.4625900  -0.2140900   1.0199500   0.0000000   0.0000000  -0.0402286   0.1115760   0.4401840   0.0470487   0.0000000   0.0000000   0.0000000   0.0018916   1.3683800  -0.0000000   0.0000000   0.0000000   0.0000000
 0.6950000  -2.4620300  -0.2118720   1.0201800   0.0000000   0.0000000  -0.0409380   0.1115830   0.4470320   0.0470487   0.0000000   0.0000000   0.0000000   0.0010441   1.3709400  -0.0000000   0.0000000   0.0000000   0.0000000
 0.7000000  -2.4614700  -0.2096200   1.0204200   0.0000000   0.0000000  -0.0416536   0.1115860   0.4538930   0.0470487   0.0000000   0.0000000   0.0000000   0.0004466   1.3732500  -0.0000000   0.0000000   0.0000000   0.0000000
 0.7050000  -2.4609100  -0.2073330   1.0206500   0.0000000   0.0000000  -0.0423755   0.1115880   0.4607640   0.0470487   0.0000000   0.0000000   0.0000000   0.0000990   1.3753100  -0.0000000   0.0000000   0.0000000   0.0000000
 0.7100000  -2.4603600  -0.2050120   1.0208900   0.0000000   0.0000000  -0.0431036   0.1115880   0.4676460   0.0470487   0.0000000   0.0000000   0.0000000   0.0000000   1.3771300  -0.0000000   0.0000000   0.0000000   0.0000000
 0.7150000  -2.4598000  -0.2026570   1.0211300   0.0000000   0.0000000  -0.0438380   0.1115880   0.4745350   0.0470487   0.0000000   0.0000000   0.0000000   0.0000000   1.3786900  -0.0000000   0.0000000   0.0000000   0.0000000
 0.7200000  -2.4592400  -0.2002670   1.0213600   0.0000000   0.0000000  -0.0445786   0.1115880   0.4814320   0.0470487   0.0000000   0.0000000   0.0000000   0.0000000   1.3800000  -0.0000000   0.0000000   0.0000000   0.0000000
 0.7250000  -2.4586800  -0.1978420   1.0216000   0.0000000   0.0000000  -0.0453255   0.1115880   0.4883350   0.0470487   0.0000000   0.0000000   0.0000000   0.0000000   1.3810600  -0.0000000   0.0000000   0.0000000   0.0000000
 0.7300000  -2.4581200  -0.1953830   1.0218300   0.0000000   0.0000000  -0.0460786   0.1115880   0.4952420   0.0470487   0.0000000   0.0000000   0.0000000   0.0000000   1.3818700  -0.0000000   0.0000000   0.0000000   0.0000000
 0.7350000  -2.4575700  -0.1928900   1.0220700   0.0000000   0.0000000  -0.0468380   0.1115880   0.5021530   0.0470487   0.0000000   0.0000000   0.0000000   0.0000000   1.3824300  -0.0000000   0.0000000   0.0000000   0.0000000
 0.7400000  -2.4570100  -0.1903620   1.0223000   0.0000000   0.0000000  -0.0476036   0.1115880   0.5090660   0.0470487   0.0000000   0.0000000   0.0000000   0.0000000   1.3827400  -0.0000000   0.0000000   0.0000000   0.0000000
 0.7450000  -2.4564500  -0.1877990   1.0225400   0.0000000   0.0000000  -0.0483755   0.1115880   0.5159800   0.0470487   0.0000000   0.0000000   0.0000000   0.0000000   1.3828000  -0.0000000   0.0000000   0.0000000   0.0000000
 0.7500000  -2.4558900  -0.1852020   1.0227700   0.0000000   0.0000000  -0.0491536   0.1115880   0.5228940   0.0470487   0.0000000   0.0000000   0.0000000   0.0000000   1.3826200  -0.0000000   0.0000000   0.0000000   0.0000000
 0.7550000  -2.4553300  -0.1825700   1.0230100   0.0000000   0.0000000  -0.0499380   0.1115880   0.5298060   0.0470487   0.0000000   0.0000000   0.0000000   0.0000000   1.3821800  -0.0000000   0.0000000   0.0000000   0.0000000
 0.7600000  -2.4547800  -0.1799040   1.0232400   0.0000000   0.0000000  -0.0507286   0.1115880   0.5367150   0.0470487   0.0000000   0.0000000   0.0000000   0.0000000   1.3814900  -0.0000000   0.0000000   0.0000000   0.0000000
 0.7650000  -2.4542200  -0.1772030   1.0234800   0.0000000   0.0000000  -0.0515255   0.1115880   0.5436200   0.0470487   0.0000000   0.0000000   0.0000000   0.0000000   1.3805500  -0.0000000   0.0000000   0.0000000   0.0000000
 0.7700000  -2.4536600  -0.1744680   1.0237100   0.0000000   0.0000000  -0.0523286   0.1115880   0.5505200   0.0470487   0.0000000   0.0000000   0.0000000   0.0000000   1.3793600  -0.0000000   0.0000000   0.0000000   0.0000000
 0.7750000  -2.4531000  -0.1716980   1.0239500   0.0000000   0.0000000  -0.0531380   0.1115880   0.5574130   0.0470487   0.0000000   0.0000000   0.0000000   0.0000000   1.3779200  -0.0000000   0.0000000   0.0000000   0.0000000
 0.7800000  -2.4525400  -0.1688940   1.0241800   0.0000000   0.0000000  -0.0539536   0.1115880   0.5642990   0.0470487   0.0000000   0.0000000   0.0000000   0.0000000   1.3762300  -0.0000000   0.0000000   0.0000000   0.0000000
 0.7850000  -2.4519900  -0.1660550   1.0244200   0.0000000   0.0000000  -0.0547755   0.1115880   0.5711750   0.0470487   0.0000000   0.0000000   0.0000000   0.0000000   1.3742900  -0.0000000   0.0000000   0.0000000   0.0000000
 0.7900000  -2.4514300  -0.1631820   1.0246500   0.0000000   0.0000000  -0.0556036   0.1115880   0.5780410   0.0470487   0.0000000   0.0000000   0.0000000   0.0000000   1.3721100  -0.0000000   0.0000000   0.0000000   0.0000000
 0.7950000  -2.4508700  -0.1602750   1.0248900   0.0000000   0.0000000  -0.0564380   0.1115880   0.5848960   0.0470487   0.0000000   0.0000000   0.0000000   0.0000000   1.3696700  -0.0000000   0.0000000   0.0000000   0.0000000
 0.8000000  -2.4503100  -0.1573330   1.0251200   0.0000000   0.0000000  -0.0572786   0.1115880   0.5917380   0.0470487   0.0000000   0.0000000   0.0000000   0.0000000   1.3669800  -0.0000000   0.0000000   0.0000000   0.0000000
 0.8050000  -2.4497500  -0.1543570   1.0253600   0.0000000   0.0000000  -0.0581255   0.1115880   0.5985650   0.0470487   0.0000000   0.0000000   0.0000000   0.0000000   1.3640400  -0.0000000   0.0000000   0.0000000   0.0000000
 0.8100000  -2.4492000  -0.1513470   1.0255900   0.0000000   0.0000000  -0.0589786   0.1115880   0.6053780   0.0470487   0.0000000   0.0000000   0.0000000   0.0000000   1.3608500  -0.0000000   0.0000000   0.0000000   0.0000000
 0.8150000  -2.4486400  -0.1483040   1.0258300   0.0000000   0.0000000  -0.0598380   0.1115880   0.6121730   0.0470487   0.0000000   0.0000000   0.0000000   0.0000000   1.3574100  -0.0000000   0.0000000   0.0000000   0.0000000
 0.8200000  -2.4480800  -0.1452260   1.0260700   0.0000000   0.0000000  -0.0607036   0.1115880   0.6189510   0.0470487   0.0000000   0.0000000   0.0000000   0.0000000   1.3537200  -0.0000000   0.0000000   0.0000000   0.0000000
 0.8250000  -2.4475200  -0.1421140   1.0263000   0.0000000   0.0000000  -0.0615755   0.1115880   0.6257100   0.0470487   0.0000000   0.0000000   0.0000000   0.0000000   1.3497800  -0.0000000   0.0000000   0.0000000   0.0000000
 0.8300000  -2.4469700  -0.1389690   1.0265400   0.0000000   0.0000000  -0.0624536   0.1115880   0.6324490   0.0470487   0.0000000   0.0000000   0.0000000   0.0000000   1.3455900  -0.0000000   0.0000000   0.0000000   0.0000000
 0.8350000  -2.4464100  -0.1357900   1.0267700   0.0000000   0.0000000  -0.0633380   0.1115880   0.6391660   0.0470487   0.0000000   0.0000000   0.0000000   0.0000000   1.3411600  -0.0000000   0.0000000   0.0000000   0.0000000
 0.8400000  -2.4458500  -0.1325770   1.0270100   0.0000000   0.0000000  -0.0642286   0.1115880   0.6458600   0.0470487   0.0000000   0.0000000   0.0000000   0.0000000   1.3364700  -0.0000000   0.0000000   0.0000000   0.0000000
 0.8450000  -2.4452900  -0.1293310   1.0272400   0.0000000   0.0000000  -0.0651255   0.1115880   0.6525300   0.0470487   0.0000000   0.0000000   0.0000000   0.0000000   1.3315300  -0.0000000   0.0000000   0.0000000   0.0000000
 0.8500000  -2.4447300  -0.1260520   1.0274800   0.0000000   0.0000000  -0.0660286   0.1115880   0.6591750   0.0470487   0.0000000   0.0000000   0.0000000   0.0000000   1.3263400  -0.0000000   0.0000000   0.0000000   0.0000000
 0.8550000  -2.4441800  -0.1227390   1.0277100   0.0000000   0.0000000  -0.0669380   0.1115880   0.6657930   0.0470487   0.0000000   0.0000000   0.0000000   0.0000000   1.3209000  -0.0000000   0.0000000   0.0000000   0.0000000
 0.8600000  -2.4436200  -0.1193940   1.0279500   0.0000000   0.0000000  -0.0678536   0.1115880   0.6723830   0.0470487   0.0000000   0.0000000   0.0000000   0.0000000   1.3152100  -0.0000000   0.0000000   0.0000000   0.0000000
 0.8650000  -2.4430600  -0.1160160   1.0281800   0.0000000   0.0000000  -0.0687755   0.1115880   0.6789450   0.0470487   0.0000000   0.0000000   0.0000000   0.0000000   1.3092700  -0.0000000   0.0000000   0.0000000   0.0000000
 0.8700000  -2.4425000  -0.1126050   1.0284200   0.0000000   0.0000000  -0.0697036   0.1115880   0.6854760   0.0470487   0.0000000   0.0000000   0.0000000   0.0000000   1.3030800  -0.0000000   0.0000000   0.0000000   0.0000000
 0.8750000  -2.4419400  -0.1091610   1.0286500   0.0000000   0.0000000  -0.0706378   0.1115880   0.6919750   0.0470487   0.0000000   0.0000000   0.0000000   0.0000000   1.2966500  -0.0000000   0.0000000   0.0000000   0.0000000
 0.8800000  -2.4413900  -0.1056850   1.0288900   0.0000000   0.0000000  -0.0715783   0.1115880   0.6984420   0.0470487   0.0000000   0.0000000   0.0000000   0.0000000   1.2899600  -0.0000000   0.0000000   0.0000000   0.0000000
 0.8850000  -2.4408300  -0.1021770   1.0291200   0.0000000   0.0000000  -0.0725248   0.1115880   0.7048740   0.0470487   0.0000000   0.0000000   0.0000000   0.0000000   1.2830200  -0.0000000   0.0000000   0.0000000   0.0000000
 0.8900000  -2.4402700  -0.0986362   1.0293600   0.0000000   0.0000000  -0.0734773   0.1115880   0.7112710   0.0470487   0.0000000   0.0000000   0.0000000   0.0000000   1.2758300  -0.0000000   0.0000000   0.0000000   0.0000000
 0.8950000  -2.4397100  -0.0950639   1.0295900   0.0000000   0.0000000  -0.0744358   0.1115880   0.7176320   0.0470487   0.0000000   0.0000000   0.0000000   0.0000000   1.2683900  -0.0000000   0.0000000   0.0000000   0.0000000
 0.9000000  -2.4391500  -0.0914599   1.0298300   0.0000000   0.0000000  -0.0754002   0.1115880   0.7239550   0.0470487   0.0000000   0.0000000   0.0000000   0.0000000   1.2607000  -0.0000000   0.0000000   0.0000000   0.0000000
 0.9050000  -2.4386000  -0.0878244   1.0300600   0.0000000   0.0000000  -0.0763704   0.1115880   0.7302390   0.0470487   0.0000000   0.0000000   0.0000000   0.0000000   1.2527600  -0.0000000   0.0000000   0.0000000   0.0000000
 0.9100000  -2.4380400  -0.0841576   1.0303000   0.0000000   0.0000000  -0.0773463   0.1115880   0.7364820   0.0470487   0.0000000   0.0000000   0.0000000   0.0000000   1.2445700  -0.0000000   0.0000000   0.0000000   0.0000000
 0.9150000  -2.4374800  -0.0804596   1.0305300   0.0000000   0.0000000  -0.0783278   0.1115880   0.7426840   0.0470487   0.0000000   0.0000000   0.0000000   0.0000000   1.2361300  -0.0000000   0.0000000   0.0000000   0.0000000
 0.9200000  -2.4369200  -0.0767308   1.0307700   0.0000000   0.0000000  -0.0793147   0.1115880   0.7488430   0.0470487   0.0000000   0.0000000   0.0000000   0.0000000   1.2274500  -0.0000000   0.0000000   0.0000000   0.0000000
 0.9250000  -2.4363600  -0.0729713   1.0310100   0.0000000   0.0000000  -0.0803070   0.1115880   0.7549580   0.0470487   0.0000000   0.0000000   0.0000000   0.0000000   1.2185100  -0.0000000   0.0000000   0.0000000   0.0000000
 0.9300000  -2.4358100  -0.0691813   1.0312400   0.0000000   0.0000000  -0.0813044   0.1115880   0.7610280   0.0470487   0.0000000   0.0000000   0.0000000   0.0000000   1.2093200  -0.0000000   0.0000000   0.0000000   0.0000000
 0.9350000  -2.4352500  -0.0653611   1.0314800   0.0000000   0.0000000  -0.0823069   0.1115880   0.7670510   0.0470487   0.0000000   0.0000000   0.0000000   0.0000000   1.1998800  -0.0000000   0.0000000   0.0000000   0.0000000
 0.9400000  -2.4346900  -0.0615109   1.0317100   0.0000000   0.0000000  -0.0833143   0.1115880   0.7730260   0.0470487   0.0000000   0.0000000   0.0000000   0.0000000   1.1901900  -0.0000000   0.0000000   0.0000000   0.0000000
 0.9450000  -2.4341300  -0.0576309   1.0319500   0.0000000   0.0000000  -0.0843264   0.1115880   0.7789520   0.0470487   0.0000000   0.0000000   0.0000000   0.0000000   1.1802500  -0.0000000   0.0000000   0.0000000   0.0000000
 0.9500000  -2.4335700  -0.0537214   1.0321800   0.0000000   0.0000000  -0.0853430   0.1115880   0.7848280   0.0470487   0.0000000   0.0000000   0.0000000   0.0000000   1.1700600  -0.0000000   0.0000000   0.0000000   0.0000000
 0.9550000  -2.4330200  -0.0497827   1.0324200   0.0000000   0.0000000  -0.0863640   0.1115880   0.7906530   0.0470487   0.0000000   0.0000000   0.0000000   0.0000000   1.1596200  -0.0000000   0.0000000   0.0000000   0.0000000
 0.9600000  -2.4324600  -0.0458150   1.0326500   0.0000000   0.0000000  -0.0873891   0.1115880   0.7964240   0.0470487   0.0000000   0.0000000   0.0000000   0.0000000   1.1489400  -0.0000000   0.0000000   0.0000000   0.0000000
 0.9650000  -2.4319000  -0.0418186   1.0328900   0.0000000   0.0000000  -0.0884182   0.1115880   0.8021420   0.0470487   0.0000000   0.0000000   0.0000000   0.0000000   1.1380000  -0.0000000   0.0000000   0.0000000   0.0000000
 0.9700000  -2.4313400  -0.0377937   1.0331200   0.0000000   0.0000000  -0.0894509   0.1115880   0.8078040   0.0470487   0.0000000   0.0000000   0.0000000   0.0000000   1.1268100  -0.0000000   0.0000000   0.0000000   0.0000000
 0.9750000  -2.4307800  -0.0337406   1.0333600   0.0000000   0.0000000  -0.0904872   0.1115880   0.8134090   0.0470487   0.0000000   0.0000000   0.0000000   0.0000000   1.1153700  -0.0000000   0.0000000   0.0000000   0.0000000
 0.9800000  -2.4302300  -0.0296597   1.0335900   0.0000000   0.0000000  -0.0915267   0.1115880   0.8189570   0.0470487   0.0000000   0.0000000   0.0000000   0.0000000   1.1036800  -0.0000000   0.0000000   0.0000000   0.0000000
 0.9850000  -2.4296700  -0.0255512   1.0338300   0.0000000   0.0000000  -0.0925691   0.1115880   0.8244460   0.0470487   0.0000000   0.0000000   0.0000000   0.0000000   1.0917400  -0.0000000   0.0000000   0.0000000   0.0000000
 0.9900000  -2.4291100  -0.0214153   1.0340600   0.0000000   0.0000000  -0.0936144   0.1115880   0.8298740   0.0470487   0.0000000   0.0000000   0.0000000   0.0000000   1.0795500  -0.0000000   0.0000000   0.0000000   0.0000000
 0.9950000  -2.4285500  -0.0172525   1.0343000   0.0000000   0.0000000  -0.0946621   0.1115880   0.8352410   0.0470487   0.0000000   0.0000000   0.0000000   0.0000000   1.0671100  -0.0000000   0.0000000   0.0000000   0.0000000
 1.0000000  -2.4280000  -0.0130630   1.0345300   0.0000000   0.0000000  -0.0957122   0.1115880   0.8405450   0.0470487   0.0000000   0.0000000   0.0000000   0.0000000   1.0544200  -0.0000000   0.0000000   0.0000000   0.0000000
 1.0050000  -2.4274400  -0.0088472   1.0347700   0.0000000   0.0000000  -0.0967643   0.1115880   0.8457840   0.0470487   0.0000000   0.0000000   0.0000000   0.0000000   1.0414900  -0.0000000   0.0000000   0.0000000   0.0000000
 1.0100000  -2.4268800  -0.0046053   1.0350000   0.0000000   0.0000000  -0.0978184   0.1115880   0.8509590   0.0470487   0.0000000   0.0000000   0.0000000   0.0000000   1.0283000  -0.0000000   0.0000000   0.0000000   0.0000000
 1.0150000  -2.4263200  -0.0003377   1.0352400   0.0000000   0.0000000  -0.0988742   0.1115880   0.8560670   0.0470487   0.0000000   0.0000000   0.0000000   0.0000000   1.0148600  -0.0000000   0.0000000   0.0000000   0.0000000
 1.0200000  -2.4257600   0.0039553   1.0354800   0.0000000   0.0000000  -0.0999314   0.1115880   0.8611070   0.0470487   0.0000000   0.0000000   0.0000000   0.0000000   1.0011700  -0.0000000   0.0000000   0.0000000   0.0000000
 1.0250000  -2.4252100   0.0082733   1.0357100   0.0000000   0.0000000  -0.1009900   0.1115880   0.8660780   0.0470487   0.0000000   0.0000000   0.0000000   0.0000000   0.9872310  -0.0000000   0.0000000   0.0000000   0.0000000
 1.0300000  -2.4246500   0.0126159   1.0359500   0.0000000   0.0000000  -0.1020500   0.1115880   0.8709790   0.0470487   0.0000000   0.0000000   0.0000000   0.0000000   0.9730420  -0.0000000   0.0000000   0.0000000   0.0000000
 1.0350000  -2.4240900   0.0169829   1.0361800   0.0000000   0.0000000  -0.1031110   0.1115880   0.8758080   0.0470487   0.0000000   0.0000000   0.0000000   0.0000000   0.9586030  -0.0000000   0.0000000   0.0000000   0.0000000
 1.0400000  -2.4235300   0.0213739   1.0364200   0.0000000   0.0000000  -0.1041730   0.1115880   0.8805650   0.0470487   0.0000000   0.0000000   0.0000000   0.0000000   0.9439140  -0.0000000   0.0000000   0.0000000   0.0000000
 1.0450000  -2.4229700   0.0257885   1.0366500   0.0000000   0.0000000  -0.1052350   0.1115880   0.8852470   0.0470487   0.0000000   0.0000000   0.0000000   0.0000000   0.9289760  -0.0000000   0.0000000   0.0000000   0.0000000
 1.0500000  -2.4224200   0.0302262   1.0368900   0.0000000   0.0000000  -0.1062980   0.1115880   0.8898540   0.0470487   0.0000000   0.0000000   0.0000000   0.0000000   0.9137870  -0.0000000   0.0000000   0.0000000   0.0000000
 1.0550000  -2.4218600   0.0346869   1.0371200   0.0000000   0.0000000  -0.1073620   0.1115880   0.8943850   0.0470487   0.0000000   0.0000000   0.0000000   0.0000000   0.8983480  -0.0000000   0.0000000   0.0000000   0.0000000
 1.0600000  -2.4213000   0.0391700   1.0373600   0.0000000   0.0000000  -0.1084260   0.1115880   0.8988370   0.0470487   0.0000000   0.0000000   0.0000000   0.0000000   0.8826590  -0.0000000   0.0000000   0.0000000   0.0000000
 1.0650000  -2.4207400   0.0436751   1.0375900   0.0000000   0.0000000  -0.1094910   0.1115880   0.9032110   0.0470487   0.0000000   0.0000000   0.0000000   0.0000000   0.8667200  -0.0000000   0.0000000   0.0000000   0.0000000
 1.0700000  -2.4201800   0.0482019   1.0378300   0.0000000   0.0000000  -0.1105560   0.1115880   0.9075040   0.0470487   0.0000000   0.0000000   0.0000000   0.0000000   0.8505320  -0.0000000   0.0000000   0.0000000   0.0000000
 1.0750000  -2.4196300   0.0527500   1.0380600   0.0000000   0.0000000  -0.1116210   0.1115880   0.9117160   0.0470487   0.0000000   0.0000000   0.0000000   0.0000000   0.8340930  -0.0000000   0.0000000   0.0000000   0.0000000
 1.0800000  -2.4190700   0.0573189   1.0383000   0.0000000   0.0000000  -0.1126860   0.1115880   0.9158440   0.0470487   0.0000000   0.0000000   0.0000000   0.0000000   0.8174040  -0.0000000   0.0000000   0.0000000   0.0000000
 1.0850000  -2.4185100   0.0619083   1.0385300   0.0000000   0.0000000  -0.1137520   0.1115880   0.9198890   0.0470487   0.0000000   0.0000000   0.0000000   0.0000000   0.8004650  -0.0000000   0.0000000   0.0000000   0.0000000
 1.0900000  -2.4179500   0.0665177   1.0387700   0.0000000   0.0000000  -0.1148170   0.1115880   0.9238490   0.0470487   0.0000000   0.0000000   0.0000000   0.0000000   0.7832760  -0.0000000   0.0000000   0.0000000   0.0000000
 1.0950000  -2.4173900   0.0711467   1.0390000   0.0000000   0.0000000  -0.1158820   0.1115880   0.9277220   0.0470487   0.0000000   0.0000000   0.0000000   0.0000000   0.7658370  -0.0000000   0.0000000   0.0000000   0.0000000
 1.1000000  -2.4168400   0.0757948   1.0392400   0.0000000   0.0000000  -0.1169480   0.1115880   0.9315070   0.0470487   0.0000000   0.0000000   0.0000000   0.0000000   0.7481490  -0.0000000   0.0000000   0.0000000   0.0000000
 1.1050000  -2.4162800   0.0804616   1.0394700   0.0000000   0.0000000  -0.1180130   0.1115880   0.9352030   0.0470487   0.0000000   0.0000000   0.0000000   0.0000000   0.7302100  -0.0000000   0.0000000   0.0000000   0.0000000
 1.1100000  -2.4157200   0.0851466   1.0397100   0.0000000   0.0000000  -0.1190790   0.1115880   0.9388080   0.0470487   0.0000000   0.0000000   0.0000000   0.0000000   0.7120210  -0.0000000   0.0000000   0.0000000   0.0000000
 1.1150000  -2.4151600   0.0898495   1.0399400   0.0000000   0.0000000  -0.1201440   0.1115880   0.9423220   0.0470487   0.0000000   0.0000000   0.0000000   0.0000000   0.6935820  -0.0000000   0.0000000   0.0000000   0.0000000
 1.1200000  -2.4146000   0.0945697   1.0401800   0.0000000   0.0000000  -0.1212100   0.1115880   0.9457440   0.0470487   0.0000000   0.0000000   0.0000000   0.0000000   0.6750880  -0.0000000   0.0000000   0.0000000   0.0000000
 1.1250000  -2.4140500   0.0993068   1.0404200   0.0000000   0.0000000  -0.1222750   0.1115880   0.9490740   0.0470487   0.0000000   0.0000000   0.0000000   0.0000000   0.6568410  -0.0000000   0.0000000   0.0000000   0.0000000
 1.1300000  -2.4134900   0.1040600   1.0406500   0.0000000   0.0000000  -0.1233400   0.1115880   0.9523130   0.0470487   0.0000000   0.0000000   0.0000000   0.0000000   0.6388430  -0.0000000   0.0000000   0.0000000   0.0000000
 1.1350000  -2.4129300   0.1088300   1.0408900   0.0000000   0.0000000  -0.1244060   0.1115880   0.9554630   0.0470487   0.0000000   0.0000000   0.0000000   0.0000000   0.6210960  -0.0000000   0.0000000   0.0000000   0.0000000
 1.1400000  -2.4123700   0.1136150   1.0411200   0.0000000   0.0000000  -0.1254710   0.1115880   0.9585240   0.0470487   0.0000000   0.0000000   0.0000000   0.0000000   0.6035990  -0.0000000   0.0000000   0.0000000   0.0000000
 1.1450000  -2.4118100   0.1184150   1.0413600   0.0000000   0.0000000  -0.1265370   0.1115880   0.9614990   0.0470487   0.0000000   0.0000000   0.0000000   0.0000000   0.5863510  -0.0000000   0.0000000   0.0000000   0.0000000
 1.1500000  -2.4112600   0.1232300   1.0415900   0.0000000   0.0000000  -0.1276020   0.1115880   0.9643880   0.0470487   0.0000000   0.0000000   0.0000000   0.0000000   0.5693540  -0.0000000   0.0000000   0.0000000   0.0000000
 1.1550000  -2.4107000   0.1280590   1.0418300   0.0000000   0.0000000  -0.1286680   0.1115880   0.9671930   0.0470487   0.0000000   0.0000000   0.0000000   0.0000000   0.5526070  -0.0000000   0.0000000   0.0000000   0.0000000
 1.1600000  -2.4101400   0.1329010   1.0420600   0.0000000   0.0000000  -0.1297330   0.1115880   0.9699150   0.0470487   0.0000000   0.0000000   0.0000000   0.0000000   0.5361090  -0.0000000   0.0000000   0.0000000   0.0000000
 1.1650000  -2.4095800   0.1377580   1.0423000   0.0000000   0.0000000  -0.1307990   0.1115880   0.9725540   0.0470487   0.0000000   0.0000000   0.0000000   0.0000000   0.5198620  -0.0000000   0.0000000   0.0000000   0.0000000
 1.1700000  -2.4090300   0.1426270   1.0425300   0.0000000   0.0000000  -0.1318640   0.1115880   0.9751140   0.0470487   0.0000000   0.0000000   0.0000000   0.0000000   0.5038650  -0.0000000   0.0000000   0.0000000   0.0000000
 1.1750000  -2.4084700   0.1475090   1.0427700   0.0000000   0.0000000  -0.1329290   0.1115880   0.9775930   0.0470487   0.0000000   0.0000000   0.0000000   0.0000000   0.4881170  -0.0000000   0.0000000   0.0000000   0.0000000
 1.1800000  -2.4079100   0.1524030   1.0430000   0.0000000   0.0000000  -0.1339950   0.1115880   0.9799950   0.0470487   0.0000000   0.0000000   0.0000000   0.0000000   0.4726200  -0.0000000   0.0000000   0.0000000   0.0000000
 1.1850000  -2.4073500   0.1573080   1.0432400   0.0000000   0.0000000  -0.1350600   0.1115880   0.9823200   0.0470487   0.0000000   0.0000000   0.0000000   0.0000000   0.4573720  -0.0000000   0.0000000   0.0000000   0.0000000
 1.1900000  -2.4067900   0.1622260   1.0434700   0.0000000   0.0000000  -0.1361260   0.1115880   0.9845690   0.0470487   0.0000000   0.0000000   0.0000000   0.0000000   0.4423750  -0.0000000   0.0000000   0.0000000   0.0000000
 1.1950000  -2.4062400   0.1671540   1.0437100   0.0000000   0.0000000  -0.1371910   0.1115880   0.9867440   0.0470487   0.0000000   0.0000000   0.0000000   0.0000000   0.4276280  -0.0000000   0.0000000   0.0000000   0.0000000
 1.2000000  -2.4056800   0.1720930   1.0439400   0.0000000   0.0000000  -0.1382570   0.1115880   0.9888460   0.0470487   0.0000000   0.0000000   0.0000000   0.0000000   0.4131300  -0.0000000   0.0000000   0.0000000   0.0000000
 1.2050000  -2.4051200   0.1770420   1.0441800   0.0000000   0.0000000  -0.1393220   0.1115880   0.9908760   0.0470487   0.0000000   0.0000000   0.0000000   0.0000000   0.3988830  -0.0000000   0.0000000   0.0000000   0.0000000
 1.2100000  -2.4045600   0.1820020   1.0444100   0.0000000   0.0000000  -0.1403880   0.1115880   0.9928350   0.0470487   0.0000000   0.0000000   0.0000000   0.0000000   0.3848860  -0.0000000   0.0000000   0.0000000   0.0000000
 1.2150000  -2.4040000   0.1869710   1.0446500   0.0000000   0.0000000  -0.1414530   0.1115880   0.9947250   0.0470487   0.0000000   0.0000000   0.0000000   0.0000000   0.3711380  -0.0000000   0.0000000   0.0000000   0.0000000
 1.2200000  -2.4034500   0.1919490   1.0448800   0.0000000   0.0000000  -0.1425180   0.1115880   0.9965470   0.0470487   0.0000000   0.0000000   0.0000000   0.0000000   0.3576410  -0.0000000   0.0000000   0.0000000   0.0000000
 1.2250000  -2.4028900   0.1969360   1.0451200   0.0000000   0.0000000  -0.1435840   0.1115880   0.9983020   0.0470487   0.0000000   0.0000000   0.0000000   0.0000000   0.3443930  -0.0000000   0.0000000   0.0000000   0.0000000
 1.2300000  -2.4023300   0.2019320   1.0453600   0.0000000   0.0000000  -0.1446490   0.1115880   0.9999910   0.0470487   0.0000000   0.0000000   0.0000000   0.0000000   0.3313960  -0.0000000   0.0000000   0.0000000   0.0000000
 1.2350000  -2.4017700   0.2069360   1.0455900   0.0000000   0.0000000  -0.1457150   0.1115880   1.0016200   0.0470487   0.0000000   0.0000000   0.0000000   0.0000000   0.3186490  -0.0000000   0.0000000   0.0000000   0.0000000
 1.2400000  -2.4012100   0.2119480   1.0458300   0.0000000   0.0000000  -0.1467800   0.1115880   1.0031800   0.0470487   0.0000000   0.0000000   0.0000000   0.0000000   0.3061510  -0.0000000   0.0000000   0.0000000   0.0000000
 1.2450000  -2.4006600   0.2169670   1.0460600   0.0000000   0.0000000  -0.1478460   0.1115880   1.0046800   0.0470487   0.0000000   0.0000000   0.0000000   0.0000000   0.2939040  -0.0000000   0.0000000   0.0000000   0.0000000
 1.2500000  -2.4001000   0.2219940   1.0463000   0.0000000   0.0000000  -0.1489110   0.1115880   1.0061200   0.0470487   0.0000000   0.0000000   0.0000000   0.0000000   0.2819070  -0.0000000   0.0000000   0.0000000   0.0000000
 1.2550000  -2.3995400   0.2270290   1.0465300   0.0000000   0.0000000  -0.1499760   0.1115880   1.0075000   0.0470487   0.0000000   0.0000000   0.0000000   0.0000000   0.2701590  -0.0000000   0.0000000   0.0000000   0.0000000
 1.2600000  -2.3989800   0.2320690   1.0467700   0.0000000   0.0000000  -0.1510420   0.1115880   1.0088200   0.0470487   0.0000000   0.0000000   0.0000000   0.0000000   0.2586620  -0.0000000   0.0000000   0.0000000   0.0000000
 1.2650000  -2.3984200   0.2371170   1.0470000   0.0000000   0.0000000  -0.1521070   0.1115880   1.0100800   0.0470487   0.0000000   0.0000000   0.0000000   0.0000000   0.2474140  -0.0000000   0.0000000   0.0000000   0.0000000
 1.2700000  -2.3978700   0.2421700   1.0472400   0.0000000   0.0000000  -0.1531730   0.1115880   1.0112900   0.0470487   0.0000000   0.0000000   0.0000000   0.0000000   0.2364170  -0.0000000   0.0000000   0.0000000   0.0000000
 1.2750000  -2.3973100   0.2472290   1.0474700   0.0000000   0.0000000  -0.1542380   0.1115880   1.0124500   0.0470487   0.0000000   0.0000000   0.0000000   0.0000000   0.2256700  -0.0000000   0.0000000   0.0000000   0.0000000
 1.2800000  -2.3967500   0.2522950   1.0477100   0.0000000   0.0000000  -0.1553040   0.1115880   1.0135500   0.0470487   0.0000000   0.0000000   0.0000000   0.0000000   0.2151720  -0.0000000   0.0000000   0.0000000   0.0000000
 1.2850000  -2.3961900   0.2573650   1.0479400   0.0000000   0.0000000  -0.1563690   0.1115880   1.0146000   0.0470487   0.0000000   0.0000000   0.0000000   0.0000000   0.2049250  -0.0000000   0.0000000   0.0000000   0.0000000
 1.2900000  -2.3956300   0.2624400   1.0481800   0.0000000   0.0000000  -0.1574350   0.1115880   1.0156000   0.0470487   0.0000000   0.0000000   0.0000000   0.0000000   0.1949280  -0.0000000   0.0000000   0.0000000   0.0000000
 1.2950000  -2.3950800   0.2675210   1.0484100   0.0000000   0.0000000  -0.1585000   0.1115880   1.0165500   0.0470487   0.0000000   0.0000000   0.0000000   0.0000000   0.1851800  -0.0000000   0.0000000   0.0000000   0.0000000
 1.3000000  -2.3945200   0.2726060   1.0486500   0.0000000   0.0000000  -0.1595650   0.1115880   1.0174500   0.0470487   0.0000000   0.0000000   0.0000000   0.0000000   0.1756830  -0.0000000   0.0000000   0.0000000   0.0000000
 1.3050000  -2.3939600   0.2776950   1.0488800   0.0000000   0.0000000  -0.1606310   0.1115880   1.0183100   0.0470487   0.0000000   0.0000000   0.0000000   0.0000000   0.1664350  -0.0000000   0.0000000   0.0000000   0.0000000
 1.3100000  -2.3934000   0.2827890   1.0491200   0.0000000   0.0000000  -0.1616960   0.1115880   1.0191200   0.0470487   0.0000000   0.0000000   0.0000000   0.0000000   0.1574380  -0.0000000   0.0000000   0.0000000   0.0000000
 1.3150000  -2.3928500   0.2878860   1.0493500   0.0000000   0.0000000  -0.1627620   0.1115880   1.0198800   0.0470487   0.0000000   0.0000000   0.0000000   0.0000000   0.1486910  -0.0000000   0.0000000   0.0000000   0.0000000
