ts fx fy fz tx ty tz exfx exfy exfz extx exty extz xd yd zd rolld pitchd yawd vxd vyd vzd wxd wyd wzd axd ayd azd e_x e_y e_z e_vx e_vy e_vz e_rx e_ry e_rz e_wx e_wy e_wz
1699967185.083985000  0  0  11.8392  0.189687  -0.159094  0.00318204  nan  nan  nan  nan  nan  nan  -1  0  1  0.030985  -0.042036  -0.00130252  0  0  0  0  0  0  0  0  0  0.0294564  0.00797528  -0.024739  -0.0100666  0.0230207  -0.00654691  -0.0424714  0.035502  -0.00408907  0.0113635  -0.00843018  0.00111515 
1699967185.087014000  0  0  11.8568  0.195874  -0.153979  0.00294025  nan  nan  nan  nan  nan  nan  -1  0  1  0.0310949  -0.0421464  -0.00131057  0  0  0  0  0  0  0  0  0  0.0294298  0.00804251  -0.0247642  -0.00977919  0.0230765  -0.00795886  -0.0426489  0.0354893  -0.0040474  0.000621846  -0.0185444  0.00372091 
1699967185.091998000  0  0  11.8184  0.20565  -0.158594  0.00303356  nan  nan  nan  nan  nan  nan  -1  0  1  0.0306028  -0.0427051  -0.00130691  0  0  0  0  0  0  0  0  0  0.029473  0.00796217  -0.0247358  -0.00932109  0.0224751  -0.00481727  -0.0423889  0.0359907  -0.00404724  -0.0213223  -0.0139269  0.00255283 
1699967185.097009000  0  0  11.8499  0.193793  -0.17573  0.00383397  nan  nan  nan  nan  nan  nan  -1  0  1  0.0317199  -0.0421041  -0.00133559  0  0  0  0  0  0  0  0  0  0.0294231  0.00808185  -0.0247815  -0.00984935  0.0237891  -0.00736462  -0.0432652  0.035732  -0.00413062  0.0104537  0.0227255  -0.00661849 
1699967185.101988000  0  0  11.8772  0.19159  -0.17456  0.004218  nan  nan  nan  nan  nan  nan  -1  0  1  0.0309007  -0.0424205  -0.00131085  0  0  0  0  0  0  0  0  0  0.0294536  0.00802103  -0.0248024  -0.0093738  0.022938  -0.00958448  -0.0423975  0.0361194  -0.00421549  0.00687714  0.0168218  -0.0105701 
1699967185.107009000  0  0  11.8465  0.193612  -0.175508  0.00407223  nan  nan  nan  nan  nan  nan  -1  0  1  0.0304254  -0.0430425  -0.00130958  0  0  0  0  0  0  0  0  0  0.0294949  0.00797028  -0.0247796  -0.00879154  0.0223185  -0.00706857  -0.0419441  0.0367738  -0.00425436  -0.00133966  0.0126978  -0.00835931 
1699967185.112014000  0  0  11.8578  0.185007  -0.190175  0.00386759  nan  nan  nan  nan  nan  nan  -1  0  1  0.0313983  -0.042651  -0.00133921  0  0  0  0  0  0  0  0  0  0.0294489  0.00808727  -0.0248213  -0.00914787  0.0233802  -0.00794103  -0.0426835  0.0367524  -0.00426335  0.0226744  0.0422274  -0.00571128 
1699967185.116999000  0  0  11.8711  0.173686  -0.187141  0.00393518  nan  nan  nan  nan  nan  nan  -1  0  1  0.0306649  -0.0428275  -0.00131331  0  0  0  0  0  0  0  0  0  0.0294882  0.00801892  -0.024839  -0.00894188  0.02261  -0.00900039  -0.0416382  0.037073  -0.00432246  0.035699  0.0332107  -0.00596517 
1699967185.121999000  0  0  11.8556  0.1731  -0.180229  0.00390147  nan  nan  nan  nan  nan  nan  -1  0  1  0.0297063  -0.0436653  -0.0012971  0  0  0  0  0  0  0  0  0  0.0295614  0.00790204  -0.0248457  -0.00807626  0.0215517  -0.00767272  -0.0405903  0.0378656  -0.00435377  0.0272314  0.0120944  -0.00523071 
1699967185.127024000  0  0  11.8476  0.17424  -0.194091  0.0044667  nan  nan  nan  nan  nan  nan  -1  0  1  0.0307879  -0.0433513  -0.0013347  0  0  0  0  0  0  0  0  0  0.0295189  0.00801613  -0.0248775  -0.00843073  0.022697  -0.00695404  -0.0414905  0.0378898  -0.00443609  0.0332321  0.0395964  -0.0114728 
1699967185.132004000  0  0  11.8703  0.172621  -0.188555  0.00499851  nan  nan  nan  nan  nan  nan  -1  0  1  0.0313455  -0.0428026  -0.0013417  0  0  0  0  0  0  0  0  0  0.029474  0.0081291  -0.0249283  -0.00894506  0.0232601  -0.00874321  -0.0418046  0.0374876  -0.00455345  0.03936  0.0322228  -0.0169469 
1699967185.136416000  0  0  11.8612  0.176198  -0.172746  0.00497082  nan  nan  nan  nan  nan  nan  -1  0  1  0.0302547  -0.0436898  -0.0013218  0  0  0  0  0  0  0  0  0  0.0295601  0.00799292  -0.0249357  -0.00801217  0.0220908  -0.00794676  -0.040745  0.0381238  -0.00462861  0.0224588  -0.00524596  -0.0158491 
1699967185.147351000  0  0  11.9159  0.171013  -0.181787  0.00437595  nan  nan  nan  nan  nan  nan  -1  0  1  0.0297831  -0.0433402  -0.00129078  0  0  0  0  0  0  0  0  0  0.0296104  0.00791606  -0.0249784  -0.0083241  0.0218213  -0.0124123  -0.0399157  0.0380498  -0.00472011  0.0251985  0.013516  -0.0074983 
1699967185.152123000  0  0  11.8489  0.195187  -0.152916  0.00420617  nan  nan  nan  nan  nan  nan  -1  0  1  0.0303927  -0.043606  -0.00132529  0  0  0  0  0  0  0  0  0  0.0295745  0.00801851  -0.0249826  -0.00821451  0.0221741  -0.00681669  -0.0408528  0.0377326  -0.00470834  -0.0145272  -0.0413067  -0.00549367 
1699967185.157082000  0  0  11.8345  0.194912  -0.162387  0.00405076  nan  nan  nan  nan  nan  nan  -1  0  1  0.0301082  -0.0437588  -0.00131748  0  0  0  0  0  0  0  0  0  0.0296317  0.00792493  -0.024988  -0.00821105  0.0219592  -0.00560582  -0.0406541  0.0378871  -0.00470994  -0.015806  -0.0237873  -0.00353512 
1699967185.162203000  0  0  11.8705  0.193568  -0.160462  0.00371552  nan  nan  nan  nan  nan  nan  -1  0  1  0.0309942  -0.0430374  -0.00133392  0  0  0  0  0  0  0  0  0  0.0295866  0.0080409  -0.0250485  -0.00888645  0.0229919  -0.00848231  -0.0414837  0.03711  -0.00467329  -0.00548616  -0.0204879  0.000288942 
1699967185.165952000  0  0  11.8479  0.202339  -0.143827  0.00317886  nan  nan  nan  nan  nan  nan  -1  -0  1  0.0313469  -0.0431029  -0.00135117  6e-07  -6e-07  6e-07  0  0  0  0  0  0  0.0295561  0.00812433  -0.0250622  -0.00883941  0.0231929  -0.00656863  -0.0419832  0.0367992  -0.00459186  -0.0184317  -0.050899  0.00618284 
1699967185.172006000  0  0  11.8118  0.205823  -0.149126  0.00263413  nan  nan  nan  nan  nan  nan  -1  -0  1  0.0300988  -0.0437405  -0.00131652  5e-06  -5e-06  5e-06  0  0  0  0  0  0  0.0296716  0.007885  -0.0250156  -0.00843524  0.0219591  -0.0036414  -0.0410891  0.0371667  -0.00447835  -0.0336269  -0.0436811  0.0118569 
1699967185.177001000  0  0  11.8663  0.201441  -0.156327  0.00310655  nan  nan  nan  nan  nan  nan  -1  -1e-07  1  0.0310349  -0.0428047  -0.00132846  1.69e-05  -1.69e-05  1.69e-05  0  0  0  0  0  0  0.0296252  0.00799907  -0.0250768  -0.00929963  0.0231247  -0.00807918  -0.0419861  0.0362935  -0.00447863  -0.0166106  -0.0212461  0.00595453 
1699967185.182003000  0  0  11.8341  0.210709  -0.143594  0.00371502  nan  nan  nan  nan  nan  nan  -1  -2e-07  1  0.0305062  -0.0434266  -0.00132468  4e-05  -4e-05  4e-05  0  0  0  0  0  0  0.0296658  0.00794929  -0.0250713  -0.00872554  0.0224275  -0.00539499  -0.0417686  0.0365029  -0.00451329  -0.0371465  -0.0486382  -0.00130489 
1699967185.187001000  0  0  11.8433  0.222985  -0.145116  0.00402739  nan  nan  nan  nan  nan  nan  -1  -5e-07  1  0.0317944  -0.0426935  -0.00135726  7.81e-05  -7.81e-05  7.81e-05  0  0  0  0  0  0  0.0296183  0.00806854  -0.025104  -0.00953715  0.0238915  -0.00611861  -0.0433885  0.0356022  -0.00454019  -0.0467963  -0.037308  -0.00494053 
1699967185.192006000  0  0  11.8892  0.211683  -0.152419  0.00462217  nan  nan  nan  nan  nan  nan  -0.999999  -1e-06  1  0.0314154  -0.0423771  -0.00133093  0.000135  -0.000135  0.000135  0  0  0  0  0  0  0.0296287  0.00803544  -0.0251319  -0.009763  0.0236267  -0.00988314  -0.0429986  0.0353239  -0.00465889  -0.0277792  -0.0201418  -0.0111883 
1699967185.196999000  0  0  11.8451  0.210642  -0.134799  0.00482106  nan  nan  nan  nan  nan  nan  -0.999998  -1.9e-06  1  0.0307946  -0.0431156  -0.00132713  0.0002141  -0.0002144  0.0002134  0  0  0  0  0  0  0.0296657  0.00796128  -0.0251087  -0.00908167  0.0228184  -0.00623753  -0.0425446  0.0355724  -0.00472281  -0.029873  -0.057668  -0.0130351 
1699967185.201998000  0  0  11.8631  0.217905  -0.142178  0.00450408  nan  nan  nan  nan  nan  nan  -0.999997  -3.2e-06  1  0.0319001  -0.0425853  -0.00135772  0.0003149  -0.00032  0.0003113  0  0  0  0  0  0  0.0296186  0.00808089  -0.0251524  -0.00958652  0.0240734  -0.00766627  -0.0438391  0.034956  -0.00472164  -0.0324914  -0.0372395  -0.00908461 
1699967185.207618000  0  0  11.9073  0.199823  -0.162323  0.00502979  nan  nan  nan  nan  nan  nan  -0.999995  -5.1e-06  1.00001  0.0313825  -0.0422226  -0.00132409  0.0004338  -0.0004556  0.0004249  0  0  0  0  0  0  0.0296338  0.00802998  -0.0252077  -0.00989387  0.023659  -0.011236  -0.0432313  0.0348634  -0.00489579  -0.00191745  0.00390223  -0.0139145 
1699967185.212433000  0  0  11.8672  0.194501  -0.150416  0.00549279  nan  nan  nan  nan  nan  nan  -0.999992  -7.8e-06  1.00001  0.0309413  -0.0427059  -0.0013202  0.0005669  -0.000625  0.0005504  0  0  0  0  0  0  0.0296532  0.00796598  -0.0251867  -0.00948868  0.023078  -0.00792326  -0.042739  0.0351442  -0.00502335  0.00419798  -0.0224958  -0.0184263 
1699967185.216998000  0  0  11.8839  0.202315  -0.162234  0.00482557  nan  nan  nan  nan  nan  nan  -0.999989  -1.14e-05  1.00001  0.0318793  -0.0423651  -0.00134922  0.0007105  -0.0008319  0.0006841  0  0  0  0  0  0  0.0296098  0.00807522  -0.0252309  -0.00975986  0.0241329  -0.00924031  -0.0437336  0.0349444  -0.0050033  -0.00228146  0.00297975  -0.0102866 
1699967185.222519000  0  0  11.912  0.190676  -0.180244  0.00431922  nan  nan  nan  nan  nan  nan  -0.999985  -1.62e-05  1.00001  0.0314936  -0.0422107  -0.00132781  0.000861  -0.00108  0.0008222  0  0  0  0  0  0  0.0296318  0.00802277  -0.0252583  -0.00988231  0.0238389  -0.0115327  -0.0431541  0.0352541  -0.00501866  0.0156663  0.03615  -0.00380375 
1699967185.227003000  0  0  11.8797  0.181961  -0.164106  0.00464451  nan  nan  nan  nan  nan  nan  -0.999981  -2.23e-05  1.00002  0.0322892  -0.0420449  -0.00135597  0.0010145  -0.0013731  0.000961  0  0  0  0  0  0  0.029588  0.00813038  -0.0252871  -0.0101539  0.0245372  -0.00877128  -0.0436345  0.0349432  -0.00506311  0.037515  0.00673413  -0.00742521 
1699967185.231997000  0  0  11.8805  0.189708  -0.171876  0.00423795  nan  nan  nan  nan  nan  nan  -0.999975  -3e-05  1.00002  0.0319003  -0.0424583  -0.00135268  0.0011672  -0.001715  0.0010968  0  0  0  0  0  0  0.0296212  0.00806455  -0.0252774  -0.00967815  0.0241718  -0.00885377  -0.0432735  0.035511  -0.0050701  0.018701  0.0170498  -0.00227337 
1699967185.236990000  0  0  11.9046  0.185984  -0.190812  0.00364743  nan  nan  nan  nan  nan  nan  -0.999969  -3.96e-05  1.00003  0.0329951  -0.0417369  -0.00137551  0.0013155  -0.0021094  0.0012257  0  0  0  0  0  0  0.0295688  0.00818979  -0.0253411  -0.0103991  0.0254302  -0.0107613  -0.0441107  0.0353386  -0.00500402  0.0338508  0.0565086  0.00444732 
1699967185.242037000  0  0  11.9001  0.179007  -0.180566  0.00393366  nan  nan  nan  nan  nan  nan  -0.999962  -5.12e-05  1.00004  0.0328451  -0.0418397  -0.00137292  0.0014556  -0.0025587  0.0013441  0  0  0  0  0  0  0.0295857  0.00815503  -0.0253398  -0.0103228  0.0252916  -0.0103725  -0.0436578  0.0355255  -0.00504646  0.0436386  0.0342972  0.00129388 
1699967185.247580000  0  0  11.8689  0.197706  -0.173848  0.00391476  nan  nan  nan  nan  nan  nan  -0.999954  -6.52e-05  1.00004  0.0330659  -0.0425213  -0.00140519  0.0015837  -0.0030604  0.0014482  0  0  0  0  0  0  0.0296084  0.0081546  -0.025339  -0.00961566  0.025469  -0.00778031  -0.0440144  0.0361645  -0.00501177  0.00952093  0.014983  0.00118314 
1699967185.252022000  0  0  11.9015  0.19482  -0.191559  0.00405586  nan  nan  nan  nan  nan  nan  -0.999946  -8.19e-05  1.00005  0.0343082  -0.0418137  -0.0014347  0.0016961  -0.0036108  0.0015342  0  0  0  0  0  0  0.0295607  0.00827513  -0.0254006  -0.0102881  0.0269667  -0.0103901  -0.0450611  0.0359223  -0.00501786  0.0249226  0.0526332  -0.000519631 
1699967185.257153000  0  0  11.8987  0.184189  -0.181074  0.00476135  nan  nan  nan  nan  nan  nan  -0.999938  -0.0001014  1.00006  0.0338475  -0.0423129  -0.0014336  0.001789  -0.0042061  0.0015988  0  0  0  0  0  0  0.0296169  0.00820662  -0.0254112  -0.00976692  0.0264968  -0.0101125  -0.04425  0.036496  -0.005118  0.0387225  0.0263856  -0.00833687 
1699967185.262017000  0  0  11.8752  0.199202  -0.172694  0.00503859  nan  nan  nan  nan  nan  nan  -0.999928  -0.000124  1.00007  0.0349652  -0.0422353  -0.00148003  0.0018593  -0.0048425  0.0016434  0  0  0  0  0  0  0.0295689  0.00833783  -0.025444  -0.00986849  0.0275932  -0.00810202  -0.0453993  0.0363542  -0.00516291  0.0192692  0.0109297  -0.0113533 
1699967185.267007000  0  0  11.9334  0.194553  -0.190555  0.00478878  nan  nan  nan  nan  nan  nan  -0.999919  -0.0001499  1.00007  0.0353038  -0.0418814  -0.00148425  0.0019086  -0.0055164  0.0016716  0  0  0  0  0  0  0.0295957  0.00830649  -0.0254626  -0.0101227  0.0283393  -0.0129274  -0.0455221  0.0364812  -0.0052166  0.0296975  0.0454836  -0.00769375 
1699967185.272500000  0  0  11.926  0.190569  -0.179133  0.00493033  nan  nan  nan  nan  nan  nan  -0.999909  -0.0001792  1.00008  0.034871  -0.0424835  -0.00149029  0.0019405  -0.0062239  0.0016872  0  0  0  0  0  0  0.029657  0.00823975  -0.0254852  -0.00949582  0.0278824  -0.0122431  -0.0449454  0.0370422  -0.00531083  0.0323598  0.0174783  -0.00852087 
1699967185.277014000  0  0  11.8651  0.208733  -0.156375  0.00477178  nan  nan  nan  nan  nan  nan  -0.9999  -0.0002122  1.00009  0.0360556  -0.042631  -0.00154999  0.0019589  -0.0069612  0.0016939  0  0  0  0  0  0  0.0296158  0.00836927  -0.0254963  -0.00949204  0.028921  -0.0071497  -0.0462558  0.0367424  -0.00528409  0.00808805  -0.0252789  -0.0068063 
1699967185.281997000  0  0  11.9011  0.206571  -0.173152  0.00435834  nan  nan  nan  nan  nan  nan  -0.99989  -0.0002489  1.0001  0.0366219  -0.0424235  -0.00157166  0.0019674  -0.0077248  0.0016954  0  0  0  0  0  0  0.029638  0.00835996  -0.0255131  -0.0096429  0.0298357  -0.0101221  -0.0466941  0.0368136  -0.00527867  0.0164434  0.00761751  -0.00169261 
1699967185.287439000  0  0  11.8938  0.204231  -0.167739  0.00417856  nan  nan  nan  nan  nan  nan  -0.99988  -0.0002895  1.00011  0.0363104  -0.0427578  -0.00157676  0.0019699  -0.0085107  0.0016955  0  0  0  0  0  0  0.0296612  0.00833889  -0.0254999  -0.00928729  0.0294392  -0.00952812  -0.0462716  0.0371323  -0.00527985  0.017236  -0.00613983  0.000566562 
1699967185.291998000  0  0  11.8503  0.22221  -0.152537  0.00399204  nan  nan  nan  nan  nan  nan  -0.99987  -0.000334  1.00012  0.0377139  -0.0425866  -0.00163788  0.0019701  -0.0093153  0.0016955  0  0  0  0  0  0  0.029617  0.00848023  -0.0255135  -0.00961543  0.0307993  -0.0058861  -0.0478383  0.0366146  -0.00521517  -0.00430718  -0.0317801  0.00225117 
1699967185.297140000  0  0  11.9082  0.21254  -0.175195  0.00361557  nan  nan  nan  nan  nan  nan  -0.99986  -0.0003826  1.00013  0.0380682  -0.0422477  -0.00164909  0.0019701  -0.0101348  0.0016955  0  0  0  0  0  0  0.0296392  0.00846821  -0.0255447  -0.00983775  0.0315385  -0.0106556  -0.0479823  0.0366326  -0.00517676  0.0163564  0.013369  0.00657296 
1699967185.302147000  0  0  11.8761  0.21833  -0.154319  0.0041351  nan  nan  nan  nan  nan  nan  -0.99985  -0.0004354  1.00013  0.0393282  -0.0421053  -0.00170739  0.0019701  -0.0109655  0.0016955  0  0  0  0  0  0  0.0295908  0.00862635  -0.025561  -0.0100638  0.0327149  -0.00794232  -0.0491507  0.0362071  -0.00516308  0.0155252  -0.0244679  -5.78887e-05 
1699967185.307004000  0  0  11.8534  0.22198  -0.144364  0.00376883  nan  nan  nan  nan  nan  nan  -0.999841  -0.0004923  1.00014  0.0397346  -0.0423014  -0.00174471  0.0019701  -0.0118035  0.0016955  0  0  0  0  0  0  0.0296037  0.00863404  -0.0255347  -0.00993753  0.0331329  -0.00610051  -0.0495309  0.036115  -0.00510361  0.0117238  -0.0435303  0.00392574 
1699967185.312006000  0  0  11.8951  0.220861  -0.158425  0.00369568  nan  nan  nan  nan  nan  nan  -0.999831  -0.0005534  1.00015  0.041128  -0.0416271  -0.00179051  0.0019701  -0.0126452  0.0016955  0  0  0  0  0  0  0.0295513  0.00880475  -0.025599  -0.0105112  0.0347826  -0.00945732  -0.0507252  0.0355762  -0.00505577  0.0249493  -0.0104508  0.00436172 
1699967185.317004000  0  0  11.8632  0.209575  -0.157482  0.00433079  nan  nan  nan  nan  nan  nan  -0.999821  -0.0006188  1.00016  0.0412625  -0.0417561  -0.00181824  0.0019701  -0.0134869  0.0016955  0  0  0  0  0  0  0.0295697  0.00879944  -0.0255629  -0.0105287  0.0348237  -0.00685263  -0.050516  0.0356506  -0.00510923  0.045598  -0.0130217  -0.00304264 
1699967185.320946000  0  0  11.8504  0.2127  -0.142961  0.00466453  nan  nan  nan  nan  nan  nan  -0.999811  -0.0006883  1.00017  0.0424091  -0.0417423  -0.0018848  0.0019701  -0.0143246  0.0016955  0  0  0  0  0  0  0.0295285  0.00895215  -0.0255856  -0.0105095  0.035935  -0.00572198  -0.0514529  0.0352909  -0.00511554  0.0479661  -0.038754  -0.00715115 
1699967185.327090000  0  0  11.8949  0.212033  -0.166085  0.00406583  nan  nan  nan  nan  nan  nan  -0.999801  -0.000762  1.00018  0.0428089  -0.0417218  -0.00192244  0.0019701  -0.0151548  0.0016955  0  0  0  0  0  0  0.0295336  0.00901154  -0.0256087  -0.0103379  0.0365405  -0.00938241  -0.051548  0.0355406  -0.00507611  0.0501763  0.0051963  -6.17559e-05 
1699967185.332000000  0  0  11.8796  0.195835  -0.167149  0.00475688  nan  nan  nan  nan  nan  nan  -0.999791  -0.0008398  1.00018  0.0429827  -0.0418679  -0.00196078  0.0019701  -0.0159736  0.0016955  0  0  0  0  0  0  0.029549  0.00903282  -0.0255809  -0.0102487  0.0366471  -0.0081423  -0.0511901  0.0357073  -0.00514387  0.0792782  0.00579103  -0.00802238 
1699967185.337602000  0  0  11.8641  0.194462  -0.154499  0.00527709  nan  nan  nan  nan  nan  nan  -0.999781  -0.0009217  1.00019  0.042833  -0.0426416  -0.00201563  0.0019701  -0.0167773  0.0016955  0  0  0  0  0  0  0.0295685  0.00905312  -0.025557  -0.00934243  0.0363243  -0.00685491  -0.0505854  0.036188  -0.00524379  0.076462  -0.0239315  -0.0135258 
1699967185.342139000  0  0  11.8883  0.196427  -0.174519  0.00503266  nan  nan  nan  nan  nan  nan  -0.999772  -0.0010076  1.0002  0.0441235  -0.0421182  -0.00207896  0.0019701  -0.0175622  0.0016955  0  0  0  0  0  0  0.0295226  0.00923085  -0.0256066  -0.00981054  0.0377511  -0.00877707  -0.0515031  0.035966  -0.00524534  0.0809758  0.0181503  -0.0104549 
1699967185.345997000  0  0  11.9014  0.185661  -0.183882  0.00470899  nan  nan  nan  nan  nan  nan  -0.999762  -0.0010973  1.00021  0.0451587  -0.0416196  -0.00213512  0.0019701  -0.0183245  0.0016955  0  0  0  0  0  0  0.0294796  0.00939839  -0.0256484  -0.0103083  0.0388124  -0.00977063  -0.0519672  0.0357446  -0.00521783  0.106776  0.0389127  -0.00668413 
1699967185.352136000  0  0  11.8736  0.183801  -0.160802  0.00421796  nan  nan  nan  nan  nan  nan  -0.999752  -0.0011908  1.00022  0.0447632  -0.0424273  -0.00219368  0.0019701  -0.0190604  0.0016955  0  0  0  0  0  0  0.0295137  0.00941127  -0.0256392  -0.00944572  0.0381147  -0.00742833  -0.0509398  0.0362425  -0.00515924  0.101044  -0.0118268  -0.00113207 
1699967185.357134000  0  0  11.8908  0.182906  -0.186173  0.00354993  nan  nan  nan  nan  nan  nan  -0.999742  -0.0012879  1.00023  0.0449351  -0.0426317  -0.00225317  0.0019701  -0.0197662  0.0016955  0  0  0  0  0  0  0.0295411  0.00943941  -0.0256394  -0.0091513  0.0383615  -0.00885065  -0.0505999  0.0368605  -0.00506405  0.0997073  0.0332286  0.00626634 
1699967185.361146000  0  0  11.9077  0.175338  -0.194174  0.00331344  nan  nan  nan  nan  nan  nan  -0.999732  -0.0013884  1.00024  0.0459086  -0.0421955  -0.00232192  0.0019701  -0.0204382  0.0016955  0  0  0  0  0  0  0.0294999  0.00961474  -0.0256857  -0.00955154  0.0393433  -0.0101456  -0.0509704  0.0367478  -0.00497617  0.118251  0.0502686  0.00834362 
1699967185.367095000  0  0  11.8612  0.170831  -0.164815  0.00366729  nan  nan  nan  nan  nan  nan  -0.999722  -0.0014922  1.00024  0.0454615  -0.04299  -0.00239083  0.0019701  -0.0210726  0.0016955  0  0  0  0  0  0  0.0295208  0.00965351  -0.0256545  -0.00876804  0.0384213  -0.00627852  -0.0497917  0.0371787  -0.00492081  0.116422  -0.0124149  0.00336705 
1699967185.372605000  0  0  11.8986  0.179314  -0.192485  0.0039623  nan  nan  nan  nan  nan  nan  -0.999712  -0.001599  1.00025  0.0456741  -0.0429223  -0.0024533  0.0019701  -0.0216656  0.0016955  0  0  0  0  0  0  0.0295486  0.00967664  -0.0256662  -0.00873591  0.0388372  -0.009372  -0.0495603  0.0375632  -0.00490032  0.0973265  0.0393885  -0.000525521 
1699967185.377174000  0  0  11.9115  0.174208  -0.192651  0.00450492  nan  nan  nan  nan  nan  nan  -0.999703  -0.0017087  1.00026  0.0464255  -0.0422844  -0.0025171  0.0019701  -0.0222136  0.0016955  0  0  0  0  0  0  0.0295045  0.00986264  -0.0257138  -0.00941635  0.0394826  -0.0103329  -0.0497275  0.0371917  -0.0049225  0.109077  0.0431376  -0.00708649 
1699967185.382142000  0  0  11.8563  0.175003  -0.161083  0.00475853  nan  nan  nan  nan  nan  nan  -0.999693  -0.0018211  1.00027  0.0459376  -0.0429345  -0.00259249  0.0019701  -0.0227126  0.0016955  0  0  0  0  0  0  0.0295372  0.00987213  -0.0256753  -0.00889096  0.0385248  -0.00576818  -0.0487964  0.0374002  -0.00493139  0.0989206  -0.0219153  -0.0101677 
1699967185.387397000  0  0  11.8611  0.177805  -0.159461  0.00436296  nan  nan  nan  nan  nan  nan  -0.999683  -0.0019358  1.00028  0.0458003  -0.042883  -0.00265562  0.0019701  -0.0231591  0.0016955  0  0  0  0  0  0  0.0295563  0.00990026  -0.0256689  -0.00897634  0.0383005  -0.00616116  -0.0482499  0.0372222  -0.00487216  0.0882892  -0.0235219  -0.0058154 
1699967185.392010000  0  0  11.9108  0.172318  -0.182238  0.00333422  nan  nan  nan  nan  nan  nan  -0.999673  -0.0020526  1.00029  0.0466959  -0.0421014  -0.00273421  0.0019701  -0.0235507  0.0016955  0  0  0  0  0  0  0.0295105  0.0100906  -0.025737  -0.00966515  0.0393151  -0.0101566  -0.0485682  0.0369292  -0.00471296  0.102192  0.0247269  0.00545179 
1699967185.397009000  0  0  11.8405  0.177803  -0.152132  0.00383339  nan  nan  nan  nan  nan  nan  -0.999663  -0.0021712  1.0003  0.0461964  -0.0428248  -0.00282855  0.0019701  -0.0238899  0.0016955  0  0  0  0  0  0  0.0295452  0.0101109  -0.0256956  -0.00911754  0.0382379  -0.00434548  -0.0477513  0.0371092  -0.00466115  0.0837061  -0.0371407  -0.00130585 
1699967185.402013000  0  0  11.8462  0.187919  -0.149521  0.00373405  nan  nan  nan  nan  nan  nan  -0.999653  -0.0022914  1.0003  0.0470221  -0.0422575  -0.00292491  0.0019701  -0.0241806  0.0016955  0  0  0  0  0  0  0.0294963  0.010305  -0.0257202  -0.00972119  0.0389204  -0.00475631  -0.0483246  0.0363438  -0.00456767  0.0687485  -0.035321  -0.000998963 
1699967185.406941000  0  0  11.8831  0.179054  -0.16662  0.00372798  nan  nan  nan  nan  nan  nan  -0.999643  -0.0024129  1.00031  0.0464798  -0.0420437  -0.00298531  0.0019701  -0.0244265  0.0016955  0  0  0  0  0  0  0.0295272  0.0103197  -0.0257275  -0.00989802  0.0383579  -0.00779839  -0.0473285  0.0363601  -0.00451828  0.0773145  -0.00127424  -0.00141695 
1699967185.412377000  0  0  11.8297  0.182357  -0.138002  0.00469885  nan  nan  nan  nan  nan  nan  -0.999634  -0.0025356  1.00032  0.04606  -0.0424449  -0.00308511  0.0019701  -0.0246313  0.0016955  0  0  0  0  0  0  0.0295457  0.0103344  -0.0256705  -0.00965911  0.037488  -0.00342901  -0.046617  0.0361614  -0.00455726  0.0641625  -0.0566813  -0.0131629 
1699967185.416997000  0  0  11.8405  0.201849  -0.138757  0.00384246  nan  nan  nan  nan  nan  nan  -0.999624  -0.0026592  1.00033  0.0466855  -0.0420209  -0.00319681  0.0019701  -0.0247989  0.0016955  0  0  0  0  0  0  0.0294992  0.0105182  -0.0256998  -0.0100542  0.0379544  -0.00426669  -0.0473103  0.0355355  -0.00439058  0.0315576  -0.0494129  -0.00412496 
1699967185.420935000  0  0  11.8718  0.198809  -0.146343  0.00368338  nan  nan  nan  nan  nan  nan  -0.999614  -0.0027835  1.00034  0.0472719  -0.0412983  -0.00329815  0.0019701  -0.0249328  0.0016955  0  0  0  0  0  0  0.0294537  0.0106961  -0.0257425  -0.0107522  0.0384924  -0.00678299  -0.0476682  0.0348645  -0.0042919  0.0409293  -0.0280675  -0.00312317 
1699967185.426942000  0  0  11.8406  0.183901  -0.130936  0.0042006  nan  nan  nan  nan  nan  nan  -0.999604  -0.0029085  1.00035  0.0467306  -0.0411944  -0.0033878  0.0019701  -0.025037  0.0016955  0  0  0  0  0  0  0.0294629  0.0107027  -0.0256969  -0.0110524  0.0375926  -0.0042383  -0.0466374  0.0342945  -0.00429382  0.0612621  -0.0536362  -0.00956938 
1699967185.431997000  0  0  11.8329  0.204063  -0.135119  0.00366085  nan  nan  nan  nan  nan  nan  -0.999594  -0.0030339  1.00035  0.0455252  -0.0418107  -0.003489  0.0019701  -0.0251151  0.0016955  0  0  0  0  0  0  0.0295019  0.010635  -0.0256261  -0.0103621  0.0361075  -0.00374842  -0.0456971  0.0347229  -0.00415893  0.0122868  -0.0492129  -0.00417136 
1699967185.437473000  0  0  11.8304  0.190161  -0.154001  0.00384327  nan  nan  nan  nan  nan  nan  -0.999584  -0.0031596  1.00036  0.0449636  -0.0415673  -0.00358364  0.0019701  -0.0251709  0.0016955  0  0  0  0  0  0  0.029501  0.010636  -0.0255794  -0.0106892  0.0353478  -0.00363753  -0.0448976  0.0347055  -0.00409735  0.0327365  -0.0112886  -0.00706733 
1699967185.442004000  0  0  11.8365  0.178159  -0.144741  0.004059  nan  nan  nan  nan  nan  nan  -0.999575  -0.0032855  1.00037  0.0453745  -0.041216  -0.00372001  0.0019701  -0.0252082  0.0016955  0  0  0  0  0  0  0.0294526  0.0108073  -0.0256019  -0.0110072  0.0355315  -0.00407693  -0.0448665  0.0341602  -0.0040338  0.0564531  -0.024792  -0.0103995 
1699967185.446987000  0  0  11.8135  0.202058  -0.139551  0.00359654  nan  nan  nan  nan  nan  nan  -0.999565  -0.0034116  1.00038  0.0458311  -0.0412194  -0.00388042  0.0019701  -0.0252306  0.0016955  0  0  0  0  0  0  0.0294004  0.0109836  -0.0256064  -0.0109811  0.0356157  -0.00214375  -0.0454907  0.0339298  -0.00387814  0.014398  -0.0330514  -0.00617544 
1699967185.451985000  0  0  11.8164  0.188376  -0.164102  0.00418925  nan  nan  nan  nan  nan  nan  -0.999555  -0.0035378  1.00039  0.0452232  -0.041195  -0.00400191  0.0019701  -0.025242  0.0016955  0  0  0  0  0  0  0.0294224  0.0109724  -0.0255663  -0.0110445  0.0348487  -0.00247274  -0.044632  0.034235  -0.00386664  0.0338618  0.0132419  -0.0136992 
1699967185.457009000  0  0  11.8403  0.166132  -0.158389  0.00500451  nan  nan  nan  nan  nan  nan  -0.999545  -0.003664  1.0004  0.0442178  -0.0411776  -0.00411355  0.0019701  -0.0252461  0.0016955  0  0  0  0  0  0  0.0294377  0.0109689  -0.0255368  -0.0109916  0.0336426  -0.00449869  -0.0431093  0.0341818  -0.00392951  0.064341  0.00230474  -0.0232613 
1699967185.462433000  0  0  11.8163  0.172991  -0.150356  0.00469469  nan  nan  nan  nan  nan  nan  -0.999535  -0.0037903  1.00041  0.0432376  -0.0417148  -0.00425655  0.0019701  -0.0252466  0.0016955  0  0  0  0  0  0  0.0294397  0.0109727  -0.02549  -0.0103975  0.0322168  -0.00259271  -0.0420626  0.0345297  -0.0038683  0.0409952  -0.0169602  -0.0200006 
1699967185.466956000  0  0  11.8304  0.179211  -0.171542  0.00379652  nan  nan  nan  nan  nan  nan  -0.999525  -0.0039165  1.00041  0.0442262  -0.0411717  -0.00444024  0.0019701  -0.0252462  0.0016955  0  0  0  0  0  0  0.0293884  0.0111385  -0.0255036  -0.0109159  0.033211  -0.00375059  -0.0429252  0.034395  -0.00368227  0.0364894  0.0266495  -0.0106338 
1699967185.472005000  0  0  11.8489  0.158621  -0.16272  0.00372677  nan  nan  nan  nan  nan  nan  -0.999515  -0.0040427  1.00042  0.0428624  -0.0414204  -0.00456736  0.0019701  -0.0252424  0.0016955  0  0  0  0  0  0  0.0294298  0.0111069  -0.025473  -0.0105969  0.031563  -0.00533591  -0.0411403  0.0346105  -0.00359368  0.0612484  0.00702353  -0.0106479 
1699967185.477009000  0  0  11.8117  0.173406  -0.147342  0.0033242  nan  nan  nan  nan  nan  nan  -0.999506  -0.0041689  1.00043  0.0430891  -0.041588  -0.00476288  0.0019701  -0.0252316  0.0016955  0  0  0  0  0  0  0.029381  0.0112621  -0.0254691  -0.010429  0.0313275  -0.00222631  -0.0413467  0.0344507  -0.00341835  0.0335782  -0.0222629  -0.00736893 
1699967185.482002000  0  0  11.8365  0.173636  -0.171329  0.00288087  nan  nan  nan  nan  nan  nan  -0.999496  -0.004295  1.00044  0.0429735  -0.0413062  -0.00493116  0.0019701  -0.02521  0.0016955  0  0  0  0  0  0  0.0293829  0.0112871  -0.0254483  -0.0106795  0.0312306  -0.00435135  -0.0411263  0.0345985  -0.0032549  0.031089  0.024352  -0.0034619 
1699967185.486964000  0  0  11.8673  0.166784  -0.170779  0.00269879  nan  nan  nan  nan  nan  nan  -0.999486  -0.004421  1.00045  0.0430066  -0.0408367  -0.00510374  0.0019701  -0.0251737  0.0016955  0  0  0  0  0  0  0.0293287  0.0114401  -0.0254892  -0.0110269  0.0310734  -0.0068306  -0.0408699  0.0342972  -0.00309054  0.0424342  0.0260237  -0.00282947 
1699967185.492008000  0  0  11.8117  0.176825  -0.158481  0.00290286  nan  nan  nan  nan  nan  nan  -0.999476  -0.0045467  1.00046  0.0423056  -0.0414158  -0.00529726  0.0019701  -0.0251192  0.0016955  0  0  0  0  0  0  0.0293474  0.0114349  -0.0254195  -0.0105558  0.0298844  -0.00233209  -0.0402619  0.0346568  -0.00296754  0.016759  -0.00187999  -0.00661035 
1699967185.497012000  0  0  11.845  0.177138  -0.185583  0.00285133  nan  nan  nan  nan  nan  nan  -0.999466  -0.0046722  1.00046  0.0417168  -0.0412454  -0.00546963  0.0019701  -0.0250426  0.0016955  0  0  0  0  0  0  0.0293693  0.0114205  -0.0253967  -0.0106681  0.0292885  -0.00518032  -0.039712  0.0350347  -0.00284383  0.0110739  0.0488464  -0.00720338 
1699967185.502001000  0  0  11.8495  0.168888  -0.176086  0.00330177  nan  nan  nan  nan  nan  nan  -0.999456  -0.0047971  1.00047  0.0419504  -0.0408174  -0.00567143  0.0019701  -0.0249402  0.0016955  0  0  0  0  0  0  0.0293146  0.0115657  -0.0254224  -0.0110776  0.0292857  -0.0054976  -0.0396938  0.0346842  -0.00275212  0.0274074  0.0330762  -0.0137509 
1699967185.506956000  0  0  11.8067  0.177987  -0.161688  0.0035625  nan  nan  nan  nan  nan  nan  -0.999446  -0.0049215  1.00048  0.0412076  -0.041483  -0.00588489  0.0019701  -0.0248082  0.0016955  0  0  0  0  0  0  0.0293375  0.0115544  -0.025363  -0.0104439  0.02812  -0.00204696  -0.0390729  0.0351481  -0.00265741  0.00349591  1.28765e-05  -0.0179571 
1699967185.512008000  0  0  11.8456  0.187888  -0.175873  0.00265184  nan  nan  nan  nan  nan  nan  -0.999437  -0.0050451  1.00049  0.0415642  -0.0406105  -0.00608615  0.0019701  -0.0246429  0.0016955  0  0  0  0  0  0  0.0292801  0.0116982  -0.0254064  -0.0112707  0.0284436  -0.00522321  -0.039603  0.0346657  -0.00243259  -0.0114291  0.0328216  -0.00882211 
1699967185.517007000  0  0  11.8418  0.172776  -0.159945  0.00352127  nan  nan  nan  nan  nan  nan  -0.999427  -0.0051679  1.0005  0.0408493  -0.0407143  -0.00629022  0.0019701  -0.0244405  0.0016955  0  0  0  0  0  0  0.0293041  0.0116665  -0.0253652  -0.0112  0.0275417  -0.00498273  -0.0387107  0.0345848  -0.00240001  0.0105871  0.00171061  -0.0200157 
1699967185.522525000  0  0  11.8161  0.182449  -0.155895  0.00319153  nan  nan  nan  nan  nan  nan  -0.999417  -0.0052895  1.00051  0.0397406  -0.0413591  -0.00650583  0.0019701  -0.0241973  0.0016955  0  0  0  0  0  0  0.0293496  0.011593  -0.0253012  -0.0105686  0.0261146  -0.00297352  -0.0378886  0.0350649  -0.0022624  -0.0163234  -0.0108069  -0.0172701 
1699967185.526956000  0  0  11.8302  0.198686  -0.171159  0.00280564  nan  nan  nan  nan  nan  nan  -0.999407  -0.0054098  1.00052  0.0399375  -0.0408671  -0.00673574  0.0019701  -0.0239095  0.0016955  0  0  0  0  0  0  0.0292994  0.0117229  -0.0253276  -0.011024  0.0261394  -0.00412344  -0.0384699  0.0348952  -0.00206311  -0.0434488  0.0212817  -0.0144394 
1699967185.532009000  0  0  11.8386  0.171867  -0.156869  0.00316793  nan  nan  nan  nan  nan  nan  -0.999397  -0.0055285  1.00052  0.0391161  -0.0408158  -0.00694782  0.0019701  -0.0235734  0.0016955  0  0  0  0  0  0  0.0293252  0.011673  -0.0252823  -0.0111075  0.0251929  -0.00490834  -0.037431  0.034661  -0.00197137  0.000631671  -0.00514434  -0.0198855 
1699967185.537007000  0  0  11.8192  0.195338  -0.146763  0.00230678  nan  nan  nan  nan  nan  nan  -0.999387  -0.0056454  1.00053  0.0390929  -0.0408194  -0.00720092  0.0019701  -0.0231852  0.0016955  0  0  0  0  0  0  0.0292726  0.0117955  -0.0252911  -0.0110615  0.0247929  -0.00327659  -0.0378511  0.034424  -0.00171291  -0.0424459  -0.0231744  -0.0117057 
1699967185.542002000  0  0  11.7989  0.203707  -0.156723  0.00135624  nan  nan  nan  nan  nan  nan  -0.999378  -0.0057603  1.00054  0.0381338  -0.0408844  -0.0074244  0.0019701  -0.0227412  0.0016955  0  0  0  0  0  0  0.0292958  0.0117339  -0.0252333  -0.0111171  0.023571  -0.001729  -0.0373985  0.0345918  -0.00143722  -0.063347  -0.00479762  -0.00258086 
1699967185.546957000  0  0  11.8272  0.185773  -0.15202  0.0014994  nan  nan  nan  nan  nan  nan  -0.999368  -0.0058727  1.00055  0.0383349  -0.0400744  -0.00766799  0.0019701  -0.0222377  0.0016955  0  0  0  0  0  0  0.0292359  0.0118538  -0.0252671  -0.0119062  0.0236819  -0.00402187  -0.0374859  0.0337497  -0.00123375  -0.0266751  -0.00645646  -0.00640498 
1699967185.552005000  0  0  11.8238  0.20313  -0.141174  0.0013448  nan  nan  nan  nan  nan  nan  -0.999358  -0.0059825  1.00056  0.038011  -0.0399682  -0.00792356  0.0019701  -0.0216708  0.0016955  0  0  0  0  0  0  0.0291786  0.0119672  -0.0252849  -0.011924  0.0229769  -0.00370735  -0.0375853  0.0334221  -0.0010049  -0.060476  -0.0251351  -0.00676099 
1699967185.557007000  0  0  11.7844  0.196701  -0.150499  0.00108007  nan  nan  nan  nan  nan  nan  -0.999348  -0.0060893  1.00057  0.0366417  -0.0405749  -0.00816999  0.0019701  -0.0210368  0.0016955  0  0  0  0  0  0  0.0292633  0.0118139  -0.0252181  -0.0114953  0.021338  -0.000571493  -0.036525  0.0340089  -0.000781303  -0.0573712  -0.0118836  -0.00568788 
1699967185.562450000  0  0  11.8235  0.176423  -0.155073  0.00126961  nan  nan  nan  nan  nan  nan  -0.999338  -0.0061928  1.00057  0.0356051  -0.0401356  -0.00839735  0.0019701  -0.0203326  0.0016955  0  0  0  0  0  0  0.0292645  0.0117708  -0.0252006  -0.0118986  0.0202192  -0.00386572  -0.03544  0.033665  -0.000617639  -0.0267984  0.000429013  -0.00969369 
1699967185.567098000  0  0  11.8088  0.175462  -0.140952  0.0015909  nan  nan  nan  nan  nan  nan  -0.999328  -0.0062925  1.00058  0.0350228  -0.0402996  -0.0086711  0.0019701  -0.0195595  0.0016955  0  0  0  0  0  0  0.0292136  0.0118651  -0.0252083  -0.0116303  0.0191701  -0.00262008  -0.034955  0.0335492  -0.000437616  -0.0293386  -0.0267483  -0.0155101 
1699967185.572125000  0  0  11.7944  0.167962  -0.161898  0.00142808  nan  nan  nan  nan  nan  nan  -0.999318  -0.0063883  1.00059  0.0341278  -0.0404347  -0.0089373  0.0019701  -0.0187213  0.0016955  0  0  0  0  0  0  0.0292269  0.0117976  -0.0251705  -0.0115455  0.0180746  -0.00150715  -0.0341433  0.0339201  -0.000246352  -0.0218044  0.0117297  -0.0153875 
1699967185.577125000  0  0  11.8493  0.152782  -0.166579  0.00167164  nan  nan  nan  nan  nan  nan  -0.999309  -0.0064796  1.0006  0.0337512  -0.0397476  -0.00920279  0.0019701  -0.0178216  0.0016955  0  0  0  0  0  0  0.0291674  0.0118864  -0.0252188  -0.012063  0.01758  -0.00598714  -0.0336109  0.0334561  -9.20201e-05  0.00365573  0.0253621  -0.0199753 
1699967185.581965000  0  0  11.8422  0.151022  -0.158041  0.00168516  nan  nan  nan  nan  nan  nan  -0.999299  -0.0065664  1.00061  0.0322745  -0.0401821  -0.00946826  0.0019701  -0.0168643  0.0016955  0  0  0  0  0  0  0.029171  0.0118371  -0.0251993  -0.0115369  0.0156983  -0.00543647  -0.0322176  0.0337948  6.46036e-05  -0.0056425  0.00517105  -0.0217105 
1699967185.587205000  0  0  11.8023  0.160981  -0.169464  0.00129431  nan  nan  nan  nan  nan  nan  -0.999289  -0.0066482  1.00062  0.0322979  -0.0399227  -0.00977722  0.0019701  -0.0158531  0.0016955  0  0  0  0  0  0  0.029109  0.0119173  -0.0251948  -0.011905  0.0153967  -0.00213959  -0.0324738  0.0337891  0.000294826  -0.0232037  0.0280674  -0.0191271 
1699967185.592133000  0  0  11.8362  0.144311  -0.175242  0.0012637  nan  nan  nan  nan  nan  nan  -0.999279  -0.0067248  1.00063  0.0308684  -0.0397683  -0.010038  0.0019701  -0.0147918  0.0016955  0  0  0  0  0  0  0.0291024  0.011856  -0.0251872  -0.0119498  0.0137584  -0.00498405  -0.0309505  0.0339118  0.000465544  -0.00387769  0.038495  -0.0204517 
1699967185.597126000  0  0  11.7912  0.152023  -0.156213  0.00100083  nan  nan  nan  nan  nan  nan  -0.999269  -0.006796  1.00063  0.0291748  -0.0404854  -0.0103205  0.0019701  -0.0136841  0.0016955  0  0  0  0  0  0  0.0291236  0.0117487  -0.0251208  -0.0112686  0.0115989  -0.00136896  -0.0295449  0.0343842  0.000672057  -0.0322323  -0.0039092  -0.019231 
1699967185.601992000  0  0  11.7726  0.158639  -0.162064  0.000270328  nan  nan  nan  nan  nan  nan  -0.999259  -0.0068616  1.00064  0.0288509  -0.0401696  -0.0106334  0.0019701  -0.0125337  0.0016955  0  0  0  0  0  0  0.029066  0.0118072  -0.0251208  -0.0116302  0.0109731  0.000161448  -0.0295216  0.0342015  0.000976075  -0.0456784  0.00947348  -0.0131399 
1699967185.606952000  0  0  11.801  0.14513  -0.170024  3.04321e-05  nan  nan  nan  nan  nan  nan  -0.999249  -0.0069213  1.00065  0.0273123  -0.0398655  -0.0109047  0.0019701  -0.0113444  0.0016955  0  0  0  0  0  0  0.0290782  0.0116943  -0.025103  -0.0119399  0.00928369  -0.00225496  -0.0280521  0.0341656  0.00121527  -0.0321804  0.0257257  -0.0125331 
1699967185.611956000  0  0  11.7807  0.154481  -0.147657  0.000351857  nan  nan  nan  nan  nan  nan  -0.99924  -0.006975  1.00066  0.0267391  -0.0398877  -0.01123  0.0019701  -0.01012  0.0016955  0  0  0  0  0  0  0.0290222  0.0117378  -0.0251012  -0.0118745  0.00835715  -0.000558563  -0.0278138  0.0338647  0.0014261  -0.0530755  -0.0162419  -0.0186592 
1699967185.616955000  0  0  11.7596  0.168161  -0.159814  5.07098e-06  nan  nan  nan  nan  nan  nan  -0.99923  -0.0070225  1.00067  0.0249299  -0.0401597  -0.0115186  0.0019701  -0.0088642  0.0016955  0  0  0  0  0  0  0.029065  0.0115534  -0.0250321  -0.011724  0.0063205  0.0010318  -0.026675  0.0342815  0.00165315  -0.0909123  0.00423896  -0.0165949 
1699967185.621961000  0  0  11.7779  0.1532  -0.16106  3.18118e-05  nan  nan  nan  nan  nan  nan  -0.99922  -0.0070636  1.00068  0.0234171  -0.0400646  -0.0118157  0.0019701  -0.0075807  0.0016955  0  0  0  0  0  0  0.02909  0.011415  -0.0250244  -0.0118354  0.00468155  -0.000517266  -0.0254007  0.0342676  0.00187709  -0.0727136  0.00685816  -0.0191685 
1699967185.626964000  0  0  11.7765  0.153298  -0.1479  0.000483629  nan  nan  nan  nan  nan  nan  -0.99921  -0.0070982  1.00069  0.022886  -0.0399194  -0.0120455  0.0019701  -0.0062733  0.0016955  0  0  0  0  0  0  0.0290326  0.0114366  -0.0250272  -0.0119063  0.00392417  -0.000389812  -0.0252096  0.0338941  0.00195408  -0.0746664  -0.016025  -0.0255862 
1699967185.632019000  0  0  11.7608  0.179595  -0.160877  -0.000206498  nan  nan  nan  nan  nan  nan  -0.9992  -0.0071263  1.00069  0.0212935  -0.0401478  -0.0119868  0.0019701  -0.0049458  0.0016954  0  0  0  0  0  0  0.0290536  0.0112839  -0.024977  -0.0117495  0.00214166  0.000787295  -0.0246565  0.0342724  0.00191373  -0.13235  0.00644832  -0.0165561 
1699967185.636961000  0  0  11.7821  0.160749  -0.156429  0.000558855  nan  nan  nan  nan  nan  nan  -0.99919  -0.0071477  1.0007  0.0210201  -0.0393725  -0.0119595  0.0019701  -0.0036019  0.0016932  0  0  0  0  0  0  0.0289906  0.0112965  -0.0249914  -0.0125344  0.00181762  -0.000969097  -0.0246422  0.0335156  0.00173447  -0.0947895  0.00451485  -0.0243304 
1699967185.642015000  0  0  11.7804  0.160452  -0.147927  0.000916611  nan  nan  nan  nan  nan  nan  -0.999181  -0.0071623  1.00071  0.0196223  -0.0395471  -0.0119079  0.0019701  -0.0022454  0.0016853  0  0  0  0  0  0  0.0289983  0.0111518  -0.0249682  -0.0123533  0.000304228  -0.000878562  -0.0237783  0.0335122  0.00154494  -0.102143  -0.0124594  -0.026907 
1699967185.646967000  0  0  11.7552  0.187659  -0.147845  0.000375654  nan  nan  nan  nan  nan  nan  -0.999171  -0.0071701  1.00072  0.0191488  -0.0392187  -0.0118829  0.0019701  -0.0008799  0.001668  0  0  0  0  0  0  0.0289358  0.0111515  -0.0249558  -0.0127625  -0.000361377  0.00117772  -0.0243508  0.0331504  0.00149167  -0.151291  -0.00929377  -0.0196124 
1699967185.652009000  0  0  11.7824  0.164532  -0.140369  0.00105451  nan  nan  nan  nan  nan  nan  -0.999161  -0.0071711  1.00073  0.0179139  -0.0388818  -0.0118284  0.0019701  0.0004907  0.0016374  0  0  0  0  0  0  0.0289406  0.010972  -0.0249489  -0.013116  -0.00151638  -0.00110339  -0.0235068  0.0326489  0.00127507  -0.112802  -0.0196312  -0.025932 
1699967185.657018000  0  0  11.8179  0.168815  -0.1354  0.000982624  nan  nan  nan  nan  nan  nan  -0.999151  -0.0071652  1.00074  0.0160112  -0.03908  -0.0117576  0.0019701  0.0018626  0.0015898  0  0  0  0  0  0  0.0289703  0.0107708  -0.0249621  -0.0127982  -0.0035002  -0.00403164  -0.0223701  0.0326232  0.001112  -0.131824  -0.0293346  -0.0234028 
1699967185.661964000  0  0  11.7862  0.19274  -0.134843  0.000516775  nan  nan  nan  nan  nan  nan  -0.999141  -0.0071525  1.00074  0.0154969  -0.0389043  -0.0117348  0.0019701  0.0032323  0.0015215  0  0  0  0  0  0  0.0289075  0.0107511  -0.0249424  -0.0130347  -0.00418126  -0.00145231  -0.0230176  0.0323214  0.00107611  -0.173718  -0.0276709  -0.0172208 
1699967185.666962000  0  0  11.797  0.182095  -0.137851  0.000758062  nan  nan  nan  nan  nan  nan  -0.999131  -0.0071329  1.00075  0.0142691  -0.0388227  -0.0116859  0.0019701  0.0045958  0.0014287  0  0  0  0  0  0  0.0289265  0.0105438  -0.0249314  -0.0131565  -0.00530941  -0.00238239  -0.022491  0.032171  0.000942881  -0.157273  -0.0202715  -0.0189046 
1699967185.672019000  0  0  11.8342  0.186562  -0.139579  0.00092526  nan  nan  nan  nan  nan  nan  -0.999121  -0.0071065  1.00076  0.0129291  -0.038897  -0.0116348  0.0019701  0.0059495  0.0013081  0  0  0  0  0  0  0.028909  0.0103999  -0.0249428  -0.0128801  -0.00669432  -0.00545871  -0.0220385  0.0322037  0.000802742  -0.170369  -0.017117  -0.0195932 
1699967185.677149000  0  0  11.7665  0.202544  -0.139331  0.000923927  nan  nan  nan  nan  nan  nan  -0.999112  -0.0070734  1.00076  0.0126791  -0.0390665  -0.0116272  0.0019701  0.0072895  0.0011611  0  0  0  0  0  0  0.0288464  0.0103659  -0.0249099  -0.0128158  -0.00704163  9.56934e-05  -0.0229643  0.0322532  0.000727698  -0.193818  -0.018068  -0.0188261 
1699967185.682013000  0  0  11.7877  0.190109  -0.147187  0.00156001  nan  nan  nan  nan  nan  nan  -0.999102  -0.0070336  1.00077  0.0114913  -0.0388429  -0.0115783  0.0019701  0.0086123  0.0009912  0  0  0  0  0  0  0.0288367  0.0101671  -0.0249184  -0.0130131  -0.00812189  -0.0016673  -0.0224705  0.0321438  0.000521975  -0.173489  -0.00134855  -0.0247198 
1699967185.686124000  0  0  11.8379  0.18369  -0.150856  0.00214133  nan  nan  nan  nan  nan  nan  -0.999092  -0.0069873  1.00077  0.0105818  -0.0386608  -0.011541  0.0019701  0.0099139  0.0008024  0  0  0  0  0  0  0.0287834  0.0101197  -0.0249568  -0.0129311  -0.00914744  -0.00577774  -0.0221404  0.0320661  0.000348062  -0.163688  0.00670307  -0.0302473 
1699967185.692180000  0  0  11.768  0.186394  -0.158836  0.00178269  nan  nan  nan  nan  nan  nan  -0.999082  -0.0069346  1.00078  0.00938089  -0.0392577  -0.0115002  0.0019701  0.0111906  0.0005983  0  0  0  0  0  0  0.0288009  0.00986908  -0.0249291  -0.0125079  -0.0102473  -1.86996e-05  -0.0220324  0.0327988  0.000191282  -0.17009  0.0159235  -0.0241964 
1699967185.697017000  0  0  11.8191  0.168031  -0.174552  0.00153507  nan  nan  nan  nan  nan  nan  -0.999072  -0.0068755  1.00078  0.00781763  -0.039232  -0.0114386  0.0019701  0.0124388  0.0003827  0  0  0  0  0  0  0.0288344  0.00960278  -0.0249553  -0.0124165  -0.0116556  -0.00423001  -0.0209683  0.0331986  5.02554e-05  -0.143154  0.0436778  -0.0196909 
1699967185.702011000  0  0  11.8675  0.164129  -0.171025  0.0015708  nan  nan  nan  nan  nan  nan  -0.999062  -0.0068102  1.00078  0.00726079  -0.0391349  -0.0114161  0.0019701  0.0136546  0.0001593  0  0  0  0  0  0  0.0287761  0.00954026  -0.0250048  -0.0122119  -0.0122091  -0.00816272  -0.0210177  0.0332521  -4.65895e-05  -0.134896  0.0361312  -0.0191691 
1699967185.707007000  0  0  11.807  0.172633  -0.171102  0.00108808  nan  nan  nan  nan  nan  nan  -0.999052  -0.006739  1.00078  0.00597158  -0.0398766  -0.0113701  0.0019701  0.0148343  -6.81e-05  0  0  0  0  0  0  0.0288179  0.00929841  -0.0250071  -0.0116137  -0.0134185  -0.00311942  -0.0206168  0.0341133  -9.77294e-05  -0.15559  0.0283611  -0.0126237 
1699967185.712019000  0  0  11.8384  0.166494  -0.184871  0.0010385  nan  nan  nan  nan  nan  nan  -0.999043  -0.0066619  1.00078  0.00608326  -0.0392283  -0.0113706  0.0019701  0.0159741  -0.0002958  0  0  0  0  0  0  0.0287567  0.00923441  -0.0250462  -0.0121887  -0.0131003  -0.00569182  -0.0213253  0.0339367  -0.000141061  -0.136796  0.057525  -0.0115707 
1699967185.717016000  0  0  11.8611  0.158128  -0.181674  0.00194082  nan  nan  nan  nan  nan  nan  -0.999033  -0.0065793  1.00078  0.00420187  -0.0400895  -0.0113004  0.0019701  0.0170704  -0.00052  0  0  0  0  0  0  0.0288151  0.00893911  -0.0250653  -0.0111119  -0.0149202  -0.0075286  -0.0199958  0.0349635  -0.000358087  -0.132296  0.0416835  -0.0206794 
1699967185.722011000  0  0  11.817  0.170608  -0.182418  0.00210845  nan  nan  nan  nan  nan  nan  -0.999023  -0.0064913  1.00077  0.00333844  -0.0404916  -0.0112671  0.0019701  0.0181193  -0.000737  0  0  0  0  0  0  0.0288081  0.00873793  -0.0250249  -0.010777  -0.0156302  -0.00394338  -0.0200189  0.0355739  -0.000483684  -0.157043  0.0375567  -0.0215188 
1699967185.726954000  0  0  11.8223  0.174934  -0.189838  0.00234063  nan  nan  nan  nan  nan  nan  -0.999013  -0.0063982  1.00077  0.00350854  -0.039843  -0.0112718  0.0019701  0.019117  -0.000943  0  0  0  0  0  0  0.0287491  0.00866249  -0.0250546  -0.011471  -0.0152279  -0.00435562  -0.0209776  0.0353121  -0.000598886  -0.156873  0.0548047  -0.023269 
1699967185.732003000  0  0  11.8248  0.166684  -0.175861  0.00301556  nan  nan  nan  nan  nan  nan  -0.999003  -0.0063002  1.00077  0.00203499  -0.0407125  -0.0112148  0.0019701  0.02006  -0.0011342  0  0  0  0  0  0  0.028846  0.00834292  -0.0250794  -0.0105538  -0.0164642  -0.00449652  -0.0202509  0.036096  -0.000857328  -0.147059  0.0196382  -0.0291212 
1699967185.736999000  0  0  11.7807  0.194562  -0.178923  0.00235279  nan  nan  nan  nan  nan  nan  -0.998993  -0.0061977  1.00076  0.00229106  -0.0406428  -0.0112251  0.0019701  0.0209443  -0.001307  0  0  0  0  0  0  0.0287928  0.00826289  -0.0250689  -0.0107211  -0.0159581  -0.000878814  -0.0217184  0.0361636  -0.000886474  -0.189315  0.0251406  -0.0205451 
1699967185.742006000  0  0  11.7797  0.19062  -0.178542  0.00232916  nan  nan  nan  nan  nan  nan  -0.998984  -0.0060909  1.00075  0.00113586  -0.0410396  -0.0111786  0.0019701  0.0217663  -0.0014575  0  0  0  0  0  0  0.0288793  0.00795736  -0.025085  -0.0104145  -0.0167959  -0.000760708  -0.0215013  0.03658  -0.00106812  -0.183428  0.0205486  -0.0184332 
1699967185.746955000  0  0  11.8105  0.183164  -0.160993  0.00234133  nan  nan  nan  nan  nan  nan  -0.998974  -0.0059802  1.00074  0.000714787  -0.0413573  -0.0111616  0.0019703  0.0225221  -0.0015821  0  0  0  0  0  0  0.02892  0.00774479  -0.0250727  -0.00995325  -0.016878  -0.00334771  -0.0218316  0.0365515  -0.00114963  -0.165478  -0.0142873  -0.0177703 
1699967185.751998000  0  0  11.7726  0.224532  -0.162562  0.00106314  nan  nan  nan  nan  nan  nan  -0.998964  -0.0058658  1.00074  0.00126737  -0.0412172  -0.0111842  0.0019731  0.0232082  -0.0016769  0  0  0  0  0  0  0.0288693  0.00766369  -0.0250697  -0.0101884  -0.0159746  -0.000233355  -0.0239124  0.0363671  -0.00103598  -0.229071  -0.00945205  -0.00292937 
1699967185.757180000  0  0  11.7888  0.218021  -0.155534  0.00104351  nan  nan  nan  nan  nan  nan  -0.998954  -0.0057482  1.00073  0.00139152  -0.0408585  -0.0111888  0.0019823  0.0238206  -0.0017383  0  0  0  0  0  0  0.0288834  0.00747692  -0.0250572  -0.0106127  -0.0153903  -0.00163712  -0.0250692  0.0358083  -0.00104391  -0.205406  -0.0183687  -0.00260473 
1699967185.762636000  0  0  11.8191  0.221341  -0.147091  0.00120041  nan  nan  nan  nan  nan  nan  -0.998944  -0.0056277  1.00072  0.00115595  -0.041092  -0.0111795  0.0020015  0.0243556  -0.0017624  0  0  0  0  0  0  0.0289247  0.00726491  -0.0250631  -0.0102627  -0.0152285  -0.00415842  -0.0259484  0.0356988  -0.00105559  -0.203956  -0.034247  -0.00444914 
1699967185.767009000  0  0  11.8088  0.243322  -0.145393  0.00121655  nan  nan  nan  nan  nan  nan  -0.998934  -0.0055048  1.00071  0.00166495  -0.0409035  -0.0112001  0.0020346  0.0248096  -0.0017455  0  0  0  0  0  0  0.0288794  0.00718431  -0.0250659  -0.010447  -0.01438  -0.00333602  -0.0276608  0.035355  -0.00104494  -0.232165  -0.0344801  -0.00475738 
1699967185.771999000  0  0  11.8046  0.237678  -0.145666  0.002083  nan  nan  nan  nan  nan  nan  -0.998924  -0.0053798  1.0007  0.00196215  -0.04076  -0.011212  0.0020853  0.0251787  -0.0016839  0  0  0  0  0  0  0.0288933  0.00700818  -0.0250571  -0.01068  -0.0135975  -0.00302661  -0.0289384  0.0350178  -0.00113821  -0.209123  -0.0308315  -0.0146553 
1699967185.776997000  0  0  11.8882  0.228054  -0.142082  0.00309266  nan  nan  nan  nan  nan  nan  -0.998913  -0.0052531  1.00069  0.00266365  -0.0401667  -0.011239  0.0021573  0.0254592  -0.0015738  0  0  0  0  0  0  0.0288403  0.00694093  -0.0251256  -0.0109554  -0.0124991  -0.00989305  -0.0302959  0.0342765  -0.00131774  -0.177386  -0.0311805  -0.0254808 
1699967185.782006000  0  0  11.8657  0.240409  -0.141833  0.00328853  nan  nan  nan  nan  nan  nan  -0.998902  -0.0051253  1.00069  0.00245678  -0.0405505  -0.0112316  0.0022544  0.0256473  -0.0014115  0  0  0  0  0  0  0.0288787  0.00671943  -0.0251281  -0.0106364  -0.0122907  -0.00803307  -0.0312007  0.0344239  -0.00145202  -0.193771  -0.033033  -0.0265865 
1699967185.787004000  0  0  11.8505  0.236726  -0.137976  0.00224986  nan  nan  nan  nan  nan  nan  -0.99889  -0.0049968  1.00068  0.00383723  -0.0400942  -0.0112858  0.0023803  0.0257393  -0.0011932  0  0  0  0  0  0  0.0288233  0.00666552  -0.0251457  -0.0111604  -0.0103507  -0.00678124  -0.033276  0.0337761  -0.00140011  -0.167313  -0.0347895  -0.0141222 
1699967185.792006000  0  0  11.9344  0.226127  -0.141899  0.0018923  nan  nan  nan  nan  nan  nan  -0.998878  -0.0048681  1.00067  0.00377524  -0.0397842  -0.0112822  0.0025388  0.0257315  -0.0009152  0  0  0  0  0  0  0.0288457  0.00648215  -0.0252208  -0.0112477  -0.00998903  -0.0136343  -0.0337621  0.0333756  -0.00141218  -0.141642  -0.0232587  -0.00953199 
1699967185.797151000  0  0  11.8967  0.23564  -0.139793  0.00129953  nan  nan  nan  nan  nan  nan  -0.998865  -0.0047397  1.00067  0.00484234  -0.0399072  -0.0113252  0.0027337  0.0256201  -0.0005737  0  0  0  0  0  0  0.0287932  0.00643677  -0.0252522  -0.0111159  -0.00849382  -0.0104814  -0.0355771  0.0333147  -0.00135367  -0.143971  -0.0269106  -0.00270746 
1699967185.802007000  0  0  11.892  0.237312  -0.150431  0.00137096  nan  nan  nan  nan  nan  nan  -0.998851  -0.0046121  1.00067  0.00554912  -0.0397125  -0.0113523  0.0029687  0.0254013  -0.0001649  0  0  0  0  0  0  0.0287944  0.00627316  -0.0252806  -0.0113842  -0.00719587  -0.0100743  -0.0368867  0.0332  -0.00135736  -0.135265  -0.00457853  -0.00356348 
1699967185.806956000  0  0  11.9691  0.223491  -0.163303  0.00144307  nan  nan  nan  nan  nan  nan  -0.998835  -0.0044858  1.00067  0.00537735  -0.0393797  -0.0113437  0.0032475  0.0250714  0.0003148  0  0  0  0  0  0  0.028811  0.00607309  -0.0253587  -0.011525  -0.00693068  -0.0163624  -0.0370475  0.0331141  -0.00138013  -0.106145  0.0219564  -0.00423705 
1699967185.812008000  0  0  11.9398  0.225908  -0.151994  0.0013743  nan  nan  nan  nan  nan  nan  -0.998818  -0.0043615  1.00067  0.00676325  -0.039275  -0.0113976  0.0035738  0.0246267  0.0008692  0  0  0  0  0  0  0.0287558  0.00604372  -0.0254056  -0.0116461  -0.00504156  -0.0138695  -0.0388376  0.0328723  -0.00135469  -0.0945104  0.00156254  -0.0036319 
1699967185.817140000  0  0  11.9242  0.221504  -0.181171  0.00149039  nan  nan  nan  nan  nan  nan  -0.998799  -0.0042398  1.00068  0.00757541  -0.0391014  -0.0114281  0.0039516  0.0240634  0.0015022  0  0  0  0  0  0  0.028773  0.0058595  -0.0254372  -0.0119671  -0.00356419  -0.0125654  -0.0399532  0.0332548  -0.0013743  -0.0754391  0.0563971  -0.00488692 
1699967185.822142000  0  0  11.9456  0.217411  -0.166692  0.00252969  nan  nan  nan  nan  nan  nan  -0.998779  -0.0041211  1.00069  0.00893926  -0.0386186  -0.0114771  0.0043844  0.0233777  0.0022173  0  0  0  0  0  0  0.0287143  0.00584349  -0.025513  -0.0123615  -0.0016938  -0.0142481  -0.0414695  0.0328345  -0.00148613  -0.0533029  0.031307  -0.0167598 
1699967185.827137000  0  0  11.9232  0.214657  -0.16205  0.00343955  nan  nan  nan  nan  nan  nan  -0.998755  -0.0040062  1.0007  0.00902851  -0.0389264  -0.0114834  0.004876  0.0225659  0.0030185  0  0  0  0  0  0  0.0287214  0.00561827  -0.0255499  -0.0120634  -0.0011009  -0.0123072  -0.0416711  0.0331629  -0.00165868  -0.0459409  0.0190004  -0.0264076 
1699967185.832088000  0  0  11.9558  0.203787  -0.18801  0.00411107  nan  nan  nan  nan  nan  nan  -0.99873  -0.0038957  1.00072  0.00998422  -0.0382995  -0.0115143  0.0054303  0.0216242  0.0039094  0  0  0  0  0  0  0.0287163  0.00547027  -0.0256143  -0.0127275  0.000538796  -0.0149407  -0.0425652  0.033132  -0.00185846  -0.0159743  0.0712057  -0.0328037 
1699967185.837136000  0  0  11.9927  0.197916  -0.177591  0.00522606  nan  nan  nan  nan  nan  nan  -0.998701  -0.0037902  1.00074  0.0117423  -0.0375229  -0.0115725  0.0060509  0.020549  0.0048937  0  0  0  0  0  0  0.0286508  0.00547832  -0.0257051  -0.0134303  0.00291568  -0.0178909  -0.0441141  0.032562  -0.00212642  0.0100171  0.0556117  -0.0440616 
1699967185.842137000  0  0  11.9831  0.210539  -0.176825  0.00520038  nan  nan  nan  nan  nan  nan  -0.998669  -0.0036904  1.00077  0.0122921  -0.0376675  -0.0115949  0.0067415  0.0193364  0.0059753  0  0  0  0  0  0  0.0286739  0.00529203  -0.0257457  -0.0133184  0.00404797  -0.017037  -0.0447653  0.0329123  -0.00232277  -0.00923674  0.0508573  -0.041777 
1699967185.847023000  0  0  12.0104  0.216278  -0.187245  0.00467521  nan  nan  nan  nan  nan  nan  -0.998633  -0.0035971  1.0008  0.0144043  -0.0367045  -0.0116606  0.0075047  0.0179827  0.0071579  0  0  0  0  0  0  0.0286041  0.00531708  -0.0258386  -0.0142981  0.00686402  -0.0192056  -0.0468651  0.0324402  -0.00244064  -0.00139762  0.0760404  -0.0340337 
1699967185.852017000  0  0  12.0519  0.209583  -0.185526  0.00387055  nan  nan  nan  nan  nan  nan  -0.998594  -0.0035108  1.00084  0.0167544  -0.0356256  -0.0117288  0.0083378  0.0164841  0.0084452  0  0  0  0  0  0  0.0285297  0.00536015  -0.025954  -0.0153685  0.00999956  -0.022501  -0.0488399  0.0317893  -0.0024817  0.0301606  0.0785908  -0.0235649 
1699967185.857011000  0  0  12.0421  0.214576  -0.177203  0.00297587  nan  nan  nan  nan  nan  nan  -0.99855  -0.0034325  1.00088  0.0161626  -0.0361502  -0.0117162  0.009237  0.0148369  0.009841  0  0  0  0  0  0  0.0286306  0.00497367  -0.025958  -0.0149388  0.0100398  -0.0216574  -0.0481726  0.0324569  -0.00249399  0.0140368  0.0558014  -0.0122584 
1699967185.861953000  0  0  12.0478  0.23007  -0.172933  0.00292577  nan  nan  nan  nan  nan  nan  -0.998501  -0.0033627  1.00094  0.0186174  -0.0353385  -0.0117898  0.0101986  0.0130374  0.011349  0  0  0  0  0  0  0.0285546  0.00502977  -0.0260658  -0.0157912  0.0132278  -0.0219983  -0.0506799  0.0318662  -0.00251508  0.006116  0.0526979  -0.0114213 
1699967185.866952000  0  0  12.0781  0.209259  -0.178165  0.0034025  nan  nan  nan  nan  nan  nan  -0.998448  -0.0033023  1.001  0.0200543  -0.0344527  -0.0118229  0.0112189  0.0110818  0.012973  0  0  0  0  0  0  0.0285522  0.00488593  -0.0261356  -0.0168319  0.0155535  -0.0244142  -0.0514915  0.0314183  -0.00263819  0.055204  0.0672807  -0.0161493 
1699967185.872011000  0  0  12.075  0.223384  -0.163644  0.00411764  nan  nan  nan  nan  nan  nan  -0.998389  -0.0032522  1.00107  0.0208078  -0.0341664  -0.0118429  0.012294  0.0089663  0.0147168  0  0  0  0  0  0  0.0285648  0.00469869  -0.0261781  -0.0172433  0.0169796  -0.0240899  -0.0521729  0.0312006  -0.00280988  0.0332233  0.0402416  -0.0233717 
1699967185.877007000  0  0  12.0594  0.249745  -0.149655  0.00395415  nan  nan  nan  nan  nan  nan  -0.998325  -0.003213  1.00115  0.0239447  -0.0330646  -0.0119237  0.0134203  0.0066872  0.016584  0  0  0  0  0  0  0.0284755  0.0047948  -0.0262796  -0.018527  0.0209586  -0.0226826  -0.0554294  0.0300564  -0.0028674  0.0104611  0.0227922  -0.0207529 
1699967185.881998000  0  0  12.0984  0.239359  -0.159811  0.00448941  nan  nan  nan  nan  nan  nan  -0.998255  -0.0031856  1.00123  0.0252091  -0.0322738  -0.0119456  0.0145941  0.0042408  0.0185784  0  0  0  0  0  0  0.0284722  0.00463671  -0.0263409  -0.0194179  0.0231275  -0.0258375  -0.0562956  0.0296645  -0.00305178  0.0392012  0.046708  -0.0255998 
1699967185.887021000  0  0  12.1286  0.248719  -0.145832  0.0055001  nan  nan  nan  nan  nan  nan  -0.998179  -0.0031708  1.00133  0.0280939  -0.0310541  -0.0120045  0.0158114  0.0016233  0.0207039  0  0  0  0  0  0  0.0283726  0.00475973  -0.026483  -0.0206819  0.0268532  -0.0281472  -0.0589074  0.0285033  -0.00328487  0.0445113  0.0294348  -0.0359025 
1699967185.892009000  0  0  12.1085  0.262575  -0.13869  0.00565027  nan  nan  nan  nan  nan  nan  -0.998097  -0.0031696  1.00144  0.0296416  -0.0307173  -0.0120426  0.0170687  -0.0011691  0.022964  0  0  0  0  0  0  0.0283982  0.00458966  -0.0265275  -0.0212348  0.0292617  -0.0264213  -0.0603663  0.0281173  -0.00348138  0.0302206  0.0187004  -0.0358146 
1699967185.897007000  0  0  12.1833  0.249152  -0.160858  0.00507609  nan  nan  nan  nan  nan  nan  -0.998008  -0.0031828  1.00156  0.0316987  -0.0294773  -0.0120666  0.0183621  -0.0041401  0.0253627  0  0  0  0  0  0  0.0283486  0.00454161  -0.0266386  -0.0225118  0.032424  -0.0324754  -0.0617934  0.027556  -0.00360524  0.0701958  0.0682013  -0.0273988 
1699967185.901997000  0  0  12.2158  0.25122  -0.143694  0.00488456  nan  nan  nan  nan  nan  nan  -0.997913  -0.0032113  1.00169  0.0345942  -0.0284233  -0.0121155  0.0196879  -0.0072916  0.0279036  0  0  0  0  0  0  0.028237  0.0047064  -0.0268005  -0.0235375  0.0361287  -0.0349033  -0.0641264  0.0265709  -0.00369893  0.0875236  0.0429356  -0.0240676 
1699967185.906997000  0  0  12.2065  0.258466  -0.139379  0.0046008  nan  nan  nan  nan  nan  nan  -0.997811  -0.003256  1.00184  0.0367571  -0.0277299  -0.0121516  0.0210424  -0.0106205  0.0305904  0  0  0  0  0  0  0.0281995  0.00465155  -0.0268803  -0.0243875  0.0391684  -0.0340013  -0.0658331  0.0260169  -0.00377966  0.0887332  0.039402  -0.0197134 
1699967185.912475000  0  0  12.2864  0.246757  -0.16216  0.00435295  nan  nan  nan  nan  nan  nan  -0.997703  -0.0033178  1.002  0.0387919  -0.0265921  -0.012164  0.0224217  -0.0141232  0.033427  0  0  0  0  0  0  0.0281525  0.00462886  -0.0270209  -0.0255538  0.0423478  -0.0404021  -0.0669703  0.0256609  -0.00388681  0.122614  0.0882402  -0.0155437 
1699967185.916995000  0  0  12.3004  0.245046  -0.148844  0.00575194  nan  nan  nan  nan  nan  nan  -0.997587  -0.0033976  1.00217  0.0421823  -0.025622  -0.0122133  0.0238222  -0.0177958  0.0364171  0  0  0  0  0  0  0.028027  0.00483435  -0.0271994  -0.0265005  0.0466159  -0.0412406  -0.0695093  0.0248635  -0.00412967  0.149394  0.0689443  -0.0306025 
1699967185.922001000  0  0  12.3061  0.247369  -0.150426  0.00627948  nan  nan  nan  nan  nan  nan  -0.997464  -0.0034961  1.00236  0.0441698  -0.0251557  -0.0122437  0.0252401  -0.0216346  0.0395644  0  0  0  0  0  0  0.027987  0.0047918  -0.0272989  -0.0269989  0.0494703  -0.0415066  -0.0706278  0.0247907  -0.00434045  0.155038  0.0727769  -0.0350889 
