ts fx fy fz tx ty tz exfx exfy exfz extx exty extz xd yd zd rolld pitchd yawd vxd vyd vzd wxd wyd wzd axd ayd azd e_x e_y e_z e_vx e_vy e_vz e_rx e_ry e_rz e_wx e_wy e_wz
1704192741.012395000  0  0  11.9996  0.050199  -0.184327  0.0311084  nan  nan  nan  nan  nan  nan  -2.5  -0.3  1  0.0136904  -0.0395583  -0.00054146  0  0  0  0  0  0  0  0  0  0.0366958  0.000558908  -0.0290134  -0.0287682  0.0169974  -0.00671774  -0.0137044  0.0386391  -0.0394695  0.0256826  0.0131733  0.0058399 
1704192741.016164000  0  0  11.9767  0.0505467  -0.203493  0.031077  nan  nan  nan  nan  nan  nan  -2.5  -0.3  1  0.0133298  -0.0410276  -0.000546769  0  0  0  0  0  0  0  0  0  0.0367555  0.000550757  -0.029  -0.0270429  0.0165003  -0.00484573  -0.0133866  0.0403275  -0.039453  0.0220633  0.0359735  0.006067 
1704192741.021167000  0  0  11.9852  0.0372922  -0.207196  0.0308244  nan  nan  nan  nan  nan  nan  -2.5  -0.3  1  0.0126277  -0.039698  -0.00050119  0  0  0  0  0  0  0  0  0  0.0366091  0.000622123  -0.0290306  -0.0284525  0.0154211  -0.00550806  -0.0123261  0.0394438  -0.0394192  0.0388161  0.0515083  0.00888668 
1704192741.026186000  0  0  12.0076  0.0262834  -0.201514  0.0319499  nan  nan  nan  nan  nan  nan  -2.5  -0.3  1  0.0134441  -0.0398231  -0.000535276  0  0  0  0  0  0  0  0  0  0.0365686  0.000684703  -0.0292553  -0.0280951  0.0164019  -0.00690933  -0.0126724  0.0398454  -0.0395006  0.0640192  0.03645  -0.00436861 
1704192741.030188000  0  0  12.0284  0.051185  -0.219511  0.0313935  nan  nan  nan  nan  nan  nan  -2.5  -0.3  1  0.014382  -0.0398468  -0.000572965  0  0  0  0  0  0  0  0  0  0.036462  0.000758575  -0.029296  -0.0277319  0.017522  -0.00857893  -0.0137995  0.040336  -0.0394382  0.024585  0.0679312  0.00196267 
1704192741.036161000  0  0  11.9848  0.0349397  -0.215343  0.0306327  nan  nan  nan  nan  nan  nan  -2.5  -0.3  1  0.0129945  -0.0396575  -0.000515222  0  0  0  0  0  0  0  0  0  0.0364549  0.000771457  -0.0292774  -0.0281636  0.0155774  -0.00499127  -0.0121438  0.0404621  -0.0393308  0.0418432  0.0584344  0.0103996 
1704192741.042144000  0  0  12.049  0.0309971  -0.220193  0.0329442  nan  nan  nan  nan  nan  nan  -2.5  -0.3  1  0.0145951  -0.0397018  -0.000579342  0  0  0  0  0  0  0  0  0  0.0364012  0.000860473  -0.0295084  -0.0276985  0.0176142  -0.00987682  -0.0132209  0.0410139  -0.0396154  0.059638  0.0630571  -0.0156482 
1704192741.049182000  0  0  11.9878  0.0517998  -0.222931  0.0296778  nan  nan  nan  nan  nan  nan  -2.5  -0.3  1  0.0137001  -0.0403066  -0.000552087  0  0  0  0  0  0  0  0  0  0.0363338  0.00092722  -0.0296721  -0.0270113  0.0161753  -0.00447117  -0.0126417  0.0423327  -0.0391847  0.0127039  0.0564015  0.0208753 
1704192741.052832000  0  0  12.0139  0.0391924  -0.214916  0.032584  nan  nan  nan  nan  nan  nan  -2.5  -0.3  1  0.01417  -0.0398657  -0.000564787  0  0  0  0  0  0  0  0  0  0.0362345  0.000991279  -0.0297136  -0.0272629  0.0166999  -0.00655352  -0.0127428  0.0419223  -0.0394854  0.0388494  0.0441464  -0.0124458 
1704192741.058182000  0  0  12.0589  0.0717704  -0.232687  0.029362  nan  nan  nan  nan  nan  nan  -2.5  -0.3  1  0.0152928  -0.0391958  -0.000599307  0  0  0  0  0  0  0  0  0  0.0362072  0.00105678  -0.0299069  -0.0278982  0.0181301  -0.00993834  -0.0142329  0.0420993  -0.0391031  -0.0125984  0.0780597  0.0240058 
1704192741.063148000  0  0  12.0159  0.076002  -0.219223  0.0284596  nan  nan  nan  nan  nan  nan  -2.5  -0.3  1  0.0148769  -0.0395902  -0.000588868  0  0  0  0  0  0  0  0  0  0.0360789  0.00113573  -0.029919  -0.0272735  0.0173263  -0.00633434  -0.0140512  0.0425126  -0.0388571  -0.0227327  0.0473293  0.0328268 
1704192741.068299000  0  0  11.9184  0.073757  -0.231563  0.0311282  nan  nan  nan  nan  nan  nan  -2.5  -0.3  0.995  0.0157111  -0.0398506  -0.000625982  2e-07  2e-07  2e-07  0  0  0  0.000125  0.000125  0.000125  0.0361126  0.0011633  -0.0248982  -0.0274141  0.0182242  -0.00867268  -0.0148204  0.0431113  -0.039145  -0.0111658  0.0665017  0.00234693 
1704192741.072174000  0  0  11.9169  0.0812084  -0.225943  0.0297548  nan  nan  nan  nan  nan  nan  -2.5  -0.3  0.995  0.0160639  -0.0388075  -0.000623298  1.7e-06  1.7e-06  1.7e-06  0  0  0  0.0005  0.0005  0.0005  0.0360001  0.00123415  -0.0249269  -0.0285063  0.0185795  -0.00845305  -0.0152942  0.0422762  -0.0389547  -0.0217106  0.0629449  0.0176118 
1704192741.078180000  0  0  11.9246  0.0665879  -0.214396  0.0323951  nan  nan  nan  nan  nan  nan  -2.5  -0.3  0.995  0.015279  -0.0413722  -0.000631993  5.6e-06  5.6e-06  5.6e-06  0  0  0  0.001125  0.001125  0.001125  0.0361789  0.00118094  -0.0252482  -0.025386  0.0177496  -0.00839503  -0.0144934  0.0451502  -0.039268  0.000163574  0.0134089  -0.0122581 
1704192741.083129000  0  0  11.9187  0.0832863  -0.231885  0.0312777  nan  nan  nan  nan  nan  nan  -2.5  -0.3  0.995  0.0152432  -0.0409981  -0.000624915  1.33e-05  1.33e-05  1.33e-05  0  0  0  0.002  0.002  0.002  0.0361935  0.00121165  -0.0251961  -0.02583  0.0177357  -0.00795096  -0.0148064  0.0451773  -0.0392125  -0.0303532  0.0481379  0.00115334 
1704192741.088168000  0  0  11.9105  0.0647545  -0.191511  0.0312484  nan  nan  nan  nan  nan  nan  -2.5  -0.3  0.995  0.0154346  -0.0397772  -0.000614132  2.6e-05  2.6e-05  2.6e-05  0  0  0  0.003125  0.003125  0.003125  0.0360551  0.00130062  -0.0252287  -0.0270378  0.0179202  -0.00705749  -0.0147336  0.0434388  -0.0391595  0.00604019  -0.0166156  0.000990802 
1704192741.093256000  0  0  11.9205  0.0819452  -0.211784  0.0321549  nan  nan  nan  nan  nan  nan  -2.5  -0.3  0.995  0.0162055  -0.0413104  -0.000669823  4.5e-05  4.5e-05  4.5e-05  0  0  0  0.0045  0.0045  0.0045  0.0362455  0.00134474  -0.0250984  -0.0252057  0.0190331  -0.00803883  -0.0159191  0.0448527  -0.0392903  -0.0174349  0.0109245  -0.00903314 
1704192741.098256000  0  0  11.8789  0.0818702  -0.210421  0.0295914  nan  nan  nan  nan  nan  nan  -2.5  -0.299999  0.995  0.0151021  -0.0414587  -0.000626982  7.15e-05  7.15e-05  7.15e-05  0  0  0  0.006125  0.006125  0.006125  0.036375  0.00135806  -0.0249481  -0.0252842  0.0176788  -0.00473161  -0.0151662  0.044873  -0.0389622  -0.0242113  0.00801082  0.0197302 
1704192741.103134000  0  0  11.9074  0.0555271  -0.187599  0.0320296  nan  nan  nan  nan  nan  nan  -2.5  -0.299999  0.995  0.0154031  -0.0401462  -0.000619957  0.0001067  0.0001067  0.0001067  0  0  0  0.008  0.008  0.008  0.0362472  0.00144942  -0.0249927  -0.0263721  0.0181599  -0.00680949  -0.0149205  0.0432117  -0.0392156  0.0262146  -0.0223483  -0.00821468 
1704192741.108166000  0  0  11.9233  0.0744079  -0.189011  0.0306865  nan  nan  nan  nan  nan  nan  -2.5  -0.299998  0.995  0.0161027  -0.0398399  -0.000644118  0.0001519  0.0001519  0.0001519  0  0  0  0.010125  0.010125  0.010125  0.0361615  0.00153712  -0.0250236  -0.026247  0.0191881  -0.00786072  -0.0158088  0.0428081  -0.0391019  -0.00337456  -0.015813  0.0074372 
1704192741.113169000  0  0  11.9016  0.0595811  -0.185391  0.0298074  nan  nan  nan  nan  nan  nan  -2.5  -0.299997  0.995  0.0154798  -0.0393751  -0.000613607  0.0002083  0.0002083  0.0002083  0  0  0  0.0125  0.0125  0.0125  0.0360342  0.00162328  -0.0250384  -0.0263762  0.0184357  -0.00579306  -0.0149897  0.0422738  -0.0389105  0.0187428  -0.018136  0.0165118 
1704192741.118174000  0  0  11.9655  0.040387  -0.169897  0.0319696  nan  nan  nan  nan  nan  nan  -2.5  -0.299996  0.995  0.0159875  -0.037065  -0.000598592  0.0002773  0.0002773  0.0002773  0  0  0  0.015125  0.015125  0.015125  0.0359309  0.0017096  -0.0250963  -0.0286116  0.0193624  -0.0107175  -0.0148529  0.039745  -0.0391648  0.0558727  -0.0258599  -0.00797235 
1704192741.122179000  0  0  11.9426  0.0406204  -0.162963  0.0305515  nan  nan  nan  nan  nan  nan  -2.49999  -0.299995  0.99501  0.015837  -0.0366437  -0.000588844  0.00036  0.00036  0.00036  0  0  0  0.018  0.018  0.018  0.0358135  0.00178539  -0.0251199  -0.0286413  0.0193182  -0.00847668  -0.0145062  0.0391245  -0.0390109  0.0522165  -0.0340194  0.00821593 
1704192741.128157000  0  0  11.9657  0.0308302  -0.181469  0.0310193  nan  nan  nan  nan  nan  nan  -2.49999  -0.299993  0.99501  0.015484  -0.0364175  -0.00057571  0.0004577  0.0004577  0.0004577  0  0  0  0.021125  0.021125  0.021125  0.0357081  0.00187709  -0.0251619  -0.0282184  0.0190821  -0.0100178  -0.0137006  0.0391159  -0.0390466  0.0643854  0.00307186  0.00272457 
1704192741.133174000  0  0  12.0024  0.0238879  -0.163324  0.0298929  nan  nan  nan  nan  nan  nan  -2.49999  -0.29999  0.99501  0.0150944  -0.0340144  -0.000529369  0.0005717  0.0005717  0.0005717  0  0  0  0.0245  0.0245  0.0245  0.0356107  0.00194923  -0.0252107  -0.0306362  0.0188949  -0.0126461  -0.0128597  0.0366519  -0.0388975  0.0705337  -0.0105491  0.0153133 
1704192741.137176000  0  0  11.9811  0.00212047  -0.149978  0.0318677  nan  nan  nan  nan  nan  nan  -2.49999  -0.299987  0.99501  0.014655  -0.0341983  -0.000522216  0.0007031  0.0007031  0.0007031  0  0  0  0.028125  0.028125  0.028125  0.0355038  0.0020219  -0.0252326  -0.0297757  0.0185717  -0.0104621  -0.0117774  0.0364938  -0.0390966  0.104111  -0.0357867  -0.00738094 
1704192741.143125000  0  0  12.0156  0.0175426  -0.192857  0.0321551  nan  nan  nan  nan  nan  nan  -2.49998  -0.299983  0.99502  0.0146351  -0.034653  -0.000534384  0.0008533  0.0008533  0.0008533  0  0  0  0.0319374  0.032  0.032  0.035406  0.00211331  -0.0253001  -0.0283347  0.0188893  -0.0128524  -0.0115738  0.0376855  -0.0392171  0.0713939  0.039008  -0.00976714 
1704192741.147123000  0  0  12.024  0.0103742  -0.175818  0.0296873  nan  nan  nan  nan  nan  nan  -2.49998  -0.299978  0.99502  0.0137926  -0.0318475  -0.000474014  0.0010221  0.0010235  0.0010235  0  0  0  0.0355621  0.036125  0.036125  0.0352708  0.00218178  -0.0253444  -0.0312967  0.0181499  -0.0130638  -0.0103308  0.0350125  -0.0389171  0.0742952  0.0295219  0.0180799 
1704192741.153167000  0  0  12.0294  -0.00388802  -0.173738  0.0341775  nan  nan  nan  nan  nan  nan  -2.49997  -0.299973  0.99503  0.0136862  -0.0326574  -0.000490603  0.0012085  0.001215  0.001215  0  0  0  0.0389369  0.0405  0.0405  0.0351843  0.002266  -0.0253983  -0.029574  0.0183824  -0.012978  -0.00948575  0.035715  -0.0394785  0.0950449  0.0188984  -0.0324341 
1704192741.158165000  0  0  12.0291  0.0391104  -0.212653  0.0293117  nan  nan  nan  nan  nan  nan  -2.49997  -0.299966  0.99503  0.0130192  -0.0321021  -0.000472197  0.0014111  0.001429  0.001429  0  0  0  0.0420616  0.045125  0.045125  0.0351285  0.00232267  -0.0254265  -0.029797  0.0179518  -0.0124931  -0.00935665  0.0361963  -0.0390134  0.00786032  0.0923001  0.0237382 
1704192741.163117000  0  0  12.0437  0.0159217  -0.186288  0.0299959  nan  nan  nan  nan  nan  nan  -2.49996  -0.299958  0.99504  0.0124301  -0.030222  -0.000442325  0.0016287  0.0016667  0.0016667  0  0  0  0.0449364  0.05  0.05  0.0349657  0.00240962  -0.0254945  -0.0315386  0.0176101  -0.0130968  -0.00823221  0.0343627  -0.0389861  0.0438929  0.0564399  0.0149125 
1704192741.168167000  0  0  12.0486  0.0302458  -0.215417  0.0314935  nan  nan  nan  nan  nan  nan  -2.49995  -0.299949  0.99505  0.0126902  -0.0307981  -0.000471794  0.00186  0.0019294  0.0019294  0  0  0  0.0475611  0.055125  0.055125  0.0349183  0.00247774  -0.0255251  -0.0303099  0.018463  -0.0129859  -0.00851799  0.0356779  -0.0391749  0.0178739  0.102598  -0.00191974 
1704192741.172167000  0  0  12.0356  0.0556706  -0.229457  0.0271391  nan  nan  nan  nan  nan  nan  -2.49994  -0.299939  0.99506  0.0114985  -0.0304539  -0.000447635  0.0021039  0.0022183  0.0022183  0  0  0  0.0499359  0.0605  0.0605  0.0347973  0.00254135  -0.0255634  -0.0302449  0.0173914  -0.0113475  -0.00792187  0.0361036  -0.0385917  -0.03846  0.126762  0.0466779 
1704192741.178159000  0  0  12.0913  0.020499  -0.220791  0.0315726  nan  nan  nan  nan  nan  nan  -2.49993  -0.299927  0.99507  0.0111516  -0.0318664  -0.000471515  0.002359  0.0025348  0.0025348  0  0  0  0.0520606  0.066125  0.066125  0.0351244  0.00257572  -0.025662  -0.0286131  0.0176319  -0.0152701  -0.00705872  0.0380395  -0.0388884  0.0239421  0.0916186  -0.00577419 
1704192741.183121000  0  0  12.08  0.0403066  -0.24346  0.0308643  nan  nan  nan  nan  nan  nan  -2.49992  -0.299914  0.99509  0.0106786  -0.0335316  -0.000495418  0.0026241  0.00288  0.00288  0  0  0  0.0539354  0.072  0.072  0.0354091  0.0026099  -0.0257157  -0.0268079  0.0176509  -0.0137097  -0.00700671  0.0406177  -0.0387866  -0.0161515  0.113238  0.00206212 
1704192741.188179000  0  0  12.0645  0.0321471  -0.239024  0.0316197  nan  nan  nan  nan  nan  nan  -2.4999  -0.299898  0.9951  0.00955095  -0.0339268  -0.000485181  0.0028979  0.0032552  0.0032552  0  0  0  0.0555601  0.078125  0.078125  0.0352788  0.00268944  -0.0257583  -0.0258392  0.01672  -0.0117774  -0.00595744  0.0414516  -0.0388159  -0.00948574  0.0966932  -0.00708694 
1704192741.193172000  0  0  12.147  0.0358737  -0.259721  0.0331241  nan  nan  nan  nan  nan  nan  -2.49989  -0.299881  0.99512  0.0099111  -0.0342036  -0.000526641  0.0031792  0.0036617  0.0036617  0  0  0  0.0569349  0.0845  0.0845  0.0355167  0.00274246  -0.0258559  -0.0255055  0.017983  -0.0178866  -0.00638292  0.0427197  -0.0390364  -0.0130245  0.126421  -0.0236871 
1704192741.197177000  0  0  12.1132  0.0442601  -0.252129  0.0319219  nan  nan  nan  nan  nan  nan  -2.49987  -0.299862  0.99514  0.00901509  -0.0337512  -0.000521121  0.0034668  0.0041006  0.0041006  0  0  0  0.0580596  0.091125  0.091125  0.0354075  0.00280561  -0.0258917  -0.0258584  0.0174389  -0.0143827  -0.00581605  0.0426507  -0.0389445  -0.0350126  0.111873  -0.00957887 
1704192741.203171000  0  0  12.0986  0.037638  -0.250184  0.0355988  nan  nan  nan  nan  nan  nan  -2.49985  -0.29984  0.99516  0.00810802  -0.0351018  -0.000533654  0.0037594  0.0045733  0.0045733  0  0  0  0.0589343  0.098  0.098  0.0353408  0.00288097  -0.0259212  -0.0238349  0.0169072  -0.0124814  -0.00508876  0.04438  -0.0394911  -0.0284593  0.0920719  -0.0500736 
1704192741.208312000  0  0  12.1362  0.0645571  -0.257033  0.0316015  nan  nan  nan  nan  nan  nan  -2.49983  -0.299816  0.99518  0.00758976  -0.0353298  -0.000552395  0.0040558  0.005081  0.005081  0  0  0  0.0595591  0.105125  0.105125  0.0355887  0.0029214  -0.0259786  -0.02385  0.0170543  -0.0148583  -0.00527304  0.0454083  -0.0391839  -0.0806021  0.0963102  -0.00317909 
1704192741.213121000  0  0  12.0988  0.0485135  -0.234019  0.0320108  nan  nan  nan  nan  nan  nan  -2.49981  -0.299789  0.99521  0.0068033  -0.03516  -0.000561659  0.0043546  0.005625  0.005625  0  0  0  0.0599338  0.1125  0.1125  0.0354768  0.00299998  -0.0260171  -0.02393  0.0167244  -0.0109594  -0.00457644  0.0451909  -0.0392272  -0.0549238  0.0522824  -0.00786364 
1704192741.218172000  0  0  12.1321  0.0728823  -0.247292  0.0317287  nan  nan  nan  nan  nan  nan  -2.49979  -0.299759  0.99524  0.00634009  -0.035389  -0.000588226  0.0046547  0.0062065  0.0062065  0  0  0  0.0600586  0.120125  0.120125  0.0354405  0.00306044  -0.0260694  -0.0233929  0.0169557  -0.0129298  -0.00488362  0.0458977  -0.0392379  -0.100835  0.0723248  -0.0042296 
1704192741.223122000  0  0  12.1444  0.0835667  -0.242266  0.0276596  nan  nan  nan  nan  nan  nan  -2.49977  -0.299727  0.99527  0.00561249  -0.0342965  -0.000601053  0.0049548  0.0068267  0.0068267  0  0  0  0.0599333  0.128  0.128  0.0353872  0.00311577  -0.0260984  -0.0247188  0.0168569  -0.0131542  -0.00490465  0.0451644  -0.0386284  -0.122011  0.0690199  0.0405388 
1704192741.228172000  0  0  12.1464  0.0638995  -0.213968  0.0311764  nan  nan  nan  nan  nan  nan  -2.49974  -0.299691  0.99531  0.00510809  -0.0339558  -0.000629917  0.0052536  0.0074869  0.0074869  0  0  0  0.0595581  0.136125  0.136125  0.0352603  0.00320319  -0.0261596  -0.0249383  0.0170113  -0.0124038  -0.00456422  0.0445199  -0.0388736  -0.0858081  0.0183536  -0.000969506 
1704192741.233112000  0  0  12.1775  0.0837068  -0.216117  0.0305653  nan  nan  nan  nan  nan  nan  -2.49971  -0.299652  0.99535  0.00412602  -0.0340711  -0.000648252  0.0055499  0.0081883  0.0081883  0  0  0  0.0589328  0.1445  0.144461  0.0352298  0.0032509  -0.0262077  -0.0246758  0.0166537  -0.0141225  -0.00452644  0.044803  -0.0387498  -0.12577  0.0200475  0.0054319 
1704192741.238312000  0  0  12.2004  0.0703594  -0.191744  0.0314728  nan  nan  nan  nan  nan  nan  -2.49968  -0.299609  0.99539  0.00368367  -0.033103  -0.000684219  0.0058425  0.0089323  0.0089312  0  0  0  0.0580576  0.153125  0.15264  0.0350948  0.00334209  -0.0262775  -0.0257157  0.0169536  -0.015082  -0.00442767  0.0435259  -0.0387477  -0.0999843  -0.0169508  -0.00593348 
1704192741.243120000  0  0  12.2188  0.065786  -0.187984  0.0318357  nan  nan  nan  nan  nan  nan  -2.49965  -0.299563  0.99544  0.00258013  -0.0325188  -0.000704188  0.0061301  0.00972  0.0097143  0  0  0  0.0569323  0.162  0.160568  0.0350525  0.00338807  -0.0263178  -0.0264921  0.016484  -0.0157755  -0.00376182  0.04288  -0.038777  -0.0969632  -0.0185283  -0.0101763 
1704192741.247173000  0  0  12.2293  0.0635186  -0.171144  0.0317919  nan  nan  nan  nan  nan  nan  -2.49962  -0.299512  0.99549  0.00145592  -0.0327315  -0.000729246  0.0064114  0.0105527  0.0105364  0  0  0  0.0555571  0.171125  0.168246  0.0349482  0.00344232  -0.0263838  -0.0261091  0.0159929  -0.0157668  -0.00306834  0.0427078  -0.0387439  -0.0988086  -0.0506236  -0.00995944 
1704192741.253108000  0  0  12.2408  0.0654493  -0.18738  0.0323568  nan  nan  nan  nan  nan  nan  -2.49959  -0.299457  0.99554  0.000880502  -0.0343265  -0.000776619  0.0066853  0.0114317  0.0113963  0  0  0  0.0539318  0.1805  0.175674  0.0351647  0.00342046  -0.0263493  -0.0245814  0.0164448  -0.0161063  -0.00315269  0.0442429  -0.0388555  -0.101894  -0.0322758  -0.0159052 
1704192741.258175000  0  0  12.2213  0.0466186  -0.17326  0.0301608  nan  nan  nan  nan  nan  nan  -2.49956  -0.299398  0.9956  -0.00188085  -0.0349866  -0.000748709  0.0069503  0.0123581  0.0122928  0  0  0  0.0520566  0.190125  0.182852  0.0353641  0.00336119  -0.0263089  -0.0244426  0.0140421  -0.0138666  -0.000778886  0.0445331  -0.0385944  -0.0860714  -0.0631842  0.0089344 
1704192741.262121000  0  0  12.2393  0.0217629  -0.16477  0.0328903  nan  nan  nan  nan  nan  nan  -2.49952  -0.299333  0.99567  -0.00261156  -0.036047  -0.000791881  0.0072054  0.0133333  0.0132244  0  0  0  0.0499313  0.2  0.189781  0.0352707  0.00340818  -0.0263883  -0.0229917  0.0141878  -0.0145255  7.58e-05  0.0450779  -0.0388797  -0.0442232  -0.085176  -0.0223311 
1704192741.268171000  0  0  12.2729  0.0528034  -0.217345  0.0275986  nan  nan  nan  nan  nan  nan  -2.49948  -0.299264  0.99573  -0.00382799  -0.0359541  -0.000823197  0.0074492  0.0143585  0.0141901  0  0  0  0.0475561  0.210125  0.196459  0.0354215  0.00339628  -0.0263746  -0.0236204  0.013826  -0.0167476  0.000277619  0.0457218  -0.0383023  -0.108161  0.0140501  0.0380409 
1704192741.273126000  0  0  12.2241  0.015783  -0.194323  0.0277227  nan  nan  nan  nan  nan  nan  -2.49945  -0.29919  0.99581  -0.00711406  -0.0372756  -0.000773876  0.0076806  0.015435  0.0151886  0  0  0  0.0449308  0.2205  0.202887  0.0356532  0.00333095  -0.026332  -0.0228692  0.0108401  -0.0121394  0.00351053  0.046557  -0.0381149  -0.0638629  -0.0396789  0.0346154 
1704192741.278172000  0  0  12.287  0.0127101  -0.221658  0.0312464  nan  nan  nan  nan  nan  nan  -2.49941  -0.29911  0.99589  -0.00710402  -0.0384524  -0.000847296  0.0078981  0.016564  0.0162186  0  0  0  0.0420556  0.231125  0.209065  0.0355562  0.00340354  -0.0264358  -0.0211476  0.0119839  -0.0165981  0.00339841  0.0479036  -0.0384386  -0.0566856  0.00260298  -0.00619335 
1704192741.283122000  0  0  12.3009  0.0418088  -0.252928  0.0258626  nan  nan  nan  nan  nan  nan  -2.49937  -0.299024  0.99597  -0.00850511  -0.0376359  -0.00088497  0.0081007  0.0177467  0.0172788  0  0  0  0.0389303  0.242  0.214994  0.0355259  0.00342553  -0.0264886  -0.0225362  0.0113846  -0.0171041  0.00376197  0.0479664  -0.0376207  -0.118228  0.0645651  0.0529255 
1704192741.288156000  0  0  12.287  -0.0329449  -0.206242  0.0335915  nan  nan  nan  nan  nan  nan  -2.49933  -0.298932  0.99606  -0.0106027  -0.0377841  -0.000892265  0.008287  0.0189844  0.0183681  0  0  0  0.0355551  0.253125  0.220672  0.035415  0.00347159  -0.0265507  -0.0225777  0.00983847  -0.0152393  0.00664464  0.0474228  -0.0383172  0.00475916  -0.0238046  -0.0367222 
1704192741.293125000  0  0  12.3155  -0.0225586  -0.238196  0.0350963  nan  nan  nan  nan  nan  nan  -2.49928  -0.298834  0.99615  -0.0115481  -0.0400299  -0.000921435  0.0084558  0.0202783  0.0194851  0  0  0  0.0319298  0.2645  0.2261  0.0356312  0.00342097  -0.0265595  -0.0203188  0.0100579  -0.0171159  0.0072254  0.050065  -0.038697  -0.0213565  0.0157927  -0.0517335 
1704192741.298172000  0  0  12.2789  -0.00287365  -0.24423  0.0318434  nan  nan  nan  nan  nan  nan  -2.49924  -0.298729  0.99625  -0.0135647  -0.0403199  -0.000930485  0.0086059  0.0216298  0.0206287  0  0  0  0.0281174  0.276125  0.231278  0.0356224  0.00342732  -0.0265883  -0.0205514  0.00880844  -0.0135164  0.00840481  0.050678  -0.038367  -0.071577  0.0222224  -0.0143728 
1704192741.303121000  0  0  12.2935  -0.0242416  -0.231375  0.0363493  nan  nan  nan  nan  nan  nan  -2.4992  -0.298618  0.99636  -0.0150747  -0.0400911  -0.000969756  0.0087374  0.02304  0.0217975  0  0  0  0.0244929  0.288  0.236207  0.0355209  0.00346912  -0.026669  -0.0210367  0.0081322  -0.0140796  0.00990388  0.0503146  -0.0390081  -0.0426324  -0.000144451  -0.0642855 
1704192741.308173000  0  0  12.2603  0.0164428  -0.258347  0.0334353  nan  nan  nan  nan  nan  nan  -2.49915  -0.298499  0.99647  -0.0169565  -0.0422485  -0.000957159  0.0088513  0.0245102  0.0229903  0  0  0  0.0211184  0.300125  0.240885  0.0357306  0.00339528  -0.0266368  -0.0191344  0.00731733  -0.0109578  0.010519  0.0529187  -0.0389487  -0.12966  0.0298427  -0.0284539 
1704192741.313178000  0  0  12.2495  0.0209525  -0.257678  0.0319936  nan  nan  nan  nan  nan  nan  -2.49911  -0.298372  0.99659  -0.0180351  -0.0423552  -0.00101176  0.008949  0.0260417  0.0242059  0  0  0  0.017994  0.3125  0.245313  0.0356385  0.00343567  -0.026688  -0.0192342  0.00734324  -0.00951979  0.0107994  0.0531657  -0.0387541  -0.141259  0.0262319  -0.0123791 
1704192741.318172000  0  0  12.2552  0.0277241  -0.250921  0.0324538  nan  nan  nan  nan  nan  nan  -2.49907  -0.298238  0.99671  -0.0203121  -0.0426818  -0.00101329  0.0090316  0.0276356  0.0254431  0  0  0  0.0151195  0.325125  0.249491  0.0357796  0.00337267  -0.0266785  -0.0194444  0.00596635  -0.00959211  0.0120629  0.0534941  -0.0388457  -0.166427  0.00969606  -0.0172157 
1704192741.323124000  0  0  12.208  0.031171  -0.249516  0.0317166  nan  nan  nan  nan  nan  nan  -2.49902  -0.298096  0.99684  -0.0223917  -0.0450573  -0.000978364  0.0091006  0.0292933  0.0267004  0  0  0  0.012495  0.338  0.253419  0.0359323  0.00330818  -0.0266308  -0.0171134  0.00501927  -0.00536626  0.0130268  0.0556585  -0.0387623  -0.182189  -0.0130249  -0.0088342 
1704192741.328302000  0  0  12.2437  0.0716096  -0.258744  0.0295153  nan  nan  nan  nan  nan  nan  -2.49897  -0.297945  0.99698  -0.0230443  -0.0437674  -0.00108785  0.009157  0.031016  0.0279768  0  0  0  0.0101205  0.351125  0.257098  0.035827  0.00334883  -0.026691  -0.0187663  0.00561201  -0.00784035  0.0120044  0.0546512  -0.0384023  -0.253659  0.0146981  0.0150819 
1704192741.333123000  0  0  12.2331  0.0587863  -0.229723  0.0294767  nan  nan  nan  nan  nan  nan  -2.49893  -0.297786  0.99712  -0.0253228  -0.0436737  -0.00110188  0.0092022  0.032805  0.029271  0  0  0  0.007996  0.3645  0.260526  0.0358131  0.0033425  -0.0267152  -0.019192  0.00424793  -0.00651263  0.0132028  0.0540761  -0.0382409  -0.239038  -0.0380538  0.0139499 
1704192741.338174000  0  0  12.2379  0.0635481  -0.225997  0.032528  nan  nan  nan  nan  nan  nan  -2.49888  -0.297617  0.99727  -0.0261872  -0.0442818  -0.0011614  0.0092374  0.0346615  0.0305817  0  0  0  0.0061215  0.378125  0.263704  0.0357243  0.00337388  -0.026749  -0.018386  0.00471022  -0.00650064  0.0127902  0.0543591  -0.0384843  -0.244766  -0.0481098  -0.0217572 
1704192741.343105000  0  0  12.2934  0.0987242  -0.237282  0.0296746  nan  nan  nan  nan  nan  nan  -2.49884  -0.297439  0.99743  -0.0273691  -0.0432276  -0.00125287  0.0092638  0.0365867  0.0319076  0  0  0  0.004497  0.391986  0.266632  0.0357071  0.00337825  -0.0268213  -0.0197315  0.00467776  -0.0106553  0.0119987  0.053493  -0.0380434  -0.307837  -0.0175723  0.00950099 
1704192741.348122000  0  0  12.2477  0.0682583  -0.194909  0.0341627  nan  nan  nan  nan  nan  nan  -2.49879  -0.297251  0.99759  -0.0293511  -0.0439223  -0.00126338  0.0092828  0.0385811  0.0332476  0  0  0  0.0031225  0.40574  0.269311  0.0357027  0.00337812  -0.0268213  -0.0191775  0.00385955  -0.00649558  0.0129334  0.0532076  -0.038457  -0.255504  -0.0996912  -0.0424635 
1704192741.353121000  0  0  12.2916  0.0802038  -0.208109  0.036467  nan  nan  nan  nan  nan  nan  -2.49874  -0.297053  0.99776  -0.0303497  -0.0439837  -0.00133553  0.0092955  0.0406436  0.0346003  0  0  0  0.001998  0.419245  0.271739  0.0356078  0.0034028  -0.0268872  -0.0188179  0.00400381  -0.00974667  0.0124086  0.0531302  -0.0388742  -0.274567  -0.0725806  -0.0670958 
1704192741.358171000  0  0  12.281  0.0947422  -0.196429  0.03297  nan  nan  nan  nan  nan  nan  -2.4987  -0.296844  0.99794  -0.0317525  -0.043601  -0.00140513  0.0093032  0.0427731  0.0359646  0  0  0  0.0011235  0.4325  0.273917  0.0356056  0.0034019  -0.02692  -0.019509  0.00380463  -0.00850929  0.0120249  0.052308  -0.0385243  -0.300113  -0.0883746  -0.0268822 
1704192741.363262000  0  0  12.2821  0.0773506  -0.189575  0.0357716  nan  nan  nan  nan  nan  nan  -2.49865  -0.296625  0.99812  -0.0332327  -0.043541  -0.00146284  0.0093071  0.0449682  0.0373391  0  0  0  0.000499  0.445505  0.275845  0.0355069  0.00342423  -0.026955  -0.0194553  0.00337595  -0.00827118  0.0123915  0.0516985  -0.0389531  -0.268703  -0.0964758  -0.0576131 
1704192741.368170000  0  0  12.2883  0.0925855  -0.196891  0.0314968  nan  nan  nan  nan  nan  nan  -2.4986  -0.296395  0.99831  -0.0354262  -0.0435778  -0.00148715  0.0093086  0.0472277  0.0387226  0  0  0  0.0001245  0.45826  0.277524  0.0355088  0.00340876  -0.0269961  -0.0194371  0.00200564  -0.00845907  0.0128675  0.0515345  -0.0385731  -0.303552  -0.0803353  -0.00797953 
1704192741.372156000  0  0  12.3251  0.0769176  -0.18407  0.0302332  nan  nan  nan  nan  nan  nan  -2.49856  -0.296153  0.99851  -0.0367447  -0.0433468  -0.00156012  0.0093088  0.0495504  0.0401139  0  0  0  0  0.470764  0.278952  0.0354299  0.00337301  -0.0270935  -0.0194271  0.00171593  -0.0111123  0.013295  0.0507887  -0.0383155  -0.276149  -0.0991157  0.00524032 
1704192741.378170000  0  0  12.3289  0.0842423  -0.205941  0.0294673  nan  nan  nan  nan  nan  nan  -2.49851  -0.295899  0.99871  -0.0382045  -0.0429308  -0.00163536  0.0093088  0.051935  0.0415117  0  0  0  0  0.483019  0.28013  0.0354238  0.00340819  -0.0271101  -0.0199764  0.00117232  -0.0112239  0.0129825  0.0504154  -0.0380916  -0.287924  -0.0519393  0.0125752 
1704192741.383172000  0  0  12.2986  0.0603334  -0.192743  0.0296366  nan  nan  nan  nan  nan  nan  -2.49846  -0.295633  0.99892  -0.0408331  -0.0436169  -0.00161766  0.0093088  0.0543802  0.0429148  0  0  0  0  0.495024  0.281058  0.0354441  0.00337352  -0.0271339  -0.019238  -0.000696063  -0.0084576  0.0145249  0.0506205  -0.0379442  -0.254296  -0.0802228  0.00898503 
1704192741.388173000  0  0  12.3809  0.0582241  -0.211239  0.031747  nan  nan  nan  nan  nan  nan  -2.49842  -0.295355  0.99914  -0.0409341  -0.043107  -0.00175781  0.0093088  0.0568848  0.0443219  0  0  0  0  0.506779  0.281736  0.0353542  0.00338696  -0.0272415  -0.0193515  0.000245824  -0.0150046  0.0135742  0.0501619  -0.038089  -0.241331  -0.0390108  -0.0159474 
1704192741.393107000  0  0  12.3609  0.0763402  -0.224414  0.0291064  nan  nan  nan  nan  nan  nan  -2.49837  -0.295064  0.99937  -0.0434369  -0.0426989  -0.00179159  0.0093088  0.0594476  0.0457317  0  0  0  0  0.518283  0.282165  0.035365  0.00334069  -0.027295  -0.0200458  -0.00154167  -0.0130957  0.0143335  0.050027  -0.0376749  -0.284548  -0.0114197  0.0129189 
1704192741.398123000  0  0  12.3598  0.0344156  -0.208426  0.035671  nan  nan  nan  nan  nan  nan  -2.49832  -0.294761  0.9996  -0.0450742  -0.0440591  -0.00178467  0.0093088  0.0620672  0.0471431  0  0  0  0  0.529538  0.282343  0.0353892  0.00331545  -0.027365  -0.0182419  -0.00230933  -0.0127682  0.0153048  0.0508914  -0.0383581  -0.209635  -0.0513489  -0.0623068 
1704192741.403168000  0  0  12.4319  0.0728168  -0.238775  0.032938  nan  nan  nan  nan  nan  nan  -2.49828  -0.294444  0.99984  -0.0451637  -0.0430408  -0.0019514  0.0093088  0.0647425  0.0485547  0  0  0  0  0.540543  0.282271  0.035294  0.00332156  -0.0274773  -0.0190979  -0.00141766  -0.0185341  0.0136752  0.0504054  -0.0381635  -0.271445  0.0138209  -0.0300899 
1704192741.408169000  0  0  12.3745  0.0521125  -0.219201  0.0318643  nan  nan  nan  nan  nan  nan  -2.49823  -0.294113  1.00009  -0.0479262  -0.0434754  -0.00193625  0.0093088  0.0674722  0.0499654  0  0  0  0  0.551298  0.281949  0.035335  0.00325991  -0.0275211  -0.0188776  -0.00343045  -0.0135803  0.0152613  0.050592  -0.0379976  -0.244629  -0.0270443  -0.0183274 
1704192741.413126000  0  0  12.385  0.0227724  -0.2052  0.0362799  nan  nan  nan  nan  nan  nan  -2.49818  -0.293769  1.00034  -0.0493635  -0.0438967  -0.00197764  0.0093088  0.0702551  0.0513738  0  0  0  0  0.561803  0.281378  0.0352452  0.00324063  -0.0275952  -0.0180584  -0.00409452  -0.0142745  0.0161071  0.0505603  -0.0386247  -0.19373  -0.0547546  -0.0672517 
1704192741.418171000  0  0  12.4371  0.0696859  -0.226075  0.0299935  nan  nan  nan  nan  nan  nan  -2.49814  -0.29341  1.0006  -0.0502452  -0.0436087  -0.00207833  0.0093088  0.0730898  0.0527788  0  0  0  0  0.572057  0.280556  0.0352848  0.00320291  -0.0277248  -0.018304  -0.00421954  -0.0183661  0.0150305  0.0505664  -0.0379669  -0.277652  -0.0130603  0.0047497 
1704192741.422160000  0  0  12.3711  0.0450987  -0.215084  0.0303506  nan  nan  nan  nan  nan  nan  -2.49809  -0.293038  1.00087  -0.0528809  -0.043603  -0.00208841  0.0093088  0.0759752  0.054179  0  0  0  0  0.582062  0.279484  0.0351978  0.00310452  -0.027798  -0.0184521  -0.00598882  -0.0127082  0.0169039  0.0503641  -0.0378914  -0.245714  -0.0331808  -0.000468615 
1704192741.428166000  0  0  12.4224  0.0365571  -0.21835  0.0317451  nan  nan  nan  nan  nan  nan  -2.49805  -0.292651  1.00114  -0.0539805  -0.0436172  -0.00216468  0.0093088  0.07891  0.0555732  0  0  0  0  0.591817  0.278162  0.0352623  0.00310459  -0.0278755  -0.0183409  -0.00657618  -0.0168737  0.0168189  0.0503003  -0.038043  -0.227848  -0.0260631  -0.0163845 
1704192741.433124000  0  0  12.4227  0.0525333  -0.223959  0.0291001  nan  nan  nan  nan  nan  nan  -2.498  -0.292249  1.00142  -0.0548417  -0.0444097  -0.00220856  0.0093088  0.081893  0.0569602  0  0  0  0  0.601322  0.276591  0.0353397  0.00302792  -0.0279687  -0.0174258  -0.0063984  -0.0167992  0.0161925  0.0510791  -0.0376107  -0.254038  -0.0220098  0.0123559 
1704192741.438173000  0  0  12.416  0.0446276  -0.234956  0.0303374  nan  nan  nan  nan  nan  nan  -2.49795  -0.291832  1.00171  -0.0570093  -0.0438387  -0.00226958  0.0093088  0.0849228  0.0583387  0  0  0  0  0.610577  0.274769  0.0352451  0.00298853  -0.0280427  -0.0180538  -0.00808886  -0.0161655  0.0171613  0.0507723  -0.0375996  -0.24714  0.00280655  -0.00322139 
1704192741.443183000  0  0  12.4224  0.03525  -0.220317  0.0318812  nan  nan  nan  nan  nan  nan  -2.49791  -0.291399  1.00201  -0.0584871  -0.0443983  -0.00229686  0.0093088  0.0879983  0.0597074  0  0  0  0  0.619581  0.272697  0.0353407  0.00289884  -0.0281447  -0.0174748  -0.00883266  -0.0165852  0.017549  0.0510445  -0.037714  -0.231951  -0.0289752  -0.0213753 
1704192741.447182000  0  0  12.4427  0.0437446  -0.226439  0.0322449  nan  nan  nan  nan  nan  nan  -2.49786  -0.290952  1.00231  -0.0594216  -0.0444662  -0.00237631  0.0093088  0.0911182  0.0610652  0  0  0  0  0.628336  0.270375  0.0352626  0.00278297  -0.0282803  -0.0171203  -0.00889445  -0.0181573  0.017414  0.0511354  -0.037736  -0.247698  -0.0175687  -0.0257016 
1704192741.453118000  0  0  12.4222  0.0648376  -0.243534  0.0298747  nan  nan  nan  nan  nan  nan  -2.49781  -0.290488  1.00262  -0.0612573  -0.0443993  -0.00242351  0.0093088  0.0942813  0.0624108  0  0  0  0  0.636841  0.267804  0.0353386  0.00274541  -0.0283249  -0.0174982  -0.0101341  -0.0165098  0.0172281  0.0514982  -0.0373921  -0.288174  0.0132846  0.00048684 
1704192741.458185000  0  0  12.4308  0.0257196  -0.217137  0.0344323  nan  nan  nan  nan  nan  nan  -2.49777  -0.290009  1.00293  -0.0622212  -0.0455536  -0.00243373  0.0093088  0.0974862  0.0637428  0  0  0  0  0.645096  0.264982  0.0354528  0.00264708  -0.0284208  -0.0161233  -0.0102659  -0.017214  0.0175572  0.0520582  -0.0378833  -0.212965  -0.0446621  -0.0515701 
1704192741.463137000  0  0  12.4924  0.0629815  -0.242429  0.0327224  nan  nan  nan  nan  nan  nan  -2.49772  -0.289513  1.00325  -0.062038  -0.0449725  -0.00260326  0.0093088  0.100732  0.0650602  0  0  0  0  0.653101  0.26191  0.0353653  0.00260255  -0.0285514  -0.0164398  -0.00932947  -0.0223522  0.0156488  0.0518794  -0.03773  -0.269932  0.00756809  -0.0317302 
1704192741.468179000  0  0  12.4158  0.043926  -0.221663  0.0319893  nan  nan  nan  nan  nan  nan  -2.49767  -0.289001  1.00358  -0.0652638  -0.0454441  -0.00255186  0.0093088  0.104017  0.0663615  0  0  0  0  0.660855  0.258588  0.0354582  0.00247054  -0.0286109  -0.0163947  -0.0119739  -0.0159827  0.0175893  0.0521131  -0.0376109  -0.249674  -0.0361146  -0.0237569 
1704192741.472170000  0  0  12.4387  0.0235711  -0.208716  0.0371738  nan  nan  nan  nan  nan  nan  -2.49763  -0.288473  1.00392  -0.0663005  -0.0456636  -0.002615  0.0093088  0.10734  0.0676456  0  0  0  0  0.66836  0.255016  0.0353946  0.0023233  -0.028767  -0.0158492  -0.0122985  -0.0178228  0.0180543  0.0519195  -0.038295  -0.213241  -0.0602273  -0.0817224 
1704192741.478170000  0  0  12.4381  0.0970101  -0.242518  0.0302314  nan  nan  nan  nan  nan  nan  -2.49758  -0.287928  1.00426  -0.0669687  -0.0456715  -0.00270893  0.0093088  0.1107  0.0689113  0  0  0  0  0.675615  0.251195  0.0354951  0.0023053  -0.0288277  -0.0160792  -0.0122617  -0.0179493  0.0159142  0.0524167  -0.0376688  -0.340431  0.00280125  -0.00120428 
1704192741.483170000  0  0  12.3652  0.0607776  -0.221335  0.0330059  nan  nan  nan  nan  nan  nan  -2.49753  -0.287366  1.00461  -0.0694198  -0.0470558  -0.00262535  0.0093088  0.114096  0.0701572  0  0  0  0  0.68262  0.247123  0.0356341  0.002148  -0.0288715  -0.0148656  -0.0138511  -0.012012  0.0172773  0.0533124  -0.0379604  -0.280506  -0.0478045  -0.0329699 
1704192741.488170000  0  0  12.3995  0.085051  -0.230195  0.0333945  nan  nan  nan  nan  nan  nan  -2.49749  -0.286787  1.00496  -0.0695231  -0.0462244  -0.0028033  0.0093088  0.117526  0.0713821  0  0  0  0  0.689374  0.242801  0.0355596  0.00208929  -0.0289697  -0.015687  -0.0132735  -0.0150329  0.0156878  0.0525087  -0.0380476  -0.31443  -0.0226909  -0.0369555 
1704192741.493165000  0  0  12.3816  0.100749  -0.22826  0.0290119  nan  nan  nan  nan  nan  nan  -2.49744  -0.286191  1.00532  -0.0706415  -0.0469119  -0.00282788  0.0093088  0.120989  0.0725848  0  0  0  0  0.695879  0.238229  0.0356851  0.00195729  -0.0290264  -0.0151238  -0.0135602  -0.0137682  0.0149175  0.0530831  -0.0374646  -0.33874  -0.0318438  0.0119966 
1704192741.497166000  0  0  12.3837  0.0760374  -0.224795  0.0319259  nan  nan  nan  nan  nan  nan  -2.49739  -0.285577  1.00569  -0.0721295  -0.0468856  -0.00288464  0.0093088  0.124484  0.073764  0  0  0  0  0.702134  0.233408  0.0356145  0.00177893  -0.0291623  -0.0150105  -0.0144363  -0.0140098  0.0155332  0.0529018  -0.0376968  -0.29498  -0.0371056  -0.0221054 
1704192741.503173000  0  0  12.3862  0.0964105  -0.231006  0.0312741  nan  nan  nan  nan  nan  nan  -2.49735  -0.284946  1.00606  -0.0729047  -0.0466415  -0.00299092  0.0093088  0.12801  0.0749184  0  0  0  0  0.708139  0.228336  0.0357298  0.00175509  -0.0291991  -0.0156081  -0.0147108  -0.0145481  0.0141837  0.0527149  -0.0376028  -0.323311  -0.0229643  -0.014899 
1704192741.508169000  0  0  12.3944  0.0864988  -0.21957  0.0330009  nan  nan  nan  nan  nan  nan  -2.4973  -0.284297  1.00644  -0.0735925  -0.0477521  -0.0030019  0.0093088  0.131565  0.0760469  0  0  0  0  0.713894  0.223014  0.0358503  0.00162194  -0.0292785  -0.0143134  -0.0147057  -0.0154907  0.0135261  0.0534167  -0.0377281  -0.297438  -0.0522925  -0.0352297 
1704192741.513126000  0  0  12.4094  0.0912929  -0.234578  0.0334649  nan  nan  nan  nan  nan  nan  -2.49725  -0.28363  1.00682  -0.0743926  -0.0470831  -0.0031384  0.0093088  0.135148  0.0771481  0  0  0  0  0.719398  0.217442  0.0357704  0.00154188  -0.0293674  -0.0150005  -0.015057  -0.0170157  0.0128342  0.0529346  -0.0378278  -0.30066  -0.0178416  -0.0400339 
1704192741.518171000  0  0  12.3693  0.0659857  -0.21754  0.0337192  nan  nan  nan  nan  nan  nan  -2.49721  -0.282945  1.00721  -0.0757727  -0.0475742  -0.00316084  0.0093088  0.138759  0.0782209  0  0  0  0  0.724653  0.211621  0.0358915  0.00140898  -0.0294152  -0.014819  -0.0156623  -0.014019  0.0131621  0.0530214  -0.0378934  -0.253063  -0.0527167  -0.0425554 
1704192741.522174000  0  0  12.4225  0.0624323  -0.219496  0.0352717  nan  nan  nan  nan  nan  nan  -2.49716  -0.282242  1.0076  -0.0763202  -0.0473362  -0.00327783  0.0093088  0.142395  0.0792639  0  0  0  0  0.729658  0.205549  0.0358221  0.00121084  -0.0295867  -0.0147322  -0.015795  -0.018603  0.0128472  0.0526676  -0.0381414  -0.243059  -0.0455501  -0.0594819 
1704192741.528172000  0  0  12.3779  0.0797509  -0.230137  0.0317448  nan  nan  nan  nan  nan  nan  -2.49711  -0.281521  1.008  -0.0772864  -0.0481867  -0.00329105  0.0093088  0.146055  0.080276  0  0  0  0  0.734413  0.199227  0.0359583  0.0011866  -0.0295816  -0.0141097  -0.0160944  -0.0154241  0.0119477  0.0535172  -0.0378421  -0.269421  -0.0320848  -0.0183886 
1704192741.533121000  0  0  12.3773  0.058234  -0.217216  0.0339122  nan  nan  nan  nan  nan  nan  -2.49707  -0.280782  1.0084  -0.0786705  -0.0489869  -0.00328607  0.0093088  0.149738  0.0812558  0  0  0  0  0.738918  0.192655  0.0361413  0.000989195  -0.0296829  -0.0134333  -0.0169859  -0.0156626  0.012453  0.0538772  -0.0381375  -0.231036  -0.0612382  -0.0425276 
1704192741.538169000  0  0  12.4327  0.0757376  -0.220567  0.0319937  nan  nan  nan  nan  nan  nan  -2.49702  -0.280024  1.00881  -0.0788864  -0.0478939  -0.00348674  0.0093088  0.153444  0.0822021  0  0  0  0  0.743172  0.185833  0.0360626  0.000912769  -0.0298079  -0.0144937  -0.01706  -0.0206146  0.0113057  0.0527158  -0.0379687  -0.255488  -0.0438504  -0.0202343 
1704192741.543170000  0  0  12.3644  0.0578839  -0.223626  0.0311219  nan  nan  nan  nan  nan  nan  -2.49697  -0.279247  1.00923  -0.0806221  -0.0498875  -0.00336723  0.0093088  0.15717  0.0831137  0  0  0  0  0.747177  0.178762  0.0362886  0.000708877  -0.0298944  -0.0126227  -0.0178927  -0.0152988  0.0120368  0.0544641  -0.0378239  -0.226506  -0.0538182  -0.0107842 
1704192741.547170000  0  0  12.3872  0.050659  -0.229771  0.0316495  nan  nan  nan  nan  nan  nan  -2.49693  -0.278452  1.00964  -0.0820367  -0.0489395  -0.00349916  0.0093088  0.160915  0.0839893  0  0  0  0  0.750932  0.17144  0.0362269  0.000475457  -0.0300539  -0.0136933  -0.0190457  -0.017441  0.0126868  0.0535777  -0.0378347  -0.218037  -0.0333722  -0.0172711 
1704192741.553172000  0  0  12.406  0.0442849  -0.210279  0.0304885  nan  nan  nan  nan  nan  nan  -2.49688  -0.277638  1.01006  -0.0820518  -0.048889  -0.00362756  0.0093088  0.164679  0.0848277  0  0  0  0  0.754437  0.163868  0.0363481  0.000451467  -0.0301181  -0.0139483  -0.018744  -0.0195447  0.011667  0.0529793  -0.0375954  -0.195906  -0.0668514  -0.00515149 
1704192741.558171000  0  0  12.3736  0.0450526  -0.241601  0.0317201  nan  nan  nan  nan  nan  nan  -2.49683  -0.276805  1.01049  -0.0827637  -0.0505462  -0.00358024  0.0093088  0.168459  0.0856276  0  0  0  0  0.757692  0.156046  0.0364592  0.000299174  -0.0302286  -0.0120939  -0.0186898  -0.0173234  0.0113566  0.0548155  -0.037685  -0.194585  -0.0211016  -0.0196509 
1704192741.563166000  0  0  12.3906  0.0481434  -0.239025  0.0293536  nan  nan  nan  nan  nan  nan  -2.49679  -0.275953  1.01092  -0.0843579  -0.0486463  -0.00378468  0.0093088  0.172255  0.0863877  0  0  0  0  0.760696  0.147975  0.0363838  0.00019108  -0.0303343  -0.0144859  -0.0204092  -0.0191448  0.0118847  0.0530457  -0.0373395  -0.205626  -0.00997066  0.00647391 
1704192741.568164000  0  0  12.3912  0.0156025  -0.210152  0.0341432  nan  nan  nan  nan  nan  nan  -2.49674  -0.275083  1.01135  -0.084362  -0.049899  -0.00380368  0.0093088  0.176065  0.0871069  0  0  0  0  0.763451  0.139661  0.036526  -3.20575e-06  -0.030459  -0.0130803  -0.0196505  -0.0196895  0.0116274  0.0534988  -0.0378293  -0.138178  -0.0718859  -0.0484971 
1704192741.572165000  0  0  12.3703  0.0492588  -0.243253  0.0333971  nan  nan  nan  nan  nan  nan  -2.4967  -0.274193  1.01179  -0.0851903  -0.0503677  -0.0038471  0.0093088  0.179889  0.0877845  0  0  0  0  0.765956  0.13143  0.036477  -0.000253103  -0.0306144  -0.0124561  -0.0197266  -0.0183509  0.011156  0.054363  -0.0378044  -0.201153  -0.0136326  -0.0394197 
1704192741.578170000  0  0  12.3495  0.0248289  -0.207628  0.0326692  nan  nan  nan  nan  nan  nan  -2.49665  -0.273284  1.01223  -0.0863905  -0.0499393  -0.00394838  0.0093088  0.183725  0.0884216  0  0  0  0  0.768211  0.123448  0.0365982  -0.000292912  -0.0306423  -0.0134552  -0.0207973  -0.0171929  0.0115898  0.0532831  -0.0377407  -0.156284  -0.0749489  -0.0309583 
1704192741.583119000  0  0  12.3997  0.00484387  -0.195655  0.0371079  nan  nan  nan  nan  nan  nan  -2.4966  -0.272356  1.01268  -0.085591  -0.0504757  -0.00406762  0.0093088  0.187571  0.0890194  0  0  0  0  0.770215  0.115717  0.0367345  -0.000480772  -0.0307999  -0.0127523  -0.0195181  -0.0217868  0.010635  0.0531341  -0.0383819  -0.10753  -0.0975233  -0.0800297 
1704192741.588170000  0  0  12.3124  0.0603278  -0.235652  0.0300428  nan  nan  nan  nan  nan  nan  -2.49656  -0.271408  1.01312  -0.0871301  -0.0508327  -0.00408324  0.0093088  0.191426  0.0895792  0  0  0  0  0.77197  0.108235  0.0366803  -0.000576747  -0.0308345  -0.0126467  -0.0203589  -0.015067  0.0102958  0.0539248  -0.0377009  -0.215376  -0.0248028  0.00147432 
1704192741.593176000  0  0  12.3201  0.0222906  -0.209146  0.0336241  nan  nan  nan  nan  nan  nan  -2.49651  -0.270441  1.01357  -0.088199  -0.0508893  -0.00414851  0.0093088  0.19529  0.0901022  0  0  0  0  0.773475  0.101004  0.0368143  -0.000808927  -0.0309348  -0.0128462  -0.0211885  -0.0160604  0.011104  0.0533323  -0.0380614  -0.146738  -0.0723647  -0.0396867 
1704192741.597164000  0  0  12.3385  0.0352813  -0.211749  0.0345604  nan  nan  nan  nan  nan  nan  -2.49646  -0.269455  1.01402  -0.0884892  -0.0500876  -0.00432977  0.0093088  0.199161  0.0905897  0  0  0  0  0.77473  0.0940222  0.0367447  -0.0010838  -0.0311088  -0.013713  -0.020997  -0.0178462  0.0106418  0.0523895  -0.0382285  -0.168467  -0.0584856  -0.0497199 
1704192741.603165000  0  0  12.24  0.0674118  -0.235891  0.0294119  nan  nan  nan  nan  nan  nan  -2.49642  -0.26845  1.01448  -0.0894605  -0.0522319  -0.00421367  0.0093088  0.203037  0.0910428  0  0  0  0  0.775735  0.0872908  0.0368993  -0.0011171  -0.0310663  -0.0116836  -0.0211602  -0.0103102  0.00972835  0.0546179  -0.0375739  -0.224325  -0.0307035  0.00808992 
1704192741.608164000  0  0  12.2823  0.0517304  -0.234443  0.0329201  nan  nan  nan  nan  nan  nan  -2.49637  -0.267425  1.01493  -0.0890982  -0.0515944  -0.0044146  0.0093088  0.206918  0.091463  0  0  0  0  0.776489  0.0808093  0.0369992  -0.00129953  -0.0311655  -0.0125529  -0.0205919  -0.0142473  0.00877582  0.0538341  -0.0378654  -0.184198  -0.0263876  -0.0328465 
1704192741.613114000  0  0  12.2722  0.0797034  -0.223945  0.0314027  nan  nan  nan  nan  nan  nan  -2.49632  -0.26638  1.01539  -0.0886826  -0.0502145  -0.00468384  0.0093088  0.210801  0.0918513  0  0  0  0  0.776994  0.0745778  0.0369191  -0.00140477  -0.0312408  -0.0143413  -0.0196259  -0.013849  0.00702463  0.0522201  -0.0376537  -0.224033  -0.032536  -0.0159957 
1704192741.618165000  0  0  12.2411  0.0796208  -0.231888  0.0323851  nan  nan  nan  nan  nan  nan  -2.49628  -0.265317  1.01585  -0.0892042  -0.0517929  -0.00464146  0.0093088  0.214687  0.0922092  0  0  0  0  0.777249  0.0685964  0.0370553  -0.00158884  -0.0312854  -0.0126734  -0.0196007  -0.0116867  0.00642352  0.0536794  -0.0377054  -0.218338  -0.0300749  -0.0277601 
1704192741.622160000  0  0  12.2894  0.0888154  -0.239312  0.0324891  nan  nan  nan  nan  nan  nan  -2.49623  -0.264234  1.01631  -0.0895971  -0.050063  -0.00490117  0.0093088  0.218574  0.0925377  0  0  0  0  0.777254  0.0628649  0.036977  -0.00188498  -0.0314607  -0.0146199  -0.0199539  -0.0158472  0.00585752  0.0521667  -0.0376989  -0.23152  -0.00130915  -0.0291258 
1704192741.628166000  0  0  12.2361  0.0911356  -0.213435  0.0325384  nan  nan  nan  nan  nan  nan  -2.49618  -0.263131  1.01678  -0.0885453  -0.0509939  -0.00499669  0.0093088  0.222459  0.0928382  0  0  0  0  0.777009  0.0573834  0.0371088  -0.00187434  -0.0314406  -0.013943  -0.0180635  -0.0120383  0.0035853  0.0523839  -0.0376594  -0.215256  -0.0550624  -0.030137 
1704192741.632166000  0  0  12.2637  0.0981602  -0.233549  0.0334375  nan  nan  nan  nan  nan  nan  -2.49614  -0.262009  1.01724  -0.0892281  -0.0511591  -0.00507195  0.0093088  0.226343  0.093112  0  0  0  0  0.776513  0.052152  0.0370563  -0.00217537  -0.0316017  -0.0134641  -0.0186665  -0.0144407  0.00327691  0.0527562  -0.0377685  -0.226468  -0.0182582  -0.040283 
1704192741.638170000  0  0  12.2574  0.102827  -0.218503  0.0326988  nan  nan  nan  nan  nan  nan  -2.49609  -0.260868  1.01771  -0.0883339  -0.0504097  -0.00530932  0.0093088  0.230224  0.0933602  0  0  0  0  0.775768  0.0471705  0.0371602  -0.00215117  -0.0316088  -0.0147683  -0.0175408  -0.014434  0.00112304  0.0516768  -0.0376876  -0.215986  -0.0384211  -0.0318582 
1704192741.643164000  0  0  12.26  0.106252  -0.209746  0.0349493  nan  nan  nan  nan  nan  nan  -2.49604  -0.259707  1.01818  -0.0873806  -0.0512753  -0.00540699  0.0093088  0.2341  0.0935841  0  0  0  0  0.774773  0.0424391  0.0372947  -0.0023296  -0.0316902  -0.0138761  -0.0160156  -0.0149854  -0.000769463  0.0520086  -0.037998  -0.205426  -0.0589878  -0.0568861 
1704192741.648304000  0  0  12.2557  0.123589  -0.21992  0.0308914  nan  nan  nan  nan  nan  nan  -2.496  -0.258527  1.01864  -0.0883184  -0.0517975  -0.00543748  0.0093088  0.237971  0.093785  0  0  0  0  0.773528  0.0379576  0.0373979  -0.00247361  -0.0317659  -0.0134361  -0.0170938  -0.0148075  -0.00127478  0.0525098  -0.0376076  -0.235451  -0.0432501  -0.0100667 
1704192741.653126000  0  0  12.2576  0.106677  -0.203913  0.031294  nan  nan  nan  nan  nan  nan  -2.49595  -0.257327  1.01911  -0.0878294  -0.0510639  -0.0056525  0.0093088  0.241835  0.0939641  0  0  0  0  0.772033  0.0337261  0.0373224  -0.0025937  -0.0318585  -0.0142758  -0.0163735  -0.0151996  -0.0023391  0.0512728  -0.0375687  -0.191835  -0.0638845  -0.0154886 
1704192741.658180000  0  0  12.2761  0.118794  -0.216367  0.0306351  nan  nan  nan  nan  nan  nan  -2.4959  -0.256108  1.01958  -0.0873351  -0.0507653  -0.00582904  0.0093088  0.245691  0.0941227  0  0  0  0  0.770287  0.0297447  0.0373924  -0.00273334  -0.0319897  -0.0147485  -0.0158016  -0.0168887  -0.00382042  0.0510041  -0.0374734  -0.20244  -0.0365031  -0.0082049 
1704192741.663137000  0  0  12.2493  0.110476  -0.206724  0.0296325  nan  nan  nan  nan  nan  nan  -2.49586  -0.25487  1.02006  -0.087843  -0.0511163  -0.0058972  0.0093088  0.249538  0.094262  0  0  0  0  0.768292  0.0260132  0.0373335  -0.00282995  -0.0320649  -0.0143064  -0.0162756  -0.014797  -0.00409224  0.0509546  -0.0372384  -0.183303  -0.0553343  0.00197708 
1704192741.668179000  0  0  12.2915  0.0997207  -0.224881  0.0321116  nan  nan  nan  nan  nan  nan  -2.49581  -0.253613  1.02053  -0.0866831  -0.0507926  -0.0061101  0.0093088  0.253374  0.0943832  0  0  0  0  0.766047  0.0225317  0.0374236  -0.00297105  -0.0321343  -0.0147192  -0.015092  -0.0186083  -0.00565623  0.0507534  -0.0374365  -0.147404  -0.0171706  -0.0270307 
1704192741.673186000  0  0  12.2728  0.0984456  -0.218143  0.030171  nan  nan  nan  nan  nan  nan  -2.49576  -0.252336  1.021  -0.0875823  -0.0504382  -0.00622018  0.0093088  0.257198  0.0944877  0  0  0  0  0.763552  0.0193003  0.0375345  -0.0031738  -0.0321758  -0.0155789  -0.0160018  -0.0171906  -0.00542972  0.0503205  -0.0371816  -0.146938  -0.0266624  -0.00532129 
1704192741.678181000  0  0  12.2576  0.0724167  -0.206655  0.0334668  nan  nan  nan  nan  nan  nan  -2.49572  -0.251041  1.02147  -0.0870467  -0.0514081  -0.00628786  0.0093088  0.261009  0.0945766  0  0  0  0  0.760807  0.0163188  0.0374801  -0.00325037  -0.0322467  -0.0142249  -0.0153194  -0.0160868  -0.00600494  0.0507331  -0.0375494  -0.0895881  -0.0534353  -0.0428403 
1704192741.683129000  0  0  12.3014  0.0870915  -0.2404  0.0316527  nan  nan  nan  nan  nan  nan  -2.49567  -0.249726  1.02194  -0.0862646  -0.0511358  -0.00647697  0.0093088  0.264805  0.0946513  0  0  0  0  0.757811  0.0135873  0.0375652  -0.00341298  -0.0323275  -0.0145473  -0.0147101  -0.0199211  -0.0073606  0.0510033  -0.0373739  -0.106466  0.0115703  -0.0219193 
1704192741.688174000  0  0  12.2624  0.0589989  -0.204495  0.0315151  nan  nan  nan  nan  nan  nan  -2.49562  -0.248393  1.02242  -0.0862069  -0.0504253  -0.00666626  0.0093088  0.268587  0.0947129  0  0  0  0  0.754566  0.0111059  0.03748  -0.00347705  -0.0323945  -0.0155673  -0.0145232  -0.0167459  -0.00729754  0.0496461  -0.0372752  -0.0508604  -0.0477552  -0.0211869 
1704192741.693187000  0  0  12.3325  0.0312832  -0.223493  0.0357283  nan  nan  nan  nan  nan  nan  -2.49558  -0.247041  1.02289  -0.0859837  -0.053609  -0.00652855  0.0093088  0.272351  0.0947628  0  0  0  0  0.751071  0.0088744  0.0378342  -0.00380238  -0.0328316  -0.0115891  -0.0146522  -0.0218975  -0.00695541  0.053053  -0.037876  0.00142345  -0.0411018  -0.0678434 
1704192741.698180000  0  0  12.3178  0.0497316  -0.245502  0.0297949  nan  nan  nan  nan  nan  nan  -2.49553  -0.245669  1.02337  -0.0874091  -0.0543108  -0.00651529  0.0093088  0.276097  0.0948021  0  0  0  0  0.747326  0.0068929  0.038246  -0.00420941  -0.032728  -0.01165  -0.0160393  -0.0209703  -0.00591465  0.0541879  -0.0372855  -0.0450483  -0.00752395  0.000418484 
1704192741.703135000  0  0  12.2785  0.0104185  -0.206277  0.031817  nan  nan  nan  nan  nan  nan  -2.49549  -0.24428  1.02384  -0.0877224  -0.0536261  -0.00668328  0.0093088  0.279824  0.0948321  0  0  0  0  0.74333  0.0051615  0.038186  -0.00430559  -0.0327981  -0.0127126  -0.0163709  -0.0176469  -0.00492899  0.0526289  -0.0374577  0.0245097  -0.0716315  -0.0231346 
1704192741.708164000  0  0  12.3065  0.0179558  -0.224308  0.031685  nan  nan  nan  nan  nan  nan  -2.49544  -0.242871  1.02431  -0.0868409  -0.0539676  -0.00682621  0.0093088  0.28353  0.0948541  0  0  0  0  0.739085  0.00368  0.0382196  -0.00441458  -0.0328605  -0.0121596  -0.0157543  -0.0200616  -0.00567441  0.0529356  -0.0374966  0.016293  -0.0383913  -0.021096 
1704192741.713119000  0  0  12.2755  0.0359516  -0.22988  0.0270682  nan  nan  nan  nan  nan  nan  -2.49539  -0.241444  1.02479  -0.0864183  -0.0532928  -0.00703254  0.0093088  0.287214  0.0948693  0  0  0  0  0.73459  0.0024485  0.0381497  -0.00450363  -0.0329449  -0.0131246  -0.0152555  -0.0174702  -0.00636801  0.0522811  -0.0367978  -0.0133175  -0.0212257  0.0296252 
1704192741.718171000  0  0  12.2714  -0.00808189  -0.208375  0.0326331  nan  nan  nan  nan  nan  nan  -2.49535  -0.239999  1.02526  -0.0872573  -0.0538548  -0.00706353  0.0093088  0.290875  0.094879  0  0  0  0  0.729845  0.0014671  0.0384593  -0.00483205  -0.0328796  -0.0130907  -0.0162357  -0.017248  -0.00452967  0.052294  -0.037348  0.0578367  -0.0643554  -0.0344333 
1704192741.723121000  0  0  12.2282  -0.011619  -0.220887  0.0320774  nan  nan  nan  nan  nan  nan  -2.4953  -0.238536  1.02574  -0.0885976  -0.0565734  -0.0068747  0.0093088  0.294512  0.0948844  0  0  0  0  0.72485  0.0007356  0.0389082  -0.0053109  -0.0327707  -0.0106532  -0.0172283  -0.0138201  -0.0027889  0.0548753  -0.0374441  0.0488958  -0.063079  -0.0265261 
1704192741.728173000  0  0  12.2348  0.00659877  -0.232388  0.0311121  nan  nan  nan  nan  nan  nan  -2.49525  -0.237054  1.02621  -0.0872178  -0.0558664  -0.00714004  0.0093088  0.298123  0.0948868  0  0  0  0  0.719604  0.0002541  0.0388483  -0.00537597  -0.0328415  -0.011449  -0.0159511  -0.0143876  -0.00419993  0.0541109  -0.0372716  0.0254418  -0.0330436  -0.0161861 
1704192741.733114000  0  0  12.2409  -0.000651636  -0.222587  0.031511  nan  nan  nan  nan  nan  nan  -2.49521  -0.235554  1.02669  -0.0885271  -0.0558245  -0.00719518  0.0093088  0.301708  0.0948874  0  0  0  0  0.714109  2.27e-05  0.0391689  -0.00576146  -0.0328106  -0.0122101  -0.0176285  -0.0148473  -0.00251992  0.0538162  -0.0373808  0.0244866  -0.0499359  -0.0200787 
1704192741.738164000  0  0  12.1916  0.00277952  -0.207669  0.0334536  nan  nan  nan  nan  nan  nan  -2.49516  -0.234037  1.02716  -0.0868987  -0.0568654  -0.00732121  0.0093088  0.305264  0.0948874  0  0  0  0  0.708364  0  0.0391208  -0.00582132  -0.0328387  -0.0109872  -0.015558  -0.0108037  -0.0039462  0.0540919  -0.0375784  0.030746  -0.0823067  -0.042385 
1704192741.743164000  0  0  12.2367  0.0447374  -0.231549  0.0306618  nan  nan  nan  nan  nan  nan  -2.49511  -0.232502  1.02764  -0.0855531  -0.0558306  -0.00761185  0.0093088  0.308791  0.0948874  0  0  0  0  0.702369  0  0.0391671  -0.00598241  -0.0329121  -0.0122246  -0.0145803  -0.0145395  -0.00575121  0.0532858  -0.0372673  -0.0365637  -0.0271305  -0.0105998 
1704192741.748166000  0  0  12.211  0.0200086  -0.18919  0.0319154  nan  nan  nan  nan  nan  nan  -2.49507  -0.230949  1.02811  -0.0860781  -0.0551939  -0.00776219  0.0093088  0.312287  0.0948874  0  0  0  0  0.696124  0  0.0392568  -0.00617228  -0.032886  -0.0134752  -0.0154085  -0.0123535  -0.00481278  0.0516664  -0.0373977  0.00426041  -0.0969514  -0.0249651 
1704192741.753114000  0  0  12.1908  0.0155449  -0.181378  0.0349676  nan  nan  nan  nan  nan  nan  -2.49502  -0.229379  1.02858  -0.0841972  -0.0559364  -0.00792925  0.0093088  0.315752  0.0948874  0  0  0  0  0.689628  0  0.0392019  -0.00625103  -0.0329347  -0.0124599  -0.0133425  -0.0107071  -0.00638432  0.0516096  -0.0377967  0.027646  -0.112053  -0.0591289 
1704192741.757158000  0  0  12.2046  0.0666046  -0.203176  0.0297996  nan  nan  nan  nan  nan  nan  -2.49497  -0.227792  1.02906  -0.0838504  -0.05447  -0.00819683  0.0093089  0.319183  0.0948874  0  0  0  0.0001052  0.682883  0  0.0391259  -0.00660721  -0.0330869  -0.0142033  -0.0130637  -0.0115873  -0.00759598  0.0503422  -0.0372265  -0.0633261  -0.0567974  -0.000229731 
1704192741.763167000  0  0  12.1771  0.0414816  -0.161888  0.0333083  nan  nan  nan  nan  nan  nan  -2.49493  -0.226187  1.02953  -0.0821077  -0.0537012  -0.00848054  0.0093103  0.32258  0.0948874  0  0  0  0.0004596  0.675888  0  0.039096  -0.00639233  -0.0330231  -0.0153  -0.0118204  -0.00954225  -0.00896357  0.0483455  -0.0375015  -0.00049836  -0.121002  -0.041338 
1704192741.768165000  0  0  12.1809  0.0654117  -0.184301  0.0340283  nan  nan  nan  nan  nan  nan  -2.49488  -0.224566  1.03001  -0.0814714  -0.0548404  -0.00854714  0.0093139  0.325942  0.0948874  0  0  0  0.001064  0.668643  0  0.0393718  -0.00668988  -0.0329958  -0.0142701  -0.0112769  -0.00995738  -0.00990077  0.0493282  -0.0377487  -0.0397364  -0.0852176  -0.047866 
1704192741.772163000  0  0  12.1578  0.0987104  -0.186313  0.0290257  nan  nan  nan  nan  nan  nan  -2.49483  -0.222928  1.03048  -0.0814045  -0.0539698  -0.00874675  0.0093213  0.329266  0.0948874  0  0  0  0.0019184  0.661148  0  0.0392969  -0.00706363  -0.03311  -0.0153298  -0.0110956  -0.0078111  -0.0107463  0.0482812  -0.0371503  -0.0985552  -0.0715604  0.00868214 
1704192741.778165000  0  0  12.1951  0.0837609  -0.174855  0.0339845  nan  nan  nan  nan  nan  nan  -2.49479  -0.221273  1.03096  -0.0784048  -0.0531802  -0.00909654  0.0093335  0.332553  0.0948874  0  0  0  0.0030228  0.653402  0  0.0392673  -0.00682676  -0.033084  -0.0159575  -0.00889817  -0.0112074  -0.0135603  0.0467414  -0.0376134  -0.0427667  -0.0803113  -0.0486719 
1704192741.783114000  0  0  12.1738  0.105243  -0.195339  0.0321646  nan  nan  nan  nan  nan  nan  -2.49474  -0.219602  1.03143  -0.0784009  -0.0535852  -0.00919008  0.0093519  0.3358  0.0948874  0  0  0  0.0043771  0.645407  0  0.0394636  -0.00709776  -0.0330145  -0.0158074  -0.00913289  -0.00959645  -0.0140915  0.0472456  -0.037488  -0.0808435  -0.043981  -0.0271781 
1704192741.788173000  0  0  12.1826  0.103304  -0.187627  0.0319402  nan  nan  nan  nan  nan  nan  -2.49469  -0.217915  1.03191  -0.0762485  -0.0529624  -0.00947857  0.0093777  0.339006  0.0948874  0  0  0  0.0059815  0.637162  0  0.0393836  -0.0071165  -0.0330669  -0.0162074  -0.00731638  -0.0104042  -0.0163435  0.0462062  -0.0373719  -0.0562469  -0.0498428  -0.0255335 
1704192741.793114000  0  0  12.2198  0.118389  -0.204446  0.0316781  nan  nan  nan  nan  nan  nan  -2.49465  -0.216212  1.03238  -0.074948  -0.0518249  -0.0097581  0.0094122  0.342171  0.0948874  0  0  0  0.0078359  0.628667  0  0.0394053  -0.00723495  -0.0330556  -0.0173508  -0.00668812  -0.013664  -0.0179214  0.0451951  -0.0373423  -0.0719016  -0.0069025  -0.0225524 
1704192741.798334000  0  0  12.19  0.0900945  -0.18714  0.03224  nan  nan  nan  nan  nan  nan  -2.4946  -0.214494  1.03285  -0.0736828  -0.0518924  -0.00994402  0.0094565  0.345292  0.0948874  0  0  0  0.0099403  0.619921  0  0.0393231  -0.00718068  -0.03319  -0.016974  -0.00597085  -0.011003  -0.0188059  0.0449692  -0.0372552  -0.00717487  -0.0394357  -0.0304476 
1704192741.803172000  0  0  12.2468  0.100618  -0.201385  0.0339711  nan  nan  nan  nan  nan  nan  -2.49455  -0.21276  1.03333  -0.0710482  -0.0508392  -0.0102814  0.009512  0.34837  0.0948874  0  0  0  0.0122947  0.610926  0  0.0392341  -0.00725249  -0.0333053  -0.0175682  -0.00384979  -0.0157383  -0.0213887  0.0440169  -0.0374827  -0.00446077  -0.00218447  -0.0498107 
1704192741.808166000  0  0  12.2397  0.0940936  -0.209004  0.0311326  nan  nan  nan  nan  nan  nan  -2.4945  -0.21101  1.0338  -0.0710121  -0.050473  -0.0104342  0.0095799  0.351401  0.0948874  0  0  0  0.014899  0.601681  0  0.0393207  -0.00743045  -0.0334642  -0.0179808  -0.00452606  -0.0148383  -0.0210803  0.0441385  -0.0372673  0.00575159  0.0119343  -0.0164841 
1704192741.813119000  0  0  12.2146  0.0581484  -0.190999  0.0330426  nan  nan  nan  nan  nan  nan  -2.49446  -0.209246  1.03428  -0.0701407  -0.0500441  -0.0106335  0.0096614  0.354386  0.0948874  0  0  0  0.0177534  0.592186  0  0.0392425  -0.00747359  -0.0335257  -0.0181689  -0.00425755  -0.0126764  -0.0209884  0.043334  -0.0374897  0.0767965  -0.016674  -0.0381353 
1704192741.818166000  0  0  12.2972  0.0895084  -0.227743  0.0300714  nan  nan  nan  nan  nan  nan  -2.49441  -0.207466  1.03475  -0.067514  -0.0491362  -0.0109519  0.0097578  0.357323  0.0948874  0  0  0  0.0208578  0.582441  0  0.0392622  -0.0075342  -0.0337753  -0.0185803  -0.00243606  -0.0193128  -0.0234597  0.0434195  -0.0371656  0.0368119  0.0560256  -0.00423637 
