ts fx fy fz tx ty tz exfx exfy exfz extx exty extz xd yd zd rolld pitchd yawd vxd vyd vzd wxd wyd wzd axd ayd azd e_x e_y e_z e_vx e_vy e_vz e_rx e_ry e_rz e_wx e_wy e_wz
1701772521.149114000  0  0  11.916  -0.0621766  -0.099893  0.00770645  nan  nan  nan  nan  nan  nan  -2  -1  1.5  -0.0254878  -0.0129364  0.000329781  0  0  0  0  0  0  0  0  0  0.00669423  -0.0201617  -0.0181784  0.00226294  0.0110551  -0.00432826  0.0213487  0.0160843  -0.0120001  -0.072055  0.0518102  0.0236706 
1701772521.153092000  0  0  11.8754  -0.0846732  -0.0703003  0.00894655  nan  nan  nan  nan  nan  nan  -2  -1  1.5  -0.0251048  -0.0133195  0.000334442  0  0  0  0  0  0  0  0  0  0.00670615  -0.0201145  -0.0181643  0.00268359  0.0115711  -0.000973789  0.0212441  0.0159536  -0.0121  -0.0260993  -0.00617269  0.00916808 
1701772521.158129000  0  0  11.8671  -0.072365  -0.0772802  0.00933582  nan  nan  nan  nan  nan  nan  -2  -1  1.5  -0.0253972  -0.0135951  0.000345341  0  0  0  0  0  0  0  0  0  0.00677541  -0.0201532  -0.0181801  0.00288113  0.0112949  -0.000237927  0.0211513  0.0163501  -0.0121284  -0.0498618  0.00413999  0.00458617 
1701772521.163086000  0  0  11.8896  -0.0691054  -0.0747526  0.00936698  nan  nan  nan  nan  nan  nan  -2  -1  1.5  -0.0252144  -0.0135716  0.000342262  0  0  0  0  0  0  0  0  0  0.00678859  -0.0200986  -0.018204  0.00285453  0.0113519  -0.00205605  0.0206482  0.0163369  -0.0121043  -0.0517525  -0.000793956  0.00395584 
1701772521.168087000  0  0  11.8488  -0.0957823  -0.0348063  0.00996533  nan  nan  nan  nan  nan  nan  -2  -1  1.5  -0.0247684  -0.0137292  0.00034011  0  0  0  0  0  0  0  0  0  0.00680337  -0.0200382  -0.0181831  0.00296742  0.0119195  0.00130074  0.0206514  0.0155428  -0.0121854  0.00157181  -0.0733816  -0.00271277 
1701772521.173084000  0  0  11.86  -0.0758388  -0.0417701  0.00863891  nan  nan  nan  nan  nan  nan  -2  -1  1.5  -0.0246797  -0.0132272  0.000326501  0  0  0  0  0  0  0  0  0  0.00681176  -0.0199814  -0.0181921  0.00230354  0.0118795  0.00039709  0.020148  0.0149008  -0.0120068  -0.0336841  -0.0535468  0.0120817 
1701772521.178131000  0  0  11.8544  -0.087716  -0.022627  0.00816039  nan  nan  nan  nan  nan  nan  -2  -1  1.5  -0.0245281  -0.0133912  0.000328517  0  0  0  0  0  0  0  0  0  0.00682599  -0.0199221  -0.0181889  0.00247972  0.0119631  0.000859476  0.0200856  0.0143979  -0.0118928  -0.00935563  -0.0872071  0.0169234 
1701772521.183055000  0  0  11.8506  -0.103944  -0.00729114  0.00792971  nan  nan  nan  nan  nan  nan  -2  -1  1.5  -0.0247033  -0.0137447  0.000339599  0  0  0  0  0  0  0  0  0  0.00691698  -0.0199881  -0.0181872  0.00273774  0.0118896  0.00117702  0.0206371  0.0140176  -0.0118112  0.0180275  -0.11438  0.0189908 
1701772521.188051000  0  0  11.8465  -0.0891696  -0.0263556  0.00694088  nan  nan  nan  nan  nan  nan  -2  -1  1.5  -0.0254751  -0.0138591  0.000353128  0  0  0  0  0  0  0  0  0  0.00699769  -0.020053  -0.0181853  0.00270328  0.0110292  0.00152545  0.0210766  0.0141105  -0.0115974  -0.0155653  -0.0771054  0.029213 
1701772521.193117000  0  0  11.8419  -0.120233  -0.00499275  0.00705827  nan  nan  nan  nan  nan  nan  -2  -1  1.5  -0.0252106  -0.0138966  0.000350405  0  0  0  0  0  0  0  0  0  0.00701269  -0.0199957  -0.0181765  0.00271204  0.0112629  0.00188684  0.021457  0.0133247  -0.0114927  0.0430615  -0.112602  0.026699 
1701772521.198148000  0  0  11.8527  -0.12409  -0.0100608  0.00687101  nan  nan  nan  nan  nan  nan  -2  -1  1.5  -0.0256798  -0.0141269  0.000362843  0  0  0  0  0  0  0  0  0  0.00709264  -0.0200651  -0.0181755  0.00285488  0.0107691  0.000991336  0.0222385  0.0131701  -0.0113739  0.0435852  -0.101043  0.0278513 
1701772521.202151000  0  0  11.8538  -0.110828  -0.0245947  0.00630402  nan  nan  nan  nan  nan  nan  -2  -1  1.5  -0.025682  -0.0140636  0.00036125  0  0  0  0  0  0  0  0  0  0.00710402  -0.0200237  -0.0181722  0.00274797  0.0106709  0.000891957  0.0220908  0.0130789  -0.0111921  0.0184205  -0.0711366  0.0331203 
1701772521.208045000  0  0  11.8442  -0.139921  -0.0130311  0.00718173  nan  nan  nan  nan  nan  nan  -2  -1  1.5  -0.0259193  -0.0145133  0.000376245  0  0  0  0  0  0  0  0  0  0.00718451  -0.0200731  -0.0181559  0.00314674  0.0104954  0.00164696  0.023105  0.0129047  -0.0111699  0.0672766  -0.0926609  0.0219277 
1701772521.212118000  0  0  11.8564  -0.125039  -0.0320111  0.00788867  nan  nan  nan  nan  nan  nan  -2  -1  1.5  -0.0259686  -0.0143799  0.000373496  0  0  0  0  0  0  0  0  0  0.0071962  -0.0200324  -0.0181585  0.0029646  0.0103047  0.000635395  0.0231126  0.0128346  -0.0111855  0.0374431  -0.0540559  0.0132468 
1701772521.218145000  0  0  11.8445  -0.126339  -0.0444362  0.0079639  nan  nan  nan  nan  nan  nan  -2  -1  1.5  -0.0264063  -0.0148036  0.000390984  -6e-07  -6e-07  6e-07  0  0  0  -0.000375  -0.000375  0.000375  0.00727956  -0.0201043  -0.0181236  0.00327039  0.00987442  0.00159084  0.023681  0.013331  -0.0111247  0.0348137  -0.033773  0.0116979 
1701772521.223177000  0  0  11.8363  -0.142251  -0.0352552  0.00840195  nan  nan  nan  nan  nan  nan  -2  -1  1.5  -0.0265986  -0.0156275  0.000415752  -5e-06  -5e-06  5e-06  0  0  0  -0.0015  -0.0015  0.0014996  0.00736411  -0.0201702  -0.0181056  0.00400843  0.00964687  0.00234301  0.0244627  0.0137323  -0.0111679  0.059445  -0.0558263  0.0066546 
1701772521.228095000  0  0  11.8502  -0.120179  -0.0579339  0.00736568  nan  nan  nan  nan  nan  nan  -2  -1  1.5  -0.0263658  -0.015712  0.000414339  -1.69e-05  -1.69e-05  1.55e-05  0  0  0  -0.003375  -0.003375  0.0025892  0.00738192  -0.0201246  -0.0181053  0.00386173  0.00956886  0.00129217  0.0240205  0.0140665  -0.0109887  0.0193698  -0.0135443  0.0178156 
1701772521.233089000  0  0  11.8501  -0.133615  -0.0570352  0.00761375  nan  nan  nan  nan  nan  nan  -2  -1  1.5  -0.0265007  -0.0164575  0.000436317  -4e-05  -4e-05  2.96e-05  0  0  0  -0.006  -0.006  0.0029289  0.00746238  -0.0201881  -0.0180924  0.0043264  0.00919334  0.00129296  0.0245246  0.0147436  -0.0109565  0.0416046  -0.0215704  0.0143933 
1701772521.237099000  0  0  11.8393  -0.1381  -0.0484284  0.00779173  nan  nan  nan  nan  nan  nan  -2  -1  1.5  -0.0257349  -0.0170797  0.000439819  -7.81e-05  -7.81e-05  4.36e-05  0  0  0  -0.009375  -0.009375  0.0025185  0.00748188  -0.0201476  -0.0180789  0.00464541  0.00970742  0.00212865  0.0241011  0.0150104  -0.0109367  0.0544701  -0.0412392  0.0119707 
1701772521.243182000  0  0  11.8586  -0.103666  -0.0823047  0.00713687  nan  nan  nan  nan  nan  nan  -2  -1  1.5  -0.0257187  -0.0179202  0.00046136  -0.000135  -0.000135  5.36e-05  0  0  0  -0.0135  -0.0135  0.0013619  0.00760089  -0.0202134  -0.0180673  0.00499294  0.00928728  0.000385595  0.0235484  0.0164259  -0.0107693  -0.00931309  0.0134909  0.0184826 
1701772521.248247000  0  0  11.8333  -0.125387  -0.0656237  0.00766787  nan  nan  nan  nan  nan  nan  -2  -1  1.5  -0.0253957  -0.0192015  0.000488309  -0.0002144  -0.0002144  5.74e-05  0  0  0  -0.018375  -0.018375  0.0003076  0.00771487  -0.02027  -0.0180277  0.00574525  0.00928093  0.00230268  0.0236618  0.0173705  -0.0107721  0.0330854  -0.0285614  0.0118727 
1701772521.253117000  0  0  11.8292  -0.109066  -0.0703168  0.00781173  nan  nan  nan  nan  nan  nan  -2  -1  1.5  -0.0244427  -0.0198448  0.000485925  -0.00032  -0.00032  5.79e-05  0  0  0  -0.024  -0.024  -3.3e-06  0.00774073  -0.0202244  -0.0180157  0.00579721  0.00971788  0.00259564  0.0226054  0.0178957  -0.0107442  0.0101622  -0.0240066  0.00979572 
1701772521.258288000  0  0  11.8531  -0.0856868  -0.0830998  0.00780187  nan  nan  nan  nan  nan  nan  -2.00001  -1.00001  1.5  -0.0240013  -0.0207443  0.000498949  -0.0004549  -0.0004556  5.71e-05  0  0  0  -0.0298319  -0.030375  -0.0004491  0.00785662  -0.02027  -0.0180039  0.0060237  0.00951275  0.000543232  0.0216664  0.0190028  -0.01068  -0.0279577  -0.00862627  0.00927661 
1701772521.263058000  0  0  11.8296  -0.103084  -0.0623856  0.00838911  nan  nan  nan  nan  nan  nan  -2.00001  -1.00001  1.5  -0.0225764  -0.021642  0.000489844  -0.0006171  -0.000625  5.22e-05  0  0  0  -0.0349304  -0.0375  -0.0016448  0.00788578  -0.0202216  -0.0179824  0.00642508  0.0104211  0.00234131  0.0206415  0.0193022  -0.0107247  0.0162673  -0.0528088  0.00238324 
1701772521.268060000  0  0  11.8232  -0.0735654  -0.0730954  0.00819716  nan  nan  nan  nan  nan  nan  -2.00001  -1.00001  1.5  -0.0219265  -0.0226051  0.000497087  -0.0008029  -0.0008318  3.94e-05  0  0  0  -0.0392789  -0.0452796  -0.0035905  0.00799332  -0.0202707  -0.0179462  0.00687371  0.010396  0.00262817  0.0194851  0.0201946  -0.010687  -0.0321321  -0.0395994  0.00440509 
1701772521.273107000  0  0  11.8535  -0.0613238  -0.0905506  0.00783437  nan  nan  nan  nan  nan  nan  -2.00002  -1.00002  1.5  -0.0210471  -0.0231975  0.000489968  -0.0010086  -0.0010769  1.5e-05  0  0  0  -0.0428774  -0.0526197  -0.0062863  0.00810261  -0.0203027  -0.0179377  0.00702175  0.0106035  -0.00017584  0.0181976  0.021033  -0.0105979  -0.04477  -0.0124026  0.00804964 
1701772521.278251000  0  0  11.8085  -0.0807375  -0.0563407  0.00804986  nan  nan  nan  nan  nan  nan  -2.00002  -1.00002  1.5  -0.0204224  -0.0236704  0.000485429  -0.0012224  -0.0013394  -1.7e-05  0  0  0  -0.0425024  -0.0522447  -0.0066612  0.00813708  -0.0202504  -0.0179009  0.00749741  0.0114614  0.00347509  0.0179228  0.0205786  -0.010594  -0.00341471  -0.0766418  0.00531717 
1701772521.283107000  0  0  11.8308  -0.0479643  -0.0741168  0.00759901  nan  nan  nan  nan  nan  nan  -2.00003  -1.00003  1.5  -0.0204308  -0.0237462  0.000487475  -0.0014324  -0.0015981  -5.29e-05  0  0  0  -0.0413774  -0.0511197  -0.0077862  0.0082294  -0.0202541  -0.0179183  0.00759584  0.0115536  0.00154877  0.0172165  0.0207778  -0.0104871  -0.062463  -0.0429222  0.00988301 
1701772521.288200000  0  0  11.8439  -0.0686993  -0.057275  0.00812533  nan  nan  nan  nan  nan  nan  -2.00004  -1.00004  1.5  -0.0202712  -0.0238064  0.000485305  -0.0016349  -0.0018493  -9.62e-05  0  0  0  -0.0395024  -0.0492447  -0.0096612  0.0083113  -0.0202709  -0.0179114  0.00776945  0.0120138  0.000272569  0.0171768  0.0204158  -0.0105266  -0.020628  -0.073275  0.00369955 
1701772521.293201000  0  0  11.7992  -0.0692759  -0.0409788  0.00861111  nan  nan  nan  nan  nan  nan  -2.00004  -1.00005  1.5  -0.019965  -0.0237382  0.00047725  -0.0018262  -0.0020893  -0.0001507  0  0  0  -0.0368774  -0.0466197  -0.0122863  0.00834221  -0.0202082  -0.0178784  0.00783134  0.0127161  0.00368857  0.016869  0.0196277  -0.0105866  -0.0166433  -0.0986173  -0.00177293 
1701772521.298252000  0  0  11.8364  -0.0444062  -0.0597116  0.00751698  nan  nan  nan  nan  nan  nan  -2.00005  -1.00006  1.5  -0.0202617  -0.0233241  0.000476508  -0.0020024  -0.0023142  -0.0002203  0  0  0  -0.0335024  -0.0432447  -0.0156613  0.00842684  -0.0202059  -0.0179019  0.00763284  0.0126743  0.000313576  0.0165184  0.0192954  -0.0104318  -0.0631568  -0.0580947  0.0103555 
1701772521.303230000  0  0  11.8106  -0.0850385  -0.0249614  0.00767761  nan  nan  nan  nan  nan  nan  -2.00006  -1.00007  1.5  -0.0200892  -0.0229882  0.000466538  -0.0021599  -0.0025205  -0.0003086  0  0  0  -0.0293774  -0.0391197  -0.0197863  0.00846467  -0.0201418  -0.017883  0.00757336  0.0133493  0.00203283  0.0169564  0.0180175  -0.0104028  0.0140779  -0.115838  0.00805742 
1701772521.308093000  0  0  11.777  -0.0856143  -0.0196018  0.00783202  nan  nan  nan  nan  nan  nan  -2.00008  -1.00008  1.5  -0.0207898  -0.0227861  0.000479545  -0.0022949  -0.0027042  -0.0004194  0  0  0  -0.0245024  -0.0342447  -0.0246613  0.00855888  -0.0201755  -0.0178182  0.00764389  0.0132127  0.00423835  0.0176794  0.0172326  -0.0104224  0.00857832  -0.119336  0.00632345 
1701772521.312107000  0  0  11.7742  -0.0669283  -0.0291721  0.00740018  nan  nan  nan  nan  nan  nan  -2.00009  -1.0001  1.49999  -0.0211919  -0.02188  0.000470811  -0.0024037  -0.0028617  -0.0005564  0  0  0  -0.0188774  -0.0286197  -0.0302863  0.00858662  -0.0201154  -0.0178007  0.00711616  0.013286  0.00389469  0.0176605  0.0162061  -0.0103339  -0.0286196  -0.0907522  0.0108371 
1701772521.318142000  0  0  11.7632  -0.114964  -0.0003462  0.00761649  nan  nan  nan  nan  nan  nan  -2.0001  -1.00011  1.49999  -0.0217968  -0.0214222  0.000475873  -0.0024825  -0.0029891  -0.0007235  0  0  0  -0.0125024  -0.0222447  -0.0366613  0.00867161  -0.0201042  -0.0177813  0.00712637  0.0133198  0.00414832  0.0191869  0.0147472  -0.0103123  0.0534093  -0.134982  0.00791723 
1701772521.323119000  0  0  11.7399  -0.11361  0.00132564  0.00702609  nan  nan  nan  nan  nan  nan  -2.00011  -1.00013  1.49999  -0.0224513  -0.0205568  0.000472571  -0.0025275  -0.0030829  -0.0009243  0  0  0  -0.0053774  -0.0151197  -0.0437863  0.00870387  -0.0200348  -0.0177571  0.006791  0.0132886  0.00535097  0.0200278  0.0133013  -0.0102125  0.0429644  -0.125023  0.0142993 
1701772521.328106000  0  0  11.7688  -0.117183  -0.00962248  0.00697307  nan  nan  nan  nan  nan  nan  -2.00012  -1.00014  1.49998  -0.0234282  -0.0194652  0.000469889  -0.002535  -0.0031391  -0.0011626  0  0  0  0.0024976  -0.0072447  -0.0516613  0.00876542  -0.0200318  -0.0177323  0.00631097  0.0129488  0.00211858  0.0211382  0.0120708  -0.0101379  0.0398937  -0.0918062  0.0142158 
1701772521.333075000  0  0  11.7404  -0.158023  0.0171196  0.00774024  nan  nan  nan  nan  nan  nan  -2.00014  -1.00016  1.49998  -0.0245736  -0.0187092  0.000476918  -0.0025013  -0.0031541  -0.0014422  0  0  0  0.0111226  0.0013803  -0.0602863  0.00884077  -0.0200783  -0.0176521  0.00621159  0.0127453  0.00346374  0.0232723  0.0104337  -0.0102304  0.101941  -0.130229  0.00555062 
1701772521.338070000  0  0  11.7042  -0.15085  0.0109144  0.00762346  nan  nan  nan  nan  nan  nan  -2.00015  -1.00018  1.49997  -0.0262621  -0.0178974  0.000491405  -0.0024225  -0.003124  -0.0017667  0  0  0  0.0204976  0.0107553  -0.0696613  0.00890687  -0.0200962  -0.0176061  0.0061465  0.0118983  0.00547382  0.0251453  0.00930894  -0.0102143  0.0703629  -0.107471  0.00684999 
1701772521.343114000  0  0  11.7509  -0.165473  0.00380276  0.00782539  nan  nan  nan  nan  nan  nan  -2.00016  -1.00019  1.49996  -0.0269963  -0.0161942  0.000463571  -0.002295  -0.0030453  -0.00214  0  0  0  0.0306226  0.0208803  -0.0797863  0.00893105  -0.0200399  -0.0176273  0.00527004  0.0119843  0.000621448  0.0264176  0.00750041  -0.0102008  0.0879038  -0.0766093  0.00419088 
1701772521.348115000  0  0  11.6896  -0.191899  0.0243316  0.00884762  nan  nan  nan  nan  nan  nan  -2.00017  -1.00021  1.49995  -0.0284801  -0.0153069  0.000468443  -0.002115  -0.002914  -0.0025658  0  0  0  0.0414976  0.0317553  -0.0906613  0.0089761  -0.0200485  -0.0175616  0.00531392  0.0116625  0.00450375  0.0288126  0.00595819  -0.0103523  0.118722  -0.103479  -0.00707212 
1701772521.353106000  0  0  11.6568  -0.170114  0.00612809  0.00828394  nan  nan  nan  nan  nan  nan  -2.00018  -1.00022  1.49993  -0.0299348  -0.013706  0.000450096  -0.0018788  -0.0027265  -0.0030479  0  0  0  0.0531226  0.0433803  -0.102286  0.00899974  -0.019997  -0.0175224  0.00463447  0.0112676  0.00601663  0.0301689  0.00445375  -0.0103059  0.0626741  -0.0532307  -0.000490465 
1701772521.358129000  0  0  11.6939  -0.18655  0.00178349  0.00847857  nan  nan  nan  nan  nan  nan  -2.00019  -1.00023  1.49992  -0.0311842  -0.0120695  0.00042479  -0.0015826  -0.0024789  -0.00359  0  0  0  0.0654976  0.0557553  -0.114661  0.00904951  -0.0200003  -0.0175179  0.00405314  0.011124  0.00168914  0.0319308  0.00291839  -0.0103257  0.0793378  -0.0304161  -0.00272546 
1701772521.362150000  0  0  11.6457  -0.195819  0.0114876  0.00854476  nan  nan  nan  nan  nan  nan  -2.0002  -1.00024  1.4999  -0.0326472  -0.0107662  0.000409904  -0.0012226  -0.0021677  -0.0041958  0  0  0  0.0786226  0.0688803  -0.127786  0.00907389  -0.0199544  -0.0174799  0.00394424  0.0109888  0.00433028  0.0337668  0.0014301  -0.0103522  0.0809841  -0.0361321  -0.00328788 
1701772521.368098000  0  0  11.6362  -0.164998  -0.0143541  0.00738217  nan  nan  nan  nan  nan  nan  -2.0002  -1.00025  1.49987  -0.0346207  -0.0090311  0.000382884  -0.0007951  -0.0017889  -0.0048691  0  0  0  0.0924976  0.0827553  -0.141661  0.0091198  -0.0199898  -0.0174356  0.00338016  0.0103397  0.00368435  0.0352897  0.000329264  -0.0102122  0.00533136  0.0256789  0.00984496 
1701772521.373103000  0  0  11.6324  -0.179877  -0.00746295  0.0079862  nan  nan  nan  nan  nan  nan  -2.00021  -1.00026  1.49985  -0.0364511  -0.00748126  0.000356518  -0.0002963  -0.0013388  -0.0056136  0  0  0  0.107123  0.0973803  -0.156286  0.00916975  -0.0200368  -0.0173923  0.00315192  0.00997835  0.00246943  0.0373116  -0.000998387  -0.010278  0.0164873  0.0241111  0.00295288 
1701772521.378129000  0  0  11.5695  -0.168183  -0.0121306  0.00883401  nan  nan  nan  nan  nan  nan  -2.00021  -1.00027  1.49982  -0.0382287  -0.00589093  0.000324711  0.0002774  -0.0008138  -0.0064332  0  0  0  0.122498  0.112755  -0.171661  0.0091889  -0.0199819  -0.0173441  0.00299854  0.0098091  0.00612174  0.0387589  -0.00222279  -0.0103819  -0.0202162  0.0447109  -0.00660609 
1701772521.383110000  0  0  11.5958  -0.150864  -0.0403664  0.00934194  nan  nan  nan  nan  nan  nan  -2.0002  -1.00027  1.49978  -0.0402835  -0.00368997  0.000266025  0.0009299  -0.00021  -0.0073315  0  0  0  0.138623  0.12888  -0.187786  0.00921241  -0.0200278  -0.0173315  0.00220921  0.00923123  0.00234739  0.0401489  -0.00324854  -0.0104704  -0.0676413  0.110619  -0.0120707 
1701772521.387123000  0  0  11.5502  -0.160284  -0.0208865  0.0102965  nan  nan  nan  nan  nan  nan  -2.0002  -1.00027  1.49974  -0.0419936  -0.00169706  0.000209007  0.0016649  0.0004762  -0.0083123  0  0  0  0.155498  0.145755  -0.204661  0.00922817  -0.0199868  -0.0172935  0.00177595  0.00932593  0.00442844  0.0416729  -0.00502569  -0.0106294  -0.062822  0.0880094  -0.0224117 
1701772521.393113000  0  0  11.4842  -0.133177  -0.0304454  0.0104461  nan  nan  nan  nan  nan  nan  -2.00019  -1.00027  1.4997  -0.0442191  0.000280151  0.000148304  0.0024861  0.0012488  -0.0093793  0  0  0  0.173123  0.16338  -0.222286  0.00928082  -0.0199859  -0.0172109  0.0013982  0.00906642  0.0080896  0.042747  -0.00611036  -0.0107603  -0.126919  0.117106  -0.0229738 
1701772521.398137000  0  0  11.4929  -0.13139  -0.0429094  0.0103132  nan  nan  nan  nan  nan  nan  -2.00017  -1.00026  1.49965  -0.0466812  0.0025264  6.8679e-05  0.0033973  0.0021113  -0.0105364  0  0  0  0.191498  0.181755  -0.240661  0.0093116  -0.0200358  -0.0171781  0.000831513  0.00836031  0.00555135  0.0443637  -0.0071806  -0.0108363  -0.145366  0.15188  -0.0205515 
1701772521.403102000  0  0  11.4485  -0.140238  -0.0153563  0.0109177  nan  nan  nan  nan  nan  nan  -2.00015  -1.00024  1.49959  -0.0483638  0.00482126  -1.75557e-05  0.0044023  0.0030676  -0.0117872  0  0  0  0.210623  0.20088  -0.259786  0.00931723  -0.0199948  -0.0171309  0.000378837  0.00882749  0.00732442  0.0454789  -0.00916148  -0.0110004  -0.137929  0.114998  -0.0264669 
1701772521.408115000  0  0  11.4122  -0.104664  -0.0330071  0.00992822  nan  nan  nan  nan  nan  nan  -2.00013  -1.00023  1.49953  -0.0513815  0.00758172  -0.0001418  0.0055048  0.0041213  -0.0131355  0  0  0  0.230498  0.220755  -0.279661  0.00937497  -0.0200479  -0.0170437  -0.000669087  0.00787958  0.00833052  0.0468068  -0.0106651  -0.0109587  -0.221294  0.164133  -0.0145155 
1701772521.412122000  0  0  11.4  -0.113252  -0.0227052  0.00986764  nan  nan  nan  nan  nan  nan  -2.0001  -1.0002  1.49946  -0.0538449  0.0105232  -0.000283258  0.0067086  0.0052764  -0.0145851  0  0  0  0.251123  0.24138  -0.300286  0.00936542  -0.0200277  -0.0170123  -0.00170728  0.00744508  0.00732793  0.0484112  -0.0129043  -0.0109547  -0.218879  0.16413  -0.0137989 
1701772521.418133000  0  0  11.3526  -0.126801  0.00255212  0.010219  nan  nan  nan  nan  nan  nan  -2.00006  -1.00017  1.49939  -0.0563483  0.0129071  -0.000404746  0.0080173  0.0065364  -0.0161396  0  0  0  0.272498  0.262755  -0.321661  0.00941066  -0.0200524  -0.016934  -0.0020053  0.00738519  0.0091113  0.0498804  -0.0147141  -0.0110809  -0.205298  0.130266  -0.0169286 
1701772521.423119000  0  0  11.342  -0.0945079  -0.0220654  0.00900993  nan  nan  nan  nan  nan  nan  -2.00002  -1.00014  1.4993  -0.0594327  0.0161392  -0.000593783  0.0094348  0.0079052  -0.0178029  0  0  0  0.294623  0.28488  -0.343786  0.00945402  -0.0201066  -0.016843  -0.00331302  0.00654394  0.00778844  0.0510159  -0.0163906  -0.010935  -0.280331  0.194924  -0.00327377 
1701772521.428121000  0  0  11.2953  -0.11949  0.0131496  0.00942603  nan  nan  nan  nan  nan  nan  -1.99997  -1.00009  1.49921  -0.0620951  0.0196272  -0.000806641  0.0109648  0.0093864  -0.0195787  0  0  0  0.317498  0.307755  -0.366661  0.00943553  -0.0200783  -0.0167942  -0.00462541  0.00640306  0.0094438  0.052709  -0.0193888  -0.0109453  -0.245942  0.152078  -0.00837284 
1701772521.433116000  0  0  11.2451  -0.120841  0.0293049  0.00989736  nan  nan  nan  nan  nan  nan  -1.99991  -1.00004  1.4991  -0.0653873  0.0227215  -0.00102299  0.012611  0.010984  -0.0214708  0  0  0  0.341123  0.33138  -0.390286  0.0094702  -0.020096  -0.0166804  -0.00542341  0.00572666  0.0112105  0.0546262  -0.0218195  -0.0109729  -0.260879  0.14213  -0.0139876 
1701772521.438146000  0  0  11.2776  -0.104989  0.00588646  0.0098198  nan  nan  nan  nan  nan  nan  -1.99984  -0.999984  1.49899  -0.0680368  0.0265104  -0.00128616  0.0143772  0.0127015  -0.0234829  0  0  0  0.365498  0.355755  -0.414661  0.00943573  -0.020064  -0.0166778  -0.0070466  0.00525633  0.00630279  0.055463  -0.0240064  -0.0109199  -0.300281  0.209086  -0.0135488 
1701772521.443111000  0  0  11.2055  -0.140333  0.04711  0.010342  nan  nan  nan  nan  nan  nan  -1.99976  -0.999916  1.49887  -0.0719425  0.030071  -0.00158699  0.0162672  0.0145428  -0.0256187  0  0  0  0.390623  0.38088  -0.439786  0.00945716  -0.0201252  -0.0165576  -0.00809627  0.00431915  0.009734  0.0584474  -0.0271008  -0.0109716  -0.257051  0.155107  -0.0195596 
1701772521.448101000  0  0  11.1784  -0.137864  0.0534028  0.0102783  nan  nan  nan  nan  nan  nan  -1.99968  -0.999838  1.49874  -0.0757094  0.03375  -0.00191579  0.0182847  0.0165116  -0.027882  0  0  0  0.416498  0.406755  -0.465661  0.00947938  -0.0201834  -0.0164754  -0.00931137  0.00333468  0.00948658  0.0606795  -0.0298148  -0.0109755  -0.282523  0.16749  -0.0187244 
1701772521.453113000  0  0  11.2012  -0.133443  0.0413257  0.0103944  nan  nan  nan  nan  nan  nan  -1.99958  -0.99975  1.49859  -0.0790984  0.0378849  -0.00228977  0.0204335  0.0186116  -0.0302763  0  0  0  0.443123  0.43338  -0.492044  0.00942576  -0.0201702  -0.0164643  -0.0110186  0.0023485  0.00522061  0.0623233  -0.0324545  -0.0109341  -0.306489  0.21593  -0.0205883 
1701772521.458132000  0  0  11.127  -0.171682  0.0690154  0.0107485  nan  nan  nan  nan  nan  nan  -1.99947  -0.999652  1.49843  -0.0833576  0.0417493  -0.00270158  0.0227172  0.0208466  -0.0328013  0  0  0  0.470498  0.460755  -0.517817  0.00943961  -0.0202309  -0.0163454  -0.0120224  0.00141051  0.00881314  0.0656514  -0.0355052  -0.0109558  -0.260629  0.188617  -0.0247979 
1701772521.463071000  0  0  11.0854  -0.167627  0.0618051  0.0096572  nan  nan  nan  nan  nan  nan  -1.99935  -0.999542  1.49826  -0.0880897  0.045865  -0.00318588  0.0251397  0.0232204  -0.0354532  0  0  0  0.498623  0.48888  -0.542839  0.00944249  -0.0203063  -0.0162391  -0.0133239  -0.000216421  0.00989604  0.0686871  -0.0381768  -0.0107621  -0.296667  0.227616  -0.0130937 
1701772521.468113000  0  0  11.1038  -0.171808  0.0587816  0.00918978  nan  nan  nan  nan  nan  nan  -1.99922  -0.999419  1.49808  -0.0917459  0.0505676  -0.00370442  0.0277047  0.0257367  -0.0382284  0  0  0  0.527498  0.517755  -0.567112  0.00937206  -0.0203074  -0.0162327  -0.01539  -0.00114877  0.00626726  0.0706923  -0.0412721  -0.0105593  -0.306754  0.26214  -0.00927885 
1701772521.473113000  0  0  11.0407  -0.201564  0.0776235  0.00983736  nan  nan  nan  nan  nan  nan  -1.99908  -0.999284  1.49788  -0.0964236  0.0546997  -0.00425466  0.0304159  0.0283992  -0.0411231  0  0  0  0.557123  0.54738  -0.590635  0.00937276  -0.020378  -0.0161264  -0.0163465  -0.00224097  0.00927461  0.0741905  -0.0441535  -0.0105154  -0.279425  0.250965  -0.0178133 
1701772521.478131000  0  0  11.0225  -0.190668  0.0576355  0.00920678  nan  nan  nan  nan  nan  nan  -1.99892  -0.999135  1.49767  -0.101049  0.0595174  -0.0049055  0.0332772  0.0312117  -0.0441335  0  0  0  0.587498  0.577755  -0.613407  0.00928756  -0.0203937  -0.0160917  -0.0181014  -0.00371269  0.00887808  0.0768547  -0.0469028  -0.0102608  -0.325728  0.316235  -0.0124771 
1701772521.483064000  0  0  11.0438  -0.206412  0.0479288  0.00944488  nan  nan  nan  nan  nan  nan  -1.99874  -0.998972  1.49744  -0.105545  0.0640244  -0.00555512  0.0362921  0.034178  -0.0472559  0  0  0  0.618623  0.60888  -0.63543  0.00925341  -0.0204791  -0.0160373  -0.0197608  -0.00521548  0.00523096  0.0797402  -0.0492472  -0.0101013  -0.320786  0.357217  -0.017048 
1701772521.488060000  0  0  10.9793  -0.225592  0.0654054  0.00987155  nan  nan  nan  nan  nan  nan  -1.99855  -0.998793  1.49719  -0.11095  0.0684569  -0.00629572  0.0394646  0.0373018  -0.0504865  0  0  0  0.650498  0.640755  -0.656702  0.00923918  -0.0205762  -0.0159293  -0.0206627  -0.00667779  0.00869547  0.083569  -0.0519608  -0.00997456  -0.317651  0.347228  -0.0236488 
1701772521.493114000  0  0  10.9757  -0.206499  0.0305636  0.00945739  nan  nan  nan  nan  nan  nan  -1.99835  -0.998598  1.49693  -0.115852  0.07359  -0.00712425  0.0427984  0.0405868  -0.0538217  0  0  0  0.683123  0.67338  -0.677225  0.00913848  -0.0206119  -0.015902  -0.0225661  -0.0082399  0.00748339  0.0860977  -0.0542403  -0.00967697  -0.379102  0.437883  -0.0214477 
1701772521.498137000  0  0  10.9882  -0.226221  0.0322066  0.0097708  nan  nan  nan  nan  nan  nan  -1.99812  -0.998387  1.49666  -0.120859  0.0781504  -0.00793788  0.0462971  0.0440368  -0.0572575  0  0  0  0.716498  0.706755  -0.696998  0.00910106  -0.0207145  -0.0158671  -0.0239612  -0.00990249  0.00495462  0.0892324  -0.0563112  -0.00948765  -0.368496  0.45365  -0.0272585 
1701772521.503161000  0  0  10.9368  -0.233275  0.045971  0.00989929  nan  nan  nan  nan  nan  nan  -1.99788  -0.998158  1.49636  -0.125798  0.0833361  -0.00886619  0.0499643  0.0476554  -0.0607904  0  0  0  0.750312  0.740692  -0.71602  0.00898483  -0.0207576  -0.0158071  -0.0253253  -0.0106454  0.00778371  0.092183  -0.0592646  -0.00926241  -0.381534  0.453293  -0.0311171 
1701772521.508115000  0  0  10.9371  -0.206213  0.00994913  0.00922218  nan  nan  nan  nan  nan  nan  -1.99762  -0.99791  1.49605  -0.131429  0.0883022  -0.009875  0.053799  0.0514426  -0.0644165  0  0  0  0.783471  0.774066  -0.734293  0.00893199  -0.0208825  -0.0157455  -0.0271081  -0.0127806  0.00658998  0.0948811  -0.0609179  -0.00888264  -0.460481  0.540547  -0.0264509 
1701772521.512120000  0  0  10.9406  -0.228388  0.0273926  0.00945614  nan  nan  nan  nan  nan  nan  -1.99735  -0.997643  1.49572  -0.136602  0.093676  -0.0109483  0.0577977  0.0553948  -0.0681321  0  0  0  0.81588  0.806689  -0.751815  0.00877535  -0.0209869  -0.0156736  -0.0293192  -0.0145567  0.00504205  0.0982944  -0.0641941  -0.00856446  -0.447532  0.535801  -0.0325571 
1701772521.518129000  0  0  10.8983  -0.227335  0.0295896  0.00986379  nan  nan  nan  nan  nan  nan  -1.99705  -0.997356  1.49537  -0.141193  0.0977448  -0.0118301  0.0619566  0.0595083  -0.0719334  0  0  0  0.847539  0.838563  -0.768588  0.00873618  -0.0210705  -0.0156292  -0.0297497  -0.0150361  0.00755453  0.099957  -0.0650399  -0.00843094  -0.464933  0.539188  -0.0389881 
1701772521.523113000  0  0  10.9059  -0.198993  -0.00846398  0.00882259  nan  nan  nan  nan  nan  nan  -1.99673  -0.997048  1.495  -0.14643  0.102749  -0.0129497  0.0662719  0.0637792  -0.0758167  0  0  0  0.878448  0.869686  -0.784611  0.00866429  -0.0212046  -0.0155594  -0.0319078  -0.0169972  0.00611885  0.101802  -0.0662499  -0.00797365  -0.538598  0.626427  -0.030546 
1701772521.528113000  0  0  10.8605  -0.223347  0.0197648  0.00947423  nan  nan  nan  nan  nan  nan  -1.99638  -0.996718  1.49461  -0.151588  0.107686  -0.0140994  0.0707398  0.0682039  -0.0797783  0  0  0  0.908607  0.90006  -0.799883  0.00850102  -0.0212887  -0.0155023  -0.0332728  -0.0182008  0.00905313  0.104484  -0.0685035  -0.00771142  -0.514556  0.590703  -0.0413137 
1701772521.533113000  0  0  10.8597  -0.202302  0.0118401  0.00916941  nan  nan  nan  nan  nan  nan  -1.99602  -0.996365  1.4942  -0.155992  0.111926  -0.0151008  0.0753567  0.0727786  -0.0838143  0  0  0  0.938016  0.929683  -0.814406  0.00844145  -0.0214211  -0.0154246  -0.0345925  -0.0191865  0.00840974  0.105592  -0.0695344  -0.00746318  -0.566839  0.616036  -0.0399858 
1701772521.537118000  0  0  10.8788  -0.169621  -0.0096858  0.00811389  nan  nan  nan  nan  nan  nan  -1.99563  -0.99599  1.49377  -0.161228  0.117494  -0.0164493  0.0801187  0.0774995  -0.0879211  0  0  0  0.966675  0.958557  -0.828179  0.00821615  -0.0215776  -0.0153313  -0.0375781  -0.0215141  0.00629638  0.107435  -0.0719374  -0.00690686  -0.649159  0.681196  -0.032355 
1701772521.543108000  0  0  10.8413  -0.187351  0.0185797  0.00891777  nan  nan  nan  nan  nan  nan  -1.99522  -0.99559  1.49332  -0.165433  0.121292  -0.0174299  0.0850222  0.0823629  -0.0920948  0  0  0  0.994584  0.98668  -0.841201  0.00818057  -0.0216593  -0.0153111  -0.0381045  -0.0218696  0.00903261  0.107988  -0.0722713  -0.00679295  -0.618784  0.627736  -0.0435427 
1701772521.548113000  0  0  10.8537  -0.149793  0.00416152  0.0089592  nan  nan  nan  nan  nan  nan  -1.99478  -0.995166  1.49285  -0.16962  0.125386  -0.0184869  0.0900633  0.087365  -0.0963318  0  0  0  1.02174  1.01405  -0.853474  0.00808098  -0.021811  -0.0152518  -0.0396204  -0.0230068  0.00773845  0.108059  -0.0728844  -0.00659513  -0.694559  0.662213  -0.0460387 
1701772521.553112000  0  0  10.9137  -0.111325  -0.0246567  0.00854077  nan  nan  nan  nan  nan  nan  -1.99432  -0.994716  1.49236  -0.173188  0.129711  -0.0195327  0.0952384  0.0925022  -0.100628  0  0  0  1.04815  1.04068  -0.864996  0.00787961  -0.0219299  -0.0152612  -0.0419682  -0.0244434  0.00283157  0.107132  -0.0731755  -0.00631834  -0.76296  0.722528  -0.0435762 
1701772521.558128000  0  0  10.84  -0.143268  0.0105088  0.00966447  nan  nan  nan  nan  nan  nan  -1.99383  -0.994241  1.49184  -0.178318  0.133953  -0.0208063  0.100544  0.0977706  -0.104981  0  0  0  1.07381  1.06655  -0.875769  0.00776624  -0.022076  -0.0151569  -0.0426429  -0.0252635  0.00867447  0.108877  -0.0745192  -0.00614516  -0.715137  0.664559  -0.0593542 
1701772521.563109000  0  0  10.8643  -0.109512  -0.00481442  0.00946393  nan  nan  nan  nan  nan  nan  -1.99331  -0.993738  1.49131  -0.181994  0.138113  -0.0218993  0.105975  0.103166  -0.109385  0  0  0  1.09872  1.09167  -0.885792  0.00763803  -0.0222224  -0.0151207  -0.044657  -0.0262768  0.00677474  0.108101  -0.0750323  -0.00599309  -0.775506  0.699926  -0.0583682 
1701772521.568109000  0  0  10.9315  -0.0868914  -0.0183457  0.0097881  nan  nan  nan  nan  nan  nan  -1.99277  -0.993209  1.49075  -0.185287  0.141995  -0.0229119  0.11153  0.108686  -0.113837  0  0  0  1.12288  1.11605  -0.895064  0.00741367  -0.0223584  -0.0151326  -0.0469008  -0.0278251  0.00154915  0.106917  -0.0750697  -0.00591664  -0.809858  0.727333  -0.0631848 
1701772521.573111000  0  0  10.8604  -0.112738  0.0124332  0.0103301  nan  nan  nan  nan  nan  nan  -1.99219  -0.992651  1.49017  -0.19004  0.145961  -0.0241829  0.117203  0.114326  -0.118334  0  0  0  1.14629  1.13967  -0.903587  0.00728678  -0.0224971  -0.0150483  -0.0474403  -0.0284137  0.00750941  0.107919  -0.076108  -0.00578101  -0.76738  0.675327  -0.0713163 
1701772521.578133000  0  0  10.9336  -0.0843051  -0.0189233  0.00946776  nan  nan  nan  nan  nan  nan  -1.99159  -0.992065  1.48957  -0.192982  0.150046  -0.0252317  0.122991  0.120082  -0.122872  0  0  0  1.16895  1.16254  -0.911359  0.00703937  -0.0226417  -0.0150725  -0.0502266  -0.0298507  0.00202328  0.106388  -0.0761295  -0.00561335  -0.810156  0.738238  -0.0622135 
1701772521.583110000  0  0  10.9588  -0.0814214  -0.0185735  0.0103049  nan  nan  nan  nan  nan  nan  -1.99096  -0.99145  1.48894  -0.196575  0.153247  -0.026232  0.128891  0.12595  -0.127446  0  0  0  1.19086  1.18467  -0.918382  0.00688184  -0.0228019  -0.0150492  -0.0514797  -0.0311848  0.000408873  0.105696  -0.0756758  -0.00562094  -0.809559  0.733364  -0.0726021 
1701772521.587122000  0  0  10.8916  -0.11508  0.0175232  0.0108525  nan  nan  nan  nan  nan  nan  -1.99031  -0.990806  1.48829  -0.20228  0.158573  -0.028025  0.134898  0.131927  -0.132054  0  0  0  1.21202  1.20604  -0.924655  0.00655657  -0.0230519  -0.0148655  -0.0536499  -0.0328703  0.00617431  0.108445  -0.0787663  -0.00525222  -0.767534  0.689604  -0.0831343 
1701772521.593094000  0  0  10.974  -0.0853396  -0.0229012  0.0098589  nan  nan  nan  nan  nan  nan  -1.98962  -0.990131  1.48762  -0.203928  0.160722  -0.0285408  0.14101  0.138009  -0.136692  0  0  0  1.23242  1.22667  -0.930177  0.00645654  -0.023124  -0.0150085  -0.0548281  -0.0335301  0.000366791  0.105052  -0.0760666  -0.0053909  -0.795803  0.745615  -0.0693272 
1701772521.598050000  0  0  10.9793  -0.09649  -0.0131644  0.00904214  nan  nan  nan  nan  nan  nan  -1.98889  -0.989425  1.48692  -0.20765  0.163968  -0.0296391  0.147221  0.144192  -0.141355  0  0  0  1.25208  1.24654  -0.93495  0.00628752  -0.0232972  -0.0149598  -0.0561069  -0.0348382  0.000564497  0.104841  -0.0759337  -0.0051702  -0.77156  0.724919  -0.0613247 
1701772521.603109000  0  0  10.9685  -0.113327  0.00134229  0.00869206  nan  nan  nan  nan  nan  nan  -1.98814  -0.988689  1.48621  -0.211119  0.167789  -0.0308374  0.153529  0.150473  -0.14604  0  0  0  1.27099  1.26566  -0.938973  0.0060145  -0.0234604  -0.0149526  -0.0576707  -0.0355591  0.00222698  0.10472  -0.0765432  -0.00496338  -0.73677  0.701513  -0.059017 
1701772521.608095000  0  0  10.9931  -0.0985883  -0.0292482  0.00727272  nan  nan  nan  nan  nan  nan  -1.98736  -0.98792  1.48546  -0.214727  0.170884  -0.03193  0.15993  0.156848  -0.150743  0  0  0  1.28915  1.28404  -0.942245  0.00580563  -0.0236709  -0.0149266  -0.0592241  -0.0372455  0.00115371  0.104127  -0.0755817  -0.00457797  -0.760792  0.753849  -0.0451293 
1701772521.612119000  0  0  11.0039  -0.122892  -0.012374  0.00729826  nan  nan  nan  nan  nan  nan  -1.98654  -0.98712  1.4847  -0.219373  0.175296  -0.0335207  0.16642  0.163312  -0.155461  0  0  0  1.30656  1.30166  -0.944768  0.0053999  -0.0239811  -0.0147841  -0.0619643  -0.0396965  0.00105095  0.105828  -0.0773511  -0.00411555  -0.72783  0.736378  -0.0500728 
1701772521.618125000  0  0  11.0259  -0.13333  -0.00911314  0.0074199  nan  nan  nan  nan  nan  nan  -1.9857  -0.986287  1.48391  -0.220961  0.177018  -0.0339849  0.172995  0.169863  -0.16019  0  0  0  1.32322  1.31853  -0.94654  0.00529883  -0.0240582  -0.0149276  -0.062084  -0.0395  0.000369923  0.103506  -0.0750594  -0.00425399  -0.685598  0.708772  -0.0502088 
1701772521.623051000  0  0  11.0355  -0.119568  -0.0293889  0.00642442  nan  nan  nan  nan  nan  nan  -1.98481  -0.985421  1.4831  -0.224717  0.180216  -0.0351893  0.179651  0.176496  -0.164925  0  0  0  1.33913  1.33466  -0.947563  0.0050354  -0.0242939  -0.0149031  -0.0637081  -0.0412357  0.000774536  0.10331  -0.0744615  -0.0038341  -0.711318  0.743823  -0.0419643 
1701772521.628094000  0  0  11.0316  -0.147453  -0.0112275  0.00721607  nan  nan  nan  nan  nan  nan  -1.9839  -0.984522  1.48226  -0.227885  0.183334  -0.0362861  0.186385  0.183208  -0.169664  0  0  0  1.35429  1.35003  -0.947836  0.00472852  -0.0244922  -0.0148905  -0.0649525  -0.0421539  0.00218483  0.103375  -0.0743912  -0.00370884  -0.656139  0.706854  -0.0531124 
1701772521.633044000  0  0  11.0532  -0.146469  -0.0123592  0.00764106  nan  nan  nan  nan  nan  nan  -1.98295  -0.983589  1.4814  -0.230723  0.18571  -0.0371668  0.193192  0.189995  -0.174402  0  0  0  1.3687  1.36465  -0.947358  0.00447101  -0.0247335  -0.0148676  -0.0659713  -0.043342  0.00154264  0.102832  -0.0734844  -0.00365021  -0.653117  0.700775  -0.0590112 
1701772521.637124000  0  0  11.0488  -0.137137  -0.0246934  0.00680122  nan  nan  nan  nan  nan  nan  -1.98197  -0.982622  1.48052  -0.235275  0.190107  -0.0388736  0.20007  0.196854  -0.179137  0  0  0  1.38236  1.37853  -0.946131  0.00401748  -0.0250916  -0.0146943  -0.0687973  -0.0455943  0.00314936  0.104065  -0.0748159  -0.00307605  -0.683128  0.737693  -0.0542548 
1701772521.643094000  0  0  11.0151  -0.152358  -0.00263842  0.0078597  nan  nan  nan  nan  nan  nan  -1.98095  -0.98162  1.47961  -0.237361  0.191629  -0.0394361  0.207015  0.203779  -0.183863  0  0  0  1.39527  1.39165  -0.944153  0.00388213  -0.0252097  -0.0147683  -0.0679561  -0.0449944  0.00718327  0.10251  -0.0727467  -0.00327928  -0.638379  0.674547  -0.0654534 
1701772521.648056000  0  0  11.0687  -0.139868  -0.00902463  0.00820604  nan  nan  nan  nan  nan  nan  -1.9799  -0.980584  1.47868  -0.239446  0.193457  -0.0400778  0.214022  0.210769  -0.188577  0  0  0  1.40742  1.40402  -0.941426  0.0035877  -0.0254967  -0.0147394  -0.0691644  -0.046329  0.0040717  0.101158  -0.0713501  -0.00338349  -0.650916  0.67447  -0.0687405 
1701772521.653095000  0  0  11.0933  -0.120723  -0.0303783  0.00787789  nan  nan  nan  nan  nan  nan  -1.97881  -0.979513  1.47772  -0.241893  0.196286  -0.0410426  0.221088  0.217818  -0.193276  0  0  0  1.41883  1.41565  -0.937949  0.00323799  -0.0257246  -0.0147247  -0.0710033  -0.0474768  0.00361809  0.0998135  -0.0704331  -0.00330421  -0.676839  0.708741  -0.0654315 
1701772521.658128000  0  0  11.0328  -0.149272  0.00453062  0.00816598  nan  nan  nan  nan  nan  nan  -1.97769  -0.978406  1.47674  -0.24536  0.1987  -0.0421331  0.228209  0.224924  -0.197955  0  0  0  1.42949  1.42652  -0.933721  0.0029563  -0.026005  -0.0146181  -0.0707819  -0.0476651  0.00978972  0.100301  -0.0702995  -0.00317543  -0.624228  0.637694  -0.0703204 
1701772521.663093000  0  0  11.0961  -0.130128  -0.00656092  0.00739216  nan  nan  nan  nan  nan  nan  -1.97653  -0.977263  1.47574  -0.246546  0.200477  -0.042601  0.235381  0.232082  -0.202612  0  0  0  1.4394  1.43664  -0.928744  0.00258996  -0.0262534  -0.0146093  -0.0722576  -0.0485991  0.00606332  0.0981148  -0.0689007  -0.00328243  -0.642399  0.647008  -0.0595776 
1701772521.668056000  0  0  11.137  -0.116766  -0.0205787  0.00681513  nan  nan  nan  nan  nan  nan  -1.97533  -0.976085  1.47472  -0.248368  0.202969  -0.0433855  0.242602  0.239289  -0.207241  0  0  0  1.44856  1.44602  -0.923017  0.00220773  -0.0265071  -0.0145921  -0.0742596  -0.0497137  0.00437965  0.0964371  -0.0679963  -0.00323124  -0.653688  0.666723  -0.0528768 
1701772521.673094000  0  0  11.0433  -0.143803  0.0172204  0.00728117  nan  nan  nan  nan  nan  nan  -1.9741  -0.97487  1.47367  -0.251397  0.205554  -0.0444638  0.249866  0.246541  -0.21184  0  0  0  1.45697  1.45464  -0.916539  0.00186055  -0.0267339  -0.0144893  -0.0735708  -0.0488434  0.0133734  0.0966458  -0.068258  -0.00313154  -0.601536  0.593533  -0.0596993 
1701772521.678131000  0  0  11.139  -0.111776  -0.00585734  0.00680015  nan  nan  nan  nan  nan  nan  -1.97283  -0.973619  1.4726  -0.251738  0.206681  -0.0446018  0.25717  0.253834  -0.216405  0  0  0  1.46463  1.46251  -0.909312  0.00148649  -0.02698  -0.0145034  -0.0752329  -0.0500294  0.00717408  0.0935334  -0.0661118  -0.00338549  -0.636956  0.619943  -0.0511471 
1701772521.683067000  0  0  11.1742  -0.103171  -0.0182039  0.00632332  nan  nan  nan  nan  nan  nan  -1.97153  -0.972332  1.47151  -0.253111  0.208736  -0.0452008  0.264511  0.261165  -0.220932  0  0  0  1.47154  1.46964  -0.901334  0.00109586  -0.0272447  -0.0144672  -0.07683  -0.050786  0.00599174  0.0916123  -0.0649673  -0.00339325  -0.636491  0.634107  -0.045109 
1701772521.687099000  0  0  11.0925  -0.13626  0.0180875  0.00614324  nan  nan  nan  nan  nan  nan  -1.97019  -0.971008  1.47039  -0.258152  0.211761  -0.0468727  0.271884  0.26853  -0.225417  0  0  0  1.4777  1.47601  -0.892607  0.000618032  -0.0278362  -0.0140544  -0.0771264  -0.0520008  0.0138997  0.0942343  -0.0664231  -0.00277192  -0.594436  0.574918  -0.0490714 
1701772521.693113000  0  0  11.2129  -0.0924952  -0.0209956  0.00643945  nan  nan  nan  nan  nan  nan  -1.96881  -0.969647  1.46925  -0.256634  0.210707  -0.0460433  0.279286  0.275924  -0.229857  0  0  0  1.48311  1.48164  -0.88313  0.000456713  -0.027974  -0.0142602  -0.0772586  -0.0524611  0.00586674  0.0888335  -0.0614368  -0.00347783  -0.632278  0.60721  -0.0457149 
1701772521.698129000  0  0  11.2453  -0.0953025  -0.0315285  0.00727269  nan  nan  nan  nan  nan  nan  -1.96739  -0.968248  1.46809  -0.25743  0.212167  -0.0463759  0.286714  0.283345  -0.234248  0  0  0  1.48776  1.48651  -0.872902  7.49849e-05  -0.0283228  -0.0141953  -0.0783318  -0.0526513  0.00487923  0.0866709  -0.0597989  -0.00372475  -0.606767  0.613207  -0.0536611 
1701772521.703112000  0  0  11.1611  -0.106458  -0.00976426  0.00821542  nan  nan  nan  nan  nan  nan  -1.96594  -0.966813  1.46691  -0.259482  0.213488  -0.0469586  0.294163  0.290788  -0.238585  0  0  0  1.49167  1.49063  -0.861925  -0.000296357  -0.0285755  -0.0140841  -0.0766557  -0.0514644  0.0132193  0.0859988  -0.0587983  -0.00387481  -0.578273  0.560473  -0.0639447 
1701772521.708094000  0  0  11.2479  -0.0772853  -0.0466514  0.0084635  nan  nan  nan  nan  nan  nan  -1.96445  -0.965341  1.46571  -0.259976  0.213931  -0.0469651  0.301629  0.29825  -0.242866  0  0  0  1.49483  1.49401  -0.850197  -0.000681018  -0.0289582  -0.0140264  -0.0779054  -0.0530199  0.00792237  0.0831999  -0.0559532  -0.00423434  -0.610869  0.608072  -0.0634503 
1701772521.712119000  0  0  11.321  -0.084416  -0.0620012  0.00922479  nan  nan  nan  nan  nan  nan  -1.96293  -0.963831  1.46448  -0.26122  0.215952  -0.0475535  0.30911  0.305727  -0.247086  0  0  0  1.49724  1.49663  -0.83772  -0.00129622  -0.02947  -0.0137904  -0.0805418  -0.0547674  0.00366632  0.0821535  -0.055252  -0.0044269  -0.58698  0.632321  -0.0710409 
1701772521.718128000  0  0  11.2268  -0.0908739  -0.0448261  0.00975618  nan  nan  nan  nan  nan  nan  -1.96136  -0.962283  1.46324  -0.261313  0.215257  -0.0471737  0.316601  0.313215  -0.251241  0  0  0  1.4989  1.4985  -0.824493  -0.00142498  -0.0295687  -0.0138801  -0.0766815  -0.051822  0.0128361  0.079371  -0.0516172  -0.00502223  -0.548465  0.56453  -0.0717299 
1701772521.723113000  0  0  11.3225  -0.0639339  -0.0849915  0.0086789  nan  nan  nan  nan  nan  nan  -1.95976  -0.960698  1.46197  -0.261219  0.215331  -0.0469516  0.324098  0.32071  -0.255329  0  0  0  1.49981  1.49963  -0.810515  -0.00182198  -0.0299557  -0.0138263  -0.0779196  -0.0532816  0.00687805  0.0762639  -0.0483196  -0.00532848  -0.573761  0.614524  -0.0552014 
1701772521.728119000  0  0  11.36  -0.0730926  -0.0997372  0.00938037  nan  nan  nan  nan  nan  nan  -1.95812  -0.959076  1.46068  -0.260413  0.21558  -0.0466126  0.331597  0.32821  -0.259345  0  0  0  1.5  1.5  -0.795788  -0.00221138  -0.0302145  -0.0137978  -0.0780423  -0.0526731  0.00547199  0.0732116  -0.0452953  -0.00591949  -0.527362  0.616192  -0.0580597 
1701772521.733094000  0  0  11.2773  -0.078132  -0.0783763  0.00900223  nan  nan  nan  nan  nan  nan  -1.95644  -0.957416  1.45938  -0.262048  0.215939  -0.0468602  0.339097  0.33571  -0.263286  0  0  0  1.5  1.5  -0.780311  -0.00259703  -0.0305768  -0.0136457  -0.0756146  -0.0514432  0.013768  0.0724253  -0.0434504  -0.00596369  -0.510049  0.556496  -0.052891 
1701772521.737119000  0  0  11.3565  -0.061108  -0.0967344  0.00809172  nan  nan  nan  nan  nan  nan  -1.95473  -0.955719  1.45805  -0.263252  0.217345  -0.0472846  0.346597  0.34321  -0.267147  0  0  0  1.5  1.5  -0.764083  -0.00324608  -0.0311282  -0.013383  -0.0778619  -0.0536515  0.00923412  0.0712144  -0.0423659  -0.00593714  -0.532957  0.583235  -0.0417751 
1701772521.743095000  0  0  11.3935  -0.071527  -0.10415  0.00884344  nan  nan  nan  nan  nan  nan  -1.95298  -0.953984  1.4567  -0.260785  0.216061  -0.0461628  0.354097  0.35071  -0.270926  0  0  0  1.5  1.5  -0.747106  -0.00338049  -0.0312236  -0.0135331  -0.0764734  -0.0516653  0.00787906  0.0665851  -0.0377211  -0.00682787  -0.469529  0.555335  -0.0422643 
1701772521.748093000  0  0  11.3106  -0.0706146  -0.0730909  0.00857881  nan  nan  nan  nan  nan  nan  -1.95119  -0.952212  1.45534  -0.2625  0.216224  -0.0463781  0.361597  0.35821  -0.274617  0  0  0  1.5  1.5  -0.729378  -0.00376554  -0.0316011  -0.0133512  -0.0738068  -0.0505271  0.016286  0.0659958  -0.0362146  -0.00680529  -0.465932  0.479356  -0.0391822 
1701772521.753097000  0  0  11.4083  -0.0582573  -0.096046  0.00802069  nan  nan  nan  nan  nan  nan  -1.94936  -0.950402  1.45396  -0.261028  0.215981  -0.0457578  0.369097  0.36571  -0.278218  0  0  0  1.5  1.5  -0.710901  -0.004153  -0.0318627  -0.0133412  -0.074771  -0.050934  0.0102499  0.0624037  -0.0332307  -0.0073168  -0.457599  0.497815  -0.0270905 
1701772521.758131000  0  0  11.3982  -0.0842131  -0.078728  0.00863995  nan  nan  nan  nan  nan  nan  -1.9475  -0.948555  1.45256  -0.261476  0.216726  -0.0458345  0.376597  0.37321  -0.281772  0  0  0  1.5  1.5  -0.710526  -0.0045466  -0.0322345  -0.0132277  -0.0745298  -0.0502824  0.0111983  0.0613165  -0.032075  -0.00755211  -0.395686  0.452546  -0.0324782 
1701772521.763096000  0  0  11.3045  -0.0852572  -0.0358756  0.00852192  nan  nan  nan  nan  nan  nan  -1.9456  -0.94667  1.45114  -0.262728  0.216962  -0.0459642  0.384097  0.38071  -0.285322  0  0  0  1.5  1.5  -0.709401  -0.00490521  -0.0324862  -0.0130881  -0.071728  -0.0485841  0.0188045  0.0607065  -0.031274  -0.00762321  -0.387986  0.359472  -0.0302919 
1701772521.768095000  0  0  11.3758  -0.0914327  -0.0485051  0.00741882  nan  nan  nan  nan  nan  nan  -1.94366  -0.944748  1.4497  -0.262385  0.217534  -0.0458151  0.391597  0.38821  -0.288865  0  0  0  1.5  1.5  -0.707526  -0.0053241  -0.0328823  -0.0129812  -0.0731416  -0.0492324  0.0133076  0.0588411  -0.0299824  -0.00779  -0.358472  0.372848  -0.0148353 
1701772521.773059000  0  0  11.3503  -0.119531  -0.0321901  0.00727918  nan  nan  nan  nan  nan  nan  -1.94168  -0.942788  1.44825  -0.263557  0.218244  -0.0460519  0.399097  0.39571  -0.292396  0  0  0  1.5  1.5  -0.704901  -0.00575105  -0.033282  -0.0128231  -0.0724667  -0.0489581  0.0156752  0.0589137  -0.0293987  -0.00773766  -0.302943  0.334848  -0.0136131 
1701772521.778129000  0  0  11.2972  -0.124904  0.013092  0.00791436  nan  nan  nan  nan  nan  nan  -1.93967  -0.940791  1.44678  -0.263665  0.218025  -0.0457996  0.406597  0.40321  -0.295912  0  0  0  1.5  1.5  -0.701526  -0.0060692  -0.033492  -0.0127256  -0.0700883  -0.0471946  0.0200418  0.057809  -0.0286709  -0.00805736  -0.282034  0.237588  -0.0183559 
1701772521.783095000  0  0  11.3795  -0.123236  -0.00203908  0.0071975  nan  nan  nan  nan  nan  nan  -1.93761  -0.938756  1.44529  -0.263322  0.219138  -0.0457926  0.414097  0.41071  -0.29941  0  0  0  1.5  1.5  -0.697401  -0.00654505  -0.033937  -0.0125726  -0.0723559  -0.0479949  0.0138683  0.0562842  -0.0284468  -0.00822459  -0.271344  0.265789  -0.00772287 
1701772521.788099000  0  0  11.3297  -0.136856  0.0198475  0.00733886  nan  nan  nan  nan  nan  nan  -1.93553  -0.936684  1.44379  -0.263918  0.219424  -0.0457869  0.421597  0.41821  -0.302885  0  0  0  1.5  1.5  -0.692526  -0.00688415  -0.0341703  -0.0124656  -0.0706928  -0.0467903  0.0182673  0.0559082  -0.027926  -0.00833398  -0.240643  0.217224  -0.00839604 
1701772521.793095000  0  0  11.3116  -0.15207  0.057299  0.00790255  nan  nan  nan  nan  nan  nan  -1.9334  -0.934574  1.44226  -0.264327  0.219596  -0.0457082  0.429097  0.42571  -0.306334  0  0  0  1.5  1.5  -0.686901  -0.00729849  -0.03452  -0.0123115  -0.0694939  -0.0460135  0.0200601  0.0555574  -0.0280617  -0.00853846  -0.206989  0.14357  -0.0133972 
1701772521.798130000  0  0  11.4067  -0.146693  0.0256156  0.00723197  nan  nan  nan  nan  nan  nan  -1.93123  -0.932426  1.44072  -0.264957  0.221364  -0.0461027  0.436597  0.43321  -0.309753  0  0  0  1.5  1.5  -0.680526  -0.00790763  -0.035164  -0.0120793  -0.0727156  -0.0478059  0.0132309  0.0551134  -0.0286828  -0.00842282  -0.213658  0.212651  -0.00617144 
1701772521.803125000  0  0  11.3193  -0.155435  0.0500674  0.00781727  nan  nan  nan  nan  nan  nan  -1.92903  -0.930242  1.43917  -0.265644  0.221333  -0.0460375  0.444097  0.44071  -0.313138  0  0  0  1.5  1.5  -0.673401  -0.00824558  -0.035391  -0.0119418  -0.0697124  -0.0457017  0.0206855  0.0549561  -0.0281607  -0.00857803  -0.194725  0.158944  -0.0119356 
1701772521.808120000  0  0  11.3463  -0.173424  0.0691433  0.00814341  nan  nan  nan  nan  nan  nan  -1.92679  -0.928019  1.43759  -0.265432  0.221178  -0.0457289  0.451597  0.44821  -0.316486  0  0  0  1.5  1.5  -0.665526  -0.00866446  -0.0357538  -0.0117946  -0.0691656  -0.0454797  0.0189689  0.0544  -0.0278865  -0.00889578  -0.153632  0.11827  -0.0128349 
1701772521.812134000  0  0  11.4504  -0.15826  0.030037  0.00757442  nan  nan  nan  nan  nan  nan  -1.92452  -0.92576  1.436  -0.2657  0.222772  -0.0459959  0.459097  0.45571  -0.319792  0  0  0  1.5  1.5  -0.656901  -0.00940609  -0.036392  -0.0114767  -0.0720881  -0.0471401  0.0113822  0.053733  -0.0280673  -0.00896554  -0.177823  0.198146  -0.00502481 
1701772521.818135000  0  0  11.3669  -0.151831  0.0311656  0.00796998  nan  nan  nan  nan  nan  nan  -1.9222  -0.923462  1.43439  -0.264104  0.220454  -0.0447928  0.466597  0.46321  -0.323053  0  0  0  1.5  1.5  -0.647526  -0.00939118  -0.0362956  -0.0115945  -0.0668571  -0.0434556  0.0184274  0.0514015  -0.0247586  -0.00951818  -0.169232  0.165448  -0.00444291 
1701772521.823122000  0  0  11.4045  -0.155699  0.0244289  0.00852668  nan  nan  nan  nan  nan  nan  -1.91985  -0.921127  1.43277  -0.263607  0.220408  -0.0444485  0.474097  0.47071  -0.326266  0  0  0  1.5  1.5  -0.637401  -0.00982734  -0.0366733  -0.0114507  -0.0666422  -0.0431341  0.0160879  0.0504156  -0.0239784  -0.00986757  -0.152426  0.171743  -0.00790788 
1701772521.828116000  0  0  11.5133  -0.126353  -0.0343424  0.00871748  nan  nan  nan  nan  nan  nan  -1.91746  -0.918755  1.43113  -0.261119  0.219422  -0.0433966  0.481597  0.47821  -0.329426  0  0  0  1.5  1.5  -0.626526  -0.0101759  -0.0368974  -0.0114382  -0.0670141  -0.0428684  0.00796804  0.0470339  -0.0207922  -0.0105569  -0.180005  0.259973  -0.00339916 
1701772521.833118000  0  0  11.4176  -0.135089  -0.0187645  0.00940653  nan  nan  nan  nan  nan  nan  -1.91503  -0.916345  1.42948  -0.261968  0.218764  -0.0432085  0.489097  0.48571  -0.33253  0  0  0  1.5  1.5  -0.614901  -0.0105586  -0.0372273  -0.0112572  -0.0629402  -0.0406114  0.0163342  0.0472445  -0.0194311  -0.0106608  -0.164471  0.216295  -0.0109735 
1701772521.837139000  0  0  11.4407  -0.140365  -0.0253131  0.00902289  nan  nan  nan  nan  nan  nan  -1.91257  -0.913898  1.42781  -0.263058  0.219961  -0.0435624  0.496597  0.49321  -0.335574  0  0  0  1.5  1.5  -0.602526  -0.0112952  -0.037872  -0.0108801  -0.0634036  -0.0410067  0.0154158  0.0476895  -0.0196524  -0.0105985  -0.158014  0.231428  -0.00680104 
1701772521.843121000  0  0  11.5135  -0.108964  -0.0770292  0.00942631  nan  nan  nan  nan  nan  nan  -1.91007  -0.911413  1.42612  -0.258971  0.217271  -0.0417057  0.504097  0.50071  -0.338554  0  0  0  1.5  1.5  -0.589401  -0.0112385  -0.0377646  -0.0110814  -0.0614791  -0.038776  0.0101271  0.0428132  -0.0145782  -0.0116088  -0.175953  0.288178  -0.00174062 
1701772521.848116000  0  0  11.4502  -0.113034  -0.0593315  0.00984907  nan  nan  nan  nan  nan  nan  -1.90753  -0.908891  1.42442  -0.259289  0.216441  -0.041355  0.511597  0.50821  -0.341467  0  0  0  1.5  1.5  -0.575526  -0.0116079  -0.0380877  -0.0109019  -0.0579937  -0.0368366  0.016028  0.0425028  -0.0129932  -0.0117681  -0.164959  0.2382  -0.00543214 
1701772521.853117000  0  0  11.5081  -0.0954801  -0.0843281  0.00974268  nan  nan  nan  nan  nan  nan  -1.90495  -0.906331  1.42271  -0.256814  0.215544  -0.0403508  0.519097  0.51571  -0.344308  0  0  0  1.5  1.5  -0.560901  -0.0119098  -0.0382696  -0.0108656  -0.0573311  -0.0352333  0.0121824  0.0393493  -0.0104427  -0.0124082  -0.171053  0.264729  0.00229903 
1701772521.858138000  0  0  11.5082  -0.0769497  -0.0975054  0.00894249  nan  nan  nan  nan  nan  nan  -1.90234  -0.903734  1.42098  -0.256586  0.215036  -0.0399624  0.526597  0.52321  -0.347075  0  0  0  1.5  1.5  -0.545526  -0.0122874  -0.0386181  -0.0107049  -0.0557443  -0.0342911  0.0132344  0.0380892  -0.00854364  -0.0124664  -0.196521  0.273612  0.0128831 
1701772521.862169000  0  0  11.4768  -0.0866486  -0.0646763  0.00888363  nan  nan  nan  nan  nan  nan  -1.89969  -0.901099  1.41924  -0.258025  0.215963  -0.0403229  0.534097  0.53071  -0.349762  0  0  0  1.5  1.5  -0.529401  -0.0130146  -0.0392614  -0.0102836  -0.0545815  -0.0336477  0.0168941  0.0388122  -0.00914033  -0.0123064  -0.183775  0.213444  0.0120187 
1701772521.868116000  0  0  11.5771  -0.067555  -0.086816  0.00877843  nan  nan  nan  nan  nan  nan  -1.897  -0.898427  1.41748  -0.253585  0.213527  -0.0384918  0.541597  0.53821  -0.352367  0  0  0  1.5  1.5  -0.512526  -0.0129593  -0.0391343  -0.0104917  -0.0536224  -0.0317036  0.00970934  0.0338527  -0.00525244  -0.0132174  -0.176334  0.221954  0.0224432 
1701772521.873119000  0  0  11.5434  -0.0617124  -0.0729235  0.00890288  nan  nan  nan  nan  nan  nan  -1.89427  -0.895717  1.41571  -0.253396  0.213024  -0.0381209  0.549097  0.54571  -0.354886  0  0  0  1.5  1.5  -0.494901  -0.0132921  -0.0394358  -0.0103037  -0.0513464  -0.030002  0.0135756  0.032864  -0.00412414  -0.0133209  -0.178924  0.183789  0.0219233 
1701772521.878140000  0  0  11.5629  -0.0741678  -0.0408107  0.0100519  nan  nan  nan  nan  nan  nan  -1.89151  -0.89297  1.41393  -0.251308  0.211423  -0.0370514  0.556597  0.55321  -0.357315  0  0  0  1.5  1.5  -0.476526  -0.0135259  -0.039569  -0.0102453  -0.0490347  -0.0279747  0.0129548  0.0306374  -0.0024582  -0.0139565  -0.133528  0.104237  0.0139166 
1701772521.883122000  0  0  11.6814  -0.0613983  -0.0625298  0.00981431  nan  nan  nan  nan  nan  nan  -1.8887  -0.890185  1.41214  -0.249607  0.211379  -0.0364636  0.564097  0.56071  -0.35965  0  0  0  1.5  1.5  -0.457401  -0.0139358  -0.0399059  -0.0101595  -0.0507024  -0.0284  0.00492389  0.0284187  -0.00155808  -0.0143241  -0.138656  0.139394  0.0205623 
1701772521.887127000  0  0  11.6364  -0.0725948  -0.039657  0.0095748  nan  nan  nan  nan  nan  nan  -1.88587  -0.887363  1.41034  -0.251386  0.212434  -0.0369285  0.571597  0.56821  -0.361888  0  0  0  1.5  1.5  -0.437526  -0.0146794  -0.0405738  -0.00972465  -0.0493962  -0.0277866  0.0100914  0.0296809  -0.00251518  -0.0140424  -0.127875  0.102454  0.0207393 
1701772521.893126000  0  0  11.6318  -0.0895672  -0.00298998  0.0107459  nan  nan  nan  nan  nan  nan  -1.88299  -0.884503  1.40852  -0.247855  0.209149  -0.0351336  0.579097  0.57571  -0.364024  0  0  0  1.5  1.5  -0.416901  -0.0144553  -0.0402993  -0.00991864  -0.0452575  -0.0244495  0.0114735  0.0265712  0.000166245  -0.0149365  -0.065321  0.0044505  0.0150407 
1701772521.898144000  0  0  11.7414  -0.0812602  -0.0256014  0.0103317  nan  nan  nan  nan  nan  nan  -1.88007  -0.881605  1.4067  -0.246109  0.20881  -0.034474  0.586597  0.58321  -0.366056  0  0  0  1.5  1.5  -0.395526  -0.0147803  -0.0405723  -0.00985996  -0.0464929  -0.0247125  0.00432507  0.024692  0.000966847  -0.0152849  -0.0646462  0.0423079  0.0237025 
1701772521.903122000  0  0  11.6599  -0.106292  0.00843437  0.010024  nan  nan  nan  nan  nan  nan  -1.87712  -0.878671  1.40486  -0.245677  0.207398  -0.0338435  0.594097  0.59071  -0.367978  0  0  0  1.5  1.5  -0.373401  -0.0149917  -0.0406927  -0.00973561  -0.0422091  -0.0219898  0.0122762  0.0246456  0.0018061  -0.0153861  -0.0141551  -0.0334848  0.0285602 
1701772521.908123000  0  0  11.7131  -0.133027  0.0226135  0.0090896  nan  nan  nan  nan  nan  nan  -1.87413  -0.875698  1.40302  -0.244782  0.207432  -0.0334684  0.601597  0.59821  -0.369788  0  0  0  1.5  1.5  -0.350526  -0.0153965  -0.0410265  -0.00959364  -0.0424835  -0.0216114  0.00979443  0.024576  0.00110171  -0.015452  0.039954  -0.0553628  0.0408998 
1701772521.912128000  0  0  11.808  -0.127602  0.00510839  0.00729886  nan  nan  nan  nan  nan  nan  -1.87111  -0.872689  1.40116  -0.245306  0.2086  -0.0336819  0.609097  0.60571  -0.371482  0  0  0  1.5  1.5  -0.326901  -0.0161784  -0.0417244  -0.00922756  -0.0444492  -0.0231097  0.00415269  0.0250592  0.000232098  -0.0151282  0.0246587  -0.0123521  0.0600466 
1701772521.918148000  0  0  11.7228  -0.151157  0.0405907  0.00780794  nan  nan  nan  nan  nan  nan  -1.86804  -0.869641  1.3993  -0.242844  0.205327  -0.0321661  0.616597  0.61321  -0.373056  0  0  0  1.5  1.5  -0.302526  -0.0159197  -0.0413955  -0.00938402  -0.0385838  -0.0190246  0.0123992  0.0237846  0.00233928  -0.01549  0.0834951  -0.102703  0.0573011 
1701772521.923121000  0  0  11.829  -0.159943  0.0188022  0.00763456  nan  nan  nan  nan  nan  nan  -1.86494  -0.866556  1.39743  -0.241417  0.204621  -0.0315058  0.624097  0.62071  -0.374506  0  0  0  1.5  1.5  -0.277401  -0.0162351  -0.0416733  -0.00928472  -0.0392551  -0.0195484  0.00575845  0.0232881  0.00288121  -0.0156434  0.105636  -0.0641114  0.0610016 
1701772521.928123000  0  0  11.8676  -0.146789  -0.00231918  0.00736572  nan  nan  nan  nan  nan  nan  -1.8618  -0.863434  1.39556  -0.23978  0.203308  -0.0306593  0.631597  0.62821  -0.375829  0  0  0  1.5  1.5  -0.251526  -0.0164288  -0.04177  -0.00926257  -0.0378303  -0.018505  0.00454822  0.0221092  0.00443071  -0.0157845  0.0901741  -0.0361242  0.0657736 
1701772521.933123000  0  0  11.8022  -0.185509  0.0465385  0.00865314  nan  nan  nan  nan  nan  nan  -1.85862  -0.860274  1.39367  -0.239275  0.202335  -0.0301403  0.639097  0.63571  -0.37702  0  0  0  1.5  1.5  -0.224901  -0.0166908  -0.0420005  -0.00906476  -0.0344175  -0.015848  0.0115791  0.0230903  0.00398513  -0.0159071  0.158587  -0.12974  0.0509064 
1701772521.938148000  0  0  11.917  -0.15966  0.00310609  0.0091122  nan  nan  nan  nan  nan  nan  -1.85541  -0.857077  1.39179  -0.236642  0.200712  -0.0290208  0.646597  0.64321  -0.378077  0  0  0  1.5  1.5  -0.197629  -0.016858  -0.0420747  -0.00909458  -0.0342941  -0.0155857  0.00429617  0.0210669  0.00592554  -0.0163857  0.125505  -0.0607271  0.049955 
1701772521.943127000  0  0  11.9369  -0.162341  -0.00364873  0.00944166  nan  nan  nan  nan  nan  nan  -1.85216  -0.853842  1.38989  -0.236372  0.200361  -0.028705  0.654097  0.65071  -0.378997  0  0  0  1.5  1.5  -0.17081  -0.0172171  -0.0423878  -0.00894316  -0.03341  -0.0151481  0.00485872  0.0215613  0.0060475  -0.0163843  0.126318  -0.0483395  0.0458221 
1701772521.948123000  0  0  11.904  -0.197042  0.0349073  0.0102929  nan  nan  nan  nan  nan  nan  -1.84887  -0.85057  1.388  -0.236143  0.199754  -0.0283389  0.661597  0.65821  -0.379786  0  0  0  1.5  1.5  -0.144741  -0.017558  -0.0426811  -0.00877252  -0.0310584  -0.0134937  0.00944465  0.0228789  0.00533608  -0.0164889  0.183599  -0.118906  0.0362283 
1701772521.953110000  0  0  12.0244  -0.154801  -0.00646251  0.00956089  nan  nan  nan  nan  nan  nan  -1.84554  -0.84726  1.3861  -0.233738  0.198382  -0.0273422  0.669097  0.66571  -0.380446  0  0  0  1.5  1.5  -0.119421  -0.017742  -0.0427699  -0.00879311  -0.0313198  -0.0135259  0.00159876  0.0207699  0.00704363  -0.0168108  0.118519  -0.0518764  0.0485969 
