ts x y z roll pitch yaw vx vy vz wx wy wz ax ay az dwx dwy dwz jx jy jz ddwx ddwy ddwz
1704463261.440249000  -2.5  -0.3  1  0  0  0  2e-07  2e-07  2e-07  0  0  0  0.000125  0.000125  0.000125  0  0  0  0  0  0  0  0  0 
1704463261.445236000  -2.5  -0.3  1  0  0  0  1.7e-06  1.7e-06  1.7e-06  0  0  0  0.0005  0.0005  0.0005  0  0  0  0  0  0  0  0  0 
1704463261.450238000  -2.5  -0.3  1  0  0  0  5.6e-06  5.6e-06  5.6e-06  0  0  0  0.001125  0.001125  0.001125  0  0  0  0  0  0  0  0  0 
1704463261.455234000  -2.5  -0.3  1  0  0  1e-07  1.33e-05  1.33e-05  1.33e-05  0  0  0  0.002  0.002  0.002  0  0  0  0  0  0  0  0  0 
1704463261.460233000  -2.5  -0.3  1  0  0  3e-07  2.6e-05  2.6e-05  2.6e-05  0  0  0  0.003125  0.003125  0.003125  0  0  0  0  0  0  0  0  0 
1704463261.465235000  -2.5  -0.3  1  0  0  5e-07  4.5e-05  4.5e-05  4.5e-05  0  0  0  0.0045  0.0045  0.0045  0  0  0  0  0  0  0  0  0 
1704463261.470233000  -2.5  -0.299999  1  0  0  1e-06  7.15e-05  7.15e-05  7.15e-05  0  0  0  0.006125  0.006125  0.006125  0  0  0  0  0  0  0  0  0 
1704463261.475247000  -2.5  -0.299999  1  0  0  1.7e-06  0.0001067  0.0001067  0.0001067  0  0  0  0.008  0.008  0.008  0  0  0  0  0  0  0  0  0 
1704463261.480234000  -2.5  -0.299998  1  0  0  2.7e-06  0.0001519  0.0001519  0.0001519  0  0  0  0.010125  0.010125  0.010125  0  0  0  0  0  0  0  0  0 
1704463261.485250000  -2.5  -0.299997  1  0  0  4.2e-06  0.0002083  0.0002083  0.0002083  0  0  0  0.0125  0.0125  0.0125  0  0  0  0  0  0  0  0  0 
1704463261.490249000  -2.5  -0.299996  1  0  0  6.1e-06  0.0002773  0.0002773  0.0002773  0  0  0  0.015125  0.015125  0.015125  0  0  0  0  0  0  0  0  0 
1704463261.495249000  -2.49999  -0.299995  1.00001  0  0  8.6e-06  0.00036  0.00036  0.00036  0  0  0  0.018  0.018  0.018  0  0  0  0  0  0  0  0  0 
1704463261.500248000  -2.49999  -0.299993  1.00001  0  0  1.19e-05  0.0004577  0.0004577  0.0004577  0  0  0  0.021125  0.021125  0.021125  0  0  0  0  0  0  0  0  0 
1704463261.505250000  -2.49999  -0.29999  1.00001  0  0  1.6e-05  0.0005717  0.0005717  0.0005717  0  0  0  0.0245  0.0245  0.0245  0  0  0  0  0  0  0  0  0 
1704463261.510248000  -2.49999  -0.299987  1.00001  0  0  2.11e-05  0.0007031  0.0007031  0.0007031  0  0  0  0.028125  0.028125  0.028125  0  0  0  0  0  0  0  0  0 
1704463261.515249000  -2.49998  -0.299983  1.00002  0  0  2.73e-05  0.0008533  0.0008533  0.0008533  0  0  0  0.032  0.032  0.032  0  0  0  0  0  0  0  0  0 
1704463261.520249000  -2.49998  -0.299978  1.00002  0  0  3.48e-05  0.0010235  0.0010235  0.0010235  0  0  0  0.036125  0.036125  0.036125  0  0  0  0  0  0  0  0  0 
1704463261.525247000  -2.49997  -0.299973  1.00003  0  0  4.37e-05  0.001215  0.001215  0.001215  0  0  0  0.0405  0.0405  0.0405  0  0  0  0  0  0  0  0  0 
1704463261.530248000  -2.49997  -0.299966  1.00003  0  0  5.43e-05  0.001429  0.001429  0.001429  0  0  0  0.045125  0.045125  0.045125  0  0  0  0  0  0  0  0  0 
1704463261.535247000  -2.49996  -0.299958  1.00004  0  0  6.67e-05  0.0016667  0.0016667  0.0016667  0  0  0  0.05  0.05  0.05  0  0  0  0  0  0  0  0  0 
1704463261.540248000  -2.49995  -0.299949  1.00005  0  0  8.1e-05  0.0019294  0.0019294  0.0019294  0  0  0  0.055125  0.055125  0.055125  0  0  0  0  0  0  0  0  0 
1704463261.545248000  -2.49994  -0.299939  1.00006  0  0  9.76e-05  0.0022183  0.0022183  0.0022183  0  0  0  0.0605  0.0605  0.0605  0  0  0  0  0  0  0  0  0 
1704463261.550247000  -2.49993  -0.299927  1.00007  0  0  0.0001166  0.0025348  0.0025348  0.0025348  0  0  0  0.066125  0.066125  0.066125  0  0  0  0  0  0  0  0  0 
1704463261.555249000  -2.49991  -0.299914  1.00009  0  0  0.0001382  0.00288  0.00288  0.00288  0  0  0  0.072  0.072  0.072  0  0  0  0  0  0  0  0  0 
1704463261.560249000  -2.4999  -0.299898  1.0001  0  0  0.0001627  0.0032552  0.0032552  0.0032552  0  0  0  0.078125  0.078125  0.078125  0  0  0  0  0  0  0  0  0 
1704463261.565250000  -2.49988  -0.299881  1.00012  0  0  0.0001902  0.0036617  0.0036617  0.0036617  0  0  0  0.0845  0.0845  0.0845  0  0  0  0  0  0  0  0  0 
1704463261.570248000  -2.49986  -0.299862  1.00014  0  0  0.0002208  0.0041006  0.0041006  0.0041006  0  0  0  0.091125  0.091125  0.091125  0  0  0  0  0  0  0  0  0 
1704463261.575248000  -2.49984  -0.29984  1.00016  0  0  0.0002549  0.0045733  0.0045733  0.0045733  0  0  0  0.098  0.098  0.098  0  0  0  0  0  0  0  0  0 
1704463261.580246000  -2.49982  -0.299816  1.00018  0  0  0.0002925  0.005081  0.005081  0.005081  0  0  0  0.105125  0.105125  0.105125  0  0  0  0  0  0  0  0  0 
1704463261.585265000  -2.49979  -0.299789  1.00021  0  0  0.0003338  0.005625  0.005625  0.005625  0  0  0  0.1125  0.1125  0.1125  0  0  0  0  0  0  0  0  0 
1704463261.590247000  -2.49976  -0.299759  1.00024  0  0  0.0003789  0.0062065  0.0062065  0.0062065  0  0  0  0.120125  0.120125  0.120125  0  0  0  0  0  0  0  0  0 
1704463261.595232000  -2.49973  -0.299727  1.00027  0  0  0.000428  0.0068267  0.0068267  0.0068267  0  0  0  0.128  0.128  0.128  0  0  0  0  0  0  0  0  0 
1704463261.600240000  -2.49969  -0.299691  1.00031  0  0  0.0004811  0.0074869  0.0074869  0.0074869  0  0  0  0.136125  0.136125  0.136125  0  0  0  0  0  0  0  0  0 
1704463261.605241000  -2.49965  -0.299652  1.00035  0  0  0.0005385  0.0081883  0.0081883  0.0081883  0  0  0  0.1445  0.1445  0.1445  0  0  0  0  0  0  0  0  0 
1704463261.610245000  -2.49961  -0.299609  1.00039  0  0  0.0006001  0.0089323  0.0089323  0.0089323  0  0  0  0.153125  0.153125  0.153125  0  0  0  0  0  0  0  0  0 
1704463261.615243000  -2.49956  -0.299563  1.00044  0  0  0.0006661  0.00972  0.00972  0.00972  0  0  0  0.162  0.162  0.162  0  0  0  0  0  0  0  0  0 
1704463261.620243000  -2.49951  -0.299512  1.00049  0  0  0.0007366  0.0105526  0.0105527  0.0105527  0  0  0  0.171013  0.171125  0.171125  0  0  0  0  0  0  0  0  0 
1704463261.625237000  -2.49946  -0.299457  1.00054  0  0  0.0008117  0.0114297  0.0114317  0.0114317  0  0  0  0.179802  0.1805  0.1805  0  0  0  0  0  0  0  0  0 
1704463261.630244000  -2.4994  -0.299398  1.0006  0  0  0.0008913  0.0123502  0.0123581  0.0123581  0  0  0  0.188342  0.190125  0.190125  0  0  0  0  0  0  0  0  0 
1704463261.635243000  -2.49933  -0.299333  1.00067  0  0  0.0009756  0.0133127  0.0133333  0.0133333  0  0  0  0.196632  0.2  0.2  0  0  0  0  0  0  0  0  0 
1704463261.640243000  -2.49926  -0.299264  1.00074  0  0  0.0010646  0.0143161  0.0143585  0.0143585  0  0  0  0.204671  0.210125  0.210125  0  0  0  0  0  0  0  0  0 
1704463261.645236000  -2.49919  -0.29919  1.00081  0  0  0.0011583  0.015359  0.015435  0.015435  0  0  0  0.212461  0.2205  0.2205  0  0  0  0  0  0  0  0  0 
1704463261.650249000  -2.49911  -0.29911  1.00089  0  0  0.0012568  0.0164403  0.016564  0.016564  0  0  0  0.220001  0.231125  0.231125  0  0  0  0  0  0  0  0  0 
1704463261.655245000  -2.49903  -0.299024  1.00098  0  0  0.00136  0.0175586  0.0177467  0.0177467  0  0  0  0.22729  0.242  0.242  0  0  0  0  0  0  0  0  0 
1704463261.660246000  -2.49894  -0.298932  1.00107  0  0  0.001468  0.0187128  0.0189844  0.0189844  0  0  0  0.23433  0.253125  0.253125  0  0  0  0  0  0  0  0  0 
1704463261.665247000  -2.49884  -0.298834  1.00117  0  0  0.0015807  0.0199015  0.0202783  0.0202783  0  0  0  0.24112  0.2645  0.2645  0  0  0  0  0  0  0  0  0 
1704463261.670250000  -2.49874  -0.298729  1.00127  0  0  0.0016982  0.0211236  0.0216298  0.0216298  0  0  0  0.247659  0.276125  0.276125  0  0  0  0  0  0  0  0  0 
1704463261.675246000  -2.49863  -0.298618  1.00138  0  0  0.0018203  0.0223777  0.02304  0.02304  0  0  0  0.253949  0.288  0.288  0  0  0  0  0  0  0  0  0 
1704463261.680253000  -2.49851  -0.298499  1.0015  0  0  0.0019471  0.0236626  0.0245102  0.0245102  0  0  0  0.259989  0.300125  0.300125  0  0  0  0  0  0  0  0  0 
1704463261.685247000  -2.49839  -0.298372  1.00163  0  0  0.0020786  0.0249771  0.0260417  0.0260417  0  0  0  0.265779  0.3125  0.3125  0  0  0  0  0  0  0  0  0 
1704463261.690234000  -2.49826  -0.298238  1.00176  0  0  0.0022146  0.02632  0.0276356  0.0276352  0  0  0  0.271318  0.325125  0.324859  0  0  0  0  0  0  0  0  0 
1704463261.695245000  -2.49813  -0.298096  1.0019  0  0  0.0023551  0.0276899  0.0292933  0.0292898  0  0  0  0.276608  0.338  0.336968  0  0  0  0  0  0  0  0  0 
1704463261.700248000  -2.49799  -0.297945  1.00205  0  0  0.0025  0.0290857  0.031016  0.0310044  0  0  0  0.281648  0.351125  0.348827  0  0  0  0  0  0  0  0  0 
1704463261.705250000  -2.49784  -0.297786  1.00221  0  0  0.0026492  0.030506  0.032805  0.0327777  0  0  0  0.286437  0.3645  0.360436  0  0  0  0  0  0  0  0  0 
1704463261.710248000  -2.49768  -0.297617  1.00238  0  0  0.0028026  0.0319496  0.0346615  0.0346084  0  0  0  0.290977  0.378125  0.371795  0  0  0  0  0  0  0  0  0 
1704463261.715247000  -2.49752  -0.297439  1.00256  0  0  0.0029602  0.0334153  0.0365867  0.0364952  0  0  0  0.295267  0.392  0.382905  0  0  0  0  0  0  0  0  0 
1704463261.720247000  -2.49735  -0.297251  1.00275  0  0  0.0031218  0.0349019  0.0385819  0.038437  0  0  0  0.299306  0.406125  0.393764  0  0  0  0  0  0  0  0  0 
1704463261.725248000  -2.49717  -0.297053  1.00294  0  0  0.0032872  0.036408  0.0406483  0.0404325  0  0  0  0.303096  0.4205  0.404373  0  0  0  0  0  0  0  0  0 
1704463261.730247000  -2.49698  -0.296844  1.00315  0  0  0.0034563  0.0379324  0.0427873  0.0424803  0  0  0  0.306636  0.435125  0.414732  0  0  0  0  0  0  0  0  0 
1704463261.735249000  -2.49679  -0.296625  1.00337  0  0  0.0036291  0.0394739  0.045  0.0445794  0  0  0  0.309925  0.45  0.424841  0  0  0  0  0  0  0  0  0 
1704463261.740247000  -2.49659  -0.296394  1.0036  0  0  0.0038052  0.0410312  0.0472877  0.0467283  0  0  0  0.312965  0.465125  0.4347  0  0  0  0  0  0  0  0  0 
1704463261.745245000  -2.49638  -0.296152  1.00384  0  0  0.0039846  0.0426032  0.0496517  0.0489259  0  0  0  0.315755  0.4805  0.444309  0  0  0  0  0  0  0  0  0 
1704463261.750247000  -2.49616  -0.295898  1.00409  0  0  0.0041671  0.0441884  0.0520931  0.051171  0  0  0  0.318295  0.496125  0.453668  0  0  0  0  0  0  0  0  0 
1704463261.755247000  -2.49594  -0.295631  1.00435  0  0  0.0043525  0.0457857  0.0546133  0.0534622  0  0  0  0.320584  0.512  0.462778  0  0  0  0  0  0  0  0  0 
1704463261.760247000  -2.4957  -0.295351  1.00462  0  0  0.0045405  0.0473938  0.0572135  0.0557983  0  0  0  0.322624  0.528125  0.471637  0  0  0  0  0  0  0  0  0 
1704463261.765248000  -2.49546  -0.295059  1.00491  0  0  0.004731  0.0490115  0.059895  0.0581782  0  0  0  0.324414  0.5445  0.480246  0  0  0  0  0  0  0  0  0 
1704463261.770247000  -2.49521  -0.294752  1.0052  0  0  0.0049238  0.0506375  0.062659  0.0606004  0  0  0  0.325953  0.561125  0.488605  0  0  0  0  0  0  0  0  0 
1704463261.775247000  -2.49496  -0.294432  1.00551  0  0  0.0051187  0.0522706  0.0655067  0.0630638  0  0  0  0.327243  0.578  0.496714  0  0  0  0  0  0  0  0  0 
1704463261.780248000  -2.49469  -0.294097  1.00583  0  0  0.0053154  0.0539095  0.0684394  0.0655671  0  0  0  0.328283  0.595117  0.504573  0  0  0  0  0  0  0  0  0 
1704463261.785248000  -2.49442  -0.293747  1.00617  0  0  0.0055138  0.055553  0.0714576  0.0681091  0  0  0  0.329072  0.61215  0.512182  0  0  0  0  0  0  0  0  0 
1704463261.790247000  -2.49413  -0.293382  1.00652  0  0  0.0057137  0.0571998  0.0745605  0.0706885  0  0  0  0.329612  0.628934  0.519541  0  0  0  0  0  0  0  0  0 
1704463261.795247000  -2.49384  -0.293002  1.00688  0  0  0.0059149  0.0588487  0.0777466  0.0733041  0  0  0  0.329902  0.645468  0.526651  0  0  0  0  0  0  0  0  0 
1704463261.800247000  -2.49355  -0.292605  1.00725  0  0  0.0061172  0.0604984  0.0810147  0.0759546  0  0  0  0.329941  0.661752  0.53351  0  0  0  0  0  0  0  0  0 
1704463261.805259000  -2.49324  -0.292191  1.00764  0  0  0.0063206  0.0621477  0.0843637  0.0786388  0  0  0  0.329731  0.677785  0.540119  0  0  0  0  0  0  0  0  0 
1704463261.810247000  -2.49292  -0.291761  1.00804  0  0  0.0065249  0.0637953  0.0877922  0.0813554  0  0  0  0.329271  0.693569  0.546478  0  0  0  0  0  0  0  0  0 
1704463261.815248000  -2.4926  -0.291313  1.00845  0  0  0.0067299  0.06544  0.0912989  0.0841031  0  0  0  0.328561  0.709103  0.552587  0  0  0  0  0  0  0  0  0 
1704463261.820247000  -2.49227  -0.290848  1.00888  0  0  0.0069356  0.0670805  0.0948828  0.0868808  0  0  0  0.3276  0.724386  0.558446  0  0  0  0  0  0  0  0  0 
1704463261.825251000  -2.49193  -0.290364  1.00932  0  0  0.0071417  0.0687156  0.0985424  0.0896872  0  0  0  0.32639  0.73942  0.564055  0  0  0  0  0  0  0  0  0 
1704463261.830247000  -2.49158  -0.289862  1.00977  0  0  0.0073484  0.070344  0.102277  0.092521  0  0  0  0.32493  0.754204  0.569414  0  0  0  0  0  0  0  0  0 
1704463261.835246000  -2.49123  -0.289341  1.01024  0  0  0.0075553  0.0719645  0.106084  0.0953809  0  0  0  0.323219  0.768738  0.574524  0  0  0  0  0  0  0  0  0 
1704463261.840247000  -2.49086  -0.288801  1.01073  0  0  0.0077626  0.0735758  0.109964  0.0982658  0  0  0  0.321259  0.783021  0.579383  0  0  0  0  0  0  0  0  0 
1704463261.845248000  -2.49049  -0.288242  1.01123  0  0  0.00797  0.0751767  0.113914  0.101174  0  0  0  0.319049  0.797055  0.583992  0  0  0  0  0  0  0  0  0 
1704463261.850247000  -2.49011  -0.287662  1.01174  0  0  0.0081776  0.0767659  0.117934  0.104105  0  0  0  0.316588  0.810839  0.588351  0  0  0  0  0  0  0  0  0 
1704463261.855248000  -2.48972  -0.287062  1.01227  0  0  0.0083852  0.0783421  0.122022  0.107057  0  0  0  0.313878  0.824372  0.59246  0  0  0  0  0  0  0  0  0 
1704463261.860248000  -2.48933  -0.286442  1.01281  0  0  0.0085929  0.0799042  0.126177  0.110029  0  0  0  0.310918  0.837656  0.596319  0  0  0  0  0  0  0  0  0 
1704463261.865248000  -2.48893  -0.2858  1.01337  0  0  0.0088007  0.0814509  0.130398  0.11302  0  0  0  0.307708  0.85069  0.599928  0  0  0  0  0  0  0  0  0 
1704463261.870247000  -2.48851  -0.285138  1.01394  0  0  0.0090084  0.0829809  0.134683  0.116028  0  0  0  0.304247  0.863474  0.603287  0  0  0  0  0  0  0  0  0 
1704463261.875247000  -2.4881  -0.284453  1.01453  0  0  0.0092162  0.084493  0.139032  0.119053  0  0  0  0.300537  0.876007  0.606397  0  0  0  0  0  0  0  0  0 
1704463261.880246000  -2.48767  -0.283747  1.01513  0  0  0.0094239  0.0859858  0.143443  0.122092  0  0  0  0.296577  0.888291  0.609256  0  0  0  0  0  0  0  0  0 
1704463261.885247000  -2.48724  -0.283019  1.01575  0  0  0.0096317  0.0874583  0.147915  0.125145  0  0  0  0.292366  0.900325  0.611865  0  0  0  0  0  0  0  0  0 
1704463261.890247000  -2.48679  -0.282268  1.01638  0  0  0.0098394  0.0889091  0.152446  0.12821  0  0  0  0.287906  0.912108  0.614224  0  0  0  0  0  0  0  0  0 
1704463261.895248000  -2.48635  -0.281494  1.01703  0  0  0.0100472  0.0903369  0.157035  0.131287  0  0  0  0.283196  0.923642  0.616333  0  0  0  0  0  0  0  0  0 
1704463261.900247000  -2.48589  -0.280698  1.01769  0  0  0.0102549  0.0917406  0.161682  0.134373  0  0  0  0.278235  0.934926  0.618192  0  0  0  0  0  0  0  0  0 
1704463261.905247000  -2.48543  -0.279877  1.01837  0  0  0.0104627  0.0931189  0.166384  0.137468  0  0  0  0.273025  0.94596  0.619801  0  0  0  0  0  0  0  0  0 
1704463261.910233000  -2.48496  -0.279034  1.01907  0  0  0.0106704  0.0944705  0.171141  0.140571  0  0  0  0.267565  0.956743  0.62116  0  0  0  0  0  0  0  0  0 
1704463261.915247000  -2.48448  -0.278166  1.01978  0  0  0.0108782  0.0957941  0.175951  0.143679  0  0  0  0.261854  0.967277  0.62227  0  0  0  0  0  0  0  0  0 
1704463261.920246000  -2.484  -0.277274  1.02051  0  0  0.0110859  0.0970886  0.180813  0.146793  0  0  0  0.255894  0.977561  0.623129  0  0  0  0  0  0  0  0  0 
1704463261.925248000  -2.48351  -0.276358  1.02125  0  0  0.0112937  0.0983526  0.185726  0.14991  0  0  0  0.249684  0.987595  0.623738  0  0  0  0  0  0  0  0  0 
1704463261.930247000  -2.48302  -0.275417  1.02201  0  0  0.0115014  0.099585  0.190689  0.15303  0  0  0  0.243224  0.997378  0.624097  0  0  0  0  0  0  0  0  0 
1704463261.935246000  -2.48252  -0.274451  1.02278  0  0  0.0117092  0.100784  0.1957  0.156151  0  0  0  0.236513  1.00691  0.624206  0  0  0  0  0  0  0  0  0 
1704463261.940247000  -2.48201  -0.27346  1.02357  0  0  0.0119169  0.10195  0.200758  0.159272  0  0  0  0.229553  1.0162  0.624065  0  0  0  0  0  0  0  0  0 
1704463261.945247000  -2.4815  -0.272443  1.02437  0  0  0.0121247  0.10308  0.205861  0.162391  0  0  0  0.222343  1.02523  0.623674  0  0  0  0  0  0  0  0  0 
1704463261.950247000  -2.48098  -0.271401  1.02519  0  0  0.0123324  0.104173  0.21101  0.165508  0  0  0  0.214882  1.03401  0.623033  0  0  0  0  0  0  0  0  0 
1704463261.955247000  -2.48046  -0.270333  1.02603  0  0  0.0125402  0.105228  0.216201  0.168621  0  0  0  0.207172  1.04255  0.622143  0  0  0  0  0  0  0  0  0 
1704463261.960233000  -2.47993  -0.269239  1.02688  0  0  0.0127479  0.106244  0.221435  0.171729  0  0  0  0.199212  1.05083  0.621002  0  0  0  0  0  0  0  0  0 
1704463261.965252000  -2.47939  -0.268119  1.02774  0  0  0.0129557  0.10722  0.226709  0.17483  0  0  0  0.191001  1.05886  0.619611  0  0  0  0  0  0  0  0  0 
1704463261.970251000  -2.47886  -0.266972  1.02863  0  0  0.0131634  0.108154  0.232023  0.177925  0  0  0  0.182541  1.06665  0.61797  0  0  0  0  0  0  0  0  0 
1704463261.975247000  -2.47831  -0.265798  1.02952  0  0  0.0133712  0.109045  0.237375  0.18101  0  0  0  0.173831  1.07418  0.616079  0  0  0  0  0  0  0  0  0 
1704463261.980232000  -2.47777  -0.264598  1.03044  0  0  0.0135789  0.109892  0.242764  0.184085  0  0  0  0.16487  1.08147  0.613938  0  0  0  0  0  0  0  0  0 
1704463261.985248000  -2.47721  -0.263371  1.03136  0  0  0.0137867  0.110693  0.248189  0.187149  0  0  0  0.155916  1.0885  0.611547  0  0  0  0  0  0  0  0  0 
1704463261.990248000  -2.47666  -0.262116  1.03231  0  0  0.0139944  0.111451  0.253649  0.1902  0  0  0  0.147212  1.09528  0.608906  0  0  0  0  0  0  0  0  0 
1704463261.995254000  -2.4761  -0.260834  1.03327  0  0  0.0142022  0.112166  0.259142  0.193237  0  0  0  0.138757  1.10182  0.606016  0  0  0  0  0  0  0  0  0 
1704463262.000247000  -2.47554  -0.259524  1.03424  0  0  0.0144099  0.112839  0.264667  0.19626  0  0  0  0.130553  1.1081  0.602875  0  0  0  0  0  0  0  0  0 
1704463262.005247000  -2.47497  -0.258187  1.03523  0  0  0.0146177  0.113472  0.270222  0.199266  0  0  0  0.122599  1.11413  0.599484  0  0  0  0  0  0  0  0  0 
1704463262.010251000  -2.4744  -0.256822  1.03623  0  0  0.0148254  0.114065  0.275807  0.202254  0  0  0  0.114894  1.11992  0.595843  0  0  0  0  0  0  0  0  0 
1704463262.015247000  -2.47383  -0.255429  1.03725  0  0  0.0150332  0.114621  0.281421  0.205224  0  0  0  0.10744  1.12545  0.591952  0  0  0  0  0  0  0  0  0 
1704463262.020234000  -2.47326  -0.254008  1.03828  0  0  0.0152409  0.11514  0.287062  0.208173  0  0  0  0.100235  1.13074  0.587811  0  0  0  0  0  0  0  0  0 
1704463262.025248000  -2.47268  -0.252558  1.03933  0  0  0.0154487  0.115624  0.292728  0.211101  0  0  0  0.093281  1.13577  0.58342  0  0  0  0  0  0  0  0  0 
1704463262.030249000  -2.4721  -0.251081  1.04039  0  0  0.0156564  0.116074  0.298419  0.214007  0  0  0  0.0865766  1.14055  0.578779  0  0  0  0  0  0  0  0  0 
1704463262.035247000  -2.47152  -0.249574  1.04147  0  0  0.0158642  0.11649  0.304133  0.216889  0  0  0  0.0801222  1.14509  0.573889  0  0  0  0  0  0  0  0  0 
1704463262.040247000  -2.47094  -0.248039  1.04256  0  0  0.0160719  0.116875  0.309869  0.219745  0  0  0  0.0739178  1.14937  0.568748  0  0  0  0  0  0  0  0  0 
1704463262.045248000  -2.47035  -0.246476  1.04367  0  0  0.0162797  0.11723  0.315626  0.222576  0  0  0  0.0679635  1.1534  0.563357  0  0  0  0  0  0  0  0  0 
1704463262.050247000  -2.46976  -0.244883  1.04479  0  0  0.0164874  0.117555  0.321403  0.225379  0  0  0  0.0622591  1.15719  0.557716  0  0  0  0  0  0  0  0  0 
1704463262.055247000  -2.46917  -0.243261  1.04592  0  0  0.0166952  0.117853  0.327198  0.228153  0  0  0  0.0568047  1.16072  0.551825  0  0  0  0  0  0  0  0  0 
1704463262.060247000  -2.46858  -0.241611  1.04707  0  0  0.0169029  0.118124  0.33301  0.230896  0  0  0  0.0516003  1.164  0.545684  0  0  0  0  0  0  0  0  0 
1704463262.065247000  -2.46799  -0.239931  1.04823  0  0  0.0171107  0.118369  0.338837  0.233609  0  0  0  0.0466459  1.16704  0.539293  0  0  0  0  0  0  0  0  0 
1704463262.070233000  -2.4674  -0.238223  1.04941  0  0  0.0173184  0.118591  0.34468  0.236289  0  0  0  0.0419415  1.16982  0.532652  0  0  0  0  0  0  0  0  0 
1704463262.075247000  -2.46681  -0.236485  1.05059  0  0  0.0175262  0.118789  0.350535  0.238935  0  0  0  0.0374871  1.17236  0.525762  0  0  0  0  0  0  0  0  0 
1704463262.080247000  -2.46621  -0.234717  1.0518  0  0  0.0177339  0.118966  0.356403  0.241546  0  0  0  0.0332828  1.17464  0.518621  0  0  0  0  0  0  0  0  0 
1704463262.085247000  -2.46562  -0.23292  1.05301  0  0  0.0179417  0.119122  0.362281  0.244121  0  0  0  0.0293284  1.17667  0.51123  0  0  0  0  0  0  0  0  0 
1704463262.090247000  -2.46502  -0.231094  1.05424  0  0  0.0181494  0.11926  0.368169  0.246658  0  0  0  0.025624  1.17846  0.503589  0  0  0  0  0  0  0  0  0 
1704463262.095247000  -2.46443  -0.229239  1.05548  0  0  0.0183572  0.119379  0.374065  0.249156  0  0  0  0.0221696  1.17999  0.495698  0  0  0  0  0  0  0  0  0 
1704463262.100247000  -2.46383  -0.227354  1.05673  0  0  0.0185649  0.119482  0.379969  0.251615  0  0  0  0.0189652  1.18127  0.487557  0  0  0  0  0  0  0  0  0 
1704463262.105248000  -2.46323  -0.225439  1.05799  0  0  0.0187727  0.119569  0.385878  0.254032  0  0  0  0.0160108  1.18231  0.479166  0  0  0  0  0  0  0  0  0 
1704463262.110246000  -2.46263  -0.223495  1.05927  0  0  0.0189804  0.119642  0.391791  0.256406  0  0  0  0.0133065  1.18309  0.470525  0  0  0  0  0  0  0  0  0 
1704463262.115247000  -2.46203  -0.221521  1.06056  0  0  0.0191882  0.119702  0.397708  0.258736  0  0  0  0.0108521  1.18363  0.461635  0  0  0  0  0  0  0  0  0 
1704463262.120246000  -2.46144  -0.219518  1.06186  0  0  0.0193959  0.119751  0.403627  0.261022  0  0  0  0.0086477  1.18391  0.452494  0  0  0  0  0  0  0  0  0 
1704463262.125248000  -2.46084  -0.217485  1.06317  0  0  0.0196037  0.119789  0.409547  0.263261  0  0  0  0.0066933  1.18394  0.443103  0  0  0  0  0  0  0  0  0 
1704463262.130248000  -2.46024  -0.215422  1.06449  0  0  0.0198114  0.119818  0.415466  0.265452  0  0  0  0.0049889  1.18373  0.433462  0  0  0  0  0  0  0  0  0 
1704463262.135246000  -2.45964  -0.21333  1.06582  0  0  0.0200192  0.11984  0.421384  0.267595  0  0  0  0.0035345  1.18326  0.423571  0  0  0  0  0  0  0  0  0 
1704463262.140247000  -2.45904  -0.211209  1.06716  0  0  0.0202269  0.119854  0.427298  0.269688  0  0  0  0.0023301  1.18254  0.41343  0  0  0  0  0  0  0  0  0 
1704463262.145246000  -2.45844  -0.209057  1.06852  0  0  0.0204347  0.119863  0.433209  0.271729  0  0  0  0.0013758  1.18158  0.403039  0  0  0  0  0  0  0  0  0 
1704463262.150259000  -2.45784  -0.206876  1.06988  0  0  0.0206424  0.119868  0.439114  0.273718  0  0  0  0.0006714  1.18036  0.392398  0  0  0  0  0  0  0  0  0 
1704463262.155258000  -2.45724  -0.204666  1.07126  0  0  0.0208502  0.119871  0.445012  0.275653  0  0  0  0.000217  1.1789  0.381508  0  0  0  0  0  0  0  0  0 
1704463262.160257000  -2.45664  -0.202426  1.07264  0  0  0.0210579  0.119871  0.450902  0.277532  0  0  0  1.26e-05  1.17718  0.370367  0  0  0  0  0  0  0  0  0 
1704463262.165251000  -2.45604  -0.200157  1.07403  0  0  0.0212657  0.119871  0.456783  0.279356  0  0  0  0  1.17521  0.358976  0  0  0  0  0  0  0  0  0 
1704463262.170260000  -2.45544  -0.197859  1.07543  0  0  0.0214735  0.119871  0.462654  0.281122  0  0  0  0  1.173  0.347335  0  0  0  0  0  0  0  0  0 
1704463262.175257000  -2.45484  -0.195531  1.07684  0  0  0.0216812  0.119871  0.468513  0.282829  0  0  0  0  1.17053  0.335444  0  0  0  0  0  0  0  0  0 
1704463262.180247000  -2.45424  -0.193173  1.07826  0  0  0.021889  0.119871  0.474359  0.284476  0  0  0  0  1.16781  0.323303  0  0  0  0  0  0  0  0  0 
1704463262.185254000  -2.45365  -0.190787  1.07969  0  0  0.0220967  0.119871  0.480191  0.286061  0  0  0  0  1.16485  0.310915  0  0  0  0  0  0  0  0  0 
1704463262.190258000  -2.45305  -0.188372  1.08112  0  0  0.0223045  0.119871  0.486007  0.287585  0  0  0  0  1.16163  0.298571  0  0  0  0  0  0  0  0  0 
1704463262.195250000  -2.45245  -0.185927  1.08256  0  0  0.0225122  0.119871  0.491807  0.289047  0  0  0  0  1.15817  0.286478  0  0  0  0  0  0  0  0  0 
1704463262.200234000  -2.45185  -0.183454  1.08401  0  0  0.02272  0.119871  0.497588  0.29045  0  0  0  0  1.15445  0.274635  0  0  0  0  0  0  0  0  0 
1704463262.205237000  -2.45125  -0.180951  1.08547  0  0  0.0229277  0.119871  0.503351  0.291794  0  0  0  0  1.15048  0.263042  0  0  0  0  0  0  0  0  0 
1704463262.210233000  -2.45065  -0.17842  1.08693  0  0  0.0231355  0.119871  0.509093  0.293081  0  0  0  0  1.14627  0.251698  0  0  0  0  0  0  0  0  0 
1704463262.215234000  -2.45005  -0.17586  1.0884  0  0  0.0233432  0.119871  0.514813  0.294312  0  0  0  0  1.1418  0.240605  0  0  0  0  0  0  0  0  0 
1704463262.220233000  -2.44945  -0.173272  1.08987  0  0  0.023551  0.119871  0.52051  0.295487  0  0  0  0  1.13708  0.229762  0  0  0  0  0  0  0  0  0 
1704463262.225237000  -2.44885  -0.170655  1.09135  0  0  0.0237587  0.119871  0.526183  0.29661  0  0  0  0  1.13212  0.219169  0  0  0  0  0  0  0  0  0 
1704463262.230234000  -2.44825  -0.16801  1.09284  0  0  0.0239665  0.119871  0.531831  0.29768  0  0  0  0  1.1269  0.208825  0  0  0  0  0  0  0  0  0 
1704463262.235233000  -2.44765  -0.165337  1.09433  0  0  0.0241742  0.119871  0.537452  0.298698  0  0  0  0  1.12144  0.198732  0  0  0  0  0  0  0  0  0 
1704463262.240233000  -2.44705  -0.162636  1.09582  0  0  0.024382  0.119871  0.543045  0.299667  0  0  0  0  1.11572  0.188889  0  0  0  0  0  0  0  0  0 
1704463262.245240000  -2.44645  -0.159907  1.09733  0  0  0.0245897  0.119871  0.548609  0.300588  0  0  0  0  1.10975  0.179296  0  0  0  0  0  0  0  0  0 
1704463262.250234000  -2.44585  -0.15715  1.09883  0  0  0.0247975  0.119871  0.554142  0.301461  0  0  0  0  1.10354  0.169952  0  0  0  0  0  0  0  0  0 
1704463262.255234000  -2.44525  -0.154365  1.10034  0  0  0.0250052  0.119871  0.559644  0.302288  0  0  0  0  1.09707  0.160859  0  0  0  0  0  0  0  0  0 
1704463262.260235000  -2.44465  -0.151553  1.10185  0  0  0.025213  0.119871  0.565112  0.30307  0  0  0  0  1.09035  0.152016  0  0  0  0  0  0  0  0  0 
1704463262.265237000  -2.44406  -0.148714  1.10337  0  0  0.0254207  0.119871  0.570547  0.303808  0  0  0  0  1.08339  0.143423  0  0  0  0  0  0  0  0  0 
1704463262.270234000  -2.44346  -0.145848  1.10489  0  0  0.0256285  0.119871  0.575946  0.304504  0  0  0  0  1.07617  0.135079  0  0  0  0  0  0  0  0  0 
1704463262.275240000  -2.44286  -0.142955  1.10642  0  0  0.0258362  0.119871  0.581308  0.305159  0  0  0  0  1.0687  0.126986  0  0  0  0  0  0  0  0  0 
1704463262.280243000  -2.44226  -0.140035  1.10794  0  0  0.026044  0.119871  0.586632  0.305775  0  0  0  0  1.06099  0.119143  0  0  0  0  0  0  0  0  0 
1704463262.285237000  -2.44166  -0.137088  1.10947  0  0  0.0262517  0.119871  0.591917  0.306351  0  0  0  0  1.05302  0.11155  0  0  0  0  0  0  0  0  0 
1704463262.290244000  -2.44106  -0.134116  1.11101  0  0  0.0264595  0.119871  0.597162  0.306891  0  0  0  0  1.04481  0.104206  0  0  0  0  0  0  0  0  0 
1704463262.295242000  -2.44046  -0.131117  1.11254  0  0  0.0266672  0.119871  0.602365  0.307394  0  0  0  0  1.03634  0.0971131  0  0  0  0  0  0  0  0  0 
1704463262.300242000  -2.43986  -0.128092  1.11408  0  0  0.026875  0.119871  0.607525  0.307862  0  0  0  0  1.02762  0.0902698  0  0  0  0  0  0  0  0  0 
1704463262.305236000  -2.43926  -0.125042  1.11562  0  0  0.0270827  0.119871  0.612641  0.308297  0  0  0  0  1.01866  0.0836766  0  0  0  0  0  0  0  0  0 
1704463262.310243000  -2.43866  -0.121966  1.11716  0  0  0.0272905  0.119871  0.617711  0.308699  0  0  0  0  1.00944  0.0773333  0  0  0  0  0  0  0  0  0 
1704463262.315242000  -2.43806  -0.118865  1.11871  0  0  0.0274982  0.119871  0.622758  0.309086  0  0  0  0.000125  1.00932  0.0772083  0  0  0  0  0  0  0  0  0 
1704463262.320242000  -2.43746  -0.115738  1.12025  0  0  0.027706  0.119873  0.627804  0.309471  0  0  0  0.0005  1.00894  0.0768333  0  0  0  0  0  0  0  0  0 
1704463262.325236000  -2.43686  -0.112587  1.1218  0  0  0.0279137  0.119877  0.632847  0.309854  0  0  0  0.001125  1.00832  0.0762083  0  0  0  0  0  0  0  0  0 
1704463262.330243000  -2.43626  -0.10941  1.12335  0  0  0.0281214  0.119884  0.637887  0.310233  0  0  0  0.002  1.00744  0.0753333  0  0  0  0  0  0  0  0  0 
1704463262.335251000  -2.43566  -0.106208  1.1249  0  0  0.028329  0.119897  0.642921  0.310607  0  0  0  0.003125  1.00632  0.0742083  0  0  0  0  0  0  0  0  0 
1704463262.340242000  -2.43506  -0.102981  1.12646  0  0  0.0285364  0.119916  0.64795  0.310974  0  0  0  0.0045  1.00494  0.0728333  0  0  0  0  0  0  0  0  0 
1704463262.345256000  -2.43447  -0.0997283  1.12801  0  0  0.0287437  0.119942  0.65297  0.311334  0  0  0  0.006125  1.00332  0.0712083  0  0  0  0  0  0  0  0  0 
1704463262.350243000  -2.43387  -0.0964509  1.12957  0  0  0.0289508  0.119978  0.657982  0.311686  0  0  0  0.008  1.00144  0.0693333  0  0  0  0  0  0  0  0  0 
1704463262.355242000  -2.43327  -0.0931485  1.13113  0  0  0.0291575  0.120023  0.662984  0.312027  0  0  0  0.010125  0.999316  0.0672083  0  0  0  0  0  0  0  0  0 
1704463262.360241000  -2.43267  -0.0898211  1.13269  0  0  0.0293638  0.120079  0.667975  0.312358  0  0  0  0.0125  0.996941  0.0648333  0  0  0  0  0  0  0  0  0 
1704463262.365236000  -2.43206  -0.0864687  1.13425  0  0  0.0295696  0.120148  0.672953  0.312675  0  0  0  0.015125  0.994316  0.0622083  0  0  0  0  0  0  0  0  0 
1704463262.370249000  -2.43146  -0.0830915  1.13582  0  0  0.0297748  0.120231  0.677918  0.312979  0  0  0  0.018  0.991441  0.0593333  0  0  0  0  0  0  0  0  0 
1704463262.375240000  -2.43086  -0.0796896  1.13738  0  0  0.0299793  0.120329  0.682867  0.313268  0  0  0  0.021125  0.988316  0.0562083  0  0  0  0  0  0  0  0  0 
1704463262.380246000  -2.43026  -0.0762629  1.13895  0  0  0.030183  0.120443  0.6878  0.313541  0  0  0  0.0245  0.984941  0.0528333  0  0  0  0  0  0  0  0  0 
1704463262.385237000  -2.42966  -0.0728116  1.14052  0  0  0.0303856  0.120574  0.692716  0.313796  0  0  0  0.028125  0.981316  0.0492083  0  0  0  0  0  0  0  0  0 
1704463262.390245000  -2.42905  -0.0693358  1.14209  0  0  0.0305872  0.120724  0.697613  0.314033  0  0  0  0.032  0.977441  0.0453333  0  0  0  0  0  0  0  0  0 
1704463262.395233000  -2.42845  -0.0658355  1.14366  0  0  0.0307874  0.120895  0.70249  0.314249  0  0  0  0.036125  0.973316  0.0412083  0  0  0  0  0  0  0  0  0 
1704463262.400240000  -2.42785  -0.0623109  1.14523  0  0  0.0309862  0.121086  0.707346  0.314444  0  0  0  0.0405  0.968941  0.0368333  0  0  0  0  0  0  0  0  0 
1704463262.405237000  -2.42724  -0.0587621  1.1468  0  0  0.0311834  0.1213  0.712179  0.314617  0  0  0  0.045125  0.964316  0.0322083  0  0  0  0  0  0  0  0  0 
1704463262.410241000  -2.42663  -0.0551891  1.14838  0  0  0.0313788  0.121538  0.716989  0.314766  0  0  0  0.05  0.959441  0.0273333  0  0  0  0  0  0  0  0  0 
1704463262.415242000  -2.42602  -0.0515922  1.14995  0  0  0.0315722  0.1218  0.721773  0.31489  0  0  0  0.055125  0.954316  0.0222083  0  0  0  0  0  0  0  0  0 
1704463262.420242000  -2.42541  -0.0479715  1.15153  0  0  0.0317634  0.122089  0.726531  0.314988  0  0  0  0.0605  0.948941  0.0168333  0  0  0  0  0  0  0  0  0 
1704463262.425236000  -2.4248  -0.044327  1.1531  0  0  0.0319521  0.122405  0.731262  0.315058  0  0  0  0.0658681  0.943316  0.0112083  0  0  0  0  0  0  0  0  0 
1704463262.430243000  -2.42419  -0.0406589  1.15468  0  0  0.0321382  0.122748  0.735964  0.315099  0  0  0  0.0709863  0.937441  0.0053333  0  0  0  0  0  0  0  0  0 
1704463262.435243000  -2.42358  -0.0369674  1.15625  0  0  0.0323215  0.123115  0.740636  0.315111  0  0  0  0.0758544  0.931316  -0.0007917  0  0  0  0  0  0  0  0  0 
1704463262.440242000  -2.42296  -0.0332526  1.15783  0  0  0.0325016  0.123506  0.745277  0.315091  0  0  0  0.0804726  0.924941  -0.0071667  0  0  0  0  0  0  0  0  0 
1704463262.445238000  -2.42234  -0.0295147  1.1594  0  0  0.0326783  0.123919  0.749885  0.315039  0  0  0  0.0848408  0.918316  -0.0137917  0  0  0  0  0  0  0  0  0 
1704463262.450240000  -2.42172  -0.0257538  1.16098  0  0  0.0328514  0.124354  0.75446  0.314953  0  0  0  0.0889589  0.911441  -0.0206667  0  0  0  0  0  0  0  0  0 
1704463262.455241000  -2.4211  -0.0219701  1.16255  0  0  0.0330207  0.124808  0.758999  0.314832  0  0  0  0.0928271  0.904316  -0.0277917  0  0  0  0  0  0  0  0  0 
1704463262.460241000  -2.42047  -0.0181638  1.16413  0  0  0.033186  0.125282  0.763502  0.314674  0  0  0  0.0964452  0.896941  -0.0351667  0  0  0  0  0  0  0  0  0 
1704463262.465237000  -2.41984  -0.0143352  1.1657  0  0  0.033347  0.125772  0.767968  0.314479  0  0  0  0.0998134  0.889316  -0.0427917  0  0  0  0  0  0  0  0  0 
1704463262.470244000  -2.41921  -0.0104842  1.16727  0  0  0.0335036  0.126279  0.772395  0.314246  0  0  0  0.102932  0.881441  -0.0506667  0  0  0  0  0  0  0  0  0 
1704463262.475241000  -2.41858  -0.0066113  1.16884  0  0  0.0336555  0.126801  0.776782  0.313972  0  0  0  0.1058  0.873316  -0.0587917  0  0  0  0  0  0  0  0  0 
1704463262.480241000  -2.41795  -0.0027165  1.17041  0  0  0.0338026  0.127337  0.781128  0.313658  0  0  0  0.108418  0.864941  -0.0671667  0  0  0  0  0  0  0  0  0 
1704463262.485237000  -2.41731  0.0011999  1.17198  0  0  0.0339448  0.127885  0.785431  0.3133  0  0  0  0.110786  0.856316  -0.0757917  0  0  0  0  0  0  0  0  0 
1704463262.490243000  -2.41667  0.0051378  1.17354  0  0  0.0340818  0.128444  0.789691  0.312899  0  0  0  0.112904  0.847441  -0.0846667  0  0  0  0  0  0  0  0  0 
1704463262.495242000  -2.41602  0.0090968  1.17511  0  0  0.0342136  0.129014  0.793905  0.312453  0  0  0  0.114772  0.838316  -0.0937917  0  0  0  0  0  0  0  0  0 
1704463262.500242000  -2.41538  0.0130767  1.17667  0  0  0.03434  0.129592  0.798073  0.311961  0  0  0  0.116391  0.828941  -0.103167  0  0  0  0  0  0  0  0  0 
1704463262.505248000  -2.41473  0.0170774  1.17823  0  0  0.0344608  0.130177  0.802194  0.311421  0  0  0  0.117759  0.819316  -0.112792  0  0  0  0  0  0  0  0  0 
1704463262.510243000  -2.41408  0.0210986  1.17978  0  0  0.034576  0.130769  0.806266  0.310833  0  0  0  0.118877  0.809441  -0.122667  0  0  0  0  0  0  0  0  0 
1704463262.515243000  -2.41342  0.02514  1.18134  0  0  0.0346854  0.131365  0.810288  0.310194  0  0  0  0.119745  0.799316  -0.132792  0  0  0  0  0  0  0  0  0 
1704463262.520241000  -2.41276  0.0292014  1.18288  0  0  0.034789  0.131966  0.814259  0.309504  0  0  0  0.120363  0.788941  -0.143167  0  0  0  0  0  0  0  0  0 
1704463262.525238000  -2.4121  0.0332825  1.18443  0  0  0.0348867  0.132569  0.818177  0.308762  0  0  0  0.120731  0.778316  -0.153792  0  0  0  0  0  0  0  0  0 
1704463262.530243000  -2.41144  0.0373831  1.18597  0  0  0.0349784  0.133173  0.822042  0.307966  0  0  0  0.12085  0.767441  -0.164667  0  0  0  0  0  0  0  0  0 
1704463262.535242000  -2.41077  0.0415028  1.18751  0  0  0.035064  0.133777  0.825851  0.307115  0  0  0  0.120718  0.756316  -0.175792  0  0  0  0  0  0  0  0  0 
1704463262.540242000  -2.4101  0.0456415  1.18904  0  0  0.0351434  0.134379  0.829604  0.306208  0  0  0  0.120336  0.744941  -0.187167  0  0  0  0  0  0  0  0  0 
1704463262.545238000  -2.40942  0.0497988  1.19057  0  0  0.0352167  0.13498  0.8333  0.305243  0  0  0  0.119704  0.733316  -0.198792  0  0  0  0  0  0  0  0  0 
1704463262.550242000  -2.40875  0.0539744  1.1921  0  0  0.0352838  0.135576  0.836937  0.304219  0  0  0  0.118822  0.721441  -0.210667  0  0  0  0  0  0  0  0  0 
1704463262.555234000  -2.40807  0.058168  1.19361  0  0  0.0353447  0.136167  0.840514  0.303136  0  0  0  0.11769  0.709316  -0.222792  0  0  0  0  0  0  0  0  0 
1704463262.560241000  -2.40739  0.0623794  1.19513  0  0  0.0353993  0.136753  0.84403  0.301991  0  0  0  0.116308  0.696941  -0.235167  0  0  0  0  0  0  0  0  0 
1704463262.565246000  -2.4067  0.0666082  1.19663  0  0  0.0354477  0.13733  0.847483  0.300784  0  0  0  0.114677  0.684316  -0.247792  0  0  0  0  0  0  0  0  0 
1704463262.570242000  -2.40601  0.0708542  1.19813  0  0  0.0354898  0.137899  0.850873  0.299513  0  0  0  0.112795  0.671441  -0.260615  0  0  0  0  0  0  0  0  0 
1704463262.575243000  -2.40532  0.0751169  1.19963  0  0  0.0355257  0.138458  0.854197  0.298178  0  0  0  0.110663  0.658316  -0.273261  0  0  0  0  0  0  0  0  0 
1704463262.580241000  -2.40463  0.079396  1.20112  0  0  0.0355553  0.139005  0.857455  0.29678  0  0  0  0.108281  0.644941  -0.285658  0  0  0  0  0  0  0  0  0 
1704463262.585235000  -2.40393  0.0836913  1.2026  0  0  0.0355787  0.13954  0.860646  0.295322  0  0  0  0.105649  0.631316  -0.297805  0  0  0  0  0  0  0  0  0 
1704463262.590242000  -2.40323  0.0880024  1.20407  0  0  0.0355958  0.140061  0.863768  0.293803  0  0  0  0.102767  0.617441  -0.309702  0  0  0  0  0  0  0  0  0 
1704463262.595242000  -2.40253  0.0923289  1.20553  0  0  0.0356067  0.140567  0.86682  0.292225  0  0  0  0.0996356  0.603316  -0.321348  0  0  0  0  0  0  0  0  0 
1704463262.600240000  -2.40183  0.0966704  1.20699  0  0  0.0356113  0.141057  0.869801  0.29059  0  0  0  0.0962538  0.588941  -0.332745  0  0  0  0  0  0  0  0  0 
1704463262.605237000  -2.40112  0.101027  1.20844  0  0  0.0356097  0.141529  0.872709  0.288898  0  0  0  0.0926219  0.574316  -0.343892  0  0  0  0  0  0  0  0  0 
1704463262.610242000  -2.40041  0.105397  1.20988  0  0  0.0356018  0.141983  0.875544  0.287151  0  0  0  0.0887401  0.559441  -0.354789  0  0  0  0  0  0  0  0  0 
1704463262.615241000  -2.3997  0.109782  1.21131  0  0  0.0355877  0.142416  0.878303  0.285351  0  0  0  0.0846083  0.544316  -0.365436  0  0  0  0  0  0  0  0  0 
1704463262.620243000  -2.39899  0.11418  1.21273  0  0  0.0355673  0.142829  0.880986  0.283497  0  0  0  0.0802264  0.528941  -0.375832  0  0  0  0  0  0  0  0  0 
1704463262.625237000  -2.39827  0.118592  1.21415  0  0  0.0355407  0.143218  0.883592  0.281593  0  0  0  0.0755946  0.513316  -0.385979  0  0  0  0  0  0  0  0  0 
1704463262.630244000  -2.39756  0.123016  1.21555  0  0  0.0355078  0.143584  0.886119  0.279638  0  0  0  0.0707128  0.497441  -0.395876  0  0  0  0  0  0  0  0  0 
1704463262.635241000  -2.39684  0.127453  1.21694  0  0  0.0354687  0.143925  0.888566  0.277634  0  0  0  0.0655809  0.481316  -0.405523  0  0  0  0  0  0  0  0  0 
1704463262.640242000  -2.39612  0.131902  1.21833  0  0  0.0354233  0.14424  0.890932  0.275583  0  0  0  0.0601995  0.464941  -0.414919  0  0  0  0  0  0  0  0  0 
1704463262.645237000  -2.3954  0.136362  1.2197  0  0  0.0353717  0.144527  0.893215  0.273486  0  0  0  0.0548382  0.448316  -0.424066  0  0  0  0  0  0  0  0  0 
1704463262.650244000  -2.39467  0.140834  1.22106  0  0  0.0353138  0.144788  0.895415  0.271343  0  0  0  0.0497269  0.431441  -0.432963  0  0  0  0  0  0  0  0  0 
1704463262.655249000  -2.39395  0.145316  1.22241  0  0  0.0352497  0.145025  0.897529  0.269156  0  0  0  0.0448655  0.414316  -0.44161  0  0  0  0  0  0  0  0  0 
1704463262.660249000  -2.39322  0.149809  1.22375  0  0  0.0351794  0.145237  0.899557  0.266927  0  0  0  0.0402542  0.396941  -0.450007  0  0  0  0  0  0  0  0  0 
1704463262.665249000  -2.39249  0.154311  1.22508  0  0  0.0351027  0.145428  0.901498  0.264657  0  0  0  0.0358929  0.379316  -0.458153  0  0  0  0  0  0  0  0  0 
1704463262.670249000  -2.39177  0.158824  1.2264  0  0  0.0350199  0.145597  0.90335  0.262346  0  0  0  0.0317816  0.361441  -0.46605  0  0  0  0  0  0  0  0  0 
1704463262.675250000  -2.39104  0.163345  1.2277  0  0  0.0349307  0.145746  0.905112  0.259997  0  0  0  0.0279202  0.343316  -0.473697  0  0  0  0  0  0  0  0  0 
1704463262.680250000  -2.39031  0.167875  1.229  0  0  0.0348354  0.145876  0.906783  0.257609  0  0  0  0.0243089  0.324941  -0.481094  0  0  0  0  0  0  0  0  0 
1704463262.685250000  -2.38958  0.172412  1.23028  0  0  0.0347337  0.145989  0.908361  0.255186  0  0  0  0.0209476  0.306316  -0.48824  0  0  0  0  0  0  0  0  0 
1704463262.690249000  -2.38885  0.176958  1.23155  0  0  0.0346259  0.146086  0.909846  0.252728  0  0  0  0.0178363  0.287441  -0.495137  0  0  0  0  0  0  0  0  0 
1704463262.695251000  -2.38812  0.181511  1.23281  0  0  0.0345117  0.146168  0.911235  0.250235  0  0  0  0.0149749  0.268316  -0.501784  0  0  0  0  0  0  0  0  0 
1704463262.700248000  -2.38739  0.18607  1.23405  0  0  0.0343914  0.146236  0.912528  0.24771  0  0  0  0.0123636  0.248941  -0.508181  0  0  0  0  0  0  0  0  0 
1704463262.705251000  -2.38666  0.190636  1.23529  0  0  0.0342647  0.146292  0.913724  0.245154  0  0  0  0.0100023  0.229316  -0.514327  0  0  0  0  0  0  0  0  0 
1704463262.710251000  -2.38593  0.195207  1.2365  0  0  0.0341319  0.146337  0.914821  0.242567  0  0  0  0.007891  0.209441  -0.520224  0  0  0  0  0  0  0  0  0 
1704463262.715250000  -2.38519  0.199784  1.23771  0  0  0.0339927  0.146372  0.915818  0.239952  0  0  0  0.0060296  0.189316  -0.525871  0  0  0  0  0  0  0  0  0 
1704463262.720249000  -2.38446  0.204365  1.2389  0  0  0.0338474  0.146398  0.916714  0.237309  0  0  0  0.0044183  0.168941  -0.531268  0  0  0  0  0  0  0  0  0 
1704463262.725259000  -2.38373  0.208951  1.24008  0  0  0.0336957  0.146416  0.917507  0.23464  0  0  0  0.003057  0.148316  -0.536415  0  0  0  0  0  0  0  0  0 
1704463262.730251000  -2.383  0.21354  1.24125  0  0  0.0335379  0.146429  0.918196  0.231945  0  0  0  0.0019457  0.127441  -0.541311  0  0  0  0  0  0  0  0  0 
1704463262.735253000  -2.38227  0.218133  1.2424  0  0  0.0333737  0.146436  0.918781  0.229227  0  0  0  0.0010843  0.106316  -0.545958  0  0  0  0  0  0  0  0  0 
1704463262.740256000  -2.38153  0.222728  1.24354  0  0  0.0332034  0.14644  0.919259  0.226486  0  0  0  0.000473  0.0849409  -0.550355  0  0  0  0  0  0  0  0  0 
1704463262.745253000  -2.3808  0.227325  1.24467  0  0  0.0330267  0.146441  0.91963  0.223724  0  0  0  0.0001117  0.0633159  -0.554502  0  0  0  0  0  0  0  0  0 
1704463262.750251000  -2.38007  0.231924  1.24578  0  0  0.0328439  0.146441  0.919892  0.220941  0  0  0  0  0.0414409  -0.558398  0  0  0  0  0  0  0  0  0 
1704463262.755251000  -2.37934  0.236524  1.24688  0  0  0.0326547  0.146441  0.920044  0.21814  0  0  0  0  0.0193159  -0.562045  0  0  0  0  0  0  0  0  0 
1704463262.760251000  -2.3786  0.241124  1.24796  0  0  0.0324594  0.146441  0.920085  0.215321  0  0  0  0  -0.0030591  -0.565442  0  0  0  0  0  0  0  0  0 
1704463262.765253000  -2.37787  0.245725  1.24903  0  0  0.0322577  0.146441  0.920013  0.212486  0  0  0  0  -0.0256841  -0.568589  0  0  0  0  0  0  0  0  0 
1704463262.770250000  -2.37714  0.250324  1.25009  0  0  0.0320499  0.146441  0.919827  0.209636  0  0  0  0  -0.0485591  -0.571486  0  0  0  0  0  0  0  0  0 
1704463262.775250000  -2.37641  0.254923  1.25113  0  0  0.0318357  0.146441  0.919527  0.206772  0  0  0  0  -0.0716841  -0.574132  0  0  0  0  0  0  0  0  0 
1704463262.780251000  -2.37568  0.259519  1.25215  0  0  0.0316154  0.146441  0.91911  0.203895  0  0  0  0  -0.0949408  -0.576529  0  0  0  0  0  0  0  0  0 
1704463262.785254000  -2.37494  0.264114  1.25317  0  0  0.0313887  0.146441  0.918578  0.201007  0  0  0  0  -0.117972  -0.578676  0  0  0  0  0  0  0  0  0 
1704463262.790250000  -2.37421  0.268705  1.25416  0  0  0.0311559  0.146441  0.917931  0.198109  0  0  0  0  -0.140753  -0.580573  0  0  0  0  0  0  0  0  0 
1704463262.795252000  -2.37348  0.273293  1.25515  0  0  0.0309167  0.146441  0.917171  0.195202  0  0  0  0  -0.163284  -0.582219  0  0  0  0  0  0  0  0  0 
1704463262.800251000  -2.37275  0.277876  1.25612  0  0  0.0306714  0.146441  0.916299  0.192287  0  0  0  0  -0.185565  -0.583616  0  0  0  0  0  0  0  0  0 
1704463262.805251000  -2.37201  0.282455  1.25707  0  0  0.0304197  0.146441  0.915316  0.189366  0  0  0  0  -0.207596  -0.584763  0  0  0  0  0  0  0  0  0 
1704463262.810249000  -2.37128  0.287029  1.25801  0  0  0.0301619  0.146441  0.914223  0.18644  0  0  0  0  -0.229377  -0.58566  0  0  0  0  0  0  0  0  0 
1704463262.815250000  -2.37055  0.291597  1.25893  0  0  0.0298977  0.146441  0.913022  0.18351  0  0  0  0  -0.250908  -0.586307  0  0  0  0  0  0  0  0  0 
1704463262.820258000  -2.36982  0.296159  1.25984  0  0  0.0296274  0.146441  0.911714  0.180577  0  0  0  0  -0.272189  -0.586703  0  0  0  0  0  0  0  0  0 
1704463262.825237000  -2.36909  0.300714  1.26074  0  0  0.0293507  0.146441  0.910301  0.177643  0  0  0  0  -0.29322  -0.58685  0  0  0  0  0  0  0  0  0 
1704463262.830242000  -2.36835  0.305262  1.26162  0  0  0.0290679  0.146441  0.908783  0.174709  0  0  0  0  -0.314001  -0.586747  0  0  0  0  0  0  0  0  0 
1704463262.835243000  -2.36762  0.309802  1.26249  0  0  0.0287787  0.146441  0.907161  0.171776  0  0  0  0  -0.334532  -0.586394  0  0  0  0  0  0  0  0  0 
1704463262.840241000  -2.36689  0.314334  1.26334  0  0  0.0284834  0.146441  0.905438  0.168845  0  0  0  0  -0.354813  -0.58579  0  0  0  0  0  0  0  0  0 
1704463262.845235000  -2.36616  0.318856  1.26418  0  0  0.0281817  0.146441  0.903613  0.165919  0  0  0  0  -0.374844  -0.584937  0  0  0  0  0  0  0  0  0 
1704463262.850242000  -2.36542  0.32337  1.265  0  0  0.0278739  0.146441  0.90169  0.162996  0  0  0  0  -0.394625  -0.583834  0  0  0  0  0  0  0  0  0 
1704463262.855243000  -2.36469  0.327873  1.26581  0  0  0.0275597  0.146441  0.899668  0.160081  0  0  0  0  -0.414156  -0.582481  0  0  0  0  0  0  0  0  0 
1704463262.860241000  -2.36396  0.332366  1.2666  0  0  0.0272394  0.146441  0.897549  0.157172  0  0  0  0  -0.433437  -0.580877  0  0  0  0  0  0  0  0  0 
1704463262.865239000  -2.36323  0.336848  1.26738  0  0  0.0269127  0.146441  0.895334  0.154272  0  0  0  0  -0.452468  -0.579024  0  0  0  0  0  0  0  0  0 
1704463262.870251000  -2.3625  0.341319  1.26814  0  0  0.0265799  0.146441  0.893024  0.151382  0  0  0  0  -0.471249  -0.576921  0  0  0  0  0  0  0  0  0 
1704463262.875241000  -2.36176  0.345778  1.26889  0  0  0.0262407  0.146441  0.890622  0.148503  0  0  0  0  -0.48978  -0.574568  0  0  0  0  0  0  0  0  0 
1704463262.880240000  -2.36103  0.350225  1.26963  0  0  0.0258954  0.146441  0.888127  0.145637  0  0  0  0  -0.508062  -0.571965  0  0  0  0  0  0  0  0  0 
1704463262.885237000  -2.3603  0.35466  1.27035  0  0  0.0255437  0.146441  0.885541  0.142784  0  0  0  0  -0.526093  -0.569111  0  0  0  0  0  0  0  0  0 
1704463262.890250000  -2.35957  0.359081  1.27105  0  0  0.0251859  0.146441  0.882866  0.139946  0  0  0  0  -0.543874  -0.566008  0  0  0  0  0  0  0  0  0 
1704463262.895253000  -2.35883  0.363488  1.27175  0  0  0.0248217  0.146441  0.880103  0.137125  0  0  0  0  -0.561405  -0.562655  0  0  0  0  0  0  0  0  0 
1704463262.900246000  -2.3581  0.367882  1.27243  0  0  0.0244514  0.146441  0.877253  0.13432  0  0  0  0  -0.578686  -0.559052  0  0  0  0  0  0  0  0  0 
1704463262.905248000  -2.35737  0.37226  1.27309  0  0  0.0240747  0.146441  0.874317  0.131534  0  0  0  0  -0.595717  -0.555198  0  0  0  0  0  0  0  0  0 
1704463262.910246000  -2.35664  0.376625  1.27374  0  0  0.0236919  0.146441  0.871296  0.128769  0  0  0  0  -0.612498  -0.551095  0  0  0  0  0  0  0  0  0 
1704463262.915247000  -2.35591  0.380973  1.27438  0  0  0.0233027  0.146441  0.868192  0.126024  0  0  0  0  -0.629029  -0.546742  0  0  0  0  0  0  0  0  0 
1704463262.920247000  -2.35517  0.385306  1.275  0  0  0.0229074  0.146441  0.865006  0.123302  0  0  0  0  -0.64531  -0.542139  0  0  0  0  0  0  0  0  0 
1704463262.925247000  -2.35444  0.389623  1.27561  0  0  0.0225057  0.146441  0.861739  0.120603  0  0  0  0  -0.661341  -0.537286  0  0  0  0  0  0  0  0  0 
1704463262.930231000  -2.35371  0.393924  1.27621  0  0  0.0220979  0.146441  0.858393  0.117929  0  0  0  0  -0.677122  -0.532182  0  0  0  0  0  0  0  0  0 
1704463262.935246000  -2.35298  0.398207  1.27679  0  0  0.0216838  0.146441  0.854969  0.115282  0  0  0  0  -0.692653  -0.526829  0  0  0  0  0  0  0  0  0 
1704463262.940246000  -2.35225  0.402473  1.27736  0  0  0.0212634  0.146441  0.851467  0.112661  0  0  0  0  -0.707934  -0.521226  0  0  0  0  0  0  0  0  0 
1704463262.945247000  -2.35151  0.406722  1.27792  0  0  0.0208368  0.146441  0.84789  0.11007  0  0  0  0  -0.722965  -0.515373  0  0  0  0  0  0  0  0  0 
1704463262.950252000  -2.35078  0.410952  1.27846  0  0  0.0204039  0.146441  0.844238  0.107508  0  0  0  0  -0.737746  -0.509269  0  0  0  0  0  0  0  0  0 
1704463262.955246000  -2.35005  0.415164  1.27899  0  0  0.0199648  0.146441  0.840513  0.104977  0  0  0  0  -0.752277  -0.502916  0  0  0  0  0  0  0  0  0 
1704463262.960246000  -2.34932  0.419357  1.27951  0  0  0.0195194  0.146441  0.836715  0.102479  0  0  0  0  -0.766558  -0.496313  0  0  0  0  0  0  0  0  0 
1704463262.965247000  -2.34858  0.423531  1.28002  0  0  0.0190678  0.146441  0.832847  0.100015  0  0  0  0  -0.780589  -0.48946  0  0  0  0  0  0  0  0  0 
1704463262.970247000  -2.34785  0.427685  1.28051  0  0  0.0186099  0.146441  0.82891  0.0975851  0  0  0  0  -0.79437  -0.482356  0  0  0  0  0  0  0  0  0 
1704463262.975246000  -2.34712  0.43182  1.28099  0  0  0.0181458  0.146441  0.824904  0.0951916  0  0  0  0  -0.807901  -0.475003  0  0  0  0  0  0  0  0  0 
1704463262.980248000  -2.34639  0.435934  1.28146  0  0  0.0176754  0.146441  0.820831  0.0928354  0  0  0  0  -0.821182  -0.4674  0  0  0  0  0  0  0  0  0 
1704463262.985259000  -2.34566  0.440028  1.28192  0  0  0.0171988  0.146441  0.816693  0.090518  0  0  0  0  -0.834213  -0.459547  0  0  0  0  0  0  0  0  0 
1704463262.990247000  -2.34492  0.444101  1.28237  0  0  0.0167159  0.146441  0.81249  0.0882404  0  0  0  0  -0.846994  -0.451444  0  0  0  0  0  0  0  0  0 
1704463262.995247000  -2.34419  0.448153  1.2828  0  0  0.0162268  0.146441  0.808223  0.086004  0  0  0  0  -0.859525  -0.44309  0  0  0  0  0  0  0  0  0 
1704463263.000255000  -2.34346  0.452183  1.28323  0  0  0.0157314  0.146441  0.803895  0.0838099  0  0  0  0  -0.871806  -0.434487  0  0  0  0  0  0  0  0  0 
1704463263.005247000  -2.34273  0.456192  1.28364  0  0  0.0152298  0.146441  0.799506  0.0816595  0  0  0  0  -0.883837  -0.425634  0  0  0  0  0  0  0  0  0 
1704463263.010256000  -2.34199  0.460178  1.28404  0  0  0.0147219  0.146441  0.795057  0.079554  0  0  0  0  -0.895618  -0.416531  0  0  0  0  0  0  0  0  0 
1704463263.015250000  -2.34126  0.464142  1.28444  0  0  0.0142078  0.146441  0.79055  0.0774946  0  0  0  0  -0.90715  -0.407177  0  0  0  0  0  0  0  0  0 
1704463263.020242000  -2.34053  0.468084  1.28482  0  0  0.0136874  0.146441  0.785986  0.0754826  0  0  0  0  -0.918431  -0.397574  0  0  0  0  0  0  0  0  0 
1704463263.025234000  -2.3398  0.472002  1.28519  0  0  0.0131608  0.146441  0.781366  0.0735193  0  0  0  0  -0.929462  -0.387721  0  0  0  0  0  0  0  0  0 
1704463263.030241000  -2.33907  0.475897  1.28556  0  0  0.0126279  0.146441  0.776692  0.0716058  0  0  0  0  -0.940243  -0.377618  0  0  0  0  0  0  0  0  0 
1704463263.035233000  -2.33833  0.479769  1.28591  0  0  0.0120888  0.146441  0.771964  0.0697435  0  0  0  0  -0.950774  -0.367265  0  0  0  0  0  0  0  0  0 
1704463263.040241000  -2.3376  0.483617  1.28625  0  0  0.0115434  0.146441  0.767184  0.0679336  0  0  0  0  -0.961055  -0.356661  0  0  0  0  0  0  0  0  0 
1704463263.045235000  -2.33687  0.487441  1.28659  0  0  0.0109918  0.146441  0.762354  0.0661773  0  0  0  0  -0.971086  -0.345808  0  0  0  0  0  0  0  0  0 
1704463263.050240000  -2.33614  0.49124  1.28691  0  0  0.0104339  0.146441  0.757474  0.0644759  0  0  0  0  -0.980867  -0.334705  0  0  0  0  0  0  0  0  0 
1704463263.055240000  -2.3354  0.495015  1.28723  0  0  0.0098698  0.146441  0.752546  0.0628307  0  0  0  0  -0.990398  -0.323352  0  0  0  0  0  0  0  0  0 
1704463263.060241000  -2.33467  0.498765  1.28754  0  0  0.0092994  0.146441  0.74757  0.0612428  0  0  0  0  -0.999679  -0.311748  0  0  0  0  0  0  0  0  0 
1704463263.065234000  -2.33394  0.502491  1.28785  0  0  0.0087228  0.146441  0.742549  0.0597136  0  0  0  0  -1.00871  -0.299895  0  0  0  0  0  0  0  0  0 
1704463263.070240000  -2.33321  0.506191  1.28814  0  0  0.0081399  0.146441  0.737484  0.0582443  0  0  0  0  -1.01749  -0.287846  0  0  0  0  0  0  0  0  0 
1704463263.075241000  -2.33248  0.509866  1.28843  0  0  0.0075508  0.146441  0.732375  0.0568348  0  0  0  0  -1.02602  -0.275974  0  0  0  0  0  0  0  0  0 
1704463263.080240000  -2.33174  0.513515  1.28871  0  0  0.0069554  0.146441  0.727224  0.0554841  0  0  0  0  -1.0343  -0.264352  0  0  0  0  0  0  0  0  0 
1704463263.085235000  -2.33101  0.517138  1.28898  0  0  0.0063538  0.146441  0.722032  0.0541909  0  0  0  0  -1.04233  -0.25298  0  0  0  0  0  0  0  0  0 
1704463263.090240000  -2.33028  0.520735  1.28925  0  0  0.0057459  0.146441  0.716801  0.0529539  0  0  0  0  -1.05012  -0.241858  0  0  0  0  0  0  0  0  0 
1704463263.095240000  -2.32955  0.524306  1.28951  0  0  0.0051318  0.146441  0.711531  0.0517719  0  0  0  0  -1.05765  -0.230987  0  0  0  0  0  0  0  0  0 
1704463263.100240000  -2.32881  0.52785  1.28977  0  0  0.0045114  0.146441  0.706225  0.0506436  0  0  0  0  -1.06493  -0.220365  0  0  0  0  0  0  0  0  0 
1704463263.105255000  -2.32808  0.531368  1.29002  0  0  0.0038848  0.146441  0.700882  0.0495678  0  0  0  0  -1.07196  -0.209993  0  0  0  0  0  0  0  0  0 
1704463263.110259000  -2.32735  0.534859  1.29026  0  0  0.0032519  0.146441  0.695506  0.0485433  0  0  0  0  -1.07874  -0.199871  0  0  0  0  0  0  0  0  0 
1704463263.115259000  -2.32662  0.538323  1.2905  0  0  0.0026128  0.146441  0.690095  0.0475687  0  0  0  0  -1.08527  -0.189999  0  0  0  0  0  0  0  0  0 
1704463263.120260000  -2.32589  0.54176  1.29074  0  0  0.0019674  0.146441  0.684653  0.0466428  0  0  0  0  -1.09155  -0.180378  0  0  0  0  0  0  0  0  0 
1704463263.125251000  -2.32515  0.545169  1.29097  0  0  0.0013158  0.146441  0.67918  0.0457645  0  0  0  0  -1.09758  -0.171006  0  0  0  0  0  0  0  0  0 
1704463263.130242000  -2.32442  0.548551  1.2912  0  0  0.0006579  0.146441  0.673678  0.0449324  0  0  0  0  -1.10336  -0.161884  0  0  0  0  0  0  0  0  0 
1704463263.135258000  -2.32369  0.551906  1.29142  0  0  -6.2e-06  0.146441  0.668147  0.0441452  0  0  0  0  -1.10889  -0.153012  0  0  0  0  0  0  0  0  0 
1704463263.140258000  -2.32296  0.555233  1.29164  0  0  -0.0006766  0.146441  0.662589  0.0434018  0  0  0  0  -1.11418  -0.144391  0  0  0  0  0  0  0  0  0 
1704463263.145254000  -2.32222  0.558532  1.29185  0  0  -0.0013532  0.146441  0.657006  0.0427009  0  0  0  0  -1.11921  -0.136019  0  0  0  0  0  0  0  0  0 
1704463263.150258000  -2.32149  0.561803  1.29207  0  0  -0.0020361  0.146441  0.651398  0.0420412  0  0  0  0  -1.12399  -0.127897  0  0  0  0  0  0  0  0  0 
1704463263.155259000  -2.32076  0.565046  1.29227  0  0  -0.0027252  0.146441  0.645766  0.0414215  0  0  0  0  -1.12852  -0.120025  0  0  0  0  0  0  0  0  0 
1704463263.160257000  -2.32003  0.568261  1.29248  0  0  -0.0034206  0.146441  0.640113  0.0408406  0  0  0  0  -1.1328  -0.112403  0  0  0  0  0  0  0  0  0 
1704463263.165252000  -2.3193  0.571447  1.29268  0  0  -0.0041222  0.146441  0.634439  0.0402971  0  0  0  0  -1.13683  -0.105032  0  0  0  0  0  0  0  0  0 
1704463263.170258000  -2.31856  0.574605  1.29288  0  0  -0.0048301  0.146441  0.628745  0.0397898  0  0  0  0  -1.14061  -0.0979099  0  0  0  0  0  0  0  0  0 
1704463263.175258000  -2.31783  0.577734  1.29308  0  0  -0.0055442  0.146441  0.623033  0.0393176  0  0  0  0  -1.14414  -0.0910381  0  0  0  0  0  0  0  0  0 
1704463263.180258000  -2.3171  0.580835  1.29328  0  0  -0.0062646  0.146441  0.617304  0.038879  0  0  0  0  -1.14742  -0.0844163  0  0  0  0  0  0  0  0  0 
1704463263.185251000  -2.31637  0.583907  1.29347  0  0  -0.0069912  0.146441  0.611559  0.038473  0  0  0  0  -1.15045  -0.0780446  0  0  0  0  0  0  0  0  0 
1704463263.190259000  -2.31563  0.586951  1.29366  0  0  -0.0077241  0.146441  0.6058  0.0380982  0  0  0  0  -1.15324  -0.0719228  0  0  0  0  0  0  0  0  0 
1704463263.195258000  -2.3149  0.589965  1.29385  0  0  -0.0084632  0.146441  0.600027  0.0377533  0  0  0  0  -1.15577  -0.066051  0  0  0  0  0  0  0  0  0 
1704463263.200258000  -2.31417  0.592951  1.29404  0  0  -0.0092086  0.146441  0.594243  0.0374372  0  0  0  0  -1.15805  -0.0604292  0  0  0  0  0  0  0  0  0 
1704463263.205250000  -2.31344  0.595908  1.29423  0  0  -0.0099602  0.146441  0.588447  0.0371486  0  0  0  0  -1.16008  -0.0550574  0  0  0  0  0  0  0  0  0 
1704463263.210241000  -2.31271  0.598836  1.29441  0  0  -0.0107181  0.146441  0.582642  0.0368862  0  0  0  0  -1.16186  -0.0499356  0  0  0  0  0  0  0  0  0 
1704463263.215257000  -2.31197  0.601734  1.29459  0  0  -0.0114822  0.146441  0.576829  0.0366489  0  0  0  0  -1.16339  -0.0450639  0  0  0  0  0  0  0  0  0 
1704463263.220259000  -2.31124  0.604604  1.29478  0  0  -0.0122526  0.146441  0.571009  0.0364352  0  0  0  0  -1.16467  -0.0404421  0  0  0  0  0  0  0  0  0 
1704463263.225252000  -2.31051  0.607444  1.29496  0  0  -0.0130292  0.146441  0.565183  0.036244  0  0  0  0  -1.1657  -0.0360703  0  0  0  0  0  0  0  0  0 
1704463263.230258000  -2.30978  0.610256  1.29514  0  0  -0.0138121  0.146441  0.559352  0.0360741  0  0  0  0  -1.16648  -0.0319485  0  0  0  0  0  0  0  0  0 
1704463263.235258000  -2.30904  0.613038  1.29532  0  0  -0.0146012  0.146441  0.553518  0.0359241  0  0  0  0  -1.16702  -0.0280767  0  0  0  0  0  0  0  0  0 
1704463263.240258000  -2.30831  0.615791  1.2955  0  0  -0.0153966  0.146441  0.547682  0.0357929  0  0  0  0  -1.1673  -0.024455  0  0  0  0  0  0  0  0  0 
1704463263.245251000  -2.30758  0.618515  1.29568  0  0  -0.0161982  0.146441  0.541846  0.0356791  0  0  0  0  -1.16733  -0.0210832  0  0  0  0  0  0  0  0  0 
1704463263.250258000  -2.30685  0.621209  1.29586  0  0  -0.0170061  0.146441  0.53601  0.0355816  0  0  0  0  -1.16711  -0.0179614  0  0  0  0  0  0  0  0  0 
1704463263.255241000  -2.30612  0.623875  1.29603  0  0  -0.0178202  0.146441  0.530175  0.0354991  0  0  0  0  -1.16664  -0.0150896  0  0  0  0  0  0  0  0  0 
1704463263.260257000  -2.30538  0.626511  1.29621  0  0  -0.0186406  0.146441  0.524344  0.0354303  0  0  0  0  -1.16592  -0.0124678  0  0  0  0  0  0  0  0  0 
1704463263.265256000  -2.30465  0.629118  1.29639  0  0  -0.0194672  0.146441  0.518516  0.035374  0  0  0  0  -1.16495  -0.0100961  0  0  0  0  0  0  0  0  0 
1704463263.270263000  -2.30392  0.631696  1.29656  0  0  -0.0203001  0.146441  0.512695  0.0353289  0  0  0  0  -1.16373  -0.0079743  0  0  0  0  0  0  0  0  0 
1704463263.275259000  -2.30319  0.634245  1.29674  0  0  -0.0211392  0.146441  0.506879  0.0352939  0  0  0  0  -1.16226  -0.0061025  0  0  0  0  0  0  0  0  0 
1704463263.280252000  -2.30245  0.636765  1.29692  0  0  -0.0219846  0.146441  0.501072  0.0352675  0  0  0  0  -1.16054  -0.0044807  0  0  0  0  0  0  0  0  0 
1704463263.285243000  -2.30172  0.639256  1.29709  0  0  -0.0228362  0.146441  0.495274  0.0352486  0  0  0  0  -1.15858  -0.0031089  0  0  0  0  0  0  0  0  0 
