ts fx fy fz tx ty tz exfx exfy exfz extx exty extz xd yd zd rolld pitchd yawd vxd vyd vzd wxd wyd wzd axd ayd azd e_x e_y e_z e_vx e_vy e_vz e_rx e_ry e_rz e_wx e_wy e_wz
1704463261.334740000  0  0  11.4215  0.0445775  -0.13346  0.0254507  nan  nan  nan  nan  nan  nan  -2.5  -0.3  1  0.0166876  -0.0187161  -0.000312338  0  0  0  0  0  0  0  0  0  0.0155831  0.00549013  -0.011788  -0.0156672  0.00525408  0.0058343  -0.0120696  0.0217752  -0.0263874  0.055741  0.0397781  -0.0411593 
1704463261.337408000  0  0  11.3734  0.0465359  -0.121189  0.0252746  nan  nan  nan  nan  nan  nan  -2.5  -0.3  1  0.0165184  -0.0185933  -0.000307141  0  0  0  0  0  0  0  0  0  0.0155405  0.0055019  -0.0117401  -0.0157848  0.00497203  0.00966173  -0.0118478  0.0214373  -0.0264738  0.0473667  0.0121706  -0.038611 
1704463261.343408000  0  0  11.4646  0.0484046  -0.154144  0.0236665  nan  nan  nan  nan  nan  nan  -2.5  -0.3  1  0.0153928  -0.0223223  -0.000343602  0  0  0  0  0  0  0  0  0  0.0156195  0.00543474  -0.0118691  -0.0118076  0.00405933  0.00246686  -0.0107568  0.0255317  -0.026468  0.0267199  0.0404501  -0.0220293 
1704463261.348411000  0  0  11.4661  0.0719076  -0.162521  0.0208165  nan  nan  nan  nan  nan  nan  -2.5  -0.3  1  0.0163156  -0.0194544  -0.000317417  0  0  0  0  0  0  0  0  0  0.0156355  0.00538901  -0.0119269  -0.0149166  0.00515661  0.0024518  -0.0120391  0.0235086  -0.0262307  -0.0170182  0.0917334  0.00544771 
1704463261.353422000  0  0  11.3267  0.0696509  -0.126523  0.0225073  nan  nan  nan  nan  nan  nan  -2.5  -0.3  1  0.0158888  -0.0190433  -0.000302582  0  0  0  0  0  0  0  0  0  0.0155488  0.0054122  -0.0118047  -0.015408  0.00443884  0.013577  -0.0117418  0.0224666  -0.0264035  -0.0153257  0.0114716  -0.0105844 
1704463261.358370000  0  0  11.4268  0.0769719  -0.159  0.0240273  nan  nan  nan  nan  nan  nan  -2.5  -0.3  1  0.0156116  -0.0215579  -0.000336555  0  0  0  0  0  0  0  0  0  0.0156272  0.00534841  -0.0118986  -0.0127204  0.00443685  0.00558891  -0.0118076  0.0254927  -0.0265938  -0.0337519  0.0538617  -0.0247018 
1704463261.362416000  0  0  11.4028  0.122321  -0.159403  0.0193588  nan  nan  nan  nan  nan  nan  -2.5  -0.3  1  0.0172336  -0.0176693  -0.000304521  0  0  0  0  0  0  0  0  0  0.0155331  0.00538342  -0.0118571  -0.0167005  0.00605268  0.00744597  -0.0144577  0.0223433  -0.0261835  -0.115612  0.100253  0.0201253 
1704463261.368359000  0  0  11.271  0.10486  -0.110378  0.022597  nan  nan  nan  nan  nan  nan  -2.5  -0.3  1  0.0161616  -0.0177461  -0.000286816  0  0  0  0  0  0  0  0  0  0.0155618  0.00532235  -0.0118171  -0.016904  0.00484995  0.0181234  -0.0136824  0.0214558  -0.0264121  -0.0805671  -0.0167012  -0.0114391 
1704463261.373551000  0  0  11.4755  0.120982  -0.166974  0.0280833  nan  nan  nan  nan  nan  nan  -2.5  -0.3  1  0.0168338  -0.0211571  -0.000356162  0  0  0  0  0  0  0  0  0  0.0156282  0.00529069  -0.0119814  -0.013053  0.0059523  0.00175043  -0.015065  0.0256805  -0.0271531  -0.103329  0.0722597  -0.0619419 
1704463261.378365000  0  0  11.4277  0.144888  -0.151931  0.0236025  nan  nan  nan  nan  nan  nan  -2.5  -0.3  1  0.0178019  -0.0190995  -0.000340024  0  0  0  0  0  0  0  0  0  0.0155392  0.00532661  -0.0119194  -0.0151432  0.00683027  0.00551345  -0.0169439  0.023805  -0.0269202  -0.139549  0.0594442  -0.0175623 
1704463261.383417000  0  0  11.328  0.108247  -0.111362  0.029583  nan  nan  nan  nan  nan  nan  -2.5  -0.3  1  0.0165415  -0.0204469  -0.00033823  0  0  0  0  0  0  0  0  0  0.0156011  0.00526141  -0.0118832  -0.0140361  0.00547757  0.0135833  -0.015546  0.0240563  -0.0276499  -0.0627096  -0.0515246  -0.0732707 
1704463261.387418000  0  0  11.4329  0.103688  -0.140638  0.0317925  nan  nan  nan  nan  nan  nan  -2.5  -0.3  1  0.0164225  -0.0223131  -0.000366438  0  0  0  0  0  0  0  0  0  0.0155603  0.00528709  -0.0119141  -0.0117458  0.00545325  0.00508683  -0.0155743  0.0262138  -0.0282108  -0.0502386  -0.00510404  -0.091401 
1704463261.393422000  0  0  11.4695  0.140384  -0.147869  0.0194641  nan  nan  nan  nan  nan  nan  -2.5  -0.3  1  0.0172654  -0.0199864  -0.000345085  0  0  0  0  0  0  0  0  0  0.0155779  0.00526171  -0.0120048  -0.0142052  0.00647294  0.00226368  -0.0176137  0.0244928  -0.0271965  -0.117992  0.0387968  0.0275618 
1704463261.397420000  0  0  11.3786  0.120629  -0.124596  0.0212437  nan  nan  nan  nan  nan  nan  -2.5  -0.3  1  0.0171691  -0.019165  -0.000329057  0  0  0  0  0  0  0  0  0  0.0155078  0.00528743  -0.0119219  -0.0150897  0.00616493  0.00951404  -0.0174096  0.0232591  -0.0272622  -0.0686545  -0.00503198  0.00971051 
1704463261.403349000  0  0  11.4323  0.10177  -0.14594  0.023746  nan  nan  nan  nan  nan  nan  -2.5  -0.3  1  0.0159467  -0.0211325  -0.000336996  0  0  0  0  0  0  0  0  0  0.0155729  0.00522801  -0.0119821  -0.0130384  0.00507992  0.00524614  -0.016228  0.0255066  -0.0275073  -0.0357533  0.019103  -0.0141053 
1704463261.408416000  0  0  11.459  0.123661  -0.153889  0.0131868  nan  nan  nan  nan  nan  nan  -2.5  -0.3  1  0.0175623  -0.0193416  -0.000339697  0  0  0  0  0  0  0  0  0  0.0156116  0.00518779  -0.0120647  -0.0149929  0.00694383  0.00323134  -0.0182869  0.0242658  -0.026325  -0.0640515  0.0579934  0.0851459 
1704463261.413421000  0  0  11.2494  0.101847  -0.121284  0.020654  nan  nan  nan  nan  nan  nan  -2.5  -0.3  1  0.0159191  -0.0184294  -0.000293386  0  0  0  0  0  0  0  0  0  0.0156575  0.00511428  -0.0119571  -0.0164387  0.00503918  0.0201172  -0.0165842  0.0228197  -0.0267894  -0.0308326  -0.00747187  0.0118296 
1704463261.418351000  0  0  11.3159  0.0627051  -0.132994  0.028129  nan  nan  nan  nan  nan  nan  -2.5  -0.3  1  0.0145553  -0.0211746  -0.000308201  0  0  0  0  0  0  0  0  0  0.0156054  0.00513485  -0.011944  -0.0132996  0.00364715  0.0146733  -0.0144802  0.0253896  -0.0277263  0.0424639  -0.0134711  -0.057591 
1704463261.423405000  0  0  11.4424  0.0951411  -0.17243  0.0237535  nan  nan  nan  nan  nan  nan  -2.5  -0.3  1  0.0162639  -0.0215101  -0.000349842  0  0  0  0  0  0  0  0  0  0.0156465  0.00509978  -0.012046  -0.0127818  0.00572811  0.00453309  -0.0166741  0.0266481  -0.0275029  -0.011793  0.0727735  -0.0142206 
1704463261.428423000  0  0  11.2476  0.0908507  -0.133979  0.0228168  nan  nan  nan  nan  nan  nan  -2.5  -0.3  1  0.0154901  -0.0187163  -0.000289925  0  0  0  0  0  0  0  0  0  0.0155465  0.00512338  -0.0118683  -0.0158859  0.00456474  0.0200648  -0.0159908  0.023602  -0.0274232  -0.0102746  0.0148614  -0.00520392 
1704463261.433387000  0  0  11.3695  0.0382103  -0.142241  0.032003  nan  nan  nan  nan  nan  nan  -2.5  -0.3  1  0.0137641  -0.0225098  -0.00030982  0  0  0  0  0  0  0  0  0  0.0156493  0.00504125  -0.0119515  -0.0118737  0.00309295  0.0103069  -0.0131692  0.0270557  -0.0285713  0.0884145  -0.0129791  -0.0905446 
1704463261.437434000  0  0  11.466  0.0678497  -0.188477  0.0291673  nan  nan  nan  nan  nan  nan  -2.5  -0.3  1  0.0151726  -0.0229589  -0.000348343  0  0  0  0  0  0  0  0  0  0.0155998  0.00508032  -0.0119775  -0.0110737  0.00463809  0.00246258  -0.014889  0.0285695  -0.0286579  0.0347342  0.0875819  -0.0604892 
1704463261.443403000  0  0  11.2626  0.0823327  -0.138558  0.0183572  nan  nan  nan  nan  nan  nan  -2.5  -0.3  1  0.0142654  -0.0191999  -0.000273897  2e-07  2e-07  2e-07  0  0  0  0.000125  0.000125  0.000125  0.0155928  0.00500765  -0.0118612  -0.0154432  0.00357482  0.0188332  -0.0144377  0.0244995  -0.0276001  -0.0100863  0.0140634  0.0424047 
1704463261.448346000  0  0  11.3503  0.0343211  -0.145185  0.0289203  nan  nan  nan  nan  nan  nan  -2.5  -0.3  1  0.0129638  -0.0223122  -0.000289244  1.7e-06  1.7e-06  1.7e-06  0  0  0  0.0005  0.0005  0.0005  0.0155448  0.0050285  -0.011855  -0.0118319  0.00230172  0.0117126  -0.0121547  0.0272744  -0.0286805  0.084106  -0.00833654  -0.0577444 
1704463261.453396000  0  0  11.4595  0.0603657  -0.182627  0.0221938  nan  nan  nan  nan  nan  nan  -2.5  -0.3  1  0.0138255  -0.022486  -0.000310873  5.6e-06  5.6e-06  5.6e-06  0  0  0  0.001125  0.001125  0.001125  0.015623  0.00496156  -0.0119462  -0.0115286  0.00357742  0.0030303  -0.0132375  0.0284129  -0.0282538  0.0307705  0.0743558  0.00822842 
1704463261.458343000  0  0  11.3362  0.0647315  -0.150755  0.0159135  nan  nan  nan  nan  nan  nan  -2.5  -0.3  1  0.0129877  -0.0218164  -0.000283239  1.33e-05  1.33e-05  1.33e-05  0  0  0  0.002  0.002  0.002  0.0156828  0.0048547  -0.0118865  -0.0125424  0.00286806  0.0130492  -0.0125459  0.027297  -0.0274457  0.00926483  0.00607705  0.0663783 
1704463261.462398000  0  0  11.3691  0.0195097  -0.149549  0.0269502  nan  nan  nan  nan  nan  nan  -2.5  -0.3  1  0.0117445  -0.0231721  -0.000271832  2.6e-05  2.6e-05  2.6e-05  0  0  0  0.003125  0.003125  0.003125  0.0156398  0.00486382  -0.0118617  -0.010816  0.00168515  0.0104295  -0.0103034  0.0284008  -0.0284429  0.0966554  -0.0129986  -0.0393703 
1704463261.468395000  0  0  11.4352  0.0517611  -0.158507  0.0207622  nan  nan  nan  nan  nan  nan  -2.5  -0.3  1  0.0122578  -0.0223391  -0.000273319  4.5e-05  4.5e-05  4.5e-05  0  0  0  0.0045  0.0045  0.0045  0.0157047  0.00477562  -0.0119145  -0.0115654  0.00265532  0.00527577  -0.0110772  0.0278844  -0.0279789  0.0224498  0.0181379  0.0207201 
1704463261.473415000  0  0  11.3254  0.0612072  -0.131203  0.0177265  nan  nan  nan  nan  nan  nan  -2.5  -0.299999  1  0.0114635  -0.0228347  -0.000260753  7.15e-05  7.15e-05  7.15e-05  0  0  0  0.006125  0.006125  0.006125  0.0157873  0.00465257  -0.0118588  -0.0112861  0.00214302  0.0142764  -0.0106367  0.0275829  -0.0274378  -0.00888596  -0.049774  0.0475619 
1704463261.478395000  0  0  11.3488  0.0481122  -0.134239  0.026494  nan  nan  nan  nan  nan  nan  -2.5  -0.299999  1  0.0106429  -0.0223662  -0.000236331  0.0001067  0.0001067  0.0001067  0  0  0  0.008  0.008  0.008  0.0157322  0.00465952  -0.0118153  -0.011408  0.00148168  0.0124599  -0.00958861  0.0270852  -0.0282403  0.0106817  -0.0345793  -0.0363569 
1704463261.483410000  0  0  11.393  0.0507259  -0.12517  0.0244922  nan  nan  nan  nan  nan  nan  -2.5  -0.299998  1  0.0104255  -0.0221521  -0.000228237  0.0001519  0.0001519  0.0001519  0  0  0  0.010125  0.010125  0.010125  0.0158111  0.00454832  -0.0118615  -0.0114979  0.00177528  0.00915329  -0.00940731  0.0265143  -0.028194  0.00115647  -0.05036  -0.0160445 
1704463261.488360000  0  0  11.3877  0.0621786  -0.126489  0.022524  nan  nan  nan  nan  nan  nan  -2.5  -0.299997  1  0.00989552  -0.0231357  -0.000224727  0.0002083  0.0002083  0.0002083  0  0  0  0.0125  0.0125  0.0125  0.015901  0.00442868  -0.0118749  -0.0104137  0.00173278  0.00983717  -0.00926845  0.0271543  -0.0279803  -0.0311478  -0.0560802  0.0025122 
1704463261.493412000  0  0  11.3522  0.061324  -0.118569  0.0256722  nan  nan  nan  nan  nan  nan  -2.5  -0.299996  1  0.00895579  -0.0209922  -0.000181893  0.0002773  0.0002773  0.0002773  0  0  0  0.015125  0.015125  0.015125  0.0158336  0.00442934  -0.011796  -0.0123334  0.000981581  0.0128202  -0.00854074  0.0249482  -0.0283524  -0.0393594  -0.04529  -0.0269142 
1704463261.498360000  0  0  11.3791  0.0481159  -0.108821  0.0265006  nan  nan  nan  nan  nan  nan  -2.49999  -0.299995  1.00001  0.00797694  -0.0214852  -0.000162777  0.00036  0.00036  0.00036  0  0  0  0.018  0.018  0.018  0.015913  0.00430496  -0.0118373  -0.0116313  0.000554041  0.0109861  -0.00748899  0.0249047  -0.0285731  -0.0195447  -0.0704579  -0.0336251 
1704463261.503408000  0  0  11.4139  0.0762863  -0.128519  0.0227044  nan  nan  nan  nan  nan  nan  -2.49999  -0.299993  1.00001  0.00872081  -0.0217702  -0.000177944  0.0004577  0.0004577  0.0004577  0  0  0  0.021125  0.021125  0.021125  0.0158667  0.00431875  -0.0118047  -0.0108172  0.00167559  0.00836609  -0.00896827  0.0253343  -0.0282978  -0.0727992  -0.024518  0.00331864 
1704463261.508410000  0  0  11.3607  0.0724983  -0.110952  0.0207662  nan  nan  nan  nan  nan  nan  -2.49999  -0.29999  1.00001  0.00696171  -0.0197336  -0.000121373  0.0005717  0.0005717  0.0005717  0  0  0  0.0245  0.0245  0.0245  0.0159197  0.00419026  -0.0117866  -0.0128521  0.000418341  0.0129924  -0.00764115  0.0230931  -0.028026  -0.0818748  -0.0387475  0.0210756 
1704463261.513420000  0  0  11.414  0.0538002  -0.106692  0.0261683  nan  nan  nan  nan  nan  nan  -2.49999  -0.299987  1.00001  0.00690896  -0.0204245  -0.000120004  0.0007031  0.0007031  0.0007031  0  0  0  0.028125  0.028125  0.028125  0.0158743  0.00419728  -0.0117593  -0.0115259  0.000767339  0.00893405  -0.0074462  0.023357  -0.0285491  -0.0352023  -0.0538168  -0.0303903 
1704463261.518410000  0  0  11.4786  0.0648631  -0.14444  0.0226076  nan  nan  nan  nan  nan  nan  -2.49998  -0.299983  1.00002  0.00456061  -0.0232568  -7.87565e-05  0.0008533  0.0008533  0.0008533  0  0  0  0.032  0.032  0.032  0.0163789  0.00368815  -0.0120795  -0.00910256  -0.000132323  0.00467251  -0.00576741  0.0266274  -0.0282152  -0.0886368  -0.000997569  0.00362398 
1704463261.523410000  0  0  11.4295  0.0672061  -0.125472  0.0193621  nan  nan  nan  nan  nan  nan  -2.49998  -0.299978  1.00002  0.00305427  -0.0209593  -2.9211e-05  0.0010235  0.0010235  0.0010235  0  0  0  0.036125  0.036125  0.036125  0.016391  0.00359866  -0.0120541  -0.0112539  -0.00111754  0.0090159  -0.00493013  0.0241805  -0.0277708  -0.106887  -0.0159764  0.0334485 
1704463261.528425000  0  0  11.4812  0.0398662  -0.113399  0.027855  nan  nan  nan  nan  nan  nan  -2.49997  -0.299973  1.00003  0.00265587  -0.0206867  -1.12374e-05  0.001215  0.001215  0.001215  0  0  0  0.0405  0.0405  0.0405  0.0163391  0.00359471  -0.0120504  -0.0108602  -0.00105445  0.00520916  -0.00427081  0.0235305  -0.0286414  -0.0440291  -0.038569  -0.0470566 
1704463261.533415000  0  0  11.5109  0.0578125  -0.139646  0.0253941  nan  nan  nan  nan  nan  nan  -2.49997  -0.299966  1.00003  0.00262883  -0.0220006  -3.5315e-06  0.001429  0.001429  0.001429  0  0  0  0.045125  0.045125  0.045125  0.0163897  0.00352246  -0.0120843  -0.00901008  -0.000417189  0.00327375  -0.00494339  0.0251641  -0.0285937  -0.0818386  0.00737776  -0.0220083 
1704463261.538361000  0  0  11.5359  0.0599443  -0.143969  0.0209396  nan  nan  nan  nan  nan  nan  -2.49996  -0.299958  1.00004  0.000117428  -0.0212637  6.42032e-05  0.0016667  0.0016667  0.0016667  0  0  0  0.05  0.05  0.05  0.0166455  0.00317538  -0.0123272  -0.00981919  -0.00180466  0.00219017  -0.00307872  0.0247202  -0.0281051  -0.114315  0.0252039  0.019947 
1704463261.543411000  0  0  11.5035  0.0410753  -0.118844  0.0270674  nan  nan  nan  nan  nan  nan  -2.49995  -0.299949  1.00005  -0.000326534  -0.0194385  8.73469e-05  0.0019294  0.0019294  0.0019294  0  0  0  0.055125  0.055125  0.055125  0.0165853  0.00316585  -0.0122836  -0.0111635  -0.00171374  0.00523508  -0.00263475  0.0225986  -0.0287292  -0.0707741  -0.0107476  -0.0381725 
1704463261.548410000  0  0  11.5531  0.0457306  -0.13507  0.0266995  nan  nan  nan  nan  nan  nan  -2.49994  -0.299939  1.00006  -0.000843327  -0.0211458  0.000115432  0.0022183  0.0022183  0.0022183  0  0  0  0.0605  0.0605  0.0605  0.0165565  0.0031575  -0.0122911  -0.00858863  -0.00168037  0.00169436  -0.00264843  0.0244208  -0.0289173  -0.0828958  0.00596438  -0.0327853 
1704463261.553411000  0  0  11.5538  0.074356  -0.137895  0.0200621  nan  nan  nan  nan  nan  nan  -2.49993  -0.299927  1.00007  -0.000351635  -0.0186555  0.00012316  0.0025348  0.0025348  0.0025348  0  0  0  0.066125  0.066125  0.066125  0.0164954  0.00316026  -0.0122723  -0.0105386  -0.00055555  0.00211279  -0.00415055  0.0224195  -0.0283131  -0.137026  0.0422417  0.0307728 
1704463261.558494000  0  0  11.5079  0.0494434  -0.109208  0.0232212  nan  nan  nan  nan  nan  nan  -2.49991  -0.299914  1.00009  -0.00416486  -0.0181406  0.000213749  0.00288  0.00288  0.00288  0  0  0  0.072  0.072  0.072  0.0168607  0.0027083  -0.0125593  -0.0113818  -0.00299487  0.00703247  -0.000712348  0.0213269  -0.0283991  -0.120584  -0.0179448  -0.00117427 
1704463261.562426000  0  0  11.5571  0.0366038  -0.118423  0.0279066  nan  nan  nan  nan  nan  nan  -2.4999  -0.299898  1.0001  -0.0050714  -0.0199888  0.000264065  0.0032552  0.0032552  0.0032552  0  0  0  0.078125  0.078125  0.078125  0.0168457  0.00269207  -0.0125678  -0.00861229  -0.00330194  0.00360445  -5.71627e-05  0.0230714  -0.0289792  -0.0960371  -0.0186664  -0.0447478 
1704463261.568425000  0  0  11.5732  0.0875372  -0.148885  0.0197949  nan  nan  nan  nan  nan  nan  -2.49988  -0.299881  1.00012  -0.00435418  -0.0182597  0.000269702  0.0036617  0.0036617  0.0036617  0  0  0  0.0845  0.0845  0.0845  0.0169323  0.0025526  -0.0126902  -0.00997198  -0.00153444  0.0031207  -0.00246608  0.0222431  -0.0282539  -0.196147  0.073863  0.0330382 
1704463261.573432000  0  0  11.4966  0.0772763  -0.104665  0.0203074  nan  nan  nan  nan  nan  nan  -2.49986  -0.299862  1.00014  -0.00670785  -0.0153483  0.000323752  0.0041006  0.0041006  0.0041006  0  0  0  0.091125  0.091125  0.091125  0.017006  0.00238978  -0.0127281  -0.0126946  -0.00295378  0.0100978  -0.0010254  0.0188302  -0.0280898  -0.189729  0.00596474  0.0263565 
1704463261.578553000  0  0  11.6146  0.0558712  -0.133465  0.0306982  nan  nan  nan  nan  nan  nan  -2.49984  -0.29984  1.00016  -0.00707225  -0.0183056  0.000384357  0.0045733  0.0045733  0.0045733  0  0  0  0.098  0.098  0.098  0.0169878  0.00238061  -0.0127704  -0.00853704  -0.00266738  0.00119222  -0.000972069  0.022023  -0.0292706  -0.133855  0.0362269  -0.0711661 
1704463261.583431000  0  0  11.6272  0.103962  -0.148737  0.0234245  nan  nan  nan  nan  nan  nan  -2.49982  -0.299816  1.00018  -0.00644975  -0.0158801  0.00039492  0.005081  0.005081  0.005081  0  0  0  0.105125  0.105125  0.105125  0.016982  0.00233286  -0.0129519  -0.0103796  -0.00113021  0.00118546  -0.00319611  0.020512  -0.0287292  -0.229104  0.0983836  -0.000498147 
1704463261.587438000  0  0  11.5319  0.113126  -0.100578  0.0199921  nan  nan  nan  nan  nan  nan  -2.49979  -0.299789  1.00021  -0.00755931  -0.0123923  0.000427476  0.005625  0.005625  0.005625  0  0  0  0.1125  0.1125  0.1125  0.016907  0.00232071  -0.0128776  -0.0133237  -0.00145524  0.00951344  -0.00326238  0.0166175  -0.0283877  -0.252401  0.0269948  0.0321248 
1704463261.593432000  0  0  11.6313  0.0722679  -0.120762  0.0310502  nan  nan  nan  nan  nan  nan  -2.49976  -0.299759  1.00024  -0.00894696  -0.0152525  0.000515362  0.0062065  0.0062065  0.0062065  0  0  0  0.120125  0.120125  0.120125  0.0170087  0.00220167  -0.0129789  -0.0095154  -0.00194642  0.00233539  -0.0021891  0.019498  -0.0295947  -0.159728  0.0389503  -0.0720787 
1704463261.598425000  0  0  11.6318  0.123261  -0.131254  0.0202989  nan  nan  nan  nan  nan  nan  -2.49973  -0.299727  1.00027  -0.0088062  -0.0121329  0.000534845  0.0068267  0.0068267  0.0068267  0  0  0  0.128  0.128  0.128  0.0169914  0.00214368  -0.0131087  -0.012028  -0.00082214  0.00328795  -0.00414824  0.0172699  -0.0287292  -0.26647  0.0987797  0.0318257 
1704463261.603426000  0  0  11.532  0.114633  -0.0845869  0.0162335  nan  nan  nan  nan  nan  nan  -2.49969  -0.299691  1.00031  -0.00919413  -0.00998318  0.000572888  0.0074869  0.0074869  0.0074869  0  0  0  0.136125  0.136125  0.136125  0.0169158  0.00214398  -0.0130175  -0.0134193  -0.000292744  0.0120071  -0.00476641  0.0145318  -0.0281215  -0.234742  0.0146957  0.0687549 
1704463261.608415000  0  0  11.6308  0.0878544  -0.109813  0.0260652  nan  nan  nan  nan  nan  nan  -2.49965  -0.299652  1.00035  -0.0112443  -0.0114081  0.000666778  0.0081883  0.0081883  0.0081883  0  0  0  0.1445  0.1445  0.1445  0.0169946  0.00205189  -0.0131606  -0.0110621  -0.00150121  0.00503569  -0.00325151  0.0164408  -0.0289383  -0.185683  0.0539754  -0.0260494 
1704463261.612426000  0  0  11.6854  0.108628  -0.116388  0.0198041  nan  nan  nan  nan  nan  nan  -2.49961  -0.299609  1.00039  -0.011595  -0.00916014  0.000706315  0.0089323  0.0089323  0.0089323  0  0  0  0.153125  0.153125  0.153125  0.0169332  0.00204448  -0.0131747  -0.0123985  -0.00100567  0.00141787  -0.00409107  0.0149132  -0.0284256  -0.228571  0.0933594  0.0343877 
1704463261.618432000  0  0  11.62  0.109556  -0.0968531  0.0181845  nan  nan  nan  nan  nan  nan  -2.49956  -0.299563  1.00044  -0.011464  -0.00756867  0.00075287  0.00972  0.00972  0.00972  0  0  0  0.162  0.162  0.162  0.0169512  0.00196863  -0.0131523  -0.0132777  0.000327107  0.00753151  -0.00537999  0.0133299  -0.0279204  -0.212476  0.0644514  0.0468862 
1704463261.623430000  0  0  11.6361  0.0934008  -0.105896  0.0248142  nan  nan  nan  nan  nan  nan  -2.49951  -0.299512  1.00049  -0.0133815  -0.00669952  0.000826254  0.0105526  0.0105527  0.0105527  0  0  0  0.171013  0.171125  0.171125  0.0169158  0.00195545  -0.0132644  -0.013167  -0.000772608  0.00732447  -0.00413346  0.0132232  -0.0284373  -0.187667  0.0899156  -0.0173279 
1704463261.628433000  0  0  11.7704  0.0934378  -0.101392  0.0230524  nan  nan  nan  nan  nan  nan  -2.49946  -0.299457  1.00054  -0.0135548  -0.0057124  0.000889135  0.0114297  0.0114317  0.0114317  0  0  0  0.179802  0.1805  0.1805  0.0168588  0.00195768  -0.013311  -0.0131001  -0.000136772  -0.0026528  -0.00475787  0.0126615  -0.0283891  -0.178779  0.0860817  0.000487029 
1704463261.633433000  0  0  11.6871  0.10624  -0.116193  0.0246054  nan  nan  nan  nan  nan  nan  -2.4994  -0.299398  1.0006  -0.0135205  -0.00391358  0.000944216  0.0123502  0.0123581  0.0123581  0  0  0  0.188342  0.190125  0.190125  0.0168962  0.00186624  -0.0132907  -0.0142839  0.00124087  0.00499051  -0.00582968  0.0118146  -0.0285789  -0.197231  0.137437  -0.0139764 
1704463261.637435000  0  0  11.6267  0.0951273  -0.104485  0.0264648  nan  nan  nan  nan  nan  nan  -2.49933  -0.299333  1.00067  -0.0160017  -0.00187956  0.00100568  0.0133127  0.0133333  0.0133333  0  0  0  0.196632  0.2  0.2  0.016816  0.00184363  -0.01324  -0.0154457  -0.000276256  0.0107766  -0.00407766  0.0103112  -0.0289211  -0.193039  0.128091  -0.0303267 
1704463261.643432000  0  0  11.8203  0.0746712  -0.123988  0.027837  nan  nan  nan  nan  nan  nan  -2.49926  -0.299264  1.00074  -0.0165849  -0.0029706  0.00111387  0.0143161  0.0143585  0.0143585  0  0  0  0.204671  0.210125  0.210125  0.0167778  0.00185336  -0.0134522  -0.0132582  -0.000151356  -0.00363082  -0.00386996  0.0124432  -0.0292877  -0.141898  0.149015  -0.0414326 
1704463261.648413000  0  0  11.7721  0.100183  -0.143156  0.0223201  nan  nan  nan  nan  nan  nan  -2.49919  -0.29919  1.00081  -0.0169717  -0.000305756  0.00116349  0.015359  0.015435  0.015435  0  0  0  0.212461  0.2205  0.2205  0.0167476  0.00181173  -0.0135314  -0.0153028  0.00069657  0.00143552  -0.00462742  0.0113438  -0.028966  -0.198504  0.21556  0.0129154 
1704463261.653414000  0  0  11.6767  0.0756525  -0.112005  0.0222448  nan  nan  nan  nan  nan  nan  -2.49911  -0.29911  1.00089  -0.0195301  0.00152911  0.00122693  0.0164403  0.016564  0.016564  0  0  0  0.220001  0.231125  0.231125  0.0166646  0.0018029  -0.0134446  -0.0163097  -0.000792982  0.0100903  -0.00266356  0.00989335  -0.0289363  -0.161856  0.154004  0.0134434 
1704463261.658361000  0  0  11.8649  0.0565984  -0.138321  0.0272426  nan  nan  nan  nan  nan  nan  -2.49903  -0.299024  1.00098  -0.0203512  -0.000277852  0.00136566  0.0175586  0.0177467  0.0177467  0  0  0  0.22729  0.242  0.242  0.0166424  0.00178457  -0.0135575  -0.0134993  -0.000843514  -0.00401858  -0.00213413  0.0127076  -0.0295826  -0.119056  0.183138  -0.0328038 
1704463261.662420000  0  0  11.9033  0.0842111  -0.152444  0.0211607  nan  nan  nan  nan  nan  nan  -2.49894  -0.298932  1.00107  -0.0203807  0.00248024  0.00141744  0.0187128  0.0189844  0.0189844  0  0  0  0.23433  0.253125  0.253125  0.0165499  0.00178016  -0.0135897  -0.0156033  0.000243305  -0.00603578  -0.00319949  0.0113755  -0.0291622  -0.176791  0.239681  0.026556 
1704463261.668412000  0  0  11.768  0.0625905  -0.118252  0.0208402  nan  nan  nan  nan  nan  nan  -2.49884  -0.298834  1.00117  -0.0228876  0.00404406  0.00148813  0.0199015  0.0202783  0.0202783  0  0  0  0.24112  0.2645  0.2645  0.0165323  0.00171249  -0.0135857  -0.0165221  -0.000890448  0.00611952  -0.00135029  0.0103777  -0.0289183  -0.146192  0.163562  0.0278182 
1704463261.673413000  0  0  11.9059  0.0603322  -0.150094  0.0257982  nan  nan  nan  nan  nan  nan  -2.49874  -0.298729  1.00127  -0.0236805  0.00357093  0.00161362  0.0211236  0.0216298  0.0216298  0  0  0  0.247659  0.276125  0.276125  0.0164994  0.00168758  -0.0136577  -0.0152697  -0.000771225  -0.00389614  -0.00119949  0.0122418  -0.029488  -0.142387  0.220994  -0.018662 
1704463261.678413000  0  0  11.8627  0.100157  -0.151212  0.0178899  nan  nan  nan  nan  nan  nan  -2.49863  -0.298618  1.00138  -0.0237742  0.00676151  0.00165952  0.0223777  0.02304  0.02304  0  0  0  0.253949  0.288  0.288  0.016399  0.00169836  -0.0136255  -0.0178909  0.000457027  0.000697972  -0.00272672  0.0105207  -0.0288147  -0.22579  0.248725  0.0574578 
1704463261.683418000  0  0  11.741  0.066279  -0.128008  0.021028  nan  nan  nan  nan  nan  nan  -2.49851  -0.298499  1.0015  -0.0270576  0.00680299  0.00176298  0.0236626  0.0245102  0.0245102  0  0  0  0.259989  0.300125  0.300125  0.0164973  0.00151174  -0.0135901  -0.0174311  -0.00115592  0.01175  0.00011904  0.0109741  -0.0288572  -0.177099  0.180796  0.0253618 
1704463261.687421000  0  0  11.8558  0.0463263  -0.143562  0.0294407  nan  nan  nan  nan  nan  nan  -2.49839  -0.298372  1.00163  -0.0291054  0.00609552  0.00190114  0.0249771  0.0260417  0.0260417  0  0  0  0.265779  0.3125  0.3125  0.0164215  0.00147627  -0.0136615  -0.0159199  -0.00231437  0.00372468  0.00178624  0.01263  -0.0298516  -0.148294  0.198124  -0.0532722 
1704463261.693416000  0  0  11.9181  0.0749418  -0.162434  0.0222064  nan  nan  nan  nan  nan  nan  -2.49826  -0.298238  1.00176  -0.0294935  0.00646883  0.00202376  0.02632  0.0276356  0.0276352  0  0  0  0.271318  0.325125  0.324859  0.0165073  0.00137476  -0.0137146  -0.0159715  -0.00133958  -9.9493e-05  0.000633383  0.0139485  -0.029362  -0.207424  0.229087  0.017423 
1704463261.697424000  0  0  11.8221  0.0690411  -0.14235  0.0229143  nan  nan  nan  nan  nan  nan  -2.49813  -0.298096  1.0019  -0.031053  0.00878254  0.00208229  0.0276899  0.0292933  0.0292898  0  0  0  0.276608  0.338  0.336968  0.0164099  0.00134512  -0.013653  -0.0176769  -0.00136146  0.00880749  0.00143331  0.012253  -0.0294435  -0.203322  0.200341  0.0107881 
1704463261.703544000  0  0  11.933  0.0413472  -0.16562  0.0292959  nan  nan  nan  nan  nan  nan  -2.49799  -0.297945  1.00205  -0.0336535  0.00624795  0.00228966  0.0290857  0.031016  0.0310044  0  0  0  0.281648  0.351125  0.348827  0.0165251  0.00121582  -0.0137135  -0.0146528  -0.00288526  0.00100406  0.00340128  0.0161231  -0.0302639  -0.158361  0.206224  -0.0483058 
1704463261.708411000  0  0  11.9723  0.0616382  -0.178212  0.0227044  nan  nan  nan  nan  nan  nan  -2.49784  -0.297786  1.00221  -0.0345005  0.006757  0.00241599  0.030506  0.032805  0.0327777  0  0  0  0.286437  0.3645  0.360436  0.0165474  0.00111903  -0.013799  -0.014778  -0.00231113  -0.000922525  0.0030533  0.0169656  -0.0298152  -0.207047  0.227419  0.0160866 
1704463261.712427000  0  0  11.8603  0.0693904  -0.155526  0.0188295  nan  nan  nan  nan  nan  nan  -2.49768  -0.297617  1.00238  -0.0362321  0.01001  0.00243976  0.0319496  0.0346615  0.0346084  0  0  0  0.290977  0.378125  0.371795  0.0164308  0.00108064  -0.0137369  -0.0175556  -0.002335  0.0092552  0.00366125  0.0144163  -0.029413  -0.23631  0.204076  0.0527761 
1704463261.718427000  0  0  11.9355  0.0357912  -0.156898  0.0262932  nan  nan  nan  nan  nan  nan  -2.49752  -0.297439  1.00256  -0.039182  0.00734235  0.00267237  0.0334153  0.0365867  0.0364952  0  0  0  0.295267  0.392  0.382905  0.0165255  0.000974533  -0.0137555  -0.0143909  -0.00415393  0.00422525  0.00590779  0.0177659  -0.0300808  -0.179732  0.159498  -0.0187929 
1704463261.723425000  0  0  12.0235  0.0734037  -0.181554  0.0214218  nan  nan  nan  nan  nan  nan  -2.49735  -0.297251  1.00275  -0.0386589  0.00831896  0.00280004  0.0349019  0.0385819  0.038437  0  0  0  0.299306  0.406125  0.393764  0.016476  0.000948072  -0.0137973  -0.0149995  -0.00232574  -0.00186177  0.00371448  0.018263  -0.029792  -0.247696  0.21759  0.0291559 
1704463261.728419000  0  0  11.8773  0.0792144  -0.141287  0.0184743  nan  nan  nan  nan  nan  nan  -2.49717  -0.297053  1.00294  -0.040528  0.0113117  0.00282852  0.036408  0.0406483  0.0404325  0  0  0  0.303096  0.4205  0.404373  0.0163736  0.000940061  -0.0136671  -0.0175613  -0.00232703  0.0109114  0.00406748  0.0155995  -0.0293883  -0.268152  0.149368  0.0562405 
1704463261.733429000  0  0  12.0017  0.0402988  -0.146611  0.0288004  nan  nan  nan  nan  nan  nan  -2.49698  -0.296844  1.00315  -0.0425733  0.00897515  0.00307397  0.0379324  0.0427873  0.0424803  0  0  0  0.306636  0.435125  0.414732  0.0163535  0.000887711  -0.0137202  -0.0146294  -0.00340988  0.00185256  0.00567204  0.0183352  -0.0304635  -0.188267  0.124088  -0.0415013 
1704463261.737428000  0  0  12.0725  0.0675082  -0.170352  0.0258742  nan  nan  nan  nan  nan  nan  -2.49679  -0.296625  1.00337  -0.0429723  0.0102369  0.00318893  0.0394739  0.045  0.0445794  0  0  0  0.309925  0.45  0.424841  0.0162498  0.000847485  -0.0137898  -0.0155155  -0.00246833  -0.00279346  0.00468707  0.0183214  -0.0304715  -0.246092  0.187106  -0.0111718 
1704463261.743425000  0  0  11.946  0.0820756  -0.126656  0.0191094  nan  nan  nan  nan  nan  nan  -2.49659  -0.296394  1.0036  -0.0446359  0.013035  0.003223  0.0410312  0.0472877  0.0467283  0  0  0  0.312965  0.465125  0.4347  0.016204  0.000842433  -0.0136509  -0.0180803  -0.0021996  0.00828414  0.00437116  0.0157245  -0.0297607  -0.280093  0.108855  0.0528065 
1704463261.748418000  0  0  12.0469  0.0394759  -0.158126  0.0296838  nan  nan  nan  nan  nan  nan  -2.49638  -0.296152  1.00384  -0.0486671  0.00858721  0.00356636  0.0426032  0.0496517  0.0489259  0  0  0  0.315755  0.4805  0.444309  0.016566  0.000455425  -0.0137865  -0.0136937  -0.00462437  0.00126972  0.00772999  0.0208476  -0.0305966  -0.215706  0.1184  -0.0495172 
1704463261.753429000  0  0  12.0905  0.0774388  -0.16928  0.0231403  nan  nan  nan  nan  nan  nan  -2.49616  -0.295898  1.00409  -0.0492001  0.0105014  0.00365002  0.0441884  0.0520931  0.051171  0  0  0  0.318295  0.496125  0.453668  0.0164763  0.000445075  -0.0137968  -0.0154057  -0.0037416  -0.00132033  0.00628803  0.0200984  -0.0302688  -0.29541  0.158696  0.015396 
1704463261.758428000  0  0  12.0161  0.0716784  -0.138593  0.0203587  nan  nan  nan  nan  nan  nan  -2.49594  -0.295631  1.00435  -0.0508642  0.0120446  0.00373935  0.0457857  0.0546133  0.0534622  0  0  0  0.320584  0.512  0.462778  0.0164162  0.000399297  -0.0137404  -0.0166707  -0.00347424  0.00559667  0.0065753  0.018605  -0.0299289  -0.284302  0.0989876  0.0413029 
1704463261.762428000  0  0  12.0744  0.0468067  -0.1452  0.028512  nan  nan  nan  nan  nan  nan  -2.4957  -0.295351  1.00462  -0.0534379  0.0121219  0.00389213  0.0473938  0.0572135  0.0557983  0  0  0  0.322624  0.528125  0.471637  0.0163043  0.000322164  -0.0138057  -0.0163271  -0.00476094  0.00191592  0.00846542  0.0191073  -0.0307965  -0.245689  0.109241  -0.0357162 
1704463261.768419000  0  0  12.1083  0.0606089  -0.154865  0.0221613  nan  nan  nan  nan  nan  nan  -2.49546  -0.295059  1.00491  -0.0550959  0.0119249  0.00407334  0.0490115  0.059895  0.0581782  0  0  0  0.324414  0.5445  0.480246  0.0163906  0.000197249  -0.0138267  -0.0161291  -0.00477485  7.08637e-05  0.00827753  0.020158  -0.0302701  -0.279508  0.119695  0.025531 
1704463261.773425000  0  0  12.0522  0.0488442  -0.156622  0.0213826  nan  nan  nan  nan  nan  nan  -2.49521  -0.294752  1.0052  -0.0581142  0.0114423  0.0042581  0.0506375  0.062659  0.0606004  0  0  0  0.325953  0.561125  0.488605  0.0165326  -0.000135761  -0.0138294  -0.0156579  -0.00534907  0.00554586  0.00998675  0.0210166  -0.0299552  -0.272975  0.111988  0.0309347 
1704463261.778432000  0  0  12.0756  0.0428008  -0.156528  0.0262807  nan  nan  nan  nan  nan  nan  -2.49496  -0.294432  1.00551  -0.0606871  0.0125013  0.00435912  0.0522706  0.0655067  0.0630638  0  0  0  0.327243  0.578  0.496714  0.0164571  -0.000172899  -0.0138201  -0.0165443  -0.00649814  0.00453765  0.0111981  0.0206836  -0.0305008  -0.274416  0.11653  -0.0151291 
1704463261.783425000  0  0  12.135  0.0369867  -0.147474  0.0242492  nan  nan  nan  nan  nan  nan  -2.49469  -0.294097  1.00583  -0.0619662  0.0119277  0.00457535  0.0539095  0.0684394  0.0655671  0  0  0  0.328283  0.595117  0.504573  0.0163768  -0.000214875  -0.0139804  -0.0156455  -0.00636334  0.000820663  0.0113357  0.0214306  -0.0303888  -0.261011  0.0818228  0.00493762 
1704463261.787428000  0  0  12.145  0.0481224  -0.16178  0.0232166  nan  nan  nan  nan  nan  nan  -2.49442  -0.293747  1.00617  -0.0631227  0.0127222  0.00470969  0.055553  0.0714576  0.0681091  0  0  0  0.329072  0.61215  0.512182  0.0162614  -0.000299184  -0.0140416  -0.016192  -0.00572835  0.000922384  0.0111678  0.0214337  -0.0303951  -0.288061  0.119634  0.0156697 
1704463261.793426000  0  0  12.0956  0.0538174  -0.142798  0.0235636  nan  nan  nan  nan  nan  nan  -2.49413  -0.293382  1.00652  -0.0656356  0.0145507  0.00475732  0.0571998  0.0745605  0.0706885  0  0  0  0.329612  0.628934  0.519541  0.0162014  -0.000297351  -0.0139793  -0.0179838  -0.00649574  0.00570446  0.0116778  0.0200618  -0.0304276  -0.310471  0.0891466  0.012354 
1704463261.797437000  0  0  12.1744  0.0315253  -0.136861  0.0273585  nan  nan  nan  nan  nan  nan  -2.49384  -0.293002  1.00688  -0.0675231  0.0134112  0.00500798  0.0588487  0.0777466  0.0733041  0  0  0  0.329902  0.645468  0.526651  0.0160913  -0.000396788  -0.014078  -0.0164804  -0.00713294  0.000231253  0.0128035  0.0212365  -0.0309397  -0.267684  0.0565314  -0.0225827 
1704463261.803417000  0  0  12.1487  0.0829262  -0.170482  0.0228518  nan  nan  nan  nan  nan  nan  -2.49355  -0.292605  1.00725  -0.0673065  0.0140194  0.00517221  0.0604984  0.0810147  0.0759546  0  0  0  0.329941  0.661752  0.53351  0.016061  -0.000366638  -0.0140284  -0.0170535  -0.00506202  0.00286352  0.00988906  0.0219447  -0.0307465  -0.361755  0.135306  0.022399 
1704463261.808427000  0  0  12.1257  0.0708513  -0.134798  0.0210282  nan  nan  nan  nan  nan  nan  -2.49324  -0.292191  1.00764  -0.0699163  0.0155335  0.00523282  0.0621477  0.0843637  0.0786388  0  0  0  0.329731  0.677785  0.540119  0.0159672  -0.000431923  -0.014045  -0.0185212  -0.00601747  0.00561194  0.0108768  0.0203265  -0.030461  -0.344018  0.0641695  0.0388562 
1704463261.812414000  0  0  12.1961  0.0491542  -0.136007  0.028731  nan  nan  nan  nan  nan  nan  -2.49292  -0.291761  1.00804  -0.071533  0.0142649  0.00550278  0.0637953  0.0877922  0.0813554  0  0  0  0.329271  0.693569  0.546478  0.0158434  -0.000539004  -0.0141487  -0.0169105  -0.00638825  0.000749416  0.0116381  0.0216988  -0.0313307  -0.29756  0.0476186  -0.0334864 
1704463261.818417000  0  0  12.1952  0.109365  -0.158753  0.0225935  nan  nan  nan  nan  nan  nan  -2.4926  -0.291313  1.00845  -0.0717255  0.01501  0.00565149  0.06544  0.0912989  0.0841031  0  0  0  0.328561  0.709103  0.552587  0.0158036  -0.000508761  -0.0141358  -0.0177274  -0.00501855  0.00141185  0.0086909  0.0220426  -0.0309607  -0.414474  0.102861  0.0268734 
1704463261.823436000  0  0  12.1593  0.0927598  -0.127152  0.0223783  nan  nan  nan  nan  nan  nan  -2.49227  -0.290848  1.00888  -0.0732563  0.0161805  0.0057482  0.0670805  0.0948828  0.0868808  0  0  0  0.3276  0.724386  0.558446  0.0157065  -0.000529655  -0.0140959  -0.018866  -0.00484285  0.00494557  0.00864283  0.0206531  -0.0308918  -0.369841  0.0392359  0.0285189 
1704463261.828413000  0  0  12.2169  0.0751364  -0.151254  0.0304592  nan  nan  nan  nan  nan  nan  -2.49193  -0.290364  1.00932  -0.0767561  0.0133236  0.00611705  0.0687156  0.0985424  0.0896872  0  0  0  0.32639  0.73942  0.564055  0.0158659  -0.00090466  -0.0140413  -0.0161317  -0.00675666  0.000808241  0.0105603  0.0237276  -0.0316982  -0.350803  0.0587678  -0.0482663 
1704463261.833426000  0  0  12.2217  0.108794  -0.162016  0.021976  nan  nan  nan  nan  nan  nan  -2.49158  -0.289862  1.00977  -0.0779391  0.0141976  0.00623964  0.070344  0.102277  0.092521  0  0  0  0.32493  0.754204  0.569414  0.0157719  -0.00095753  -0.0140558  -0.0170531  -0.00644783  0.00106502  0.00921327  0.0235472  -0.031102  -0.42048  0.089842  0.0344485 
1704463261.837428000  0  0  12.1869  0.100809  -0.142142  0.0210821  nan  nan  nan  nan  nan  nan  -2.49123  -0.289341  1.01024  -0.0795269  0.0160206  0.0062786  0.0719645  0.106084  0.0953809  0  0  0  0.323219  0.768738  0.574524  0.0156243  -0.00107948  -0.0141077  -0.0189066  -0.006179  0.00466448  0.00936394  0.0218125  -0.0309794  -0.401518  0.0622168  0.0426614 
1704463261.843426000  0  0  12.2101  0.0878664  -0.15067  0.0284954  nan  nan  nan  nan  nan  nan  -2.49086  -0.288801  1.01073  -0.0809521  0.0136663  0.0066539  0.0735758  0.109964  0.0982658  0  0  0  0.321259  0.783021  0.579383  0.015614  -0.00103601  -0.0140122  -0.0164005  -0.00654336  0.00305804  0.00884784  0.0243419  -0.0318273  -0.359843  0.0483812  -0.0268709 
1704463261.848420000  0  0  12.2573  0.11567  -0.166835  0.0216485  nan  nan  nan  nan  nan  nan  -2.49049  -0.288242  1.01123  -0.0812369  0.0140786  0.00682381  0.0751767  0.113914  0.101174  0  0  0  0.319049  0.797055  0.583992  0.0155345  -0.0010798  -0.0140256  -0.0169646  -0.00563364  -0.000282579  0.00685851  0.0246342  -0.0313269  -0.404786  0.0869499  0.0397273 
1704463261.853429000  0  0  12.1681  0.115882  -0.141756  0.0223654  nan  nan  nan  nan  nan  nan  -2.49011  -0.287662  1.01174  -0.0823901  0.0164135  0.00682229  0.0767659  0.117934  0.104105  0  0  0  0.316588  0.810839  0.588351  0.0154248  -0.00109829  -0.0139459  -0.0195001  -0.00476388  0.00739135  0.00612496  0.0223942  -0.0313151  -0.394791  0.0528223  0.0322141 
1704463261.858508000  0  0  12.2522  0.0863434  -0.158568  0.0284914  nan  nan  nan  nan  nan  nan  -2.48972  -0.287062  1.01227  -0.0844432  0.0131287  0.00727396  0.0783421  0.122022  0.107057  0  0  0  0.313878  0.824372  0.59246  0.0153776  -0.00117139  -0.0139898  -0.015994  -0.00613457  0.00106599  0.00691632  0.0258499  -0.0320267  -0.328016  0.0475763  -0.025152 
1704463261.863509000  0  0  12.2717  0.125603  -0.175102  0.020657  nan  nan  nan  nan  nan  nan  -2.48933  -0.286442  1.01281  -0.0843986  0.0149669  0.00732676  0.0799042  0.126177  0.110029  0  0  0  0.310918  0.837656  0.596319  0.0152876  -0.00121935  -0.0139814  -0.0182231  -0.00472289  -0.000113693  0.00453557  0.0248859  -0.0314861  -0.397642  0.105203  0.0513213 
1704463261.868503000  0  0  12.1999  0.104411  -0.135323  0.0212841  nan  nan  nan  nan  nan  nan  -2.48893  -0.2858  1.01337  -0.086617  0.0155587  0.00744973  0.0814509  0.130398  0.11302  0  0  0  0.307708  0.85069  0.599928  0.0151913  -0.00124701  -0.0139226  -0.0188876  -0.00522921  0.00615178  0.00521433  0.0238856  -0.0313839  -0.351331  0.0143373  0.0439758 
1704463261.873506000  0  0  12.2883  0.0686719  -0.173472  0.0293024  nan  nan  nan  nan  nan  nan  -2.48851  -0.285138  1.01394  -0.0901068  0.0113848  0.00797979  0.0829809  0.134683  0.116028  0  0  0  0.304247  0.863474  0.603287  0.0153099  -0.00161215  -0.0138441  -0.0147857  -0.00772529  -0.000759665  0.00756952  0.0283088  -0.0319903  -0.290654  0.0516301  -0.0338459 
1704463261.878504000  0  0  12.2941  0.116172  -0.187774  0.0204159  nan  nan  nan  nan  nan  nan  -2.4881  -0.284453  1.01453  -0.0903226  0.014001  0.00794818  0.084493  0.139032  0.119053  0  0  0  0.300537  0.876007  0.606397  0.0152079  -0.00163649  -0.0138413  -0.0179498  -0.00664566  -0.000833451  0.00533754  0.026713  -0.03141  -0.384225  0.112439  0.0531734 
1704463261.883505000  0  0  12.2068  0.0766819  -0.138598  0.0229276  nan  nan  nan  nan  nan  nan  -2.48767  -0.283747  1.01513  -0.0927946  0.0144026  0.00808362  0.0859858  0.143443  0.122092  0  0  0  0.296577  0.888291  0.609256  0.0150912  -0.00173021  -0.013823  -0.0184129  -0.00719684  0.00673906  0.00677137  0.0255002  -0.0314165  -0.300364  -0.000231678  0.0272532 
1704463261.888501000  0  0  12.3179  0.0626402  -0.184815  0.0301088  nan  nan  nan  nan  nan  nan  -2.48724  -0.283019  1.01575  -0.0939878  0.0115723  0.00854086  0.0874583  0.147915  0.125145  0  0  0  0.292366  0.900325  0.611865  0.0150386  -0.00182144  -0.0138733  -0.015576  -0.00802685  -0.00195596  0.00682914  0.0290253  -0.0322653  -0.264038  0.0713323  -0.0398707 
1704463261.893509000  0  0  12.31  0.0995296  -0.179039  0.0195773  nan  nan  nan  nan  nan  nan  -2.48679  -0.282268  1.01638  -0.094559  0.0138855  0.00852251  0.0889091  0.152446  0.12821  0  0  0  0.287906  0.912108  0.614224  0.0149192  -0.00184915  -0.0138606  -0.0184168  -0.007308  -0.000981607  0.00527276  0.0272816  -0.0315097  -0.339255  0.081144  0.0626855 
1704463261.898507000  0  0  12.2094  0.0602743  -0.149451  0.0243931  nan  nan  nan  nan  nan  nan  -2.48635  -0.281494  1.01703  -0.0968488  0.0131681  0.00876792  0.0903369  0.157035  0.131287  0  0  0  0.283196  0.923642  0.616333  0.0148882  -0.00199992  -0.0137702  -0.0178578  -0.00744318  0.00739424  0.00671838  0.0274028  -0.0317532  -0.256184  0.00110442  0.0149303 
1704463261.903503000  0  0  12.2839  0.0606077  -0.186219  0.0312463  nan  nan  nan  nan  nan  nan  -2.48589  -0.280698  1.01769  -0.0982328  0.011296  0.00914171  0.0917406  0.161682  0.134373  0  0  0  0.278235  0.934926  0.618192  0.0148066  -0.00204329  -0.0137949  -0.0160881  -0.00839183  0.00160428  0.00676374  0.0299828  -0.0326417  -0.257719  0.0612675  -0.048467 
1704463261.908503000  0  0  12.2753  0.0822479  -0.170677  0.0208687  nan  nan  nan  nan  nan  nan  -2.48543  -0.279877  1.01837  -0.0987906  0.0122398  0.0092496  0.0931189  0.166384  0.137468  0  0  0  0.273025  0.94596  0.619801  0.0147013  -0.00212691  -0.013799  -0.0174537  -0.00758883  0.0025641  0.0056489  0.029038  -0.0319154  -0.298938  0.0337402  0.052744 
1704463261.912416000  0  0  12.2222  0.0700127  -0.158276  0.0222955  nan  nan  nan  nan  nan  nan  -2.48496  -0.279034  1.01907  -0.100735  0.012668  0.00939  0.0944705  0.171141  0.140571  0  0  0  0.267565  0.956743  0.62116  0.0145265  -0.00233307  -0.0139001  -0.0180279  -0.00769355  0.00741057  0.00662979  0.0285262  -0.0319917  -0.280678  0.00829002  0.0386308 
1704463261.918506000  0  0  12.2432  0.0562227  -0.173201  0.0283295  nan  nan  nan  nan  nan  nan  -2.48448  -0.278166  1.01978  -0.103165  0.0102116  0.00982098  0.0957941  0.175951  0.143679  0  0  0  0.261854  0.967277  0.62227  0.0146035  -0.00241234  -0.0136919  -0.0159588  -0.00934267  0.00552017  0.00769222  0.0310622  -0.0326373  -0.259478  0.0112876  -0.0183397 
1704463261.923503000  0  0  12.267  0.0770336  -0.171133  0.0217392  nan  nan  nan  nan  nan  nan  -2.484  -0.277274  1.02051  -0.102692  0.0099384  0.0100617  0.0970886  0.180813  0.146793  0  0  0  0.255894  0.977561  0.623129  0.0145214  -0.0024443  -0.0136856  -0.0160927  -0.00786023  0.00361316  0.00565878  0.0312864  -0.0322004  -0.285282  0.00258635  0.0461396 
1704463261.928363000  0  0  12.1844  0.0810607  -0.165557  0.0228288  nan  nan  nan  nan  nan  nan  -2.48351  -0.276358  1.02125  -0.105003  0.0104653  0.0101908  0.0983526  0.185726  0.14991  0  0  0  0.249684  0.987595  0.623738  0.0144451  -0.00261866  -0.0135952  -0.0170649  -0.00822409  0.0104328  0.00643277  0.0307581  -0.0321643  -0.307078  -0.00456559  0.0345674 
1704463261.933436000  0  0  12.1683  0.0565247  -0.150573  0.0269372  nan  nan  nan  nan  nan  nan  -2.48302  -0.275417  1.02201  -0.107005  0.00890862  0.0105445  0.099585  0.190689  0.15303  0  0  0  0.243224  0.997378  0.624097  0.014394  -0.00268523  -0.0135212  -0.0157931  -0.00912479  0.0117821  0.00741265  0.0316787  -0.0326166  -0.256253  -0.0574637  -0.00411442 
1704463261.937436000  0  0  12.2711  0.0674953  -0.165059  0.0263333  nan  nan  nan  nan  nan  nan  -2.48252  -0.274451  1.02278  -0.107589  0.00761737  0.0108865  0.100784  0.1957  0.156151  0  0  0  0.236513  1.00691  0.624206  0.0142401  -0.00290798  -0.0137003  -0.0147081  -0.00928428  0.00384023  0.00673206  0.0329858  -0.0327442  -0.275489  -0.037942  0.00320432 
1704463261.943433000  0  0  12.123  0.101267  -0.154698  0.0211535  nan  nan  nan  nan  nan  nan  -2.48201  -0.27346  1.02357  -0.108293  0.00913727  0.0109235  0.10195  0.200758  0.159272  0  0  0  0.229553  1.0162  0.624065  0.014205  -0.00288941  -0.0134057  -0.0169803  -0.00765193  0.0153826  0.00506673  0.0312749  -0.032141  -0.340888  -0.0407363  0.0516971 
1704463261.948429000  0  0  12.1489  0.0758545  -0.135263  0.0272386  nan  nan  nan  nan  nan  nan  -2.4815  -0.272443  1.02437  -0.109458  0.00723692  0.0113294  0.10308  0.205861  0.162391  0  0  0  0.222343  1.02523  0.623674  0.0141369  -0.0029348  -0.0133613  -0.0154006  -0.00814551  0.0132314  0.00522494  0.0322057  -0.0327469  -0.275919  -0.105562  -0.00613546 
1704463261.953440000  0  0  12.2268  0.101627  -0.165507  0.0267676  nan  nan  nan  nan  nan  nan  -2.48098  -0.271401  1.02519  -0.110059  0.00559826  0.0117138  0.104173  0.21101  0.165508  0  0  0  0.214882  1.03401  0.623033  0.0141428  -0.0031606  -0.0132937  -0.0143344  -0.00815828  0.00672639  0.00391425  0.0338426  -0.0328732  -0.325253  -0.0490883  -0.000201331 
1704463261.958432000  0  0  12.1299  0.119026  -0.14158  0.0202228  nan  nan  nan  nan  nan  nan  -2.48046  -0.270333  1.02603  -0.110999  0.0066059  0.0118039  0.105228  0.216201  0.168621  0  0  0  0.207172  1.04255  0.622143  0.0140486  -0.00324156  -0.0132029  -0.0160139  -0.00713364  0.0144735  0.0028779  0.0321683  -0.0322291  -0.356381  -0.0883056  0.0620638 
1704463261.963419000  0  0  12.1326  0.101323  -0.13518  0.0282489  nan  nan  nan  nan  nan  nan  -2.47993  -0.269239  1.02688  -0.111883  0.00450287  0.012242  0.106244  0.221435  0.171729  0  0  0  0.199212  1.05083  0.621002  0.0139808  -0.00328229  -0.0131444  -0.0142697  -0.00716023  0.0140758  0.00253823  0.0334084  -0.0330141  -0.304645  -0.12309  -0.0143351 
1704463261.968426000  0  0  12.2293  0.124743  -0.164135  0.0256148  nan  nan  nan  nan  nan  nan  -2.47939  -0.268119  1.02774  -0.111974  0.00333433  0.0125808  0.10722  0.226709  0.17483  0  0  0  0.191001  1.05886  0.619611  0.0139127  -0.00334759  -0.0131382  -0.0136451  -0.00725739  0.00606136  0.000655286  0.0346477  -0.0329951  -0.339523  -0.0643037  0.012747 
1704463261.973436000  0  0  12.1374  0.141936  -0.146962  0.0200128  nan  nan  nan  nan  nan  nan  -2.47886  -0.266972  1.02863  -0.11207  0.00371023  0.0127458  0.108154  0.232023  0.177925  0  0  0  0.182541  1.06665  0.61797  0.0138534  -0.00344181  -0.0130144  -0.0147969  -0.0053591  0.0131522  -0.00117754  0.0335549  -0.0323919  -0.358639  -0.0940208  0.065605 
1704463261.978419000  0  0  12.1221  0.128782  -0.147623  0.0261564  nan  nan  nan  nan  nan  nan  -2.47831  -0.265798  1.02952  -0.113548  0.00207271  0.0131348  0.109045  0.237375  0.18101  0  0  0  0.173831  1.07418  0.616079  0.0137794  -0.00348229  -0.0129406  -0.0136368  -0.00594929  0.0141882  -0.00113968  0.0346196  -0.0329166  -0.324376  -0.107592  0.00648445 
1704463261.983434000  0  0  12.248  0.116303  -0.167634  0.0237867  nan  nan  nan  nan  nan  nan  -2.47777  -0.264598  1.03044  -0.115234  -4.68057e-06  0.0135794  0.109892  0.242764  0.184085  0  0  0  0.16487  1.08147  0.613938  0.01376  -0.00378614  -0.0129008  -0.0121066  -0.00770612  0.0038301  -0.000645222  0.0364032  -0.0326519  -0.298472  -0.0803101  0.0287649 
1704463261.987438000  0  0  12.2206  0.13029  -0.16637  0.0202022  nan  nan  nan  nan  nan  nan  -2.47721  -0.263371  1.03136  -0.115777  0.000449061  0.0137345  0.110693  0.248189  0.187149  0  0  0  0.155916  1.0885  0.611547  0.0135802  -0.00404423  -0.0130227  -0.0131408  -0.00669294  0.00616136  -0.00155692  0.0357437  -0.0323062  -0.322362  -0.0741633  0.0629248 
1704463261.993565000  0  0  12.1695  0.121545  -0.151546  0.0253936  nan  nan  nan  nan  nan  nan  -2.47666  -0.262116  1.03231  -0.116112  -0.00163589  0.0141852  0.111451  0.253649  0.1902  0  0  0  0.147212  1.09528  0.608906  0.0136452  -0.00384005  -0.0127307  -0.0118012  -0.00623427  0.00945195  -0.00285931  0.0367367  -0.0326285  -0.280479  -0.12768  0.0119492 
1704463261.998432000  0  0  12.3009  0.115323  -0.180826  0.0259636  nan  nan  nan  nan  nan  nan  -2.4761  -0.260834  1.03327  -0.11615  -0.00420806  0.0146932  0.112166  0.259142  0.193237  0  0  0  0.138757  1.10182  0.606016  0.0135932  -0.00394011  -0.0128025  -0.00953524  -0.00674147  -0.00139601  -0.00388625  0.0391522  -0.0328221  -0.249235  -0.0849633  0.0076839 
1704463262.003434000  0  0  12.2208  0.150469  -0.179725  0.0206752  nan  nan  nan  nan  nan  nan  -2.47554  -0.259524  1.03424  -0.114948  -0.00269714  0.0147213  0.112839  0.264667  0.19626  0  0  0  0.130553  1.1081  0.602875  0.0135154  -0.00394441  -0.0127294  -0.0120083  -0.003848  0.00455237  -0.00689029  0.0374824  -0.0323923  -0.299005  -0.063848  0.0587581 
1704463262.008426000  0  0  12.1966  0.1234  -0.148589  0.0238682  nan  nan  nan  nan  nan  nan  -2.47497  -0.258187  1.03523  -0.116552  -0.00449542  0.015144  0.113472  0.270222  0.199266  0  0  0  0.122599  1.11413  0.599484  0.0134589  -0.00397484  -0.0126883  -0.0106171  -0.00466179  0.00629558  -0.00620001  0.0379547  -0.0325824  -0.237311  -0.153034  0.0273366 
1704463262.012428000  0  0  12.3371  0.0954361  -0.178108  0.0290787  nan  nan  nan  nan  nan  nan  -2.4744  -0.256822  1.03623  -0.11832  -0.00766201  0.0157362  0.114065  0.275807  0.202254  0  0  0  0.114894  1.11992  0.595843  0.013342  -0.00433045  -0.012949  -0.00734938  -0.00673742  -0.00476856  -0.00484173  0.0409388  -0.0332319  -0.18286  -0.117867  -0.0210834 
1704463262.018418000  0  0  12.2409  0.145013  -0.168659  0.0198679  nan  nan  nan  nan  nan  nan  -2.47383  -0.255429  1.03725  -0.116095  -0.00525953  0.0156466  0.114621  0.281421  0.205224  0  0  0  0.10744  1.12545  0.591952  0.0133573  -0.00410857  -0.0127047  -0.0110476  -0.00309592  0.00196439  -0.00897281  0.0380652  -0.0324978  -0.254598  -0.101516  0.0679951 
1704463262.022434000  0  0  12.1921  0.108545  -0.129765  0.0214118  nan  nan  nan  nan  nan  nan  -2.47326  -0.254008  1.03828  -0.118767  -0.00610697  0.0159696  0.11514  0.287062  0.208173  0  0  0  0.100235  1.13074  0.587811  0.0132063  -0.00440387  -0.0128562  -0.0104542  -0.00433176  0.00619988  -0.00668866  0.0374839  -0.032541  -0.190969  -0.196071  0.0523921 
1704463262.028434000  0  0  12.3518  0.0947811  -0.178818  0.0286303  nan  nan  nan  nan  nan  nan  -2.47268  -0.252558  1.03933  -0.117364  -0.00996709  0.0166239  0.115624  0.292728  0.211101  0  0  0  0.093281  1.13577  0.58342  0.0133048  -0.00421163  -0.0127487  -0.00680729  -0.00433421  -0.00765218  -0.00847831  0.0409935  -0.0334187  -0.128791  -0.116776  -0.0148743 
1704463262.033436000  0  0  12.2482  0.122281  -0.144454  0.0182585  nan  nan  nan  nan  nan  nan  -2.4721  -0.251081  1.04039  -0.117371  -0.00765004  0.0165584  0.116074  0.298419  0.214007  0  0  0  0.0865766  1.14055  0.578779  0.0132344  -0.00426939  -0.0126883  -0.0101228  -0.0025957  0.00028495  -0.00969868  0.0376369  -0.0324853  -0.183998  -0.159404  0.0845332 
1704463262.037434000  0  0  12.2101  0.0843897  -0.116179  0.0217417  nan  nan  nan  nan  nan  nan  -2.47152  -0.249574  1.04147  -0.119564  -0.0087106  0.0169107  0.11649  0.304133  0.216889  0  0  0  0.0801222  1.14509  0.573889  0.0130841  -0.00458188  -0.0128748  -0.00921227  -0.00343779  0.00360478  -0.00754185  0.0372972  -0.0326916  -0.114771  -0.229335  0.0502473 
1704463262.043433000  0  0  12.3356  0.0779739  -0.147771  0.0261045  nan  nan  nan  nan  nan  nan  -2.47094  -0.248039  1.04256  -0.118965  -0.010895  0.0173741  0.116875  0.309869  0.219745  0  0  0  0.0739178  1.14937  0.568748  0.0131802  -0.00438703  -0.0127496  -0.00741262  -0.00409895  -0.00741735  -0.00842686  0.0388361  -0.0332306  -0.0850567  -0.167882  0.00966431 
1704463262.048427000  0  0  12.2363  0.09394  -0.115939  0.0173247  nan  nan  nan  nan  nan  nan  -2.47035  -0.246476  1.04367  -0.119067  -0.0100525  0.0174823  0.11723  0.315626  0.222576  0  0  0  0.0679635  1.1534  0.563357  0.0131063  -0.00448407  -0.0127296  -0.00894051  -0.0024671  0.00016598  -0.00906772  0.0365599  -0.0323189  -0.118083  -0.219358  0.0927907 
1704463262.053437000  0  0  12.2054  0.0742923  -0.107958  0.0229002  nan  nan  nan  nan  nan  nan  -2.46976  -0.244883  1.04479  -0.119272  -0.0106241  0.0177606  0.117555  0.321403  0.225379  0  0  0  0.0622591  1.15719  0.557716  0.0130597  -0.00449097  -0.0127141  -0.00878804  -0.00191772  0.00216653  -0.00891027  0.0358816  -0.0326759  -0.0683575  -0.230717  0.0381338 
1704463262.058434000  0  0  12.2313  0.0653443  -0.108765  0.0250187  nan  nan  nan  nan  nan  nan  -2.46917  -0.243261  1.04592  -0.120751  -0.0119731  0.018148  0.117853  0.327198  0.228153  0  0  0  0.0568047  1.16072  0.551825  0.0130369  -0.00460974  -0.0127158  -0.00767384  -0.00320325  -0.000283971  -0.00770507  0.0361265  -0.0329365  -0.0620243  -0.232105  0.018418 
1704463262.062435000  0  0  12.2457  0.070183  -0.102779  0.0219472  nan  nan  nan  nan  nan  nan  -2.46858  -0.241611  1.04707  -0.12131  -0.0119744  0.0183626  0.118124  0.33301  0.230896  0  0  0  0.0516003  1.164  0.545684  0.0128851  -0.00494162  -0.0129549  -0.00782156  -0.00288322  -0.00142154  -0.0075405  0.0352156  -0.0327107  -0.0771968  -0.234835  0.0482828 
1704463262.068427000  0  0  12.1562  0.0835711  -0.0947313  0.0241158  nan  nan  nan  nan  nan  nan  -2.46799  -0.239931  1.04823  -0.120678  -0.011388  0.0184917  0.118369  0.338837  0.233609  0  0  0  0.0466459  1.16704  0.539293  0.0129573  -0.00473793  -0.0126677  -0.00929062  -0.001303  0.00460617  -0.0088346  0.0332856  -0.0328383  -0.0939998  -0.228356  0.0269298 
1704463262.073436000  0  0  12.1833  0.0504861  -0.0862803  0.0268217  nan  nan  nan  nan  nan  nan  -2.4674  -0.238223  1.04941  -0.123341  -0.0131438  0.0189478  0.118591  0.34468  0.236289  0  0  0  0.0419415  1.16982  0.532652  0.0129218  -0.0050732  -0.0127412  -0.00757627  -0.00350942  0.00230175  -0.00590827  0.0336277  -0.0331796  -0.0485658  -0.255642  0.00181817 
1704463262.078441000  0  0  12.2172  0.0838517  -0.10189  0.0238499  nan  nan  nan  nan  nan  nan  -2.46681  -0.236485  1.05059  -0.121977  -0.0132744  0.0191534  0.118789  0.350535  0.238935  0  0  0  0.0374871  1.17236  0.525762  0.0128824  -0.00507669  -0.012756  -0.00776283  -0.00206749  -0.0012174  -0.00813804  0.0330376  -0.0330448  -0.104767  -0.205843  0.0314165 
1704463262.083432000  0  0  12.133  0.0765635  -0.0784146  0.022236  nan  nan  nan  nan  nan  nan  -2.46621  -0.234717  1.0518  -0.123476  -0.0120025  0.0192235  0.118966  0.356403  0.241546  0  0  0  0.0332828  1.17464  0.518621  0.0128239  -0.00521917  -0.012713  -0.00959391  -0.00224308  0.00510106  -0.00705905  0.0304891  -0.0328632  -0.101009  -0.231287  0.0465795 
1704463262.088427000  0  0  12.1265  0.0547799  -0.0813197  0.02792  nan  nan  nan  nan  nan  nan  -2.46562  -0.23292  1.05301  -0.123398  -0.0144602  0.0197351  0.119122  0.362281  0.244121  0  0  0  0.0293284  1.17667  0.51123  0.0128025  -0.00523117  -0.0126959  -0.00713917  -0.00177966  0.00489013  -0.00703506  0.0316461  -0.0334764  -0.0437116  -0.24025  -0.00704301 
1704463262.093436000  0  0  12.1667  0.0912477  -0.106015  0.0240828  nan  nan  nan  nan  nan  nan  -2.46502  -0.231094  1.05424  -0.123075  -0.014195  0.0199053  0.11926  0.368169  0.246658  0  0  0  0.025624  1.17846  0.503589  0.0127616  -0.00534007  -0.0127162  -0.0076602  -0.00143674  0.000937318  -0.00839449  0.0310314  -0.0332984  -0.120647  -0.166057  0.0311425 
1704463262.098433000  0  0  12.0915  0.0821421  -0.08298  0.0214364  nan  nan  nan  nan  nan  nan  -2.46443  -0.229239  1.05548  -0.123802  -0.0131839  0.0199977  0.119379  0.374065  0.249156  0  0  0  0.0221696  1.17999  0.495698  0.0127306  -0.00545727  -0.0126466  -0.00918204  -0.000972022  0.00628087  -0.00803463  0.0288916  -0.0329734  -0.101731  -0.196215  0.0557758 
1704463262.103435000  0  0  12.0738  0.067314  -0.089049  0.0283317  nan  nan  nan  nan  nan  nan  -2.46383  -0.227354  1.05673  -0.123622  -0.01509  0.0204398  0.119482  0.379969  0.251615  0  0  0  0.0189652  1.18127  0.487557  0.0126988  -0.00545981  -0.0126157  -0.00728304  -0.000376346  0.0068693  -0.00826376  0.0298035  -0.0336788  -0.0591962  -0.193279  -0.00959809 
1704463262.108410000  0  0  12.1274  0.0984488  -0.115854  0.022719  nan  nan  nan  nan  nan  nan  -2.46323  -0.225439  1.05799  -0.123837  -0.0155041  0.0207025  0.119569  0.385878  0.254032  0  0  0  0.0160108  1.18231  0.479166  0.01267  -0.0055887  -0.0126288  -0.00693703  -0.000816027  0.00179572  -0.00912596  0.0300555  -0.0333107  -0.129175  -0.125974  0.0453499 
1704463262.112427000  0  0  12.1011  0.094055  -0.104346  0.019668  nan  nan  nan  nan  nan  nan  -2.46263  -0.223495  1.05927  -0.124663  -0.0142244  0.0207628  0.119642  0.391791  0.256406  0  0  0  0.0133065  1.18309  0.470525  0.0125063  -0.00596465  -0.0128518  -0.00830707  -0.000518287  0.00372238  -0.00871987  0.0282712  -0.0329716  -0.123393  -0.130747  0.0740491 
1704463262.118434000  0  0  12.0126  0.0858423  -0.104011  0.0276945  nan  nan  nan  nan  nan  nan  -2.46203  -0.221521  1.06056  -0.123811  -0.0158598  0.0211618  0.119702  0.397708  0.258736  0  0  0  0.0108521  1.18363  0.461635  0.0126033  -0.0056891  -0.0125184  -0.00706867  0.00092784  0.00926264  -0.00985775  0.0288856  -0.0336728  -0.0852851  -0.140478  -0.00305836 
1704463262.122439000  0  0  12.0995  0.0930832  -0.127438  0.0255293  nan  nan  nan  nan  nan  nan  -2.46144  -0.219518  1.06186  -0.12517  -0.0173508  0.021579  0.119751  0.403627  0.261022  0  0  0  0.0086477  1.18391  0.452494  0.0124773  -0.00609166  -0.0128085  -0.00510369  -0.000609304  0.00212986  -0.00921059  0.0303484  -0.0336522  -0.113759  -0.0995367  0.0191608 
1704463262.128430000  0  0  12.0096  0.122714  -0.120388  0.0213117  nan  nan  nan  nan  nan  nan  -2.46084  -0.217485  1.06317  -0.122512  -0.0152147  0.021477  0.119789  0.409547  0.263261  0  0  0  0.0066933  1.18394  0.443103  0.0125176  -0.0057816  -0.0125063  -0.00802475  0.0026459  0.00758629  -0.0127741  0.027799  -0.0331564  -0.140883  -0.0815034  0.0586059 
1704463262.133440000  0  0  11.9312  0.095991  -0.106652  0.0272885  nan  nan  nan  nan  nan  nan  -2.46024  -0.215422  1.06449  -0.123923  -0.0169071  0.0219173  0.119818  0.415466  0.265452  0  0  0  0.0049889  1.18373  0.433462  0.0125298  -0.00592534  -0.0124031  -0.00639972  0.00233263  0.0130131  -0.0114799  0.0285181  -0.0337232  -0.0887949  -0.1282  0.00156434 
1704463262.137437000  0  0  12.0761  0.0955748  -0.141013  0.0266531  nan  nan  nan  nan  nan  nan  -2.45964  -0.21333  1.06582  -0.12526  -0.01887  0.0223951  0.11984  0.421384  0.267595  0  0  0  0.0035345  1.18326  0.423571  0.0124007  -0.00634818  -0.0127299  -0.00369816  0.000134081  0.00118408  -0.0106881  0.0306905  -0.0338522  -0.0990883  -0.0685387  0.00922101 
1704463262.143435000  0  0  11.9414  0.131401  -0.125711  0.0201162  nan  nan  nan  nan  nan  nan  -2.45904  -0.211209  1.06716  -0.122726  -0.0155255  0.0221418  0.119854  0.427298  0.269688  0  0  0  0.0023301  1.18254  0.41343  0.0124689  -0.00607572  -0.0123512  -0.00805217  0.0037307  0.0100546  -0.0142123  0.0270716  -0.0331885  -0.143171  -0.0569503  0.0712396 
