    ts      x      y      z   roll  pitch    yaw     vx     vy     vz     wx     wy     wz     ax     ay     az    dwx    dwy    dwz
 0.0050000  -2.5000000  -0.3000000   1.0000000   0.0000000   0.0000000   0.0000000   0.0000002   0.0000002   0.0000002   0.0000000   0.0000000   0.0000000   0.0001250   0.0001250   0.0001250   0.0000000   0.0000000   0.0000000
 0.0100000  -2.5000000  -0.3000000   1.0000000   0.0000000   0.0000000   0.0000000   0.0000017   0.0000017   0.0000017   0.0000000   0.0000000   0.0000000   0.0005000   0.0005000   0.0005000   0.0000000   0.0000000   0.0000000
 0.0150000  -2.5000000  -0.3000000   1.0000000   0.0000000   0.0000000   0.0000000   0.0000056   0.0000056   0.0000056   0.0000000   0.0000000   0.0000000   0.0011250   0.0011250   0.0011250   0.0000000   0.0000000   0.0000000
 0.0200000  -2.5000000  -0.3000000   1.0000000   0.0000000   0.0000000   0.0000001   0.0000133   0.0000133   0.0000133   0.0000000   0.0000000   0.0000000   0.0020000   0.0020000   0.0020000   0.0000000   0.0000000   0.0000000
 0.0250000  -2.5000000  -0.3000000   1.0000000   0.0000000   0.0000000   0.0000003   0.0000260   0.0000260   0.0000260   0.0000000   0.0000000   0.0000000   0.0031250   0.0031250   0.0031250   0.0000000   0.0000000   0.0000000
 0.0300000  -2.5000000  -0.3000000   1.0000000   0.0000000   0.0000000   0.0000005   0.0000450   0.0000450   0.0000450   0.0000000   0.0000000   0.0000000   0.0045000   0.0045000   0.0045000   0.0000000   0.0000000   0.0000000
 0.0350000  -2.5000000  -0.2999990   1.0000000   0.0000000   0.0000000   0.0000010   0.0000715   0.0000715   0.0000715   0.0000000   0.0000000   0.0000000   0.0061250   0.0061250   0.0061250   0.0000000   0.0000000   0.0000000
 0.0400000  -2.5000000  -0.2999990   1.0000000   0.0000000   0.0000000   0.0000017   0.0001067   0.0001067   0.0001067   0.0000000   0.0000000   0.0000000   0.0080000   0.0080000   0.0080000   0.0000000   0.0000000   0.0000000
 0.0450000  -2.5000000  -0.2999980   1.0000000   0.0000000   0.0000000   0.0000027   0.0001519   0.0001519   0.0001519   0.0000000   0.0000000   0.0000000   0.0101250   0.0101250   0.0101250   0.0000000   0.0000000   0.0000000
 0.0500000  -2.5000000  -0.2999970   1.0000000   0.0000000   0.0000000   0.0000042   0.0002083   0.0002083   0.0002083   0.0000000   0.0000000   0.0000000   0.0125000   0.0125000   0.0125000   0.0000000   0.0000000   0.0000000
 0.0550000  -2.5000000  -0.2999960   1.0000000   0.0000000   0.0000000   0.0000061   0.0002773   0.0002773   0.0002773   0.0000000   0.0000000   0.0000000   0.0151250   0.0151250   0.0151250   0.0000000   0.0000000   0.0000000
 0.0600000  -2.4999900  -0.2999950   1.0000100   0.0000000   0.0000000   0.0000086   0.0003600   0.0003600   0.0003600   0.0000000   0.0000000   0.0000000   0.0180000   0.0180000   0.0180000   0.0000000   0.0000000   0.0000000
 0.0650000  -2.4999900  -0.2999930   1.0000100   0.0000000   0.0000000   0.0000119   0.0004577   0.0004577   0.0004577   0.0000000   0.0000000   0.0000000   0.0211250   0.0211250   0.0211250   0.0000000   0.0000000   0.0000000
 0.0700000  -2.4999900  -0.2999900   1.0000100   0.0000000   0.0000000   0.0000160   0.0005717   0.0005717   0.0005717   0.0000000   0.0000000   0.0000000   0.0245000   0.0245000   0.0245000   0.0000000   0.0000000   0.0000000
 0.0750000  -2.4999900  -0.2999870   1.0000100   0.0000000   0.0000000   0.0000211   0.0007031   0.0007031   0.0007031   0.0000000   0.0000000   0.0000000   0.0281250   0.0281250   0.0281250   0.0000000   0.0000000   0.0000000
 0.0800000  -2.4999800  -0.2999830   1.0000200   0.0000000   0.0000000   0.0000273   0.0008533   0.0008533   0.0008533   0.0000000   0.0000000   0.0000000   0.0320000   0.0320000   0.0320000   0.0000000   0.0000000   0.0000000
 0.0850000  -2.4999800  -0.2999780   1.0000200   0.0000000   0.0000000   0.0000348   0.0010235   0.0010235   0.0010235   0.0000000   0.0000000   0.0000000   0.0361250   0.0361250   0.0361250   0.0000000   0.0000000   0.0000000
 0.0900000  -2.4999700  -0.2999730   1.0000300   0.0000000   0.0000000   0.0000437   0.0012150   0.0012150   0.0012150   0.0000000   0.0000000   0.0000000   0.0405000   0.0405000   0.0405000   0.0000000   0.0000000   0.0000000
 0.0950000  -2.4999700  -0.2999660   1.0000300   0.0000000   0.0000000   0.0000543   0.0014290   0.0014290   0.0014290   0.0000000   0.0000000   0.0000000   0.0451250   0.0451250   0.0451250   0.0000000   0.0000000   0.0000000
 0.1000000  -2.4999600  -0.2999580   1.0000400   0.0000000   0.0000000   0.0000667   0.0016667   0.0016667   0.0016667   0.0000000   0.0000000   0.0000000   0.0500000   0.0500000   0.0500000   0.0000000   0.0000000   0.0000000
 0.1050000  -2.4999500  -0.2999490   1.0000500   0.0000000   0.0000000   0.0000810   0.0019294   0.0019294   0.0019294   0.0000000   0.0000000   0.0000000   0.0551250   0.0551250   0.0551250   0.0000000   0.0000000   0.0000000
 0.1100000  -2.4999400  -0.2999390   1.0000600   0.0000000   0.0000000   0.0000976   0.0022183   0.0022183   0.0022183   0.0000000   0.0000000   0.0000000   0.0605000   0.0605000   0.0605000   0.0000000   0.0000000   0.0000000
 0.1150000  -2.4999300  -0.2999270   1.0000700   0.0000000   0.0000000   0.0001166   0.0025348   0.0025348   0.0025348   0.0000000   0.0000000   0.0000000   0.0661250   0.0661250   0.0661250   0.0000000   0.0000000   0.0000000
 0.1200000  -2.4999100  -0.2999140   1.0000900   0.0000000   0.0000000   0.0001382   0.0028800   0.0028800   0.0028800   0.0000000   0.0000000   0.0000000   0.0720000   0.0720000   0.0720000   0.0000000   0.0000000   0.0000000
 0.1250000  -2.4999000  -0.2998980   1.0001000   0.0000000   0.0000000   0.0001627   0.0032552   0.0032552   0.0032552   0.0000000   0.0000000   0.0000000   0.0781250   0.0781250   0.0781250   0.0000000   0.0000000   0.0000000
 0.1300000  -2.4998800  -0.2998810   1.0001200   0.0000000   0.0000000   0.0001902   0.0036617   0.0036617   0.0036617   0.0000000   0.0000000   0.0000000   0.0845000   0.0845000   0.0845000   0.0000000   0.0000000   0.0000000
 0.1350000  -2.4998600  -0.2998620   1.0001400   0.0000000   0.0000000   0.0002208   0.0041006   0.0041006   0.0041006   0.0000000   0.0000000   0.0000000   0.0911250   0.0911250   0.0911250   0.0000000   0.0000000   0.0000000
 0.1400000  -2.4998400  -0.2998400   1.0001600   0.0000000   0.0000000   0.0002549   0.0045733   0.0045733   0.0045733   0.0000000   0.0000000   0.0000000   0.0980000   0.0980000   0.0980000   0.0000000   0.0000000   0.0000000
 0.1450000  -2.4998200  -0.2998160   1.0001800   0.0000000   0.0000000   0.0002925   0.0050810   0.0050810   0.0050810   0.0000000   0.0000000   0.0000000   0.1051250   0.1051250   0.1051250   0.0000000   0.0000000   0.0000000
 0.1500000  -2.4997900  -0.2997890   1.0002100   0.0000000   0.0000000   0.0003338   0.0056250   0.0056250   0.0056250   0.0000000   0.0000000   0.0000000   0.1125000   0.1125000   0.1125000   0.0000000   0.0000000   0.0000000
 0.1550000  -2.4997600  -0.2997590   1.0002400   0.0000000   0.0000000   0.0003789   0.0062065   0.0062065   0.0062065   0.0000000   0.0000000   0.0000000   0.1201250   0.1201250   0.1201250   0.0000000   0.0000000   0.0000000
 0.1600000  -2.4997300  -0.2997270   1.0002700   0.0000000   0.0000000   0.0004280   0.0068267   0.0068267   0.0068267   0.0000000   0.0000000   0.0000000   0.1280000   0.1280000   0.1280000   0.0000000   0.0000000   0.0000000
 0.1650000  -2.4996900  -0.2996910   1.0003100   0.0000000   0.0000000   0.0004811   0.0074869   0.0074869   0.0074869   0.0000000   0.0000000   0.0000000   0.1361250   0.1361250   0.1361250   0.0000000   0.0000000   0.0000000
 0.1700000  -2.4996500  -0.2996520   1.0003500   0.0000000   0.0000000   0.0005385   0.0081883   0.0081883   0.0081883   0.0000000   0.0000000   0.0000000   0.1445000   0.1445000   0.1445000   0.0000000   0.0000000   0.0000000
 0.1750000  -2.4996100  -0.2996090   1.0003900   0.0000000   0.0000000   0.0006001   0.0089323   0.0089323   0.0089323   0.0000000   0.0000000   0.0000000   0.1531250   0.1531250   0.1531250   0.0000000   0.0000000   0.0000000
 0.1800000  -2.4995600  -0.2995630   1.0004400   0.0000000   0.0000000   0.0006661   0.0097200   0.0097200   0.0097200   0.0000000   0.0000000   0.0000000   0.1620000   0.1620000   0.1620000   0.0000000   0.0000000   0.0000000
 0.1850000  -2.4995100  -0.2995120   1.0004900   0.0000000   0.0000000   0.0007366   0.0105526   0.0105527   0.0105527   0.0000000   0.0000000   0.0000000   0.1710130   0.1711250   0.1711250   0.0000000   0.0000000   0.0000000
 0.1900000  -2.4994600  -0.2994570   1.0005400   0.0000000   0.0000000   0.0008117   0.0114297   0.0114317   0.0114317   0.0000000   0.0000000   0.0000000   0.1798020   0.1805000   0.1805000   0.0000000   0.0000000   0.0000000
 0.1950000  -2.4994000  -0.2993980   1.0006000   0.0000000   0.0000000   0.0008913   0.0123502   0.0123581   0.0123581   0.0000000   0.0000000   0.0000000   0.1883420   0.1901250   0.1901250   0.0000000   0.0000000   0.0000000
 0.2000000  -2.4993300  -0.2993330   1.0006700   0.0000000   0.0000000   0.0009756   0.0133127   0.0133333   0.0133333   0.0000000   0.0000000   0.0000000   0.1966320   0.2000000   0.2000000   0.0000000   0.0000000   0.0000000
 0.2050000  -2.4992600  -0.2992640   1.0007400   0.0000000   0.0000000   0.0010646   0.0143161   0.0143585   0.0143585   0.0000000   0.0000000   0.0000000   0.2046710   0.2101250   0.2101250   0.0000000   0.0000000   0.0000000
 0.2100000  -2.4991900  -0.2991900   1.0008100   0.0000000   0.0000000   0.0011583   0.0153590   0.0154350   0.0154350   0.0000000   0.0000000   0.0000000   0.2124610   0.2205000   0.2205000   0.0000000   0.0000000   0.0000000
 0.2150000  -2.4991100  -0.2991100   1.0008900   0.0000000   0.0000000   0.0012568   0.0164403   0.0165640   0.0165640   0.0000000   0.0000000   0.0000000   0.2200010   0.2311250   0.2311250   0.0000000   0.0000000   0.0000000
 0.2200000  -2.4990300  -0.2990240   1.0009800   0.0000000   0.0000000   0.0013600   0.0175586   0.0177467   0.0177467   0.0000000   0.0000000   0.0000000   0.2272900   0.2420000   0.2420000   0.0000000   0.0000000   0.0000000
 0.2250000  -2.4989400  -0.2989320   1.0010700   0.0000000   0.0000000   0.0014680   0.0187128   0.0189844   0.0189844   0.0000000   0.0000000   0.0000000   0.2343300   0.2531250   0.2531250   0.0000000   0.0000000   0.0000000
 0.2300000  -2.4988400  -0.2988340   1.0011700   0.0000000   0.0000000   0.0015807   0.0199015   0.0202783   0.0202783   0.0000000   0.0000000   0.0000000   0.2411200   0.2645000   0.2645000   0.0000000   0.0000000   0.0000000
 0.2350000  -2.4987400  -0.2987290   1.0012700   0.0000000   0.0000000   0.0016982   0.0211236   0.0216298   0.0216298   0.0000000   0.0000000   0.0000000   0.2476590   0.2761250   0.2761250   0.0000000   0.0000000   0.0000000
 0.2400000  -2.4986300  -0.2986180   1.0013800   0.0000000   0.0000000   0.0018203   0.0223777   0.0230400   0.0230400   0.0000000   0.0000000   0.0000000   0.2539490   0.2880000   0.2880000   0.0000000   0.0000000   0.0000000
 0.2450000  -2.4985100  -0.2984990   1.0015000   0.0000000   0.0000000   0.0019471   0.0236626   0.0245102   0.0245102   0.0000000   0.0000000   0.0000000   0.2599890   0.3001250   0.3001250   0.0000000   0.0000000   0.0000000
 0.2500000  -2.4983900  -0.2983720   1.0016300   0.0000000   0.0000000   0.0020786   0.0249771   0.0260417   0.0260417   0.0000000   0.0000000   0.0000000   0.2657790   0.3125000   0.3125000   0.0000000   0.0000000   0.0000000
 0.2550000  -2.4982600  -0.2982380   1.0017600   0.0000000   0.0000000   0.0022146   0.0263200   0.0276356   0.0276352   0.0000000   0.0000000   0.0000000   0.2713180   0.3251250   0.3248590   0.0000000   0.0000000   0.0000000
 0.2600000  -2.4981300  -0.2980960   1.0019000   0.0000000   0.0000000   0.0023551   0.0276899   0.0292933   0.0292898   0.0000000   0.0000000   0.0000000   0.2766080   0.3380000   0.3369680   0.0000000   0.0000000   0.0000000
 0.2650000  -2.4979900  -0.2979450   1.0020500   0.0000000   0.0000000   0.0025000   0.0290857   0.0310160   0.0310044   0.0000000   0.0000000   0.0000000   0.2816480   0.3511250   0.3488270   0.0000000   0.0000000   0.0000000
 0.2700000  -2.4978400  -0.2977860   1.0022100   0.0000000   0.0000000   0.0026492   0.0305060   0.0328050   0.0327777   0.0000000   0.0000000   0.0000000   0.2864370   0.3645000   0.3604360   0.0000000   0.0000000   0.0000000
 0.2750000  -2.4976800  -0.2976170   1.0023800   0.0000000   0.0000000   0.0028026   0.0319496   0.0346615   0.0346084   0.0000000   0.0000000   0.0000000   0.2909770   0.3781250   0.3717950   0.0000000   0.0000000   0.0000000
 0.2800000  -2.4975200  -0.2974390   1.0025600   0.0000000   0.0000000   0.0029602   0.0334153   0.0365867   0.0364952   0.0000000   0.0000000   0.0000000   0.2952670   0.3920000   0.3829050   0.0000000   0.0000000   0.0000000
 0.2850000  -2.4973500  -0.2972510   1.0027500   0.0000000   0.0000000   0.0031218   0.0349019   0.0385819   0.0384370   0.0000000   0.0000000   0.0000000   0.2993060   0.4061250   0.3937640   0.0000000   0.0000000   0.0000000
 0.2900000  -2.4971700  -0.2970530   1.0029400   0.0000000   0.0000000   0.0032872   0.0364080   0.0406483   0.0404325   0.0000000   0.0000000   0.0000000   0.3030960   0.4205000   0.4043730   0.0000000   0.0000000   0.0000000
 0.2950000  -2.4969800  -0.2968440   1.0031500   0.0000000   0.0000000   0.0034563   0.0379324   0.0427873   0.0424803   0.0000000   0.0000000   0.0000000   0.3066360   0.4351250   0.4147320   0.0000000   0.0000000   0.0000000
 0.3000000  -2.4967900  -0.2966250   1.0033700   0.0000000   0.0000000   0.0036291   0.0394739   0.0450000   0.0445794   0.0000000   0.0000000   0.0000000   0.3099250   0.4500000   0.4248410   0.0000000   0.0000000   0.0000000
 0.3050000  -2.4965900  -0.2963940   1.0036000   0.0000000   0.0000000   0.0038052   0.0410312   0.0472877   0.0467283   0.0000000   0.0000000   0.0000000   0.3129650   0.4651250   0.4347000   0.0000000   0.0000000   0.0000000
 0.3100000  -2.4963800  -0.2961520   1.0038400   0.0000000   0.0000000   0.0039846   0.0426032   0.0496517   0.0489259   0.0000000   0.0000000   0.0000000   0.3157550   0.4805000   0.4443090   0.0000000   0.0000000   0.0000000
 0.3150000  -2.4961600  -0.2958980   1.0040900   0.0000000   0.0000000   0.0041671   0.0441884   0.0520931   0.0511710   0.0000000   0.0000000   0.0000000   0.3182950   0.4961250   0.4536680   0.0000000   0.0000000   0.0000000
 0.3200000  -2.4959400  -0.2956310   1.0043500   0.0000000   0.0000000   0.0043525   0.0457857   0.0546133   0.0534622   0.0000000   0.0000000   0.0000000   0.3205840   0.5120000   0.4627780   0.0000000   0.0000000   0.0000000
 0.3250000  -2.4957000  -0.2953510   1.0046200   0.0000000   0.0000000   0.0045405   0.0473938   0.0572135   0.0557983   0.0000000   0.0000000   0.0000000   0.3226240   0.5281250   0.4716370   0.0000000   0.0000000   0.0000000
 0.3300000  -2.4954600  -0.2950590   1.0049100   0.0000000   0.0000000   0.0047310   0.0490115   0.0598950   0.0581782   0.0000000   0.0000000   0.0000000   0.3244140   0.5445000   0.4802460   0.0000000   0.0000000   0.0000000
 0.3350000  -2.4952100  -0.2947520   1.0052000   0.0000000   0.0000000   0.0049238   0.0506375   0.0626590   0.0606004   0.0000000   0.0000000   0.0000000   0.3259530   0.5611250   0.4886050   0.0000000   0.0000000   0.0000000
 0.3400000  -2.4949600  -0.2944320   1.0055100   0.0000000   0.0000000   0.0051187   0.0522706   0.0655067   0.0630638   0.0000000   0.0000000   0.0000000   0.3272430   0.5780000   0.4967140   0.0000000   0.0000000   0.0000000
 0.3450000  -2.4946900  -0.2940970   1.0058300   0.0000000   0.0000000   0.0053154   0.0539095   0.0684394   0.0655671   0.0000000   0.0000000   0.0000000   0.3282830   0.5951170   0.5045730   0.0000000   0.0000000   0.0000000
 0.3500000  -2.4944200  -0.2937470   1.0061700   0.0000000   0.0000000   0.0055138   0.0555530   0.0714576   0.0681091   0.0000000   0.0000000   0.0000000   0.3290720   0.6121500   0.5121820   0.0000000   0.0000000   0.0000000
 0.3550000  -2.4941300  -0.2933820   1.0065200   0.0000000   0.0000000   0.0057137   0.0571998   0.0745605   0.0706885   0.0000000   0.0000000   0.0000000   0.3296120   0.6289340   0.5195410   0.0000000   0.0000000   0.0000000
 0.3600000  -2.4938400  -0.2930020   1.0068800   0.0000000   0.0000000   0.0059149   0.0588487   0.0777466   0.0733041   0.0000000   0.0000000   0.0000000   0.3299020   0.6454680   0.5266510   0.0000000   0.0000000   0.0000000
 0.3650000  -2.4935500  -0.2926050   1.0072500   0.0000000   0.0000000   0.0061172   0.0604984   0.0810147   0.0759546   0.0000000   0.0000000   0.0000000   0.3299410   0.6617520   0.5335100   0.0000000   0.0000000   0.0000000
 0.3700000  -2.4932400  -0.2921910   1.0076400   0.0000000   0.0000000   0.0063206   0.0621477   0.0843637   0.0786388   0.0000000   0.0000000   0.0000000   0.3297310   0.6777850   0.5401190   0.0000000   0.0000000   0.0000000
 0.3750000  -2.4929200  -0.2917610   1.0080400   0.0000000   0.0000000   0.0065249   0.0637953   0.0877922   0.0813554   0.0000000   0.0000000   0.0000000   0.3292710   0.6935690   0.5464780   0.0000000   0.0000000   0.0000000
 0.3800000  -2.4926000  -0.2913130   1.0084500   0.0000000   0.0000000   0.0067299   0.0654400   0.0912989   0.0841031   0.0000000   0.0000000   0.0000000   0.3285610   0.7091030   0.5525870   0.0000000   0.0000000   0.0000000
 0.3850000  -2.4922700  -0.2908480   1.0088800   0.0000000   0.0000000   0.0069356   0.0670805   0.0948828   0.0868808   0.0000000   0.0000000   0.0000000   0.3276000   0.7243860   0.5584460   0.0000000   0.0000000   0.0000000
 0.3900000  -2.4919300  -0.2903640   1.0093200   0.0000000   0.0000000   0.0071417   0.0687156   0.0985424   0.0896872   0.0000000   0.0000000   0.0000000   0.3263900   0.7394200   0.5640550   0.0000000   0.0000000   0.0000000
 0.3950000  -2.4915800  -0.2898620   1.0097700   0.0000000   0.0000000   0.0073484   0.0703440   0.1022770   0.0925210   0.0000000   0.0000000   0.0000000   0.3249300   0.7542040   0.5694140   0.0000000   0.0000000   0.0000000
 0.4000000  -2.4912300  -0.2893410   1.0102400   0.0000000   0.0000000   0.0075553   0.0719645   0.1060840   0.0953809   0.0000000   0.0000000   0.0000000   0.3232190   0.7687380   0.5745240   0.0000000   0.0000000   0.0000000
 0.4050000  -2.4908600  -0.2888010   1.0107300   0.0000000   0.0000000   0.0077626   0.0735758   0.1099640   0.0982658   0.0000000   0.0000000   0.0000000   0.3212590   0.7830210   0.5793830   0.0000000   0.0000000   0.0000000
 0.4100000  -2.4904900  -0.2882420   1.0112300   0.0000000   0.0000000   0.0079700   0.0751767   0.1139140   0.1011740   0.0000000   0.0000000   0.0000000   0.3190490   0.7970550   0.5839920   0.0000000   0.0000000   0.0000000
 0.4150000  -2.4901100  -0.2876620   1.0117400   0.0000000   0.0000000   0.0081776   0.0767659   0.1179340   0.1041050   0.0000000   0.0000000   0.0000000   0.3165880   0.8108390   0.5883510   0.0000000   0.0000000   0.0000000
 0.4200000  -2.4897200  -0.2870620   1.0122700   0.0000000   0.0000000   0.0083852   0.0783421   0.1220220   0.1070570   0.0000000   0.0000000   0.0000000   0.3138780   0.8243720   0.5924600   0.0000000   0.0000000   0.0000000
 0.4250000  -2.4893300  -0.2864420   1.0128100   0.0000000   0.0000000   0.0085929   0.0799042   0.1261770   0.1100290   0.0000000   0.0000000   0.0000000   0.3109180   0.8376560   0.5963190   0.0000000   0.0000000   0.0000000
 0.4300000  -2.4889300  -0.2858000   1.0133700   0.0000000   0.0000000   0.0088007   0.0814509   0.1303980   0.1130200   0.0000000   0.0000000   0.0000000   0.3077080   0.8506900   0.5999280   0.0000000   0.0000000   0.0000000
 0.4350000  -2.4885100  -0.2851380   1.0139400   0.0000000   0.0000000   0.0090084   0.0829809   0.1346830   0.1160280   0.0000000   0.0000000   0.0000000   0.3042470   0.8634740   0.6032870   0.0000000   0.0000000   0.0000000
 0.4400000  -2.4881000  -0.2844530   1.0145300   0.0000000   0.0000000   0.0092162   0.0844930   0.1390320   0.1190530   0.0000000   0.0000000   0.0000000   0.3005370   0.8760070   0.6063970   0.0000000   0.0000000   0.0000000
 0.4450000  -2.4876700  -0.2837470   1.0151300   0.0000000   0.0000000   0.0094239   0.0859858   0.1434430   0.1220920   0.0000000   0.0000000   0.0000000   0.2965770   0.8882910   0.6092560   0.0000000   0.0000000   0.0000000
 0.4500000  -2.4872400  -0.2830190   1.0157500   0.0000000   0.0000000   0.0096317   0.0874583   0.1479150   0.1251450   0.0000000   0.0000000   0.0000000   0.2923660   0.9003250   0.6118650   0.0000000   0.0000000   0.0000000
 0.4550000  -2.4867900  -0.2822680   1.0163800   0.0000000   0.0000000   0.0098394   0.0889091   0.1524460   0.1282100   0.0000000   0.0000000   0.0000000   0.2879060   0.9121080   0.6142240   0.0000000   0.0000000   0.0000000
 0.4600000  -2.4863500  -0.2814940   1.0170300   0.0000000   0.0000000   0.0100472   0.0903369   0.1570350   0.1312870   0.0000000   0.0000000   0.0000000   0.2831960   0.9236420   0.6163330   0.0000000   0.0000000   0.0000000
 0.4650000  -2.4858900  -0.2806980   1.0176900   0.0000000   0.0000000   0.0102549   0.0917406   0.1616820   0.1343730   0.0000000   0.0000000   0.0000000   0.2782350   0.9349260   0.6181920   0.0000000   0.0000000   0.0000000
 0.4700000  -2.4854300  -0.2798770   1.0183700   0.0000000   0.0000000   0.0104627   0.0931189   0.1663840   0.1374680   0.0000000   0.0000000   0.0000000   0.2730250   0.9459600   0.6198010   0.0000000   0.0000000   0.0000000
 0.4750000  -2.4849600  -0.2790340   1.0190700   0.0000000   0.0000000   0.0106704   0.0944705   0.1711410   0.1405710   0.0000000   0.0000000   0.0000000   0.2675650   0.9567430   0.6211600   0.0000000   0.0000000   0.0000000
 0.4800000  -2.4844800  -0.2781660   1.0197800   0.0000000   0.0000000   0.0108782   0.0957941   0.1759510   0.1436790   0.0000000   0.0000000   0.0000000   0.2618540   0.9672770   0.6222700   0.0000000   0.0000000   0.0000000
 0.4850000  -2.4840000  -0.2772740   1.0205100   0.0000000   0.0000000   0.0110859   0.0970886   0.1808130   0.1467930   0.0000000   0.0000000   0.0000000   0.2558940   0.9775610   0.6231290   0.0000000   0.0000000   0.0000000
 0.4900000  -2.4835100  -0.2763580   1.0212500   0.0000000   0.0000000   0.0112937   0.0983526   0.1857260   0.1499100   0.0000000   0.0000000   0.0000000   0.2496840   0.9875950   0.6237380   0.0000000   0.0000000   0.0000000
 0.4950000  -2.4830200  -0.2754170   1.0220100   0.0000000   0.0000000   0.0115014   0.0995850   0.1906890   0.1530300   0.0000000   0.0000000   0.0000000   0.2432240   0.9973780   0.6240970   0.0000000   0.0000000   0.0000000
 0.5000000  -2.4825200  -0.2744510   1.0227800   0.0000000   0.0000000   0.0117092   0.1007840   0.1957000   0.1561510   0.0000000   0.0000000   0.0000000   0.2365130   1.0069100   0.6242060   0.0000000   0.0000000   0.0000000
 0.5050000  -2.4820100  -0.2734600   1.0235700   0.0000000   0.0000000   0.0119169   0.1019500   0.2007580   0.1592720   0.0000000   0.0000000   0.0000000   0.2295530   1.0162000   0.6240650   0.0000000   0.0000000   0.0000000
 0.5100000  -2.4815000  -0.2724430   1.0243700   0.0000000   0.0000000   0.0121247   0.1030800   0.2058610   0.1623910   0.0000000   0.0000000   0.0000000   0.2223430   1.0252300   0.6236740   0.0000000   0.0000000   0.0000000
 0.5150000  -2.4809800  -0.2714010   1.0251900   0.0000000   0.0000000   0.0123324   0.1041730   0.2110100   0.1655080   0.0000000   0.0000000   0.0000000   0.2148820   1.0340100   0.6230330   0.0000000   0.0000000   0.0000000
 0.5200000  -2.4804600  -0.2703330   1.0260300   0.0000000   0.0000000   0.0125402   0.1052280   0.2162010   0.1686210   0.0000000   0.0000000   0.0000000   0.2071720   1.0425500   0.6221430   0.0000000   0.0000000   0.0000000
 0.5250000  -2.4799300  -0.2692390   1.0268800   0.0000000   0.0000000   0.0127479   0.1062440   0.2214350   0.1717290   0.0000000   0.0000000   0.0000000   0.1992120   1.0508300   0.6210020   0.0000000   0.0000000   0.0000000
 0.5300000  -2.4793900  -0.2681190   1.0277400   0.0000000   0.0000000   0.0129557   0.1072200   0.2267090   0.1748300   0.0000000   0.0000000   0.0000000   0.1910010   1.0588600   0.6196110   0.0000000   0.0000000   0.0000000
 0.5350000  -2.4788600  -0.2669720   1.0286300   0.0000000   0.0000000   0.0131634   0.1081540   0.2320230   0.1779250   0.0000000   0.0000000   0.0000000   0.1825410   1.0666500   0.6179700   0.0000000   0.0000000   0.0000000
 0.5400000  -2.4783100  -0.2657980   1.0295200   0.0000000   0.0000000   0.0133712   0.1090450   0.2373750   0.1810100   0.0000000   0.0000000   0.0000000   0.1738310   1.0741800   0.6160790   0.0000000   0.0000000   0.0000000
 0.5450000  -2.4777700  -0.2645980   1.0304400   0.0000000   0.0000000   0.0135789   0.1098920   0.2427640   0.1840850   0.0000000   0.0000000   0.0000000   0.1648700   1.0814700   0.6139380   0.0000000   0.0000000   0.0000000
 0.5500000  -2.4772100  -0.2633710   1.0313600   0.0000000   0.0000000   0.0137867   0.1106930   0.2481890   0.1871490   0.0000000   0.0000000   0.0000000   0.1559160   1.0885000   0.6115470   0.0000000   0.0000000   0.0000000
 0.5550000  -2.4766600  -0.2621160   1.0323100   0.0000000   0.0000000   0.0139944   0.1114510   0.2536490   0.1902000   0.0000000   0.0000000   0.0000000   0.1472120   1.0952800   0.6089060   0.0000000   0.0000000   0.0000000
 0.5600000  -2.4761000  -0.2608340   1.0332700   0.0000000   0.0000000   0.0142022   0.1121660   0.2591420   0.1932370   0.0000000   0.0000000   0.0000000   0.1387570   1.1018200   0.6060160   0.0000000   0.0000000   0.0000000
 0.5650000  -2.4755400  -0.2595240   1.0342400   0.0000000   0.0000000   0.0144099   0.1128390   0.2646670   0.1962600   0.0000000   0.0000000   0.0000000   0.1305530   1.1081000   0.6028750   0.0000000   0.0000000   0.0000000
 0.5700000  -2.4749700  -0.2581870   1.0352300   0.0000000   0.0000000   0.0146177   0.1134720   0.2702220   0.1992660   0.0000000   0.0000000   0.0000000   0.1225990   1.1141300   0.5994840   0.0000000   0.0000000   0.0000000
 0.5750000  -2.4744000  -0.2568220   1.0362300   0.0000000   0.0000000   0.0148254   0.1140650   0.2758070   0.2022540   0.0000000   0.0000000   0.0000000   0.1148940   1.1199200   0.5958430   0.0000000   0.0000000   0.0000000
 0.5800000  -2.4738300  -0.2554290   1.0372500   0.0000000   0.0000000   0.0150332   0.1146210   0.2814210   0.2052240   0.0000000   0.0000000   0.0000000   0.1074400   1.1254500   0.5919520   0.0000000   0.0000000   0.0000000
 0.5850000  -2.4732600  -0.2540080   1.0382800   0.0000000   0.0000000   0.0152409   0.1151400   0.2870620   0.2081730   0.0000000   0.0000000   0.0000000   0.1002350   1.1307400   0.5878110   0.0000000   0.0000000   0.0000000
 0.5900000  -2.4726800  -0.2525580   1.0393300   0.0000000   0.0000000   0.0154487   0.1156240   0.2927280   0.2111010   0.0000000   0.0000000   0.0000000   0.0932810   1.1357700   0.5834200   0.0000000   0.0000000   0.0000000
 0.5950000  -2.4721000  -0.2510810   1.0403900   0.0000000   0.0000000   0.0156564   0.1160740   0.2984190   0.2140070   0.0000000   0.0000000   0.0000000   0.0865766   1.1405500   0.5787790   0.0000000   0.0000000   0.0000000
 0.6000000  -2.4715200  -0.2495740   1.0414700   0.0000000   0.0000000   0.0158642   0.1164900   0.3041330   0.2168890   0.0000000   0.0000000   0.0000000   0.0801222   1.1450900   0.5738890   0.0000000   0.0000000   0.0000000
 0.6050000  -2.4709400  -0.2480390   1.0425600   0.0000000   0.0000000   0.0160719   0.1168750   0.3098690   0.2197450   0.0000000   0.0000000   0.0000000   0.0739178   1.1493700   0.5687480   0.0000000   0.0000000   0.0000000
 0.6100000  -2.4703500  -0.2464760   1.0436700   0.0000000   0.0000000   0.0162797   0.1172300   0.3156260   0.2225760   0.0000000   0.0000000   0.0000000   0.0679635   1.1534000   0.5633570   0.0000000   0.0000000   0.0000000
 0.6150000  -2.4697600  -0.2448830   1.0447900   0.0000000   0.0000000   0.0164874   0.1175550   0.3214030   0.2253790   0.0000000   0.0000000   0.0000000   0.0622591   1.1571900   0.5577160   0.0000000   0.0000000   0.0000000
 0.6200000  -2.4691700  -0.2432610   1.0459200   0.0000000   0.0000000   0.0166952   0.1178530   0.3271980   0.2281530   0.0000000   0.0000000   0.0000000   0.0568047   1.1607200   0.5518250   0.0000000   0.0000000   0.0000000
 0.6250000  -2.4685800  -0.2416110   1.0470700   0.0000000   0.0000000   0.0169029   0.1181240   0.3330100   0.2308960   0.0000000   0.0000000   0.0000000   0.0516003   1.1640000   0.5456840   0.0000000   0.0000000   0.0000000
 0.6300000  -2.4679900  -0.2399310   1.0482300   0.0000000   0.0000000   0.0171107   0.1183690   0.3388370   0.2336090   0.0000000   0.0000000   0.0000000   0.0466459   1.1670400   0.5392930   0.0000000   0.0000000   0.0000000
 0.6350000  -2.4674000  -0.2382230   1.0494100   0.0000000   0.0000000   0.0173184   0.1185910   0.3446800   0.2362890   0.0000000   0.0000000   0.0000000   0.0419415   1.1698200   0.5326520   0.0000000   0.0000000   0.0000000
 0.6400000  -2.4668100  -0.2364850   1.0505900   0.0000000   0.0000000   0.0175262   0.1187890   0.3505350   0.2389350   0.0000000   0.0000000   0.0000000   0.0374871   1.1723600   0.5257620   0.0000000   0.0000000   0.0000000
 0.6450000  -2.4662100  -0.2347170   1.0518000   0.0000000   0.0000000   0.0177339   0.1189660   0.3564030   0.2415460   0.0000000   0.0000000   0.0000000   0.0332828   1.1746400   0.5186210   0.0000000   0.0000000   0.0000000
 0.6500000  -2.4656200  -0.2329200   1.0530100   0.0000000   0.0000000   0.0179417   0.1191220   0.3622810   0.2441210   0.0000000   0.0000000   0.0000000   0.0293284   1.1766700   0.5112300   0.0000000   0.0000000   0.0000000
 0.6550000  -2.4650200  -0.2310940   1.0542400   0.0000000   0.0000000   0.0181494   0.1192600   0.3681690   0.2466580   0.0000000   0.0000000   0.0000000   0.0256240   1.1784600   0.5035890   0.0000000   0.0000000   0.0000000
 0.6600000  -2.4644300  -0.2292390   1.0554800   0.0000000   0.0000000   0.0183572   0.1193790   0.3740650   0.2491560   0.0000000   0.0000000   0.0000000   0.0221696   1.1799900   0.4956980   0.0000000   0.0000000   0.0000000
 0.6650000  -2.4638300  -0.2273540   1.0567300   0.0000000   0.0000000   0.0185649   0.1194820   0.3799690   0.2516150   0.0000000   0.0000000   0.0000000   0.0189652   1.1812700   0.4875570   0.0000000   0.0000000   0.0000000
 0.6700000  -2.4632300  -0.2254390   1.0579900   0.0000000   0.0000000   0.0187727   0.1195690   0.3858780   0.2540320   0.0000000   0.0000000   0.0000000   0.0160108   1.1823100   0.4791660   0.0000000   0.0000000   0.0000000
 0.6750000  -2.4626300  -0.2234950   1.0592700   0.0000000   0.0000000   0.0189804   0.1196420   0.3917910   0.2564060   0.0000000   0.0000000   0.0000000   0.0133065   1.1830900   0.4705250   0.0000000   0.0000000   0.0000000
 0.6800000  -2.4620300  -0.2215210   1.0605600   0.0000000   0.0000000   0.0191882   0.1197020   0.3977080   0.2587360   0.0000000   0.0000000   0.0000000   0.0108521   1.1836300   0.4616350   0.0000000   0.0000000   0.0000000
 0.6850000  -2.4614400  -0.2195180   1.0618600   0.0000000   0.0000000   0.0193959   0.1197510   0.4036270   0.2610220   0.0000000   0.0000000   0.0000000   0.0086477   1.1839100   0.4524940   0.0000000   0.0000000   0.0000000
 0.6900000  -2.4608400  -0.2174850   1.0631700   0.0000000   0.0000000   0.0196037   0.1197890   0.4095470   0.2632610   0.0000000   0.0000000   0.0000000   0.0066933   1.1839400   0.4431030   0.0000000   0.0000000   0.0000000
 0.6950000  -2.4602400  -0.2154220   1.0644900   0.0000000   0.0000000   0.0198114   0.1198180   0.4154660   0.2654520   0.0000000   0.0000000   0.0000000   0.0049889   1.1837300   0.4334620   0.0000000   0.0000000   0.0000000
 0.7000000  -2.4596400  -0.2133300   1.0658200   0.0000000   0.0000000   0.0200192   0.1198400   0.4213840   0.2675950   0.0000000   0.0000000   0.0000000   0.0035345   1.1832600   0.4235710   0.0000000   0.0000000   0.0000000
 0.7050000  -2.4590400  -0.2112090   1.0671600   0.0000000   0.0000000   0.0202269   0.1198540   0.4272980   0.2696880   0.0000000   0.0000000   0.0000000   0.0023301   1.1825400   0.4134300   0.0000000   0.0000000   0.0000000
 0.7100000  -2.4584400  -0.2090570   1.0685200   0.0000000   0.0000000   0.0204347   0.1198630   0.4332090   0.2717290   0.0000000   0.0000000   0.0000000   0.0013758   1.1815800   0.4030390   0.0000000   0.0000000   0.0000000
 0.7150000  -2.4578400  -0.2068760   1.0698800   0.0000000   0.0000000   0.0206424   0.1198680   0.4391140   0.2737180   0.0000000   0.0000000   0.0000000   0.0006714   1.1803600   0.3923980   0.0000000   0.0000000   0.0000000
 0.7200000  -2.4572400  -0.2046660   1.0712600   0.0000000   0.0000000   0.0208502   0.1198710   0.4450120   0.2756530   0.0000000   0.0000000   0.0000000   0.0002170   1.1789000   0.3815080   0.0000000   0.0000000   0.0000000
 0.7250000  -2.4566400  -0.2024260   1.0726400   0.0000000   0.0000000   0.0210579   0.1198710   0.4509020   0.2775320   0.0000000   0.0000000   0.0000000   0.0000126   1.1771800   0.3703670   0.0000000   0.0000000   0.0000000
 0.7300000  -2.4560400  -0.2001570   1.0740300   0.0000000   0.0000000   0.0212657   0.1198710   0.4567830   0.2793560   0.0000000   0.0000000   0.0000000   0.0000000   1.1752100   0.3589760   0.0000000   0.0000000   0.0000000
 0.7350000  -2.4554400  -0.1978590   1.0754300   0.0000000   0.0000000   0.0214735   0.1198710   0.4626540   0.2811220   0.0000000   0.0000000   0.0000000   0.0000000   1.1730000   0.3473350   0.0000000   0.0000000   0.0000000
 0.7400000  -2.4548400  -0.1955310   1.0768400   0.0000000   0.0000000   0.0216812   0.1198710   0.4685130   0.2828290   0.0000000   0.0000000   0.0000000   0.0000000   1.1705300   0.3354440   0.0000000   0.0000000   0.0000000
 0.7450000  -2.4542400  -0.1931730   1.0782600   0.0000000   0.0000000   0.0218890   0.1198710   0.4743590   0.2844760   0.0000000   0.0000000   0.0000000   0.0000000   1.1678100   0.3233030   0.0000000   0.0000000   0.0000000
 0.7500000  -2.4536500  -0.1907870   1.0796900   0.0000000   0.0000000   0.0220967   0.1198710   0.4801910   0.2860610   0.0000000   0.0000000   0.0000000   0.0000000   1.1648500   0.3109150   0.0000000   0.0000000   0.0000000
 0.7550000  -2.4530500  -0.1883720   1.0811200   0.0000000   0.0000000   0.0223045   0.1198710   0.4860070   0.2875850   0.0000000   0.0000000   0.0000000   0.0000000   1.1616300   0.2985710   0.0000000   0.0000000   0.0000000
 0.7600000  -2.4524500  -0.1859270   1.0825600   0.0000000   0.0000000   0.0225122   0.1198710   0.4918070   0.2890470   0.0000000   0.0000000   0.0000000   0.0000000   1.1581700   0.2864780   0.0000000   0.0000000   0.0000000
 0.7650000  -2.4518500  -0.1834540   1.0840100   0.0000000   0.0000000   0.0227200   0.1198710   0.4975880   0.2904500   0.0000000   0.0000000   0.0000000   0.0000000   1.1544500   0.2746350   0.0000000   0.0000000   0.0000000
 0.7700000  -2.4512500  -0.1809510   1.0854700   0.0000000   0.0000000   0.0229277   0.1198710   0.5033510   0.2917940   0.0000000   0.0000000   0.0000000   0.0000000   1.1504800   0.2630420   0.0000000   0.0000000   0.0000000
 0.7750000  -2.4506500  -0.1784200   1.0869300   0.0000000   0.0000000   0.0231355   0.1198710   0.5090930   0.2930810   0.0000000   0.0000000   0.0000000   0.0000000   1.1462700   0.2516980   0.0000000   0.0000000   0.0000000
 0.7800000  -2.4500500  -0.1758600   1.0884000   0.0000000   0.0000000   0.0233432   0.1198710   0.5148130   0.2943120   0.0000000   0.0000000   0.0000000   0.0000000   1.1418000   0.2406050   0.0000000   0.0000000   0.0000000
 0.7850000  -2.4494500  -0.1732720   1.0898700   0.0000000   0.0000000   0.0235510   0.1198710   0.5205100   0.2954870   0.0000000   0.0000000   0.0000000   0.0000000   1.1370800   0.2297620   0.0000000   0.0000000   0.0000000
 0.7900000  -2.4488500  -0.1706550   1.0913500   0.0000000   0.0000000   0.0237587   0.1198710   0.5261830   0.2966100   0.0000000   0.0000000   0.0000000   0.0000000   1.1321200   0.2191690   0.0000000   0.0000000   0.0000000
 0.7950000  -2.4482500  -0.1680100   1.0928400   0.0000000   0.0000000   0.0239665   0.1198710   0.5318310   0.2976800   0.0000000   0.0000000   0.0000000   0.0000000   1.1269000   0.2088250   0.0000000   0.0000000   0.0000000
 0.8000000  -2.4476500  -0.1653370   1.0943300   0.0000000   0.0000000   0.0241742   0.1198710   0.5374520   0.2986980   0.0000000   0.0000000   0.0000000   0.0000000   1.1214400   0.1987320   0.0000000   0.0000000   0.0000000
 0.8050000  -2.4470500  -0.1626360   1.0958200   0.0000000   0.0000000   0.0243820   0.1198710   0.5430450   0.2996670   0.0000000   0.0000000   0.0000000   0.0000000   1.1157200   0.1888890   0.0000000   0.0000000   0.0000000
 0.8100000  -2.4464500  -0.1599070   1.0973300   0.0000000   0.0000000   0.0245897   0.1198710   0.5486090   0.3005880   0.0000000   0.0000000   0.0000000   0.0000000   1.1097500   0.1792960   0.0000000   0.0000000   0.0000000
 0.8150000  -2.4458500  -0.1571500   1.0988300   0.0000000   0.0000000   0.0247975   0.1198710   0.5541420   0.3014610   0.0000000   0.0000000   0.0000000   0.0000000   1.1035400   0.1699520   0.0000000   0.0000000   0.0000000
 0.8200000  -2.4452500  -0.1543650   1.1003400   0.0000000   0.0000000   0.0250052   0.1198710   0.5596440   0.3022880   0.0000000   0.0000000   0.0000000   0.0000000   1.0970700   0.1608590   0.0000000   0.0000000   0.0000000
 0.8250000  -2.4446500  -0.1515530   1.1018500   0.0000000   0.0000000   0.0252130   0.1198710   0.5651120   0.3030700   0.0000000   0.0000000   0.0000000   0.0000000   1.0903500   0.1520160   0.0000000   0.0000000   0.0000000
 0.8300000  -2.4440600  -0.1487140   1.1033700   0.0000000   0.0000000   0.0254207   0.1198710   0.5705470   0.3038080   0.0000000   0.0000000   0.0000000   0.0000000   1.0833900   0.1434230   0.0000000   0.0000000   0.0000000
 0.8350000  -2.4434600  -0.1458480   1.1048900   0.0000000   0.0000000   0.0256285   0.1198710   0.5759460   0.3045040   0.0000000   0.0000000   0.0000000   0.0000000   1.0761700   0.1350790   0.0000000   0.0000000   0.0000000
 0.8400000  -2.4428600  -0.1429550   1.1064200   0.0000000   0.0000000   0.0258362   0.1198710   0.5813080   0.3051590   0.0000000   0.0000000   0.0000000   0.0000000   1.0687000   0.1269860   0.0000000   0.0000000   0.0000000
 0.8450000  -2.4422600  -0.1400350   1.1079400   0.0000000   0.0000000   0.0260440   0.1198710   0.5866320   0.3057750   0.0000000   0.0000000   0.0000000   0.0000000   1.0609900   0.1191430   0.0000000   0.0000000   0.0000000
 0.8500000  -2.4416600  -0.1370880   1.1094700   0.0000000   0.0000000   0.0262517   0.1198710   0.5919170   0.3063510   0.0000000   0.0000000   0.0000000   0.0000000   1.0530200   0.1115500   0.0000000   0.0000000   0.0000000
 0.8550000  -2.4410600  -0.1341160   1.1110100   0.0000000   0.0000000   0.0264595   0.1198710   0.5971620   0.3068910   0.0000000   0.0000000   0.0000000   0.0000000   1.0448100   0.1042060   0.0000000   0.0000000   0.0000000
 0.8600000  -2.4404600  -0.1311170   1.1125400   0.0000000   0.0000000   0.0266672   0.1198710   0.6023650   0.3073940   0.0000000   0.0000000   0.0000000   0.0000000   1.0363400   0.0971131   0.0000000   0.0000000   0.0000000
 0.8650000  -2.4398600  -0.1280920   1.1140800   0.0000000   0.0000000   0.0268750   0.1198710   0.6075250   0.3078620   0.0000000   0.0000000   0.0000000   0.0000000   1.0276200   0.0902698   0.0000000   0.0000000   0.0000000
 0.8700000  -2.4392600  -0.1250420   1.1156200   0.0000000   0.0000000   0.0270827   0.1198710   0.6126410   0.3082970   0.0000000   0.0000000   0.0000000   0.0000000   1.0186600   0.0836766   0.0000000   0.0000000   0.0000000
 0.8750000  -2.4386600  -0.1219660   1.1171600   0.0000000   0.0000000   0.0272905   0.1198710   0.6177110   0.3086990   0.0000000   0.0000000   0.0000000   0.0000000   1.0094400   0.0773333   0.0000000   0.0000000   0.0000000
 0.8800000  -2.4380600  -0.1188650   1.1187100   0.0000000   0.0000000   0.0274982   0.1198710   0.6227580   0.3090860   0.0000000   0.0000000   0.0000000   0.0001250   1.0093200   0.0772083   0.0000000   0.0000000   0.0000000
 0.8850000  -2.4374600  -0.1157380   1.1202500   0.0000000   0.0000000   0.0277060   0.1198730   0.6278040   0.3094710   0.0000000   0.0000000   0.0000000   0.0005000   1.0089400   0.0768333   0.0000000   0.0000000   0.0000000
 0.8900000  -2.4368600  -0.1125870   1.1218000   0.0000000   0.0000000   0.0279137   0.1198770   0.6328470   0.3098540   0.0000000   0.0000000   0.0000000   0.0011250   1.0083200   0.0762083   0.0000000   0.0000000   0.0000000
 0.8950000  -2.4362600  -0.1094100   1.1233500   0.0000000   0.0000000   0.0281214   0.1198840   0.6378870   0.3102330   0.0000000   0.0000000   0.0000000   0.0020000   1.0074400   0.0753333   0.0000000   0.0000000   0.0000000
 0.9000000  -2.4356600  -0.1062080   1.1249000   0.0000000   0.0000000   0.0283290   0.1198970   0.6429210   0.3106070   0.0000000   0.0000000   0.0000000   0.0031250   1.0063200   0.0742083   0.0000000   0.0000000   0.0000000
 0.9050000  -2.4350600  -0.1029810   1.1264600   0.0000000   0.0000000   0.0285364   0.1199160   0.6479500   0.3109740   0.0000000   0.0000000   0.0000000   0.0045000   1.0049400   0.0728333   0.0000000   0.0000000   0.0000000
 0.9100000  -2.4344700  -0.0997283   1.1280100   0.0000000   0.0000000   0.0287437   0.1199420   0.6529700   0.3113340   0.0000000   0.0000000   0.0000000   0.0061250   1.0033200   0.0712083   0.0000000   0.0000000   0.0000000
 0.9150000  -2.4338700  -0.0964509   1.1295700   0.0000000   0.0000000   0.0289508   0.1199780   0.6579820   0.3116860   0.0000000   0.0000000   0.0000000   0.0080000   1.0014400   0.0693333   0.0000000   0.0000000   0.0000000
 0.9200000  -2.4332700  -0.0931485   1.1311300   0.0000000   0.0000000   0.0291575   0.1200230   0.6629840   0.3120270   0.0000000   0.0000000   0.0000000   0.0101250   0.9993160   0.0672083   0.0000000   0.0000000   0.0000000
 0.9250000  -2.4326700  -0.0898211   1.1326900   0.0000000   0.0000000   0.0293638   0.1200790   0.6679750   0.3123580   0.0000000   0.0000000   0.0000000   0.0125000   0.9969410   0.0648333   0.0000000   0.0000000   0.0000000
 0.9300000  -2.4320600  -0.0864687   1.1342500   0.0000000   0.0000000   0.0295696   0.1201480   0.6729530   0.3126750   0.0000000   0.0000000   0.0000000   0.0151250   0.9943160   0.0622083   0.0000000   0.0000000   0.0000000
 0.9350000  -2.4314600  -0.0830915   1.1358200   0.0000000   0.0000000   0.0297748   0.1202310   0.6779180   0.3129790   0.0000000   0.0000000   0.0000000   0.0180000   0.9914410   0.0593333   0.0000000   0.0000000   0.0000000
 0.9400000  -2.4308600  -0.0796896   1.1373800   0.0000000   0.0000000   0.0299793   0.1203290   0.6828670   0.3132680   0.0000000   0.0000000   0.0000000   0.0211250   0.9883160   0.0562083   0.0000000   0.0000000   0.0000000
 0.9450000  -2.4302600  -0.0762629   1.1389500   0.0000000   0.0000000   0.0301830   0.1204430   0.6878000   0.3135410   0.0000000   0.0000000   0.0000000   0.0245000   0.9849410   0.0528333   0.0000000   0.0000000   0.0000000
 0.9500000  -2.4296600  -0.0728116   1.1405200   0.0000000   0.0000000   0.0303856   0.1205740   0.6927160   0.3137960   0.0000000   0.0000000   0.0000000   0.0281250   0.9813160   0.0492083   0.0000000   0.0000000   0.0000000
 0.9550000  -2.4290500  -0.0693358   1.1420900   0.0000000   0.0000000   0.0305872   0.1207240   0.6976130   0.3140330   0.0000000   0.0000000   0.0000000   0.0320000   0.9774410   0.0453333   0.0000000   0.0000000   0.0000000
 0.9600000  -2.4284500  -0.0658355   1.1436600   0.0000000   0.0000000   0.0307874   0.1208950   0.7024900   0.3142490   0.0000000   0.0000000   0.0000000   0.0361250   0.9733160   0.0412083   0.0000000   0.0000000   0.0000000
 0.9650000  -2.4278500  -0.0623109   1.1452300   0.0000000   0.0000000   0.0309862   0.1210860   0.7073460   0.3144440   0.0000000   0.0000000   0.0000000   0.0405000   0.9689410   0.0368333   0.0000000   0.0000000   0.0000000
 0.9700000  -2.4272400  -0.0587621   1.1468000   0.0000000   0.0000000   0.0311834   0.1213000   0.7121790   0.3146170   0.0000000   0.0000000   0.0000000   0.0451250   0.9643160   0.0322083   0.0000000   0.0000000   0.0000000
 0.9750000  -2.4266300  -0.0551891   1.1483800   0.0000000   0.0000000   0.0313788   0.1215380   0.7169890   0.3147660   0.0000000   0.0000000   0.0000000   0.0500000   0.9594410   0.0273333   0.0000000   0.0000000   0.0000000
 0.9800000  -2.4260200  -0.0515922   1.1499500   0.0000000   0.0000000   0.0315722   0.1218000   0.7217730   0.3148900   0.0000000   0.0000000   0.0000000   0.0551250   0.9543160   0.0222083   0.0000000   0.0000000   0.0000000
 0.9850000  -2.4254100  -0.0479715   1.1515300   0.0000000   0.0000000   0.0317634   0.1220890   0.7265310   0.3149880   0.0000000   0.0000000   0.0000000   0.0605000   0.9489410   0.0168333   0.0000000   0.0000000   0.0000000
 0.9900000  -2.4248000  -0.0443270   1.1531000   0.0000000   0.0000000   0.0319521   0.1224050   0.7312620   0.3150580   0.0000000   0.0000000   0.0000000   0.0658681   0.9433160   0.0112083   0.0000000   0.0000000   0.0000000
 0.9950000  -2.4241900  -0.0406589   1.1546800   0.0000000   0.0000000   0.0321382   0.1227480   0.7359640   0.3150990   0.0000000   0.0000000   0.0000000   0.0709863   0.9374410   0.0053333   0.0000000   0.0000000   0.0000000
 1.0000000  -2.4235800  -0.0369674   1.1562500   0.0000000   0.0000000   0.0323215   0.1231150   0.7406360   0.3151110   0.0000000   0.0000000   0.0000000   0.0758544   0.9313160  -0.0007917   0.0000000   0.0000000   0.0000000
 1.0050000  -2.4229600  -0.0332526   1.1578300   0.0000000   0.0000000   0.0325016   0.1235060   0.7452770   0.3150910   0.0000000   0.0000000   0.0000000   0.0804726   0.9249410  -0.0071667   0.0000000   0.0000000   0.0000000
 1.0100000  -2.4223400  -0.0295147   1.1594000   0.0000000   0.0000000   0.0326783   0.1239190   0.7498850   0.3150390   0.0000000   0.0000000   0.0000000   0.0848408   0.9183160  -0.0137917   0.0000000   0.0000000   0.0000000
 1.0150000  -2.4217200  -0.0257538   1.1609800   0.0000000   0.0000000   0.0328514   0.1243540   0.7544600   0.3149530   0.0000000   0.0000000   0.0000000   0.0889589   0.9114410  -0.0206667   0.0000000   0.0000000   0.0000000
 1.0200000  -2.4211000  -0.0219701   1.1625500   0.0000000   0.0000000   0.0330207   0.1248080   0.7589990   0.3148320   0.0000000   0.0000000   0.0000000   0.0928271   0.9043160  -0.0277917   0.0000000   0.0000000   0.0000000
 1.0250000  -2.4204700  -0.0181638   1.1641300   0.0000000   0.0000000   0.0331860   0.1252820   0.7635020   0.3146740   0.0000000   0.0000000   0.0000000   0.0964452   0.8969410  -0.0351667   0.0000000   0.0000000   0.0000000
 1.0300000  -2.4198400  -0.0143352   1.1657000   0.0000000   0.0000000   0.0333470   0.1257720   0.7679680   0.3144790   0.0000000   0.0000000   0.0000000   0.0998134   0.8893160  -0.0427917   0.0000000   0.0000000   0.0000000
 1.0350000  -2.4192100  -0.0104842   1.1672700   0.0000000   0.0000000   0.0335036   0.1262790   0.7723950   0.3142460   0.0000000   0.0000000   0.0000000   0.1029320   0.8814410  -0.0506667   0.0000000   0.0000000   0.0000000
 1.0400000  -2.4185800  -0.0066113   1.1688400   0.0000000   0.0000000   0.0336555   0.1268010   0.7767820   0.3139720   0.0000000   0.0000000   0.0000000   0.1058000   0.8733160  -0.0587917   0.0000000   0.0000000   0.0000000
 1.0450000  -2.4179500  -0.0027165   1.1704100   0.0000000   0.0000000   0.0338026   0.1273370   0.7811280   0.3136580   0.0000000   0.0000000   0.0000000   0.1084180   0.8649410  -0.0671667   0.0000000   0.0000000   0.0000000
 1.0500000  -2.4173100   0.0011999   1.1719800   0.0000000   0.0000000   0.0339448   0.1278850   0.7854310   0.3133000   0.0000000   0.0000000   0.0000000   0.1107860   0.8563160  -0.0757917   0.0000000   0.0000000   0.0000000
 1.0550000  -2.4166700   0.0051378   1.1735400   0.0000000   0.0000000   0.0340818   0.1284440   0.7896910   0.3128990   0.0000000   0.0000000   0.0000000   0.1129040   0.8474410  -0.0846667   0.0000000   0.0000000   0.0000000
 1.0600000  -2.4160200   0.0090968   1.1751100   0.0000000   0.0000000   0.0342136   0.1290140   0.7939050   0.3124530   0.0000000   0.0000000   0.0000000   0.1147720   0.8383160  -0.0937917   0.0000000   0.0000000   0.0000000
 1.0650000  -2.4153800   0.0130767   1.1766700   0.0000000   0.0000000   0.0343400   0.1295920   0.7980730   0.3119610   0.0000000   0.0000000   0.0000000   0.1163910   0.8289410  -0.1031670   0.0000000   0.0000000   0.0000000
 1.0700000  -2.4147300   0.0170774   1.1782300   0.0000000   0.0000000   0.0344608   0.1301770   0.8021940   0.3114210   0.0000000   0.0000000   0.0000000   0.1177590   0.8193160  -0.1127920   0.0000000   0.0000000   0.0000000
 1.0750000  -2.4140800   0.0210986   1.1797800   0.0000000   0.0000000   0.0345760   0.1307690   0.8062660   0.3108330   0.0000000   0.0000000   0.0000000   0.1188770   0.8094410  -0.1226670   0.0000000   0.0000000   0.0000000
 1.0800000  -2.4134200   0.0251400   1.1813400   0.0000000   0.0000000   0.0346854   0.1313650   0.8102880   0.3101940   0.0000000   0.0000000   0.0000000   0.1197450   0.7993160  -0.1327920   0.0000000   0.0000000   0.0000000
 1.0850000  -2.4127600   0.0292014   1.1828800   0.0000000   0.0000000   0.0347890   0.1319660   0.8142590   0.3095040   0.0000000   0.0000000   0.0000000   0.1203630   0.7889410  -0.1431670   0.0000000   0.0000000   0.0000000
 1.0900000  -2.4121000   0.0332825   1.1844300   0.0000000   0.0000000   0.0348867   0.1325690   0.8181770   0.3087620   0.0000000   0.0000000   0.0000000   0.1207310   0.7783160  -0.1537920   0.0000000   0.0000000   0.0000000
 1.0950000  -2.4114400   0.0373831   1.1859700   0.0000000   0.0000000   0.0349784   0.1331730   0.8220420   0.3079660   0.0000000   0.0000000   0.0000000   0.1208500   0.7674410  -0.1646670   0.0000000   0.0000000   0.0000000
 1.1000000  -2.4107700   0.0415028   1.1875100   0.0000000   0.0000000   0.0350640   0.1337770   0.8258510   0.3071150   0.0000000   0.0000000   0.0000000   0.1207180   0.7563160  -0.1757920   0.0000000   0.0000000   0.0000000
 1.1050000  -2.4101000   0.0456415   1.1890400   0.0000000   0.0000000   0.0351434   0.1343790   0.8296040   0.3062080   0.0000000   0.0000000   0.0000000   0.1203360   0.7449410  -0.1871670   0.0000000   0.0000000   0.0000000
 1.1100000  -2.4094200   0.0497988   1.1905700   0.0000000   0.0000000   0.0352167   0.1349800   0.8333000   0.3052430   0.0000000   0.0000000   0.0000000   0.1197040   0.7333160  -0.1987920   0.0000000   0.0000000   0.0000000
 1.1150000  -2.4087500   0.0539744   1.1921000   0.0000000   0.0000000   0.0352838   0.1355760   0.8369370   0.3042190   0.0000000   0.0000000   0.0000000   0.1188220   0.7214410  -0.2106670   0.0000000   0.0000000   0.0000000
 1.1200000  -2.4080700   0.0581680   1.1936100   0.0000000   0.0000000   0.0353447   0.1361670   0.8405140   0.3031360   0.0000000   0.0000000   0.0000000   0.1176900   0.7093160  -0.2227920   0.0000000   0.0000000   0.0000000
 1.1250000  -2.4073900   0.0623794   1.1951300   0.0000000   0.0000000   0.0353993   0.1367530   0.8440300   0.3019910   0.0000000   0.0000000   0.0000000   0.1163080   0.6969410  -0.2351670   0.0000000   0.0000000   0.0000000
 1.1300000  -2.4067000   0.0666082   1.1966300   0.0000000   0.0000000   0.0354477   0.1373300   0.8474830   0.3007840   0.0000000   0.0000000   0.0000000   0.1146770   0.6843160  -0.2477920   0.0000000   0.0000000   0.0000000
 1.1350000  -2.4060100   0.0708542   1.1981300   0.0000000   0.0000000   0.0354898   0.1378990   0.8508730   0.2995130   0.0000000   0.0000000   0.0000000   0.1127950   0.6714410  -0.2606150   0.0000000   0.0000000   0.0000000
 1.1400000  -2.4053200   0.0751169   1.1996300   0.0000000   0.0000000   0.0355257   0.1384580   0.8541970   0.2981780   0.0000000   0.0000000   0.0000000   0.1106630   0.6583160  -0.2732610   0.0000000   0.0000000   0.0000000
 1.1450000  -2.4046300   0.0793960   1.2011200   0.0000000   0.0000000   0.0355553   0.1390050   0.8574550   0.2967800   0.0000000   0.0000000   0.0000000   0.1082810   0.6449410  -0.2856580   0.0000000   0.0000000   0.0000000
 1.1500000  -2.4039300   0.0836913   1.2026000   0.0000000   0.0000000   0.0355787   0.1395400   0.8606460   0.2953220   0.0000000   0.0000000   0.0000000   0.1056490   0.6313160  -0.2978050   0.0000000   0.0000000   0.0000000
 1.1550000  -2.4032300   0.0880024   1.2040700   0.0000000   0.0000000   0.0355958   0.1400610   0.8637680   0.2938030   0.0000000   0.0000000   0.0000000   0.1027670   0.6174410  -0.3097020   0.0000000   0.0000000   0.0000000
 1.1600000  -2.4025300   0.0923289   1.2055300   0.0000000   0.0000000   0.0356067   0.1405670   0.8668200   0.2922250   0.0000000   0.0000000   0.0000000   0.0996356   0.6033160  -0.3213480   0.0000000   0.0000000   0.0000000
 1.1650000  -2.4018300   0.0966704   1.2069900   0.0000000   0.0000000   0.0356113   0.1410570   0.8698010   0.2905900   0.0000000   0.0000000   0.0000000   0.0962538   0.5889410  -0.3327450   0.0000000   0.0000000   0.0000000
 1.1700000  -2.4011200   0.1010270   1.2084400   0.0000000   0.0000000   0.0356097   0.1415290   0.8727090   0.2888980   0.0000000   0.0000000   0.0000000   0.0926219   0.5743160  -0.3438920   0.0000000   0.0000000   0.0000000
 1.1750000  -2.4004100   0.1053970   1.2098800   0.0000000   0.0000000   0.0356018   0.1419830   0.8755440   0.2871510   0.0000000   0.0000000   0.0000000   0.0887401   0.5594410  -0.3547890   0.0000000   0.0000000   0.0000000
 1.1800000  -2.3997000   0.1097820   1.2113100   0.0000000   0.0000000   0.0355877   0.1424160   0.8783030   0.2853510   0.0000000   0.0000000   0.0000000   0.0846083   0.5443160  -0.3654360   0.0000000   0.0000000   0.0000000
 1.1850000  -2.3989900   0.1141800   1.2127300   0.0000000   0.0000000   0.0355673   0.1428290   0.8809860   0.2834970   0.0000000   0.0000000   0.0000000   0.0802264   0.5289410  -0.3758320   0.0000000   0.0000000   0.0000000
 1.1900000  -2.3982700   0.1185920   1.2141500   0.0000000   0.0000000   0.0355407   0.1432180   0.8835920   0.2815930   0.0000000   0.0000000   0.0000000   0.0755946   0.5133160  -0.3859790   0.0000000   0.0000000   0.0000000
 1.1950000  -2.3975600   0.1230160   1.2155500   0.0000000   0.0000000   0.0355078   0.1435840   0.8861190   0.2796380   0.0000000   0.0000000   0.0000000   0.0707128   0.4974410  -0.3958760   0.0000000   0.0000000   0.0000000
 1.2000000  -2.3968400   0.1274530   1.2169400   0.0000000   0.0000000   0.0354687   0.1439250   0.8885660   0.2776340   0.0000000   0.0000000   0.0000000   0.0655809   0.4813160  -0.4055230   0.0000000   0.0000000   0.0000000
 1.2050000  -2.3961200   0.1319020   1.2183300   0.0000000   0.0000000   0.0354233   0.1442400   0.8909320   0.2755830   0.0000000   0.0000000   0.0000000   0.0601995   0.4649410  -0.4149190   0.0000000   0.0000000   0.0000000
 1.2100000  -2.3954000   0.1363620   1.2197000   0.0000000   0.0000000   0.0353717   0.1445270   0.8932150   0.2734860   0.0000000   0.0000000   0.0000000   0.0548382   0.4483160  -0.4240660   0.0000000   0.0000000   0.0000000
 1.2150000  -2.3946700   0.1408340   1.2210600   0.0000000   0.0000000   0.0353138   0.1447880   0.8954150   0.2713430   0.0000000   0.0000000   0.0000000   0.0497269   0.4314410  -0.4329630   0.0000000   0.0000000   0.0000000
 1.2200000  -2.3939500   0.1453160   1.2224100   0.0000000   0.0000000   0.0352497   0.1450250   0.8975290   0.2691560   0.0000000   0.0000000   0.0000000   0.0448655   0.4143160  -0.4416100   0.0000000   0.0000000   0.0000000
 1.2250000  -2.3932200   0.1498090   1.2237500   0.0000000   0.0000000   0.0351794   0.1452370   0.8995570   0.2669270   0.0000000   0.0000000   0.0000000   0.0402542   0.3969410  -0.4500070   0.0000000   0.0000000   0.0000000
 1.2300000  -2.3924900   0.1543110   1.2250800   0.0000000   0.0000000   0.0351027   0.1454280   0.9014980   0.2646570   0.0000000   0.0000000   0.0000000   0.0358929   0.3793160  -0.4581530   0.0000000   0.0000000   0.0000000
 1.2350000  -2.3917700   0.1588240   1.2264000   0.0000000   0.0000000   0.0350199   0.1455970   0.9033500   0.2623460   0.0000000   0.0000000   0.0000000   0.0317816   0.3614410  -0.4660500   0.0000000   0.0000000   0.0000000
 1.2400000  -2.3910400   0.1633450   1.2277000   0.0000000   0.0000000   0.0349307   0.1457460   0.9051120   0.2599970   0.0000000   0.0000000   0.0000000   0.0279202   0.3433160  -0.4736970   0.0000000   0.0000000   0.0000000
 1.2450000  -2.3903100   0.1678750   1.2290000   0.0000000   0.0000000   0.0348354   0.1458760   0.9067830   0.2576090   0.0000000   0.0000000   0.0000000   0.0243089   0.3249410  -0.4810940   0.0000000   0.0000000   0.0000000
 1.2500000  -2.3895800   0.1724120   1.2302800   0.0000000   0.0000000   0.0347337   0.1459890   0.9083610   0.2551860   0.0000000   0.0000000   0.0000000   0.0209476   0.3063160  -0.4882400   0.0000000   0.0000000   0.0000000
 1.2550000  -2.3888500   0.1769580   1.2315500   0.0000000   0.0000000   0.0346259   0.1460860   0.9098460   0.2527280   0.0000000   0.0000000   0.0000000   0.0178363   0.2874410  -0.4951370   0.0000000   0.0000000   0.0000000
 1.2600000  -2.3881200   0.1815110   1.2328100   0.0000000   0.0000000   0.0345117   0.1461680   0.9112350   0.2502350   0.0000000   0.0000000   0.0000000   0.0149749   0.2683160  -0.5017840   0.0000000   0.0000000   0.0000000
 1.2650000  -2.3873900   0.1860700   1.2340500   0.0000000   0.0000000   0.0343914   0.1462360   0.9125280   0.2477100   0.0000000   0.0000000   0.0000000   0.0123636   0.2489410  -0.5081810   0.0000000   0.0000000   0.0000000
 1.2700000  -2.3866600   0.1906360   1.2352900   0.0000000   0.0000000   0.0342647   0.1462920   0.9137240   0.2451540   0.0000000   0.0000000   0.0000000   0.0100023   0.2293160  -0.5143270   0.0000000   0.0000000   0.0000000
 1.2750000  -2.3859300   0.1952070   1.2365000   0.0000000   0.0000000   0.0341319   0.1463370   0.9148210   0.2425670   0.0000000   0.0000000   0.0000000   0.0078910   0.2094410  -0.5202240   0.0000000   0.0000000   0.0000000
 1.2800000  -2.3851900   0.1997840   1.2377100   0.0000000   0.0000000   0.0339927   0.1463720   0.9158180   0.2399520   0.0000000   0.0000000   0.0000000   0.0060296   0.1893160  -0.5258710   0.0000000   0.0000000   0.0000000
 1.2850000  -2.3844600   0.2043650   1.2389000   0.0000000   0.0000000   0.0338474   0.1463980   0.9167140   0.2373090   0.0000000   0.0000000   0.0000000   0.0044183   0.1689410  -0.5312680   0.0000000   0.0000000   0.0000000
 1.2900000  -2.3837300   0.2089510   1.2400800   0.0000000   0.0000000   0.0336957   0.1464160   0.9175070   0.2346400   0.0000000   0.0000000   0.0000000   0.0030570   0.1483160  -0.5364150   0.0000000   0.0000000   0.0000000
 1.2950000  -2.3830000   0.2135400   1.2412500   0.0000000   0.0000000   0.0335379   0.1464290   0.9181960   0.2319450   0.0000000   0.0000000   0.0000000   0.0019457   0.1274410  -0.5413110   0.0000000   0.0000000   0.0000000
 1.3000000  -2.3822700   0.2181330   1.2424000   0.0000000   0.0000000   0.0333737   0.1464360   0.9187810   0.2292270   0.0000000   0.0000000   0.0000000   0.0010843   0.1063160  -0.5459580   0.0000000   0.0000000   0.0000000
 1.3050000  -2.3815300   0.2227280   1.2435400   0.0000000   0.0000000   0.0332034   0.1464400   0.9192590   0.2264860   0.0000000   0.0000000   0.0000000   0.0004730   0.0849409  -0.5503550   0.0000000   0.0000000   0.0000000
 1.3100000  -2.3808000   0.2273250   1.2446700   0.0000000   0.0000000   0.0330267   0.1464410   0.9196300   0.2237240   0.0000000   0.0000000   0.0000000   0.0001117   0.0633159  -0.5545020   0.0000000   0.0000000   0.0000000
 1.3150000  -2.3800700   0.2319240   1.2457800   0.0000000   0.0000000   0.0328439   0.1464410   0.9198920   0.2209410   0.0000000   0.0000000   0.0000000   0.0000000   0.0414409  -0.5583980   0.0000000   0.0000000   0.0000000
