ts fx fy fz tx ty tz exfx exfy exfz extx exty extz xd yd zd rolld pitchd yawd vxd vyd vzd wxd wyd wzd axd ayd azd e_x e_y e_z e_vx e_vy e_vz e_rx e_ry e_rz e_wx e_wy e_wz
1699446783.232500000  0  0  11.3044  0.0699904  -0.0770635  0.00345116  nan  nan  nan  nan  nan  nan  -1  0  1  0.00732001  -0.0127359  -9.32263e-05  0  0  0  0  0  0  0  0  0  0.00844811  -0.00348085  -0.00262581  -0.00277366  0.0169296  -0.00795798  -0.017995  0.00692449  -0.00526402  0.0255735  0.0904216  0.00950077 
1699446783.236489000  0  0  11.3357  0.0612199  -0.0689523  0.00296473  nan  nan  nan  nan  nan  nan  -1  0  1  0.00656204  -0.0133844  -8.78274e-05  0  0  0  0  0  0  0  0  0  0.00846763  -0.00350845  -0.00268597  -0.00195617  0.0160615  -0.0104288  -0.0171001  0.00768229  -0.00516535  0.0348813  0.0672275  0.0145943 
1699446783.241454000  0  0  11.2222  0.051294  -0.0523532  0.00396569  nan  nan  nan  nan  nan  nan  -1  0  1  0.00733988  -0.0136504  -0.000100191  0  0  0  0  0  0  0  0  0  0.00845829  -0.00342435  -0.00264121  -0.00177235  0.0167617  -0.00105988  -0.017422  0.00781193  -0.00523188  0.0576948  0.0328367  0.00274772 
1699446783.246641000  0  0  11.2815  0.0564359  -0.0940598  0.00357076  nan  nan  nan  nan  nan  nan  -1  0  1  0.0071134  -0.0135854  -9.66368e-05  0  0  0  0  0  0  0  0  0  0.00847984  -0.00342996  -0.002715  -0.0018118  0.0165387  -0.00585113  -0.0170758  0.00877485  -0.00517592  0.0442254  0.107391  0.00712478 
1699446783.251490000  0  0  11.2833  0.0482798  -0.0765232  0.00371141  nan  nan  nan  nan  nan  nan  -1  0  1  0.00711391  -0.0140971  -0.000100284  0  0  0  0  0  0  0  0  0  0.00847644  -0.0033538  -0.00274154  -0.00115999  0.0163714  -0.00593729  -0.0167218  0.00936024  -0.0051558  0.0572808  0.0669322  0.00516547 
1699446783.256487000  0  0  11.1918  0.0437656  -0.0601458  0.00406545  nan  nan  nan  nan  nan  nan  -1  0  1  0.00701571  -0.0144405  -0.000101309  0  0  0  0  0  0  0  0  0  0.00850387  -0.00337713  -0.00270813  -0.000937168  0.0162287  0.00162594  -0.0163041  0.00954519  -0.00519128  0.0624661  0.0324758  0.00109465 
1699446783.260487000  0  0  11.2353  0.0613396  -0.0923225  0.00397743  nan  nan  nan  nan  nan  nan  -1  0  1  0.0077811  -0.0141556  -0.000110145  0  0  0  0  0  0  0  0  0  0.00849704  -0.00330682  -0.00274533  -0.00120743  0.0170621  -0.00193964  -0.0171368  0.0100862  -0.00517403  0.0349794  0.0918521  0.00202243 
1699446783.266486000  0  0  11.2198  0.0488475  -0.0663037  0.00503995  nan  nan  nan  nan  nan  nan  -1  0  1  0.00694441  -0.0146913  -0.000102021  0  0  0  0  0  0  0  0  0  0.00853651  -0.00335621  -0.00275326  -0.000652105  0.0161151  -0.000611345  -0.0159594  0.010516  -0.00531962  0.0491314  0.0358597  -0.0098031 
1699446783.272458000  0  0  11.1484  0.0519103  -0.0517613  0.00565045  nan  nan  nan  nan  nan  nan  -1  0  1  0.00689049  -0.0149042  -0.000102695  0  0  0  0  0  0  0  0  0  0.00855637  -0.0033569  -0.00271571  -0.000549142  0.0159947  0.00526277  -0.0157251  0.0105072  -0.00546888  0.0408502  0.00685656  -0.0159417 
1699446783.277893000  0  0  11.2382  0.0606168  -0.0679583  0.00475191  nan  nan  nan  nan  nan  nan  -1  0  1  0.00643998  -0.0144503  -9.3058e-05  0  0  0  0  0  0  0  0  0  0.00857306  -0.00339094  -0.00276701  -0.00100438  0.0155766  -0.00211786  -0.0153623  0.0105509  -0.00542867  0.0200992  0.0388478  -0.00511222 
1699446783.282622000  0  0  11.1206  0.0599077  -0.0216427  0.00484858  nan  nan  nan  nan  nan  nan  -1  0  1  0.00718897  -0.0151063  -0.000108597  0  0  0  0  0  0  0  0  0  0.00857484  -0.00331382  -0.00268814  -0.000386386  0.0162464  0.00752847  -0.0159089  0.0102653  -0.0054451  0.0265466  -0.0511551  -0.00615627 
1699446783.287607000  0  0  11.143  0.0863785  -0.0475919  0.00405645  nan  nan  nan  nan  nan  nan  -1  0  1  0.00701246  -0.0147244  -0.000103252  0  0  0  0  0  0  0  0  0  0.00859693  -0.00334276  -0.00269542  -0.000870674  0.0161102  0.00566165  -0.0162117  0.0101688  -0.00536999  -0.0236093  0.00163082  0.00299429 
1699446783.291615000  0  0  11.1951  0.0825091  -0.0433412  0.00397643  nan  nan  nan  nan  nan  nan  -1  0  1  0.00718813  -0.0143879  -0.00010342  0  0  0  0  0  0  0  0  0  0.00859175  -0.00328011  -0.00271524  -0.00119255  0.0162301  0.00136327  -0.0163982  0.00981777  -0.00535061  -0.0141543  -0.00364111  0.00380074 
1699446783.297657000  0  0  11.13  0.0689396  -0.00713739  0.00406955  nan  nan  nan  nan  nan  nan  -1  -0  1  0.00655156  -0.014702  -9.63188e-05  6e-07  -6e-07  6e-07  0  0  0  0  0  0  0.00861488  -0.00339082  -0.00273132  -0.000959928  0.0156368  0.00683409  -0.0155762  0.00929493  -0.00533668  0.005422  -0.0712386  0.0024974 
1699446783.302467000  0  0  11.1567  0.104292  -0.0303848  0.00268647  nan  nan  nan  nan  nan  nan  -1  -0  1  0.0072385  -0.0143248  -0.000103688  5e-06  -5e-06  5e-06  0  0  0  0  0  0  0.00860775  -0.00331295  -0.00272774  -0.00136767  0.0163349  0.0045857  -0.0169021  0.00911659  -0.00513781  -0.0530856  -0.023103  0.0177972 
1699446783.307504000  0  0  11.2039  0.0955206  -0.025764  0.00246747  nan  nan  nan  nan  nan  nan  -1  -1e-07  1  0.00658017  -0.0140325  -9.23348e-05  1.69e-05  -1.69e-05  1.69e-05  0  0  0  0  0  0  0.0086259  -0.00336907  -0.00276347  -0.00169709  0.0156781  0.00073169  -0.0164507  0.00865707  -0.00502378  -0.0396949  -0.028117  0.0193945 
1699446783.312505000  0  0  11.1538  0.0770643  0.00303742  0.00395054  nan  nan  nan  nan  nan  nan  -1  -2e-07  1  0.0073958  -0.0143026  -0.000105678  4e-05  -4e-05  4e-05  0  0  0  0  0  0  0.00862213  -0.00328667  -0.00271626  -0.00143191  0.0164691  0.00481378  -0.0169244  0.00810156  -0.00513301  0.00157635  -0.0806092  0.00194838 
1699446783.317544000  0  0  11.2011  0.116996  -0.0263818  0.00258082  nan  nan  nan  nan  nan  nan  -1  -5e-07  1  0.00730444  -0.014065  -0.000102535  7.81e-05  -7.81e-05  7.81e-05  0  0  0  0  0  0  0.00862821  -0.00330285  -0.0027407  -0.00166574  0.0164304  0.00090072  -0.0177499  0.00811418  -0.00492836  -0.0706923  -0.0218868  0.0170234 
1699446783.322507000  0  0  11.2303  0.104081  -0.0155749  0.00306733  nan  nan  nan  nan  nan  nan  -0.999999  -1e-06  1  0.00719063  -0.0135149  -9.67793e-05  0.000135  -0.000135  0.000135  0  0  0  0  0  0  0.008624  -0.00332261  -0.00276442  -0.00229731  0.0163561  -0.00148643  -0.0177872  0.00729024  -0.00490877  -0.0445205  -0.0359205  0.0107462 
1699446783.326523000  0  0  11.1888  0.0836038  0.00687958  0.00433765  nan  nan  nan  nan  nan  nan  -0.999998  -1.9e-06  1  0.00780832  -0.0137309  -0.000106614  0.0002141  -0.0002144  0.0002134  0  0  0  0  0  0  0.00861855  -0.00325517  -0.00273232  -0.00207891  0.0169409  0.00191687  -0.0180589  0.00685905  -0.00502715  -0.00106532  -0.0768624  -0.00394903 
1699446783.332504000  0  0  11.2493  0.11664  -0.0338488  0.00291983  nan  nan  nan  nan  nan  nan  -0.999997  -3.2e-06  1  0.00774825  -0.0135838  -0.00010445  0.0003149  -0.00032  0.0003113  0  0  0  0  0  0  0.00861344  -0.00324035  -0.00276393  -0.00215877  0.0168856  -0.00308084  -0.0187323  0.00720062  -0.00484398  -0.060944  0.00145196  0.0119419 
1699446783.337468000  0  0  11.252  0.0902696  -0.026965  0.00372771  nan  nan  nan  nan  nan  nan  -0.999995  -5.1e-06  1.00001  0.00773448  -0.0132577  -0.00010154  0.0004338  -0.0004556  0.0004249  0  0  0  0  0  0  0.00860632  -0.00326032  -0.00279981  -0.0025469  0.0169151  -0.00322708  -0.0184899  0.00678279  -0.00488926  -0.0104322  -0.00847173  0.00229616 
1699446783.342515000  0  0  11.2274  0.0744395  -0.0177839  0.00506998  nan  nan  nan  nan  nan  nan  -0.999992  -7.8e-06  1.00001  0.00837012  -0.0133638  -0.000110656  0.0005669  -0.000625  0.0005504  0  0  0  0  0  0  0.00859585  -0.00317408  -0.00278806  -0.00242736  0.0174952  -0.00119604  -0.0187119  0.00658557  -0.00507537  0.0232708  -0.0250194  -0.0126211 
1699446783.347471000  0  0  11.2642  0.0993459  -0.049334  0.00439971  nan  nan  nan  nan  nan  nan  -0.999989  -1.14e-05  1.00001  0.00789327  -0.0135287  -0.000105385  0.0007105  -0.0008319  0.0006841  0  0  0  0  0  0  0.00859358  -0.00321373  -0.00284303  -0.00216115  0.0170208  -0.00415469  -0.0187735  0.00728917  -0.00503919  -0.0259755  0.0316077  -0.00460442 
1699446783.352993000  0  0  11.237  0.0612855  -0.0422488  0.00486269  nan  nan  nan  nan  nan  nan  -0.999985  -1.62e-05  1.00001  0.00788989  -0.0134612  -0.000104607  0.000861  -0.00108  0.0008222  0  0  0  0  0  0  0.00859413  -0.00323835  -0.00286932  -0.00228782  0.0170473  -0.00181957  -0.0181062  0.00726013  -0.00511611  0.0440058  0.0177045  -0.00962254 
1699446783.357632000  0  0  11.2554  0.0494939  -0.0459714  0.0045268  nan  nan  nan  nan  nan  nan  -0.999981  -2.23e-05  1.00002  0.00831127  -0.0135346  -0.000110789  0.0010145  -0.0013731  0.000961  0  0  0  0  0  0  0.00858559  -0.00315985  -0.00289792  -0.00214941  0.017416  -0.00329376  -0.0179297  0.00741382  -0.00514196  0.0659658  0.0237357  -0.00516542 
1699446783.362605000  0  0  11.2933  0.0720195  -0.0743828  0.00364307  nan  nan  nan  nan  nan  nan  -0.999975  -3e-05  1.00002  0.00765542  -0.0135896  -0.000102233  0.0011672  -0.001715  0.0010968  0  0  0  0  0  0  0.00858998  -0.00321861  -0.00296276  -0.0020333  0.0167585  -0.00631754  -0.0175666  0.0081354  -0.00505484  0.0175737  0.0739198  0.00501006 
1699446783.366602000  0  0  11.244  0.0384281  -0.0575677  0.00411748  nan  nan  nan  nan  nan  nan  -0.999969  -3.96e-05  1.00003  0.00853324  -0.0135172  -0.000113645  0.0013155  -0.0021094  0.0012257  0  0  0  0  0  0  0.00857962  -0.00314563  -0.002952  -0.00217504  0.0176511  -0.00222954  -0.0176528  0.00801146  -0.00507942  0.0855496  0.0414299  -0.000674209 
1699446783.372607000  0  0  11.301  0.0311366  -0.0641149  0.00315034  nan  nan  nan  nan  nan  nan  -0.999962  -5.12e-05  1.00004  0.00749672  -0.0136702  -0.00010108  0.0014556  -0.0025587  0.0013441  0  0  0  0  0  0  0.0085722  -0.00324288  -0.00309917  -0.00188143  0.0166195  -0.00665123  -0.0159711  0.00852745  -0.00497571  0.084661  0.0497773  0.0103778 
1699446783.377462000  0  0  11.3095  0.0585663  -0.0716679  0.00231916  nan  nan  nan  nan  nan  nan  -0.999954  -6.52e-05  1.00004  0.00718439  -0.0136445  -9.71259e-05  0.0015837  -0.0030604  0.0014482  0  0  0  0  0  0  0.0085825  -0.00328763  -0.00313978  -0.00192363  0.0163336  -0.00728374  -0.0159368  0.00887189  -0.00482603  0.0294858  0.0617145  0.0192707 
1699446783.382693000  0  0  11.2514  0.021124  -0.0494675  0.00384884  nan  nan  nan  nan  nan  nan  -0.999946  -8.19e-05  1.00005  0.00845697  -0.0135949  -0.000114971  0.0016961  -0.0036108  0.0015342  0  0  0  0  0  0  0.00857168  -0.00319489  -0.0031298  -0.00204952  0.017672  -0.00245238  -0.0161643  0.00863022  -0.00491433  0.106463  0.0195369  0.00103286 
1699446783.386531000  0  0  11.2995  0.0212923  -0.0581295  0.00376077  nan  nan  nan  nan  nan  nan  -0.999938  -0.0001014  1.00006  0.00903175  -0.0133641  -0.000122001  0.001789  -0.0042061  0.0015988  0  0  0  0  0  0  0.00856111  -0.00312296  -0.00318186  -0.00224307  0.018279  -0.00635302  -0.0163063  0.00865589  -0.00490382  0.107433  0.0366249  0.00202857 
1699446783.392685000  0  0  11.2491  0.0669155  -0.0528862  0.00377926  nan  nan  nan  nan  nan  nan  -0.999928  -0.000124  1.00007  0.00908649  -0.0134021  -0.000124878  0.0018593  -0.0048425  0.0016434  0  0  0  0  0  0  0.00856399  -0.00312239  -0.00317861  -0.00227655  0.0182957  -0.00216969  -0.0168232  0.00885545  -0.00487428  0.0209423  0.0243022  0.00150214 
1699446783.397627000  0  0  11.205  0.0421449  -0.0427233  0.00553924  nan  nan  nan  nan  nan  nan  -0.999919  -0.0001499  1.00007  0.00974081  -0.0134102  -0.000136127  0.0019086  -0.0055164  0.0016716  0  0  0  0  0  0  0.00857629  -0.00317094  -0.00317235  -0.00235927  0.0191736  0.00149597  -0.016812  0.00871513  -0.0050867  0.0703809  0.00526736  -0.0183734 
1699446783.401637000  0  0  11.2752  0.0581704  -0.0639377  0.00510821  nan  nan  nan  nan  nan  nan  -0.999909  -0.0001792  1.00008  0.0103113  -0.0132865  -0.000145702  0.0019405  -0.0062239  0.0016872  0  0  0  0  0  0  0.00856514  -0.00309054  -0.00322904  -0.00238463  0.0197857  -0.00423884  -0.0173568  0.00903811  -0.00510017  0.0433413  0.0447247  -0.0128509 
1699446783.407503000  0  0  11.2644  0.0909025  -0.0502735  0.00467415  nan  nan  nan  nan  nan  nan  -0.9999  -0.0002122  1.00009  0.0100368  -0.0134263  -0.000147456  0.0019589  -0.0069612  0.0016939  0  0  0  0  0  0  0.00858231  -0.00315894  -0.00325745  -0.0022637  0.0195817  -0.00328619  -0.0176846  0.00912219  -0.00511453  -0.0191068  0.0166229  -0.00728158 
1699446783.412609000  0  0  11.1576  0.0731293  -0.0328749  0.00491508  nan  nan  nan  nan  nan  nan  -0.99989  -0.0002489  1.0001  0.0109271  -0.0134086  -0.000164319  0.0019674  -0.0077248  0.0016954  0  0  0  0  0  0  0.00858847  -0.0032059  -0.0031878  -0.00245825  0.0206707  0.00547092  -0.0181802  0.00873483  -0.00516328  0.020999  -0.0146106  -0.0098057 
1699446783.417468000  0  0  11.2602  0.100144  -0.0582187  0.0036744  nan  nan  nan  nan  nan  nan  -0.99988  -0.0002895  1.00011  0.0117673  -0.0134609  -0.000182401  0.0019699  -0.0085107  0.0016955  0  0  0  0  0  0  0.00857931  -0.00310494  -0.0032537  -0.00221885  0.0216223  -0.00295901  -0.0193922  0.00925719  -0.00503503  -0.0218804  0.0312712  0.00442028 
1699446783.422606000  0  0  11.2022  0.107134  -0.024196  0.00334162  nan  nan  nan  nan  nan  nan  -0.99987  -0.000334  1.00012  0.0118457  -0.0134421  -0.000190735  0.0019701  -0.0093153  0.0016955  0  0  0  0  0  0  0.00859494  -0.00315056  -0.00324619  -0.00236362  0.0217454  0.00186131  -0.0198323  0.00866931  -0.00495052  -0.0318119  -0.0313657  0.007735 
1699446783.427603000  0  0  11.1631  0.0929799  -0.0205032  0.00304667  nan  nan  nan  nan  nan  nan  -0.99986  -0.0003826  1.00013  0.0127306  -0.0133376  -0.0002103  0.0019701  -0.0101348  0.0016955  0  0  0  0  0  0  0.00860697  -0.00316764  -0.00323624  -0.00257782  0.0228294  0.00509603  -0.0204906  0.00825353  -0.00487004  0.00255394  -0.0349261  0.010617 
1699446783.432604000  0  0  11.2852  0.123833  -0.0455636  0.00215267  nan  nan  nan  nan  nan  nan  -0.99985  -0.0004354  1.00013  0.0133426  -0.0133049  -0.000228627  0.0019701  -0.0109655  0.0016955  0  0  0  0  0  0  0.0085968  -0.00305681  -0.00330033  -0.00241443  0.0235236  -0.00496824  -0.0216415  0.00861689  -0.00469255  -0.0485638  0.0118517  0.0200172 
1699446783.437628000  0  0  11.1957  0.113472  -0.00665266  0.00310996  nan  nan  nan  nan  nan  nan  -0.999841  -0.0004923  1.00014  0.0139448  -0.0133221  -0.000249281  0.0019701  -0.0118035  0.0016955  0  0  0  0  0  0  0.00859091  -0.00305882  -0.00324963  -0.00251172  0.0241444  0.00238502  -0.0222519  0.00790065  -0.00467408  -0.0222273  -0.0593807  0.00786641 
1699446783.442724000  0  0  11.1682  0.103486  -0.0132293  0.00365909  nan  nan  nan  nan  nan  nan  -0.999831  -0.0005534  1.00015  0.0154679  -0.0127183  -0.000274737  0.0019701  -0.0126452  0.0016955  0  0  0  0  0  0  0.00857252  -0.00293144  -0.00322464  -0.00326005  0.0257092  0.00462393  -0.0234926  0.0071517  -0.00470564  0.00915995  -0.039337  0.0013178 
1699446783.447606000  0  0  11.2676  0.124008  -0.0292205  0.00293241  nan  nan  nan  nan  nan  nan  -0.999821  -0.0006188  1.00016  0.0156529  -0.012705  -0.000293682  0.0019701  -0.0134869  0.0016955  0  0  0  0  0  0  0.00854293  -0.00284207  -0.00326518  -0.00306982  0.0259131  -0.0035859  -0.0239989  0.00738806  -0.00459162  -0.0272258  -0.0095292  0.00926109 
1699446783.451474000  0  0  11.2334  0.116643  -0.00786105  0.00316427  nan  nan  nan  nan  nan  nan  -0.999811  -0.0006883  1.00017  0.0165299  -0.0128689  -0.000326735  0.0019701  -0.0143246  0.0016955  0  0  0  0  0  0  0.00853082  -0.00272615  -0.00324761  -0.00288556  0.0266906  -0.000775562  -0.0247486  0.00707335  -0.00455878  -0.00559855  -0.0493528  0.00603448 
1699446783.457630000  0  0  11.1862  0.0890563  -0.0275907  0.00338334  nan  nan  nan  nan  nan  nan  -0.999801  -0.000762  1.00018  0.017211  -0.0121668  -0.000345219  0.0019701  -0.0151548  0.0016955  0  0  0  0  0  0  0.0085113  -0.00271905  -0.00321707  -0.00378199  0.0274348  0.00310038  -0.0247384  0.0064525  -0.00455889  0.0494804  -0.00418159  0.00329721 
1699446783.462604000  0  0  11.2731  0.0913951  -0.0306253  0.00334118  nan  nan  nan  nan  nan  nan  -0.999791  -0.0008398  1.00018  0.0164673  -0.0124359  -0.000365399  0.0019701  -0.0159736  0.0016955  0  0  0  0  0  0  0.00851106  -0.00273772  -0.00328121  -0.00332684  0.0267099  -0.00399805  -0.023919  0.00677629  -0.00451766  0.0372649  -0.00109129  0.00341184 
1699446783.467471000  0  0  11.1925  0.0738567  -0.00417185  0.00353105  nan  nan  nan  nan  nan  nan  -0.999781  -0.0009217  1.00019  0.0174858  -0.0128083  -0.00041258  0.0019701  -0.0167773  0.0016955  0  0  0  0  0  0  0.00849829  -0.00260357  -0.00323208  -0.00294532  0.0275305  0.00262673  -0.0243177  0.00653171  -0.00448278  0.0760098  -0.051748  0.000689628 
1699446783.472602000  0  0  11.2284  0.0543157  -0.0401522  0.00212297  nan  nan  nan  nan  nan  nan  -0.999772  -0.0010076  1.0002  0.0175841  -0.0121783  -0.000434061  0.0019701  -0.0175622  0.0016955  0  0  0  0  0  0  0.00847683  -0.00260219  -0.00324911  -0.0036324  0.0277194  -0.000317587  -0.0235514  0.00645258  -0.00428083  0.108042  0.0209407  0.0162712 
1699446783.477627000  0  0  11.3092  0.0456627  -0.0346876  0.0022679  nan  nan  nan  nan  nan  nan  -0.999762  -0.0010973  1.00021  0.0164422  -0.0125171  -0.000460723  0.0019701  -0.0183245  0.0016955  0  0  0  0  0  0  0.00847186  -0.00262783  -0.00331248  -0.00308645  0.0264979  -0.00690126  -0.0217962  0.00685692  -0.00416786  0.1092  0.00629149  0.0133298 
1699446783.482513000  0  0  11.2315  0.0306216  -0.0100877  0.00298609  nan  nan  nan  nan  nan  nan  -0.999752  -0.0011908  1.00022  0.0174823  -0.0127701  -0.000517067  0.0019701  -0.0190604  0.0016955  0  0  0  0  0  0  0.00845827  -0.0024919  -0.00327498  -0.00284715  0.0273508  -0.000482526  -0.0219328  0.0065708  -0.00415106  0.140538  -0.040276  0.00418458 
1699446783.487611000  0  0  11.285  0.0285644  -0.0663472  0.00244341  nan  nan  nan  nan  nan  nan  -0.999742  -0.0012879  1.00023  0.0172721  -0.0124112  -0.000551183  0.0019701  -0.0197662  0.0016955  0  0  0  0  0  0  0.00844267  -0.00251373  -0.00333981  -0.00318611  0.027239  -0.00479735  -0.020979  0.00720572  -0.00400686  0.135878  0.0664018  0.00952595 
1699446783.491471000  0  0  11.3338  0.0277754  -0.0704821  0.00250528  nan  nan  nan  nan  nan  nan  -0.999732  -0.0013884  1.00024  0.0175014  -0.0125106  -0.000602969  0.0019701  -0.0204382  0.0016955  0  0  0  0  0  0  0.00843006  -0.00238917  -0.00338832  -0.00296445  0.0273436  -0.00875295  -0.0206987  0.00762759  -0.00393973  0.134877  0.0707903  0.00808128 
1699446783.497465000  0  0  11.248  0.00758701  -0.0278962  0.00434957  nan  nan  nan  nan  nan  nan  -0.999722  -0.0014922  1.00024  0.0171093  -0.0129543  -0.000657354  0.0019701  -0.0210726  0.0016955  0  0  0  0  0  0  0.00841848  -0.00240643  -0.00336371  -0.00250309  0.0267233  -0.00163005  -0.0191328  0.00742591  -0.00408251  0.160848  -0.0125258  -0.0135446 
1699446783.501541000  0  0  11.2684  0.0223899  -0.0640977  0.00371709  nan  nan  nan  nan  nan  nan  -0.999712  -0.001599  1.00025  0.0181849  -0.0126337  -0.000721862  0.0019701  -0.0216656  0.0016955  0  0  0  0  0  0  0.00840257  -0.00227128  -0.00339315  -0.00283747  0.027808  -0.00326456  -0.0198073  0.00783001  -0.00400676  0.137447  0.0561594  -0.00639608 
1699446783.507604000  0  0  11.3146  0.0213028  -0.0630733  0.00381857  nan  nan  nan  nan  nan  nan  -0.999703  -0.0017087  1.00026  0.0166752  -0.0131948  -0.00077324  0.0019701  -0.0222136  0.0016955  0  0  0  0  0  0  0.00841609  -0.00235074  -0.00349019  -0.00209755  0.0261779  -0.00690388  -0.0177029  0.00878769  -0.00398528  0.120261  0.0452998  -0.0078793 
1699446783.512607000  0  0  11.26  0.0143253  -0.0494703  0.00411571  nan  nan  nan  nan  nan  nan  -0.999693  -0.0018211  1.00027  0.0162104  -0.0133705  -0.000836154  0.0019701  -0.0227126  0.0016955  0  0  0  0  0  0  0.00839308  -0.00238884  -0.00353556  -0.00190617  0.0255782  -0.00224141  -0.0164734  0.00893465  -0.00397801  0.122904  0.0167419  -0.0116663 
1699446783.517552000  0  0  11.3313  0.0398201  -0.091253  0.00273243  nan  nan  nan  nan  nan  nan  -0.999683  -0.0019358  1.00028  0.016994  -0.012935  -0.000910633  0.0019701  -0.0231591  0.0016955  0  0  0  0  0  0  0.00837888  -0.00225607  -0.00360398  -0.00231432  0.0263978  -0.00805467  -0.0171513  0.00948489  -0.00379477  0.078152  0.095245  0.00379227 
1699446783.522515000  0  0  11.3413  0.0372756  -0.0681043  0.00239979  nan  nan  nan  nan  nan  nan  -0.999673  -0.0020526  1.00029  0.0157188  -0.0130518  -0.00097257  0.0019701  -0.0235507  0.0016955  0  0  0  0  0  0  0.00835148  -0.00232774  -0.00370925  -0.00209217  0.0249672  -0.00866031  -0.0155685  0.00965268  -0.00364036  0.0686791  0.0474039  0.00640625 
1699446783.526512000  0  0  11.2554  0.0375973  -0.0402371  0.00256378  nan  nan  nan  nan  nan  nan  -0.999663  -0.0021712  1.0003  0.0164992  -0.0134732  -0.00107171  0.0019701  -0.0238899  0.0016955  0  0  0  0  0  0  0.00834431  -0.00220089  -0.00368113  -0.00167114  0.0255093  -0.00155185  -0.0160165  0.00958239  -0.00355531  0.0721569  -0.00768387  0.00350584 
1699446783.532524000  0  0  11.3189  0.0627515  -0.0837571  0.00122642  nan  nan  nan  nan  nan  nan  -0.999653  -0.0022914  1.0003  0.0163699  -0.0127132  -0.00114513  0.0019701  -0.0241806  0.0016955  0  0  0  0  0  0  0.00831838  -0.0022004  -0.00376964  -0.00247254  0.0254619  -0.00667667  -0.016037  0.00992654  -0.0032523  0.0220371  0.0761901  0.0171928 
1699446783.537546000  0  0  11.3023  0.0606446  -0.0461541  0.00209154  nan  nan  nan  nan  nan  nan  -0.999643  -0.0024129  1.00031  0.0156701  -0.0130274  -0.00123445  0.0019701  -0.0244265  0.0016955  0  0  0  0  0  0  0.00831109  -0.00223907  -0.00382102  -0.00208457  0.0246367  -0.00518114  -0.0152654  0.00987388  -0.00317093  0.0191527  0.00146856  0.00556508 
1699446783.542510000  0  0  11.2225  0.0746823  -0.029032  0.00219025  nan  nan  nan  nan  nan  nan  -0.999634  -0.0025356  1.00032  0.0164507  -0.0131161  -0.00134508  0.0019701  -0.0246313  0.0016955  0  0  0  0  0  0  0.00830169  -0.00211289  -0.00378996  -0.00206544  0.0251889  0.00141373  -0.0161502  0.00950274  -0.00306988  -0.000782421  -0.0293613  0.00332069 
1699446783.547509000  0  0  11.294  0.0940613  -0.0662894  0.00191869  nan  nan  nan  nan  nan  nan  -0.999624  -0.0026592  1.00033  0.0160632  -0.0127432  -0.00143891  0.0019701  -0.0247989  0.0016955  0  0  0  0  0  0  0.00828998  -0.00210755  -0.00388181  -0.00240155  0.0248207  -0.00436813  -0.0162167  0.00991395  -0.00289493  -0.0389288  0.0413704  0.00496568 
1699446783.551513000  0  0  11.2893  0.0801254  -0.0336013  0.00305527  nan  nan  nan  nan  nan  nan  -0.999614  -0.0027835  1.00034  0.0163428  -0.0127731  -0.00155376  0.0019701  -0.0249328  0.0016955  0  0  0  0  0  0  0.00827932  -0.00198502  -0.00389711  -0.00234426  0.0248888  -0.00393811  -0.0163292  0.00942738  -0.00291562  -0.0100219  -0.0195292  -0.00903462 
1699446783.557546000  0  0  11.1954  0.0908194  -0.0139323  0.0034264  nan  nan  nan  nan  nan  nan  -0.999604  -0.0029085  1.00035  0.016422  -0.0128402  -0.00167278  0.0019701  -0.025037  0.0016955  0  0  0  0  0  0  0.00826641  -0.00197998  -0.00387179  -0.00236308  0.0248037  0.00383658  -0.0166182  0.00889622  -0.00289436  -0.0287513  -0.0539806  -0.0138864 
1699446783.562516000  0  0  11.2614  0.10953  -0.0491993  0.00301788  nan  nan  nan  nan  nan  nan  -0.999594  -0.0030339  1.00035  0.0157761  -0.0126365  -0.00178417  0.0019701  -0.0251151  0.0016955  0  0  0  0  0  0  0.00826392  -0.0019959  -0.00394684  -0.00251688  0.02415  -0.00152747  -0.0165759  0.00929369  -0.00276318  -0.0665613  0.0128968  -0.0100917 
1699446783.567504000  0  0  11.2519  0.0750692  -0.0106254  0.00418723  nan  nan  nan  nan  nan  nan  -0.999584  -0.0031596  1.00036  0.016094  -0.0126706  -0.00191783  0.0019701  -0.0251709  0.0016955  0  0  0  0  0  0  0.00825249  -0.00187622  -0.00394901  -0.00245916  0.0242624  -0.000713171  -0.0164253  0.00855535  -0.00284045  0.000974159  -0.0574584  -0.0239359 
1699446783.572517000  0  0  11.2178  0.084209  -0.00837535  0.00288455  nan  nan  nan  nan  nan  nan  -0.999575  -0.0032855  1.00037  0.015511  -0.0126576  -0.00204544  0.0019701  -0.0252082  0.0016955  0  0  0  0  0  0  0.0082462  -0.00190156  -0.0039535  -0.00250852  0.0235289  0.00213878  -0.0160546  0.00826441  -0.00264135  -0.0207155  -0.0592819  -0.00964335 
1699446783.576525000  0  0  11.2589  0.103555  -0.0367773  0.00140043  nan  nan  nan  nan  nan  nan  -0.999565  -0.0034116  1.00038  0.0157387  -0.0125396  -0.00218787  0.0019701  -0.0252306  0.0016955  0  0  0  0  0  0  0.00823407  -0.00178248  -0.00398379  -0.00256754  0.0236184  -0.00124192  -0.0167624  0.00856771  -0.00235241  -0.0528955  -0.00526829  0.00601872 
1699446783.582532000  0  0  11.2671  0.0573116  -0.00603381  0.00155896  nan  nan  nan  nan  nan  nan  -0.999555  -0.0035378  1.00039  0.0151646  -0.0125029  -0.00232781  0.0019701  -0.025242  0.0016955  0  0  0  0  0  0  0.00821643  -0.00179378  -0.0040088  -0.00256202  0.0229364  -0.001854  -0.0155253  0.00787352  -0.00217658  0.0282097  -0.0603688  0.00227877 
1699446783.587518000  0  0  11.2689  0.0614551  -0.0226541  0.00120747  nan  nan  nan  nan  nan  nan  -0.999545  -0.003664  1.0004  0.0143011  -0.0126923  -0.00247362  0.0019701  -0.0252461  0.0016955  0  0  0  0  0  0  0.00822548  -0.00181474  -0.00404659  -0.00234245  0.0219017  -0.0019249  -0.0146253  0.0081195  -0.001972  0.0116422  -0.0293911  0.00462659 
1699446783.592512000  0  0  11.2732  0.077144  -0.0416326  0.000740296  nan  nan  nan  nan  nan  nan  -0.999535  -0.0037903  1.00041  0.0143633  -0.0125777  -0.00263297  0.0019701  -0.0252466  0.0016955  0  0  0  0  0  0  0.00821275  -0.00170671  -0.00406014  -0.00244834  0.0217443  -0.00226247  -0.0150191  0.00836227  -0.00173992  -0.0161125  0.00633236  0.00814553 
1699446783.597547000  0  0  11.268  0.0347404  -0.0199577  0.00205047  nan  nan  nan  nan  nan  nan  -0.999525  -0.0039165  1.00041  0.014112  -0.0129789  -0.00280187  0.0019701  -0.0252462  0.0016955  0  0  0  0  0  0  0.00823383  -0.00169076  -0.0040584  -0.00199825  0.0213816  -0.00181516  -0.0139522  0.00825172  -0.0017119  0.0588795  -0.0360004  -0.00851188 
1699446783.602515000  0  0  11.3032  0.0478373  -0.0470266  0.00168025  nan  nan  nan  nan  nan  nan  -0.999515  -0.0040427  1.00042  0.0140403  -0.0130314  -0.00297437  0.0019701  -0.0252424  0.0016955  0  0  0  0  0  0  0.00822452  -0.00158646  -0.00409435  -0.00185787  0.0211119  -0.00467836  -0.013859  0.00870016  -0.00156457  0.0318284  0.0140117  -0.00535741 
1699446783.607507000  0  0  11.2663  0.0524312  -0.0624358  0.00181217  nan  nan  nan  nan  nan  nan  -0.999506  -0.0041689  1.00043  0.0131545  -0.0133346  -0.00314571  0.0019701  -0.0252316  0.0016955  0  0  0  0  0  0  0.00825211  -0.0015987  -0.00408077  -0.00159367  0.0199687  -0.00163562  -0.0130365  0.0094459  -0.00143529  0.0150733  0.0379694  -0.00829925 
1699446783.612509000  0  0  11.2639  0.0139285  -0.047065  0.00343581  nan  nan  nan  nan  nan  nan  -0.999496  -0.004295  1.00044  0.0130672  -0.0138699  -0.00333675  0.0019701  -0.02521  0.0016955  0  0  0  0  0  0  0.00828162  -0.00159393  -0.00409572  -0.000990269  0.0198398  -0.00138936  -0.0120456  0.00973094  -0.00151367  0.0829625  0.00460541  -0.027811 
1699446783.617538000  0  0  11.3149  0.0398838  -0.0777501  0.0025724  nan  nan  nan  nan  nan  nan  -0.999486  -0.004421  1.00045  0.0128603  -0.0140887  -0.00352809  0.0019701  -0.0251737  0.0016955  0  0  0  0  0  0  0.00827858  -0.00149868  -0.00414374  -0.000627187  0.0194376  -0.00554372  -0.0120049  0.0106064  -0.00136278  0.0306776  0.0579212  -0.0185273 
1699446783.622514000  0  0  11.2532  0.0438307  -0.0752257  0.00297131  nan  nan  nan  nan  nan  nan  -0.999476  -0.0045467  1.00046  0.0120982  -0.014363  -0.00371837  0.0019701  -0.0251192  0.0016955  0  0  0  0  0  0  0.00829995  -0.00150308  -0.00412356  -0.000429055  0.0184019  -0.000448206  -0.0113156  0.011097  -0.0013149  0.0164423  0.0483585  -0.0239924 
1699446783.626512000  0  0  11.2419  0.0186473  -0.0602356  0.00382963  nan  nan  nan  nan  nan  nan  -0.999466  -0.0046722  1.00046  0.0127648  -0.0143837  -0.00393211  0.0019701  -0.0250426  0.0016955  0  0  0  0  0  0  0.00829545  -0.00139806  -0.00411547  -0.000404973  0.0189821  0.000486661  -0.0113204  0.010958  -0.00133076  0.0668532  0.0196572  -0.0345628 
1699446783.632510000  0  0  11.3071  0.0532869  -0.0837152  0.00160103  nan  nan  nan  nan  nan  nan  -0.999456  -0.0047971  1.00047  0.0117697  -0.0147595  -0.00413232  0.0019701  -0.0249402  0.0016955  0  0  0  0  0  0  0.00832522  -0.00141757  -0.00416682  0.000103871  0.0178617  -0.00484825  -0.0107759  0.011928  -0.00103631  -0.00743551  0.0576924  -0.00964978 
1699446783.637459000  0  0  11.1811  0.0567707  -0.0694579  0.000611559  nan  nan  nan  nan  nan  nan  -0.999446  -0.0049215  1.00048  0.0112155  -0.0149295  -0.00434244  0.0019701  -0.0248082  0.0016955  0  0  0  0  0  0  0.00834923  -0.00142597  -0.00409233  5.46072e-05  0.0170232  0.00549121  -0.0104341  0.0120675  -0.000745827  -0.0175475  0.0278945  -0.000186214 
1699446783.642528000  0  0  11.2153  0.0315408  -0.0565178  0.00124466  nan  nan  nan  nan  nan  nan  -0.999437  -0.0050451  1.00049  0.0116437  -0.0147934  -0.00456995  0.0019701  -0.0246429  0.0016955  0  0  0  0  0  0  0.00834927  -0.00133674  -0.00410793  -5.26453e-05  0.0173974  0.00267802  -0.010314  0.0117446  -0.000646037  0.0318076  0.00498544  -0.0090979 
1699446783.647511000  0  0  11.2924  0.0691476  -0.0727003  0.000185781  nan  nan  nan  nan  nan  nan  -0.999427  -0.0051679  1.0005  0.0103023  -0.0153766  -0.00478501  0.0019701  -0.0244405  0.0016955  0  0  0  0  0  0  0.00842834  -0.00140529  -0.00418666  0.000625786  0.0159582  -0.00358694  -0.00973791  0.0126101  -0.000322437  -0.0487064  0.0293879  0.000902108 
1699446783.652510000  0  0  11.1554  0.071281  -0.0468414  0.000239027  nan  nan  nan  nan  nan  nan  -0.999417  -0.0052895  1.00051  0.010576  -0.015527  -0.00502601  0.0019701  -0.0241973  0.0016955  0  0  0  0  0  0  0.00843032  -0.00132415  -0.0040965  0.000577853  0.015956  0.00764097  -0.0102942  0.0123477  -0.000104344  -0.0478556  -0.019916  -0.0019444 
1699446783.657538000  0  0  11.2042  0.0486826  -0.038792  0.0014715  nan  nan  nan  nan  nan  nan  -0.999407  -0.0054098  1.00052  0.0100259  -0.0155478  -0.00525908  0.0019701  -0.0239095  0.0016955  0  0  0  0  0  0  0.00848357  -0.00135778  -0.00412995  0.000569103  0.0153979  0.00365116  -0.00947012  0.012019  -7.87011e-05  -0.0102401  -0.0329907  -0.0176067 
1699446783.662467000  0  0  11.2967  0.081469  -0.0508604  0.00100451  nan  nan  nan  nan  nan  nan  -0.999397  -0.0055285  1.00052  0.00876196  -0.015751  -0.00548891  0.0019701  -0.0235734  0.0016955  0  0  0  0  0  0  0.00851439  -0.00140773  -0.00417055  0.000910436  0.0140186  -0.00397839  -0.00904722  0.0123447  0.00013388  -0.0797036  -0.0118503  -0.0138952 
1699446783.667509000  0  0  11.1636  0.0771468  -0.0201448  0.00106067  nan  nan  nan  nan  nan  nan  -0.999387  -0.0056454  1.00053  0.00896532  -0.0156616  -0.00574521  0.0019701  -0.0231852  0.0016955  0  0  0  0  0  0  0.00851574  -0.00133658  -0.0040806  0.000566916  0.01398  0.00693035  -0.00953124  0.011556  0.000294677  -0.0666062  -0.0660257  -0.0162051 
1699446783.672511000  0  0  11.2386  0.0574844  -0.0203293  0.0012192  nan  nan  nan  nan  nan  nan  -0.999378  -0.0057603  1.00054  0.00828519  -0.0154748  -0.00599321  0.0019701  -0.0227412  0.0016955  0  0  0  0  0  0  0.00854409  -0.00138634  -0.0041183  0.00039913  0.0133116  0.000761835  -0.00873063  0.0110531  0.00042554  -0.0346471  -0.0610302  -0.0194954 
1699446783.676513000  0  0  11.3438  0.0871713  -0.0359075  0.00101698  nan  nan  nan  nan  nan  nan  -0.999368  -0.0058727  1.00055  0.00758065  -0.0155563  -0.00624932  0.0019701  -0.0222377  0.0016955  0  0  0  0  0  0  0.00854714  -0.00131734  -0.00418986  0.000673846  0.0123604  -0.00786164  -0.00883899  0.0112522  0.00061759  -0.0930239  -0.0317056  -0.0188882 
1699446783.682508000  0  0  11.187  0.0677765  -0.0045526  0.00201852  nan  nan  nan  nan  nan  nan  -0.999358  -0.0059825  1.00056  0.00697495  -0.0156257  -0.00651299  0.0019701  -0.0216708  0.0016955  0  0  0  0  0  0  0.00856808  -0.00137755  -0.00409711  0.00043918  0.0116051  0.00501715  -0.00837456  0.0104188  0.000618656  -0.0585071  -0.0867477  -0.0314181 
1699446783.687466000  0  0  11.253  0.0547251  -0.0180347  0.00152804  nan  nan  nan  nan  nan  nan  -0.999348  -0.0060893  1.00057  0.00600498  -0.0152107  -0.00677434  0.0019701  -0.0210368  0.0016955  0  0  0  0  0  0  0.00857913  -0.00142863  -0.00413839  4.48993e-06  0.0105544  -0.000391785  -0.00742219  0.00992182  0.000772148  -0.0411661  -0.0552113  -0.0268219 
1699446783.692511000  0  0  11.3276  0.079959  -0.0208194  0.000494874  nan  nan  nan  nan  nan  nan  -0.999338  -0.0061928  1.00057  0.00504192  -0.0155096  -0.0070463  0.0019701  -0.0203326  0.0016955  0  0  0  0  0  0  0.00858543  -0.0013847  -0.00418531  0.000486695  0.00928574  -0.00651602  -0.00730006  0.0100377  0.0010435  -0.0927575  -0.0507076  -0.0166209 
1699446783.697467000  0  0  11.1935  0.0500431  -0.00224099  0.00058952  nan  nan  nan  nan  nan  nan  -0.999328  -0.0062925  1.00058  0.00440001  -0.0155054  -0.00732772  0.0019701  -0.0195595  0.0016955  0  0  0  0  0  0  0.00859271  -0.00143274  -0.00412099  0.000229416  0.00851515  0.00453367  -0.00647749  0.00936482  0.00121848  -0.0404933  -0.0816743  -0.0195538 
1699446783.702610000  0  0  11.2897  0.0499189  -0.0293544  0.00038125  nan  nan  nan  nan  nan  nan  -0.999318  -0.0063883  1.00059  0.00313544  -0.0150369  -0.00760435  0.0019701  -0.0187213  0.0016955  0  0  0  0  0  0  0.00858893  -0.00150047  -0.00418512  -0.00019444  0.00712417  -0.00335299  -0.00541058  0.00911621  0.0014164  -0.0500605  -0.0251603  -0.0189296 
1699446783.707611000  0  0  11.2837  0.0596791  -0.0165039  0.0007916  nan  nan  nan  nan  nan  nan  -0.999309  -0.0064796  1.0006  0.0022052  -0.0153407  -0.00789493  0.0019701  -0.0178216  0.0016955  0  0  0  0  0  0  0.00859333  -0.00147132  -0.00419224  0.000158434  0.00588257  -0.00283084  -0.00502328  0.00904163  0.00154216  -0.073144  -0.0501753  -0.0253166 
1699446783.711512000  0  0  11.1933  0.0430622  -0.00626104  0.00150623  nan  nan  nan  nan  nan  nan  -0.999299  -0.0065664  1.00061  0.0018645  -0.0153778  -0.00819997  0.0019701  -0.0168643  0.0016955  0  0  0  0  0  0  0.00859089  -0.00142764  -0.00414041  5.29181e-05  0.00533461  0.00460161  -0.00463421  0.00868629  0.00163616  -0.0434897  -0.0673918  -0.0351895 
1699446783.717543000  0  0  11.2678  0.0347939  -0.0373177  0.0014363  nan  nan  nan  nan  nan  nan  -0.999289  -0.0066482  1.00062  0.000683764  -0.0149139  -0.0084979  0.0019701  -0.0158531  0.0016955  0  0  0  0  0  0  0.00859619  -0.0015297  -0.00420172  -0.000424145  0.00409673  -0.00148236  -0.00353763  0.00860037  0.00173072  -0.0370416  -0.00448793  -0.035261 
1699446783.722514000  0  0  11.2946  0.0444257  -0.0233229  0.00109882  nan  nan  nan  nan  nan  nan  -0.999279  -0.0067248  1.00063  -0.00124926  -0.0152617  -0.00879133  0.0019701  -0.0147918  0.0016955  0  0  0  0  0  0  0.00860707  -0.00163022  -0.00422882  1.14589e-05  0.00188656  -0.00365277  -0.00215572  0.00860261  0.00189316  -0.0690187  -0.0324982  -0.0326669 
1699446783.726463000  0  0  11.2041  0.0305247  -0.0189248  0.0016461  nan  nan  nan  nan  nan  nan  -0.999269  -0.006796  1.00063  -0.00171523  -0.0153903  -0.0091129  0.0019701  -0.0136841  0.0016955  0  0  0  0  0  0  0.00860512  -0.00160604  -0.00416569  1.66425e-05  0.00125909  0.00375946  -0.00169092  0.00849107  0.00200167  -0.0454929  -0.0402682  -0.040593 
1699446783.732508000  0  0  11.3022  0.0291652  -0.0575329  0.00117456  nan  nan  nan  nan  nan  nan  -0.999259  -0.0068616  1.00064  -0.00323929  -0.0150195  -0.00942585  0.0019701  -0.0125337  0.0016955  0  0  0  0  0  0  0.00859337  -0.00175985  -0.00426977  -0.000274206  -0.000334866  -0.0042007  -0.000440037  0.00884418  0.00215761  -0.0542821  0.0336995  -0.0362582 
1699446783.737541000  0  0  11.3162  0.029797  -0.0382172  0.0012501  nan  nan  nan  nan  nan  nan  -0.999249  -0.0069213  1.00065  -0.00555573  -0.0155994  -0.00972924  0.0019701  -0.0113444  0.0016955  0  0  0  0  0  0  0.00860051  -0.00191358  -0.00432941  0.000432618  -0.00292386  -0.00522593  0.00146204  0.00915132  0.00228344  -0.0730447  -0.00775776  -0.0384607 
1699446783.742514000  0  0  11.2443  0.0190776  -0.0418309  0.00124769  nan  nan  nan  nan  nan  nan  -0.99924  -0.006975  1.00066  -0.00578661  -0.015424  -0.0100742  0.0019701  -0.01012  0.0016955  0  0  0  0  0  0  0.0085996  -0.00192218  -0.00429497  8.58979e-05  -0.0031521  0.000693815  0.00158465  0.00899519  0.0024128  -0.0527339  0.00090604  -0.0397242 
1699446783.747507000  0  0  11.3458  0.024268  -0.077725  0.000343465  nan  nan  nan  nan  nan  nan  -0.99923  -0.0070225  1.00067  -0.0075467  -0.0154254  -0.0104011  0.0019701  -0.0088642  0.0016955  0  0  0  0  0  0  0.00859376  -0.00207137  -0.0044031  0.000248358  -0.00511279  -0.00753869  0.00290597  0.00983819  0.00268144  -0.075271  0.0649386  -0.0311077 
1699446783.751524000  0  0  11.3438  0.0264748  -0.056519  6.21467e-05  nan  nan  nan  nan  nan  nan  -0.99922  -0.0070636  1.00068  -0.00874527  -0.0157575  -0.0107398  0.0019701  -0.0075807  0.0016955  0  0  0  0  0  0  0.00859571  -0.00208965  -0.00442453  0.00063954  -0.00659218  -0.00731643  0.00366149  0.00993595  0.00291855  -0.0866354  0.0216272  -0.0299623 
1699446783.757537000  0  0  11.2772  0.0250099  -0.0601776  -3.62418e-05  nan  nan  nan  nan  nan  nan  -0.99921  -0.0070982  1.00069  -0.00973747  -0.0157801  -0.0109783  0.0019701  -0.0062733  0.0016955  0  0  0  0  0  0  0.00860022  -0.00223945  -0.00442276  0.000525577  -0.00744161  -0.00177023  0.00419883  0.0101564  0.00300713  -0.088649  0.0269159  -0.0296182 
1699446783.762703000  0  0  11.3739  0.037119  -0.0778058  -0.000751924  nan  nan  nan  nan  nan  nan  -0.9992  -0.0071263  1.00069  -0.0116851  -0.0158264  -0.0109471  0.0019701  -0.0049458  0.0016954  0  0  0  0  0  0  0.0085981  -0.00244288  -0.00450639  0.000730339  -0.00955738  -0.0096405  0.00534727  0.0108278  0.00297088  -0.123433  0.0559959  -0.0203097 
1699446783.767508000  0  0  11.3068  0.037035  -0.0482716  -0.000206053  nan  nan  nan  nan  nan  nan  -0.99919  -0.0071477  1.0007  -0.0126006  -0.0163355  -0.0109262  0.0019701  -0.0036019  0.0016932  0  0  0  0  0  0  0.00860481  -0.00249012  -0.00449409  0.00122542  -0.0105206  -0.00405812  0.00563354  0.0109082  0.00280026  -0.125898  -0.00381239  -0.025427 
1699446783.772461000  0  0  11.2647  0.0406233  -0.0639422  -0.00039321  nan  nan  nan  nan  nan  nan  -0.999181  -0.0071623  1.00071  -0.0135697  -0.0161581  -0.0109127  0.0019701  -0.0022454  0.0016853  0  0  0  0  0  0  0.00861643  -0.00263102  -0.00453693  0.000888805  -0.0113581  -0.000462554  0.00596634  0.0110987  0.00272007  -0.136137  0.0257758  -0.0222856 
1699446783.776512000  0  0  11.3492  0.0536832  -0.080241  -0.000586082  nan  nan  nan  nan  nan  nan  -0.999171  -0.0071701  1.00072  -0.0142259  -0.015933  -0.0109053  0.0019701  -0.0008799  0.001668  0  0  0  0  0  0  0.00861698  -0.00267752  -0.00461153  0.000744944  -0.012208  -0.00733969  0.00579097  0.0113556  0.0026711  -0.160643  0.0560102  -0.0193849 
1699446783.782511000  0  0  11.263  0.0554217  -0.0363758  0.0011218  nan  nan  nan  nan  nan  nan  -0.999161  -0.0071711  1.00073  -0.0157367  -0.0166702  -0.0108697  0.0019701  0.0004907  0.0016374  0  0  0  0  0  0  0.00864283  -0.00285093  -0.00462257  0.00143852  -0.0135847  -0.000106838  0.00630583  0.0114016  0.00233095  -0.168857  -0.032143  -0.0373319 
1699446783.787515000  0  0  11.2387  0.063259  -0.053799  0.00165006  nan  nan  nan  nan  nan  nan  -0.999151  -0.0071652  1.00074  -0.0167645  -0.0163726  -0.0108575  0.0019701  0.0018626  0.0015898  0  0  0  0  0  0  0.00865629  -0.00304066  -0.00463016  0.000978369  -0.014399  0.0019497  0.00633437  0.0113712  0.002092  -0.184794  0.00298272  -0.0415458 
1699446783.792460000  0  0  11.3133  0.0755319  -0.0549273  0.00213763  nan  nan  nan  nan  nan  nan  -0.999141  -0.0071525  1.00074  -0.0173639  -0.0162056  -0.0108506  0.0019701  0.0032323  0.0015215  0  0  0  0  0  0  0.00866075  -0.00311526  -0.00468119  0.000884584  -0.0151247  -0.00415442  0.00577405  0.0113207  0.00184079  -0.204185  0.00570393  -0.0451283 
1699446783.797541000  0  0  11.2003  0.0710711  -0.0150679  0.00269644  nan  nan  nan  nan  nan  nan  -0.999131  -0.0071329  1.00075  -0.0187694  -0.0165724  -0.0108209  0.0019701  0.0045958  0.0014287  0  0  0  0  0  0  0.00867456  -0.00330456  -0.00463014  0.00109025  -0.0162369  0.00518618  0.0062118  0.0108525  0.00152878  -0.199291  -0.0697073  -0.0489932 
1699446783.801536000  0  0  11.1917  0.0803079  -0.0288034  0.00210648  nan  nan  nan  nan  nan  nan  -0.999121  -0.0071065  1.00076  -0.0190316  -0.0161509  -0.0108246  0.0019701  0.0059495  0.0013081  0  0  0  0  0  0  0.00867245  -0.00337177  -0.00462251  0.000551379  -0.0163895  0.00589668  0.00554036  0.0104824  0.00143113  -0.211587  -0.0388311  -0.0406423 
1699446783.807461000  0  0  11.2836  0.0827395  -0.0321862  0.00176453  nan  nan  nan  nan  nan  nan  -0.999112  -0.0070734  1.00076  -0.0201519  -0.0161927  -0.0108057  0.0019701  0.0072895  0.0011611  0  0  0  0  0  0  0.00871551  -0.00356031  -0.00467835  0.000655684  -0.0175712  -0.00162126  0.00534513  0.0104707  0.00126723  -0.214654  -0.0319584  -0.0347289 
1699446783.812513000  0  0  11.1792  0.07556  -0.00565357  0.00194113  nan  nan  nan  nan  nan  nan  -0.999102  -0.0070336  1.00077  -0.0206354  -0.0164255  -0.010793  0.0019701  0.0086123  0.0009912  0  0  0  0  0  0  0.00872072  -0.00364752  -0.00460805  0.000741336  -0.0177446  0.00695021  0.00497051  0.0099213  0.00108099  -0.196849  -0.0799688  -0.035074 
1699446783.817548000  0  0  11.2184  0.0884899  -0.0338048  0.000717079  nan  nan  nan  nan  nan  nan  -0.999092  -0.0069873  1.00077  -0.0215828  -0.0161719  -0.0107829  0.0019701  0.0099139  0.0008024  0  0  0  0  0  0  0.00875482  -0.00384608  -0.00462456  0.000407352  -0.0185711  0.00373279  0.00463439  0.00992384  0.00108914  -0.219616  -0.0236897  -0.0198549 
1699446783.822518000  0  0  11.277  0.0778198  -0.0224164  0.000850818  nan  nan  nan  nan  nan  nan  -0.999082  -0.0069346  1.00078  -0.0227942  -0.0161276  -0.0107643  0.0019701  0.0111906  0.0005983  0  0  0  0  0  0  0.00878773  -0.00404964  -0.00467339  0.000366129  -0.019777  -0.00102394  0.00489209  0.0095816  0.000971974  -0.200647  -0.0433178  -0.020355 
1699446783.827509000  0  0  11.192  0.0726733  -0.00525737  0.00157968  nan  nan  nan  nan  nan  nan  -0.999072  -0.0068755  1.00078  -0.0231793  -0.0164818  -0.0107499  0.0019701  0.0124388  0.0003827  0  0  0  0  0  0  0.00879334  -0.0041468  -0.00460777  0.000638906  -0.0198273  0.00593744  0.00447164  0.00928742  0.000772173  -0.186486  -0.0749296  -0.0274677 
1699446783.832509000  0  0  11.2573  0.0888631  -0.0414346  0.00133562  nan  nan  nan  nan  nan  nan  -0.999062  -0.0068102  1.00078  -0.0238891  -0.0160173  -0.0107493  0.0019701  0.0136546  0.0001593  0  0  0  0  0  0  0.00880559  -0.00433704  -0.00464957  0.000138693  -0.0204552  0.000598502  0.00390795  0.00931498  0.000688088  -0.213679  -0.00282865  -0.0235761 
1699446783.837543000  0  0  11.2809  0.069157  -0.0210632  0.0028975  nan  nan  nan  nan  nan  nan  -0.999052  -0.006739  1.00078  -0.0243602  -0.016071  -0.0107404  0.0019701  0.0148343  -6.81e-05  0  0  0  0  0  0  0.00880824  -0.00444282  -0.00466062  0.000235049  -0.0208739  -0.0013306  0.00375773  0.00897528  0.00037602  -0.172885  -0.0404462  -0.039979 
1699446783.842517000  0  0  11.2095  0.067023  -0.0211522  0.00349287  nan  nan  nan  nan  nan  nan  -0.999043  -0.0066619  1.00078  -0.0251887  -0.0166239  -0.0107132  0.0019701  0.0159741  -0.0002958  0  0  0  0  0  0  0.00884195  -0.00463901  -0.00464059  0.000712576  -0.0212819  0.00459977  0.00379301  0.00921279  8.43467e-05  -0.168942  -0.0424533  -0.0445044 
1699446783.847662000  0  0  11.3003  0.0859125  -0.0641166  0.00246141  nan  nan  nan  nan  nan  nan  -0.999033  -0.0065793  1.00078  -0.0262159  -0.0163652  -0.0107029  0.0019701  0.0170704  -0.00052  0  0  0  0  0  0  0.00886254  -0.00487683  -0.00470135  0.000493031  -0.0222948  -0.00281384  0.00344206  0.00971208  1.50868e-05  -0.203492  0.0388821  -0.0309185 
1699446783.852607000  0  0  11.2825  0.0558378  -0.0362707  0.00392629  nan  nan  nan  nan  nan  nan  -0.999023  -0.0064913  1.00077  -0.0264367  -0.0167384  -0.0106894  0.0019701  0.0181193  -0.000737  0  0  0  0  0  0  0.00886888  -0.0049877  -0.0046856  0.000912161  -0.0222777  -0.00135385  0.00334365  0.00967323  -0.000302837  -0.142437  -0.0164523  -0.0460502 
1699446783.857544000  0  0  11.2536  0.0594544  -0.0496704  0.00391146  nan  nan  nan  nan  nan  nan  -0.999013  -0.0063982  1.00077  -0.0272612  -0.017073  -0.0106665  0.0019701  0.019117  -0.000943  0  0  0  0  0  0  0.00889592  -0.00520494  -0.00468893  0.00120679  -0.0227443  0.00108088  0.00335812  0.0101778  -0.000513353  -0.149803  0.00570497  -0.0437597 
1699446783.862518000  0  0  11.3145  0.0783709  -0.0813877  0.00298193  nan  nan  nan  nan  nan  nan  -0.999003  -0.0063002  1.00077  -0.0280442  -0.0170076  -0.0106549  0.0019701  0.02006  -0.0011342  0  0  0  0  0  0  0.00891443  -0.00543212  -0.00475875  0.00118652  -0.0234081  -0.00383153  0.00294718  0.0108531  -0.0005848  -0.183856  0.0629265  -0.0314261 
1699446783.866530000  0  0  11.2994  0.0502641  -0.058242  0.00328656  nan  nan  nan  nan  nan  nan  -0.998993  -0.0061977  1.00076  -0.0282269  -0.0170722  -0.01065  0.0019701  0.0209443  -0.001307  0  0  0  0  0  0  0.00891716  -0.00554543  -0.0047516  0.00123121  -0.0233391  -0.00258401  0.00302004  0.0106677  -0.000731533  -0.128313  0.018341  -0.0337667 
1699446783.872605000  0  0  11.2678  0.0632707  -0.0637735  0.00191154  nan  nan  nan  nan  nan  nan  -0.998984  -0.0060909  1.00075  -0.0288527  -0.0174962  -0.0106271  0.0019701  0.0217663  -0.0014575  0  0  0  0  0  0  0.00894448  -0.00576969  -0.00475527  0.00163444  -0.0235295  7.25449e-05  0.00268439  0.0111717  -0.000759156  -0.151238  0.0247673  -0.0163027 
1699446783.876519000  0  0  11.3059  0.0792478  -0.0803876  0.00153255  nan  nan  nan  nan  nan  nan  -0.998974  -0.0059802  1.00074  -0.0287925  -0.0173274  -0.010633  0.0019703  0.0225221  -0.0015821  0  0  0  0  0  0  0.00894687  -0.00588452  -0.00478008  0.00149047  -0.0233194  -0.0030487  0.00175968  0.0114499  -0.000760549  -0.174685  0.0554358  -0.0115514 
1699446783.882642000  0  0  11.2755  0.0408471  -0.0442032  0.00288982  nan  nan  nan  nan  nan  nan  -0.998964  -0.0058658  1.00074  -0.029135  -0.0175328  -0.0106211  0.0019731  0.0232082  -0.0016769  0  0  0  0  0  0  0.00897519  -0.00614347  -0.00476672  0.00162287  -0.0230773  -0.000528076  0.00188582  0.0112029  -0.00098019  -0.0990437  -0.0146603  -0.0263208 
1699446783.887514000  0  0  11.2745  0.0586693  -0.0530233  0.00229233  nan  nan  nan  nan  nan  nan  -0.998954  -0.0057482  1.00073  -0.0297501  -0.0176463  -0.0106069  0.0019823  0.0238206  -0.0017383  0  0  0  0  0  0  0.00899254  -0.00638497  -0.00476012  0.00171639  -0.0233089  -0.000441371  0.00159736  0.0114437  -0.00100529  -0.132034  0.000765061  -0.0186012 
1699446783.892517000  0  0  11.3056  0.0738046  -0.0688326  0.00231876  nan  nan  nan  nan  nan  nan  -0.998944  -0.0056277  1.00072  -0.029376  -0.0173246  -0.010623  0.0020015  0.0243556  -0.0017624  0  0  0  0  0  0  0.00899815  -0.00650043  -0.00478525  0.00136467  -0.0226823  -0.00299968  0.000270224  0.0115252  -0.00107834  -0.150095  0.0316336  -0.0182012 
1699446783.897539000  0  0  11.2581  0.0417195  -0.0344103  0.00431337  nan  nan  nan  nan  nan  nan  -0.998934  -0.0055048  1.00071  -0.0294733  -0.0176173  -0.0106126  0.0020346  0.0248096  -0.0017455  0  0  0  0  0  0  0.00902101  -0.00674428  -0.0047724  0.00158906  -0.0221096  0.000937952  0.000358746  0.0111595  -0.00142882  -0.0867395  -0.0338464  -0.0396288 
1699446783.901648000  0  0  11.2804  0.0638621  -0.0456189  0.00371336  nan  nan  nan  nan  nan  nan  -0.998924  -0.0053798  1.0007  -0.0290507  -0.0174637  -0.0106245  0.0020853  0.0251787  -0.0016839  0  0  0  0  0  0  0.009025  -0.00685667  -0.00478625  0.001436  -0.021402  -0.000898759  -0.000785651  0.0111156  -0.0014938  -0.120496  -0.0110253  -0.0314789 
1699446783.907692000  0  0  11.2651  0.0877732  -0.0419546  0.0029981  nan  nan  nan  nan  nan  nan  -0.998913  -0.0052531  1.00069  -0.0287819  -0.017123  -0.0106391  0.0021573  0.0254592  -0.0015738  0  0  0  0  0  0  0.00903933  -0.00706868  -0.00480085  0.000952047  -0.0205406  0.000392383  -0.00228916  0.0107313  -0.00154152  -0.154486  -0.0148191  -0.0220611 
1699446783.912611000  0  0  11.2603  0.0625297  -0.023703  0.00392154  nan  nan  nan  nan  nan  nan  -0.998902  -0.0051253  1.00069  -0.028627  -0.0171587  -0.0106407  0.0022544  0.0256473  -0.0014115  0  0  0  0  0  0  0.0090597  -0.00733021  -0.00481383  0.000944358  -0.0197506  0.000820539  -0.0025917  0.0102869  -0.00176903  -0.101216  -0.0472333  -0.031329 
1699446783.917647000  0  0  11.2927  0.111246  -0.0442688  0.00287045  nan  nan  nan  nan  nan  nan  -0.99889  -0.0049968  1.00068  -0.0280296  -0.0171154  -0.0106522  0.0023803  0.0257393  -0.0011932  0  0  0  0  0  0  0.0090658  -0.00743106  -0.00483221  0.000945373  -0.018881  -0.00186695  -0.00456713  0.0104642  -0.00176329  -0.180474  -0.00773355  -0.0182477 
1699446783.922609000  0  0  11.2361  0.10216  -0.0230888  0.00279379  nan  nan  nan  nan  nan  nan  -0.998878  -0.0048681  1.00067  -0.0275575  -0.0166334  -0.0106735  0.0025388  0.0257315  -0.0009152  0  0  0  0  0  0  0.00906657  -0.00764336  -0.00479311  0.000242329  -0.0176366  0.00274729  -0.00572386  0.00961088  -0.00180288  -0.15166  -0.0422426  -0.0168936 
1699446783.927474000  0  0  11.2496  0.0845916  -0.0040454  0.00340301  nan  nan  nan  nan  nan  nan  -0.998865  -0.0047397  1.00067  -0.0269278  -0.0164087  -0.0106901  0.0027337  0.0256201  -0.0005737  0  0  0  0  0  0  0.00907577  -0.00785156  -0.00480411  -2.62907e-05  -0.0164258  0.00163296  -0.00660363  0.00881639  -0.00193082  -0.10843  -0.07302  -0.0232294 
1699446783.932473000  0  0  11.3167  0.1271  -0.0276427  0.00183521  nan  nan  nan  nan  nan  nan  -0.998851  -0.0046121  1.00067  -0.02599  -0.0163079  -0.0107081  0.0029687  0.0254013  -0.0001649  0  0  0  0  0  0  0.00907876  -0.00793606  -0.00485058  -2.65644e-05  -0.015261  -0.00390427  -0.00882935  0.00890814  -0.00180757  -0.172969  -0.0266696  -0.00486441 
1699446783.937667000  0  0  11.2557  0.116256  -0.012974  0.00214013  nan  nan  nan  nan  nan  nan  -0.998835  -0.0044858  1.00067  -0.0243912  -0.0160086  -0.0107415  0.0032475  0.0250714  0.0003148  0  0  0  0  0  0  0.00907647  -0.00800177  -0.00481665  -0.000482789  -0.0129359  0.00104845  -0.0109543  0.00823915  -0.00183736  -0.131733  -0.0498523  -0.00837808 
1699446783.942475000  0  0  11.2961  0.0973905  -0.00882366  0.00315703  nan  nan  nan  nan  nan  nan  -0.998818  -0.0043615  1.00067  -0.0236042  -0.0153377  -0.0107699  0.0035738  0.0246267  0.0008692  0  0  0  0  0  0  0.00906895  -0.00819489  -0.00484054  -0.00122688  -0.0116211  -0.00229815  -0.0118489  0.00730998  -0.00199645  -0.0857708  -0.0496045  -0.0194984 
1699446783.947658000  0  0  11.374  0.137497  -0.028178  0.00275654  nan  nan  nan  nan  nan  nan  -0.998799  -0.0042398  1.00068  -0.0233776  -0.0152333  -0.0107758  0.0039516  0.0240634  0.0015022  0  0  0  0  0  0  0.00907056  -0.00840501  -0.00491134  -0.00122858  -0.0110726  -0.00866002  -0.0133369  0.00745659  -0.00201258  -0.152295  -0.0122446  -0.014331 
1699446783.952633000  0  0  11.2815  0.110054  -0.00747467  0.00420927  nan  nan  nan  nan  nan  nan  -0.998779  -0.0041211  1.00069  -0.022255  -0.0148299  -0.0108019  0.0043844  0.0233777  0.0022173  0  0  0  0  0  0  0.00905561  -0.0085747  -0.00487499  -0.00183961  -0.00904215  -0.00107428  -0.0145373  0.00662749  -0.00222616  -0.086364  -0.0460235  -0.0303543 
1699446783.957664000  0  0  11.3949  0.0972016  -0.0279249  0.0045609  nan  nan  nan  nan  nan  nan  -0.998755  -0.0040062  1.0007  -0.0204367  -0.0140106  -0.0108456  0.004876  0.0225659  0.0030185  0  0  0  0  0  0  0.00904225  -0.00861625  -0.00496348  -0.00263829  -0.00692074  -0.0104078  -0.016276  0.00605488  -0.00241273  -0.0446637  0.000144904  -0.0328839 
1699446783.962521000  0  0  11.4549  0.119498  -0.038411  0.00406572  nan  nan  nan  nan  nan  nan  -0.99873  -0.0038957  1.00072  -0.0202442  -0.0137828  -0.010853  0.0054303  0.0216242  0.0039094  0  0  0  0  0  0  0.0090297  -0.008802  -0.00504248  -0.00280573  -0.00639739  -0.0152598  -0.0171233  0.00610842  -0.00247904  -0.0814623  0.0206246  -0.0260312 
1699446783.967519000  0  0  11.3502  0.0984901  -0.0144173  0.00465193  nan  nan  nan  nan  nan  nan  -0.998701  -0.0037902  1.00074  -0.0178057  -0.0133239  -0.0108947  0.0060509  0.020549  0.0048937  0  0  0  0  0  0  0.00901335  -0.00881897  -0.00501751  -0.00347192  -0.0030427  -0.00667192  -0.0192639  0.0052459  -0.00264908  -0.019752  -0.0194277  -0.0316583 
1699446783.972526000  0  0  11.4326  0.0816375  -0.0405145  0.00465038  nan  nan  nan  nan  nan  nan  -0.998669  -0.0036904  1.00077  -0.0166131  -0.012384  -0.0109262  0.0067415  0.0193364  0.0059753  0  0  0  0  0  0  0.00899608  -0.00900198  -0.00511297  -0.00449071  -0.00127323  -0.0133852  -0.0200344  0.00486451  -0.0027951  0.0210411  0.0362756  -0.0301787 
1699446783.976512000  0  0  11.5255  0.103847  -0.0516816  0.00413555  nan  nan  nan  nan  nan  nan  -0.998633  -0.0035971  1.0008  -0.0153643  -0.0121121  -0.0109459  0.0075047  0.0179827  0.0071579  0  0  0  0  0  0  0.00897527  -0.00903057  -0.0052228  -0.00464893  0.000219615  -0.0209458  -0.0215468  0.00501084  -0.00283161  -0.00946361  0.0572636  -0.0233783 
1699446783.982511000  0  0  11.4095  0.0835392  -0.0204935  0.00421711  nan  nan  nan  nan  nan  nan  -0.998594  -0.0035108  1.00084  -0.0133121  -0.0115022  -0.0109789  0.0083378  0.0164841  0.0084452  0  0  0  0  0  0  0.00895056  -0.00914489  -0.00522129  -0.00549241  0.00328271  -0.0113474  -0.0230259  0.00404829  -0.00292564  0.0447602  0.00374271  -0.0234575 
1699446783.986509000  0  0  11.4543  0.0840665  -0.0457658  0.00353328  nan  nan  nan  nan  nan  nan  -0.99855  -0.0034325  1.00088  -0.0110585  -0.0104493  -0.0110164  0.009237  0.0148369  0.009841  0  0  0  0  0  0  0.00891542  -0.00914236  -0.00530192  -0.00666605  0.00609234  -0.0149883  -0.024888  0.00362122  -0.00293118  0.060837  0.0582163  -0.0148542 
1699446783.992508000  0  0  11.5633  0.0953176  -0.049846  0.0025346  nan  nan  nan  nan  nan  nan  -0.998501  -0.0033627  1.00094  -0.0103939  -0.0101919  -0.0110261  0.0101986  0.0130374  0.011349  0  0  0  0  0  0  0.00889514  -0.00929495  -0.00548407  -0.00681699  0.00715345  -0.0237199  -0.0254014  0.00388457  -0.00286594  0.0430574  0.0639539  -0.00302314 
1699446783.997545000  0  0  11.4403  0.0802912  -0.0230372  0.00325525  nan  nan  nan  nan  nan  nan  -0.998448  -0.0033023  1.001  -0.00836461  -0.00926053  -0.0110545  0.0112189  0.0110818  0.012973  0  0  0  0  0  0  0.00883562  -0.00943193  -0.00551954  -0.00797792  0.010194  -0.0134444  -0.0266423  0.00275129  -0.00297259  0.0845266  0.0207626  -0.0109648 
1699446784.001541000  0  0  11.5032  0.0908446  -0.0515183  0.00256628  nan  nan  nan  nan  nan  nan  -0.998389  -0.0032522  1.00107  -0.00569922  -0.00792356  -0.0110868  0.012294  0.0089663  0.0147168  0  0  0  0  0  0  0.00878555  -0.00939485  -0.00563587  -0.00947346  0.0134781  -0.01854  -0.0289451  0.00219838  -0.00293587  0.084606  0.0828115  -0.00271989 
1699446784.007516000  0  0  11.5659  0.100674  -0.0393172  0.00305835  nan  nan  nan  nan  nan  nan  -0.998325  -0.003213  1.00115  -0.00454009  -0.00759637  -0.0110975  0.0134203  0.0066872  0.016584  0  0  0  0  0  0  0.00875299  -0.00948282  -0.00576479  -0.00975023  0.0151279  -0.0235254  -0.0297473  0.0021574  -0.00301921  0.0723272  0.0587863  -0.00803727 
1699446784.012513000  0  0  11.4664  0.0967333  -0.0151501  0.00366974  nan  nan  nan  nan  nan  nan  -0.998255  -0.0031856  1.00123  -0.00181324  -0.00651334  -0.0111202  0.0145941  0.0042408  0.0185784  0  0  0  0  0  0  0.00870481  -0.00955167  -0.00576895  -0.0110678  0.0188224  -0.0152972  -0.0317507  0.000862202  -0.00313765  0.0986397  0.0223679  -0.0144953 
1699446784.017541000  0  0  11.5572  0.116684  -0.0517761  0.00348172  nan  nan  nan  nan  nan  nan  -0.998179  -0.0031708  1.00133  0.00134609  -0.00508638  -0.0111388  0.0158114  0.0016233  0.0207039  0  0  0  0  0  0  0.00864286  -0.00944896  -0.00591911  -0.0126521  0.0226544  -0.0226489  -0.0345632  0.000494112  -0.00319652  0.0846132  0.0990063  -0.0115563 
1699446784.022530000  0  0  11.5842  0.114788  -0.0184506  0.00465542  nan  nan  nan  nan  nan  nan  -0.998097  -0.0031696  1.00144  0.00304544  -0.0046096  -0.011146  0.0170687  -0.0011691  0.022964  0  0  0  0  0  0  0.00859158  -0.00949308  -0.00601038  -0.0131121  0.0249517  -0.0247492  -0.0356501  -0.00019046  -0.00339918  0.0984057  0.0386534  -0.0242009 
1699446784.026510000  0  0  11.5324  0.120814  0.000840824  0.00518113  nan  nan  nan  nan  nan  nan  -0.998008  -0.0031828  1.00156  0.00678493  -0.00332974  -0.0111546  0.0183621  -0.0041401  0.0253627  0  0  0  0  0  0  0.00851606  -0.00937747  -0.00607948  -0.014558  0.0294912  -0.0203874  -0.0387898  -0.00166105  -0.00356236  0.115238  0.0136  -0.0291405 
1699446784.032512000  0  0  11.6059  0.137855  -0.0407025  0.00449798  nan  nan  nan  nan  nan  nan  -0.997913  -0.0032113  1.00169  0.00943397  -0.00190032  -0.0111499  0.0196879  -0.0072916  0.0279036  0  0  0  0  0  0  0.00845368  -0.00937248  -0.00618935  -0.0161979  0.0329752  -0.0263509  -0.0408655  -0.00191705  -0.00367293  0.100253  0.0990419  -0.0194954 
1699446784.037544000  0  0  11.6209  0.13145  0.000315429  0.00507771  nan  nan  nan  nan  nan  nan  -0.997811  -0.003256  1.00184  0.011808  -0.0013699  -0.0111482  0.0210424  -0.0106205  0.0305904  0  0  0  0  0  0  0.00838582  -0.00934711  -0.00627777  -0.0166948  0.0360107  -0.0274586  -0.0424158  -0.00279968  -0.00382103  0.127325  0.0251262  -0.025261 
1699446784.042614000  0  0  11.6298  0.136472  -0.0119694  0.00412573  nan  nan  nan  nan  nan  nan  -0.997703  -0.0033178  1.002  0.0159903  0.000141891  -0.0111297  0.0224217  -0.0141232  0.033427  0  0  0  0  0  0  0.00829602  -0.00914985  -0.0064026  -0.0183889  0.0410173  -0.0280296  -0.0456852  -0.00393875  -0.00386224  0.147359  0.0601753  -0.0129492 
1699446784.047463000  0  0  11.7108  0.147729  -0.0301612  0.00331766  nan  nan  nan  nan  nan  nan  -0.997587  -0.0033976  1.00217  0.0183505  0.00121374  -0.0111097  0.0238222  -0.0177958  0.0364171  0  0  0  0  0  0  0.00821076  -0.00909489  -0.00655341  -0.0195613  0.0441303  -0.0345063  -0.0473832  -0.00425783  -0.00385173  0.140468  0.0994944  -0.00295337 
1699446784.052651000  0  0  11.6843  0.129201  0.00845404  0.0038605  nan  nan  nan  nan  nan  nan  -0.997464  -0.0034961  1.00236  0.0212925  0.00174678  -0.0110948  0.0252401  -0.0216346  0.0395644  0  0  0  0  0  0  0.00813302  -0.00902985  -0.00665214  -0.0200362  0.0477645  -0.0321136  -0.0489621  -0.00513338  -0.00393795  0.19205  0.030319  -0.00887674 
