ts fx fy fz tx ty tz exfx exfy exfz extx exty extz xd yd zd rolld pitchd yawd vxd vyd vzd wxd wyd wzd axd ayd azd e_x e_y e_z e_vx e_vy e_vz e_rx e_ry e_rz e_wx e_wy e_wz
1703174814.385444000  0  0  11.8695  0.0852634  -0.143942  0.029477  nan  nan  nan  nan  nan  nan  -2.5  -0.3  1  0.0213373  -0.0312955  -0.000667751  0  0  0  0  0  0  0  0  0  0.0168644  0.0121928  -0.0227178  -0.00479516  -0.00526847  -0.000721048  -0.0203685  0.0251573  -0.0288255  0.0515  0.019229  -0.0234273 
1703174814.389421000  0  0  11.8373  0.114837  -0.155525  0.0245889  nan  nan  nan  nan  nan  nan  -2.5  -0.3  1  0.0218049  -0.0306102  -0.000667454  0  0  0  0  0  0  0  0  0  0.0169356  0.012234  -0.0226988  -0.00604988  -0.00482357  0.00150687  -0.021133  0.0249607  -0.0283023  -0.00311863  0.0463295  0.0317698 
1703174814.394393000  0  0  11.8122  0.0832853  -0.124564  0.0270751  nan  nan  nan  nan  nan  nan  -2.5  -0.3  1  0.0206315  -0.0298117  -0.000615057  0  0  0  0  0  0  0  0  0  0.016899  0.0121961  -0.0226754  -0.00712874  -0.00638058  0.00325584  -0.0194166  0.0237897  -0.0284967  0.0447901  -0.006587  0.00282958 
1703174814.399423000  0  0  11.8589  0.0845848  -0.145925  0.0285455  nan  nan  nan  nan  nan  nan  -2.5  -0.3  1  0.0217141  -0.0310358  -0.000673912  0  0  0  0  0  0  0  0  0  0.0169972  0.0122498  -0.0226913  -0.00556509  -0.00493952  -2.2183e-05  -0.0200909  0.0253152  -0.0287431  0.0497612  0.0216647  -0.0127006 
1703174814.404909000  0  0  11.8506  0.10737  -0.150218  0.0233245  nan  nan  nan  nan  nan  nan  -2.5  -0.3  1  0.0220738  -0.0314772  -0.00069482  0  0  0  0  0  0  0  0  0  0.0170686  0.0122836  -0.0226904  -0.00519054  -0.00456364  0.000557379  -0.0206403  0.026009  -0.0280694  0.00722451  0.0228878  0.0448704 
1703174814.409380000  0  0  11.8571  0.0812873  -0.133991  0.0245622  nan  nan  nan  nan  nan  nan  -2.5  -0.3  1  0.0213071  -0.0305289  -0.000650479  0  0  0  0  0  0  0  0  0  0.0170353  0.012254  -0.0226905  -0.00637539  -0.00551299  0.000104703  -0.0193103  0.0249017  -0.0280739  0.0478518  0.000832458  0.0293512 
1703174814.414390000  0  0  11.8359  0.0852817  -0.132931  0.0255855  nan  nan  nan  nan  nan  nan  -2.5  -0.3  1  0.0220641  -0.0306276  -0.000675773  0  0  0  0  0  0  0  0  0  0.0171187  0.0123037  -0.022681  -0.00655053  -0.00467128  0.00160177  -0.0197578  0.025012  -0.0281009  0.0444354  -0.00270956  0.0168017 
1703174814.419439000  0  0  11.8812  0.0903232  -0.145376  0.0243373  nan  nan  nan  nan  nan  nan  -2.5  -0.3  1  0.0216797  -0.0313345  -0.000679317  0  0  0  0  0  0  0  0  0  0.0170994  0.0122771  -0.0226972  -0.00536408  -0.00500884  -0.00158781  -0.0193837  0.0258938  -0.0278633  0.0293211  0.0138313  0.0296422 
1703174814.424443000  0  0  11.8763  0.0840512  -0.139872  0.0252159  nan  nan  nan  nan  nan  nan  -2.5  -0.3  1  0.0216966  -0.0300337  -0.000651632  0  0  0  0  0  0  0  0  0  0.0171682  0.0123176  -0.0226953  -0.00736375  -0.00511117  -0.00124473  -0.0189943  0.0247537  -0.0278772  0.0382904  0.015146  0.0187561 
1703174814.433508000  0  0  11.815  0.0838333  -0.122668  0.0269268  nan  nan  nan  nan  nan  nan  -2.5  -0.3  1  0.0220181  -0.0297243  -0.000654484  0  0  0  0  0  0  0  0  0  0.0172021  0.0123465  -0.022678  -0.00809559  -0.00490811  0.0030889  -0.018836  0.0241295  -0.028059  0.0369356  -0.0145633  -0.000578585 
1703174814.438719000  0  0  11.8428  0.10124  -0.127126  0.0248311  nan  nan  nan  nan  nan  nan  -2.5  -0.3  1  0.0222864  -0.0279863  -0.000623734  0  0  0  0  0  0  0  0  0  0.01723  0.0123928  -0.0226979  -0.0104586  -0.00459902  0.00113586  -0.0191678  0.0227103  -0.0278158  0.00342876  0.011323  0.0228571 
1703174814.443499000  0  0  11.7348  0.0832703  -0.0919451  0.028338  nan  nan  nan  nan  nan  nan  -2.5  -0.3  1  0.021994  -0.0284748  -0.000626292  0  0  0  0  0  0  0  0  0  0.0171907  0.0123661  -0.0226275  -0.0100353  -0.00519918  0.00868614  -0.0184871  0.022382  -0.0281808  0.0341295  -0.0603363  -0.0168676 
1703174814.448523000  0  0  11.8152  0.0989947  -0.118268  0.0271475  nan  nan  nan  nan  nan  nan  -2.5  -0.3  1  0.0231336  -0.0291767  -0.000674988  0  0  0  0  0  0  0  0  0  0.0172477  0.0124304  -0.0226705  -0.00897095  -0.00362222  0.00307003  -0.0196088  0.0233647  -0.0281188  0.013317  -0.0151992  -0.00263528 
1703174814.453543000  0  0  11.8036  0.106555  -0.111078  0.0258777  nan  nan  nan  nan  nan  nan  -2.5  -0.3  1  0.0228168  -0.0282759  -0.000645191  0  0  0  0  0  0  0  0  0  0.0171949  0.0124068  -0.0226472  -0.0100907  -0.00401747  0.00383875  -0.019449  0.022367  -0.0279571  -0.00473212  -0.0191385  0.0113914 
1703174814.458418000  0  0  11.4615  0.0955572  -0.101261  0.0167335  nan  nan  nan  nan  nan  nan  -2.5  -0.3  0.99  0.0237226  -0.0290812  -0.0106899  2e-07  2e-07  2e-07  0  0  0  0.000125  0.000125  0.000125  0.0172526  0.0124557  -0.0126103  -0.00997561  -0.00422985  0.00733167  -0.0197062  0.023043  -0.0179621  0.0218079  -0.0479654  0.00596817 
1703174814.463374000  0  0  11.478  0.116075  -0.111311  0.0152924  nan  nan  nan  nan  nan  nan  -2.5  -0.3  0.99  0.024988  -0.0289709  -0.010724  1.7e-06  1.7e-06  1.7e-06  0  0  0  0.0005  0.0005  0.0005  0.0173152  0.012522  -0.012587  -0.0101744  -0.00264371  0.00613762  -0.0211059  0.0229728  -0.0177535  -0.00608557  -0.0256079  0.021587 
1703174814.468412000  0  0  11.5319  0.121871  -0.109927  0.0140346  nan  nan  nan  nan  nan  nan  -2.5  -0.3  0.99  0.0238664  -0.0286508  -0.0106838  5.6e-06  5.6e-06  5.6e-06  0  0  0  0.001125  0.001125  0.001125  0.0172681  0.012496  -0.0125936  -0.0102202  -0.00382343  0.00236605  -0.0202927  0.0225865  -0.0174874  -0.0278671  -0.0241316  0.0342045 
1703174814.473421000  0  0  11.5059  0.113492  -0.108268  0.0158066  nan  nan  nan  nan  nan  nan  -2.5  -0.3  0.99  0.0242783  -0.0283474  -0.0106884  1.33e-05  1.33e-05  1.33e-05  0  0  0  0.002  0.002  0.002  0.0173168  0.0125601  -0.012558  -0.0107275  -0.00340872  0.00421565  -0.0204721  0.0222153  -0.017601  -0.00783745  -0.023419  0.0132786 
1703174814.478455000  0  0  11.5067  0.123148  -0.103184  0.0168633  nan  nan  nan  nan  nan  nan  -2.5  -0.3  0.99  0.0247791  -0.0271709  -0.0106736  2.6e-05  2.6e-05  2.6e-05  0  0  0  0.003125  0.003125  0.003125  0.0172567  0.0125507  -0.0125367  -0.0119644  -0.00254894  0.00419984  -0.0211355  0.0209557  -0.0176707  -0.0209105  -0.0198294  0.000822852 
1703174814.483408000  0  0  11.5647  0.108835  -0.111616  0.0203839  nan  nan  nan  nan  nan  nan  -2.5  -0.3  0.99  0.0234818  -0.0285245  -0.0106703  4.5e-05  4.5e-05  4.5e-05  0  0  0  0.0045  0.0045  0.0045  0.0173111  0.0125976  -0.0125629  -0.00996241  -0.00408876  0.00024789  -0.0197363  0.0223048  -0.0181553  -0.00631767  -0.0172685  -0.0376331 
1703174814.488922000  0  0  11.5829  0.106473  -0.115593  0.0234593  nan  nan  nan  nan  nan  nan  -2.5  -0.299999  0.99  0.0241202  -0.0272782  -0.010659  7.15e-05  7.15e-05  7.15e-05  0  0  0  0.006125  0.006125  0.006125  0.0173205  0.0126752  -0.0125864  -0.0113742  -0.00317341  -0.000869558  -0.0201594  0.021273  -0.0188085  0.00361571  0.00312845  -0.0684541 
1703174814.493394000  0  0  11.5622  0.107832  -0.105748  0.0232013  nan  nan  nan  nan  nan  nan  -2.5  -0.299999  0.99  0.024279  -0.0255739  -0.0106227  0.0001067  0.0001067  0.0001067  0  0  0  0.008  0.008  0.008  0.0172564  0.0126669  -0.012567  -0.0132877  -0.00272303  0.000707358  -0.020297  0.0195601  -0.0190447  0.00228307  0.00172327  -0.0623621 
1703174814.498451000  0  0  11.6561  0.0806555  -0.120337  0.0249006  nan  nan  nan  nan  nan  nan  -2.5  -0.299998  0.99  0.0231132  -0.0274607  -0.0106374  0.0001519  0.0001519  0.0001519  0  0  0  0.010125  0.010125  0.010125  0.0173217  0.0127221  -0.0126101  -0.0103868  -0.0039364  -0.00568617  -0.0186395  0.0215504  -0.0195778  0.0414896  0.0101093  -0.077317 
1703174814.503456000  0  0  11.6511  0.0975602  -0.122907  0.0219809  nan  nan  nan  nan  nan  nan  -2.5  -0.299997  0.99  0.0234008  -0.0251111  -0.0105919  0.0002083  0.0002083  0.0002083  0  0  0  0.0125  0.0125  0.0125  0.0172476  0.0127122  -0.0126191  -0.0130409  -0.00318693  -0.00514225  -0.019041  0.0195888  -0.019563  0.00986027  0.0381878  -0.0407588 
1703174814.508454000  0  0  11.5889  0.0855575  -0.098048  0.0204378  nan  nan  nan  nan  nan  nan  -2.5  -0.299996  0.99  0.0232356  -0.0241289  -0.0105668  0.0002773  0.0002773  0.0002773  0  0  0  0.015125  0.015125  0.015125  0.0172831  0.0127709  -0.0125879  -0.0142963  -0.00338071  -0.000573946  -0.0185176  0.0183484  -0.0195431  0.0295752  -0.000846394  -0.0215831 
1703174814.513867000  0  0  11.6444  0.0685724  -0.104953  0.0217213  nan  nan  nan  nan  nan  nan  -2.49999  -0.299995  0.99001  0.0223294  -0.0250667  -0.0105684  0.00036  0.00036  0.00036  0  0  0  0.018  0.018  0.018  0.0173082  0.0128332  -0.0126419  -0.0125831  -0.00426334  -0.00416267  -0.0171118  0.0193507  -0.0198639  0.0498235  0.00242863  -0.0338658 
1703174814.518434000  0  0  11.6662  0.0841356  -0.121022  0.0191857  nan  nan  nan  nan  nan  nan  -2.49999  -0.299993  0.99001  0.0226028  -0.0231283  -0.0105347  0.0004577  0.0004577  0.0004577  0  0  0  0.021125  0.021125  0.021125  0.0172398  0.0128249  -0.01267  -0.0145236  -0.00337565  -0.00541821  -0.0174795  0.0180457  -0.019703  0.0206817  0.0518977  -0.00390203 
1703174814.523453000  0  0  11.6208  0.0651415  -0.0972051  0.0206977  nan  nan  nan  nan  nan  nan  -2.49999  -0.29999  0.99001  0.0216648  -0.0226198  -0.0105061  0.0005717  0.0005717  0.0005717  0  0  0  0.0245  0.0245  0.0245  0.017276  0.0128603  -0.0126494  -0.015001  -0.00440087  -0.00195572  -0.0160869  0.0173198  -0.019942  0.0453891  0.00917968  -0.0200447 
1703174814.528434000  0  0  11.7046  0.0465624  -0.114684  0.0228397  nan  nan  nan  nan  nan  nan  -2.49999  -0.299987  0.99001  0.0202381  -0.0230586  -0.0104878  0.0007031  0.0007031  0.0007031  0  0  0  0.028125  0.028125  0.028125  0.0172235  0.0128323  -0.0127094  -0.0135803  -0.00557167  -0.00749886  -0.0142104  0.0181353  -0.0203604  0.0636392  0.0372756  -0.0419531 
1703174814.533392000  0  0  11.7612  0.0568178  -0.121984  0.0225526  nan  nan  nan  nan  nan  nan  -2.49998  -0.299983  0.99002  0.0205215  -0.0226798  -0.0104928  0.0008533  0.0008533  0.0008533  0  0  0  0.032  0.032  0.032  0.0172225  0.0129148  -0.0128165  -0.0134248  -0.00477293  -0.0109887  -0.0143551  0.0182038  -0.0205127  0.0433138  0.0521415  -0.0365054 
1703174814.538877000  0  0  11.7111  0.0600461  -0.112356  0.0225816  nan  nan  nan  nan  nan  nan  -2.49998  -0.299978  0.99002  0.0201752  -0.0212116  -0.0104628  0.0010235  0.0010235  0.0010235  0  0  0  0.036125  0.036125  0.036125  0.017243  0.012962  -0.0128177  -0.0150643  -0.00492791  -0.00709795  -0.0138661  0.0169967  -0.0207048  0.0307663  0.045383  -0.0345547 
1703174814.543454000  0  0  11.7386  0.0485341  -0.111918  0.0250073  nan  nan  nan  nan  nan  nan  -2.49997  -0.299973  0.99003  0.0189834  -0.0209375  -0.0104412  0.001215  0.001215  0.001215  0  0  0  0.0405  0.0405  0.0405  0.0171777  0.012935  -0.0128667  -0.0146236  -0.00582371  -0.0086045  -0.0124346  0.0169329  -0.0211685  0.0389828  0.0451782  -0.0594843 
1703174814.548452000  0  0  11.8186  0.0667884  -0.128727  0.0244335  nan  nan  nan  nan  nan  nan  -2.49997  -0.299966  0.99003  0.0192302  -0.0209599  -0.0104574  0.001429  0.001429  0.001429  0  0  0  0.045125  0.045125  0.045125  0.0172044  0.0130022  -0.0129516  -0.0138594  -0.00489415  -0.0137417  -0.0128335  0.0175511  -0.0213784  0.00442961  0.0741087  -0.0497353 
1703174814.553451000  0  0  11.7973  0.0742516  -0.126316  0.0229796  nan  nan  nan  nan  nan  nan  -2.49996  -0.299958  0.99004  0.0187456  -0.0192183  -0.010427  0.0016667  0.0016667  0.0016667  0  0  0  0.05  0.05  0.05  0.0171201  0.0129801  -0.0129896  -0.0154116  -0.0048712  -0.0117723  -0.0125509  0.016317  -0.0213892  -0.0148242  0.0831372  -0.0313112 
1703174814.558455000  0  0  11.7922  0.0579332  -0.109133  0.0252676  nan  nan  nan  nan  nan  nan  -2.49995  -0.299949  0.99005  0.0175282  -0.0193897  -0.0104209  0.0019294  0.0019294  0.0019294  0  0  0  0.055125  0.055125  0.055125  0.017132  0.0130308  -0.0130602  -0.0145649  -0.00601131  -0.0108505  -0.0111581  0.0165218  -0.0218158  0.00414342  0.0439356  -0.0549581 
1703174814.563832000  0  0  11.9016  0.0853557  -0.142719  0.0239352  nan  nan  nan  nan  nan  nan  -2.49994  -0.299939  0.99006  0.0183701  -0.0196597  -0.0104588  0.0022183  0.0022183  0.0022183  0  0  0  0.0605  0.0605  0.0605  0.017127  0.013116  -0.0132152  -0.0132099  -0.00417103  -0.0178799  -0.0124446  0.0177443  -0.0219024  -0.0398568  0.101888  -0.0371501 
1703174814.568453000  0  0  11.8371  0.11253  -0.134519  0.0198743  nan  nan  nan  nan  nan  nan  -2.49993  -0.299927  0.99007  0.0180045  -0.0164818  -0.0104134  0.0025348  0.0025348  0.0025348  0  0  0  0.066125  0.066125  0.066125  0.0170346  0.0130997  -0.013237  -0.0167075  -0.0039734  -0.0128191  -0.0128942  0.0152407  -0.0214977  -0.0929524  0.113109  0.00906748 
1703174814.573390000  0  0  11.8046  0.0865956  -0.0981797  0.0228128  nan  nan  nan  nan  nan  nan  -2.49991  -0.299914  0.99009  0.0163497  -0.0159948  -0.0103997  0.00288  0.00288  0.00288  0  0  0  0.072  0.072  0.072  0.0170374  0.0131582  -0.0133048  -0.0166915  -0.00568198  -0.0098984  -0.0112128  0.014516  -0.0218559  -0.0566872  0.0435255  -0.0235878 
1703174814.578488000  0  0  11.9141  0.113827  -0.132711  0.0226022  nan  nan  nan  nan  nan  nan  -2.4999  -0.299898  0.9901  0.0170304  -0.0162417  -0.0104394  0.0032552  0.0032552  0.003255  0  0  0  0.078125  0.078125  0.0779792  0.0169777  0.0131506  -0.0134189  -0.0151595  -0.00371494  -0.0169696  -0.0126115  0.0156034  -0.0219644  -0.0989868  0.10506  -0.0196293 
1703174814.583431000  0  0  11.8467  0.140753  -0.114276  0.0184796  nan  nan  nan  nan  nan  nan  -2.49988  -0.299881  0.99012  0.016815  -0.0129853  -0.0104088  0.0036617  0.0036617  0.0036594  0  0  0  0.0845  0.0845  0.0837224  0.0169224  0.0132361  -0.0134873  -0.0187513  -0.00349593  -0.0115992  -0.0133638  0.0128953  -0.0215122  -0.148068  0.0966844  0.0267903 
1703174814.588929000  0  0  11.8495  0.0904367  -0.0725171  0.0250518  nan  nan  nan  nan  nan  nan  -2.49986  -0.299862  0.99014  0.0147956  -0.0131918  -0.0104166  0.0041006  0.0041006  0.0040918  0  0  0  0.091125  0.091125  0.0892156  0.0169183  0.0133123  -0.013583  -0.0176082  -0.00560152  -0.0111465  -0.0111267  0.0126012  -0.0222818  -0.0659132  0.0105264  -0.046626 
1703174814.593396000  0  0  11.9256  0.0923765  -0.0901002  0.0256556  nan  nan  nan  nan  nan  nan  -2.49984  -0.29984  0.99016  0.01483  -0.0130181  -0.0104491  0.0045733  0.0045733  0.0045511  0  0  0  0.098  0.098  0.0944588  0.0168526  0.0133022  -0.013681  -0.0166365  -0.00448817  -0.0159363  -0.0114383  0.0128894  -0.0225478  -0.0664881  0.0449131  -0.0510165 
1703174814.598429000  0  0  11.8977  0.132708  -0.0954603  0.0204231  nan  nan  nan  nan  nan  nan  -2.49982  -0.299816  0.99018  0.0144941  -0.0101162  -0.0104411  0.005081  0.005081  0.005036  0  0  0  0.105125  0.105125  0.099452  0.016785  0.0133774  -0.013848  -0.0195421  -0.00422933  -0.0132243  -0.0123515  0.0109712  -0.0220406  -0.142464  0.0784746  0.00870707 
1703174814.603425000  0  0  11.9536  0.0621051  -0.0670296  0.0279027  nan  nan  nan  nan  nan  nan  -2.49979  -0.299789  0.99021  0.012402  -0.00971801  -0.0104575  0.005625  0.005625  0.0055452  0  0  0  0.1125  0.1125  0.104195  0.0166974  0.0133447  -0.0139494  -0.0188354  -0.00595604  -0.0165975  -0.0095935  0.0103332  -0.0229364  -0.022802  0.0248516  -0.0746056 
1703174814.608426000  0  0  12.0285  0.0984814  -0.102613  0.025371  nan  nan  nan  nan  nan  nan  -2.49976  -0.299759  0.99024  0.0137602  -0.00892731  -0.0105065  0.0062065  0.0062065  0.0060775  0  0  0  0.120125  0.120125  0.108688  0.0166485  0.0134186  -0.0140854  -0.0186849  -0.00315472  -0.0212798  -0.0116419  0.010545  -0.0229475  -0.0772366  0.0987135  -0.0426176 
1703174814.613858000  0  0  12.0182  0.115475  -0.104598  0.0224955  nan  nan  nan  nan  nan  nan  -2.49973  -0.299727  0.99027  0.0128427  -0.00734315  -0.0105292  0.0068267  0.0068267  0.0066317  0  0  0  0.128  0.128  0.112932  0.0165914  0.013469  -0.0141825  -0.0197082  -0.00352668  -0.020016  -0.0116027  0.00976534  -0.0226909  -0.114125  0.11194  -0.0095309 
1703174814.618426000  0  0  12.0607  0.0582064  -0.0867862  0.0283313  nan  nan  nan  nan  nan  nan  -2.49969  -0.299691  0.99031  0.0109464  -0.00616177  -0.0105582  0.0074869  0.0074869  0.0072064  0  0  0  0.136125  0.136125  0.116925  0.0164956  0.0134372  -0.0142952  -0.0200029  -0.00492875  -0.0224802  -0.00907898  0.00878065  -0.0234275  -0.0203615  0.0850757  -0.0740788 
1703174814.623430000  0  0  12.0647  0.0974582  -0.112128  0.023839  nan  nan  nan  nan  nan  nan  -2.49965  -0.299652  0.99034  0.0108743  -0.00468929  -0.0106023  0.0081883  0.0081883  0.0078005  0  0  0  0.1445  0.1445  0.120668  0.0163928  0.0134262  -0.0143886  -0.0206577  -0.00386779  -0.0222739  -0.00993202  0.00842502  -0.0231396  -0.0947134  0.143507  -0.0210258 
1703174814.628426000  0  0  12.061  0.0821318  -0.117333  0.0226614  nan  nan  nan  nan  nan  nan  -2.49961  -0.299609  0.99038  0.00879077  -0.00444986  -0.010656  0.0089323  0.0089323  0.0084127  0  0  0  0.153125  0.153125  0.124161  0.0164098  0.0135307  -0.0144728  -0.0199347  -0.00593144  -0.0215623  -0.00819038  0.00904745  -0.0230112  -0.0818862  0.147507  -0.00775767 
1703174814.633382000  0  0  12.0712  0.0555711  -0.11756  0.0255718  nan  nan  nan  nan  nan  nan  -2.49956  -0.299563  0.99043  0.00790004  -0.0033872  -0.0107144  0.00972  0.00972  0.0090417  0  0  0  0.162  0.162  0.127404  0.0164139  0.013638  -0.014562  -0.0202657  -0.00628192  -0.0218384  -0.00705937  0.00880487  -0.0234303  -0.037945  0.150784  -0.0393243 
1703174814.638812000  0  0  12.0275  0.0762014  -0.136774  0.0226911  nan  nan  nan  nan  nan  nan  -2.49951  -0.299512  0.99047  0.00720661  -0.0022729  -0.01078  0.0105527  0.0105527  0.0096863  0  0  0  0.171125  0.171125  0.130398  0.0163483  0.0136359  -0.0146227  -0.0204525  -0.00605972  -0.0183773  -0.00711181  0.00896937  -0.0231881  -0.0815781  0.19009  -0.00599839 
1703174814.643430000  0  0  12.0803  0.0521612  -0.144938  0.0243041  nan  nan  nan  nan  nan  nan  -2.49946  -0.299457  0.99052  0.00459729  -0.00207911  -0.0108546  0.0114317  0.0114317  0.0103453  0  0  0  0.1805  0.1805  0.133141  0.016268  0.0135896  -0.0147447  -0.0192842  -0.0082883  -0.0216603  -0.00462708  0.00978271  -0.0233366  -0.0586152  0.198239  -0.0245035 
1703174814.648431000  0  0  12.0445  0.0468467  -0.147709  0.0248106  nan  nan  nan  nan  nan  nan  -2.4994  -0.299398  0.99058  0.00403579  0.000385007  -0.0109303  0.0123581  0.0123581  0.0110173  0  0  0  0.190125  0.190125  0.135634  0.0162048  0.0136045  -0.0148043  -0.0212823  -0.00782478  -0.0187862  -0.00419319  0.00858804  -0.0234642  -0.0522112  0.217926  -0.0293381 
1703174814.653491000  0  0  11.9961  0.0452863  -0.138921  0.024613  nan  nan  nan  nan  nan  nan  -2.49933  -0.299333  0.99063  0.00249932  0.00175648  -0.0110201  0.0133333  0.0133333  0.0117012  0  0  0  0.2  0.2  0.137877  0.0160934  0.0135648  -0.0148599  -0.021587  -0.00854171  -0.0150448  -0.00304599  0.00817811  -0.0234803  -0.0620631  0.203798  -0.0266568 
1703174814.658426000  0  0  12.0946  0.0397889  -0.153047  0.0262347  nan  nan  nan  nan  nan  nan  -2.49926  -0.299264  0.99069  0.000905242  0.00193099  -0.0111211  0.0143585  0.0143585  0.0123957  0  0  0  0.210125  0.210125  0.13987  0.0160615  0.0135588  -0.0149736  -0.02045  -0.00938585  -0.0216525  -0.00181511  0.0091948  -0.0237159  -0.0644357  0.222392  -0.044223 
1703174814.663853000  0  0  11.9878  0.0667042  -0.145105  0.0253205  nan  nan  nan  nan  nan  nan  -2.49919  -0.29919  0.99076  0.000777618  0.00403797  -0.0112238  0.015435  0.015435  0.0130995  0  0  0  0.2205  0.2205  0.141613  0.016098  0.0136566  -0.0149584  -0.0220818  -0.00845025  -0.0139409  -0.00261941  0.00818115  -0.0237318  -0.112896  0.217022  -0.0325277 
1703174814.668426000  0  0  11.9466  0.0631086  -0.127664  0.0258007  nan  nan  nan  nan  nan  nan  -2.49911  -0.29911  0.99083  -0.00102103  0.0054128  -0.0113425  0.016564  0.016564  0.0138114  0  0  0  0.231125  0.231125  0.143107  0.0159941  0.013608  -0.0150119  -0.0222936  -0.00937612  -0.0107728  -0.00140137  0.00746786  -0.0238082  -0.119199  0.187831  -0.0376493 
1703174814.673563000  0  0  12.015  0.0764861  -0.140081  0.026328  nan  nan  nan  nan  nan  nan  -2.49902  -0.299024  0.9909  -0.00144866  0.00559203  -0.0114612  0.0177467  0.0177467  0.0145301  0  0  0  0.242  0.242  0.14435  0.0160207  0.0137379  -0.0150538  -0.0212339  -0.0089077  -0.0154478  -0.001833  0.00838031  -0.0239956  -0.142918  0.203959  -0.0420253 
1703174814.678426000  0  0  11.9381  0.0928971  -0.127459  0.0251943  nan  nan  nan  nan  nan  nan  -2.49893  -0.298932  0.99097  -0.00268346  0.00821225  -0.0115973  0.0189844  0.0189844  0.0152545  0  0  0  0.253125  0.253125  0.145343  0.0159046  0.013696  -0.0150772  -0.0230225  -0.0089702  -0.00982486  -0.00166628  0.00670509  -0.0239162  -0.180025  0.196167  -0.0287175 
1703174814.683426000  0  0  11.904  0.099394  -0.104621  0.0264495  nan  nan  nan  nan  nan  nan  -2.49883  -0.298834  0.99105  -0.00348291  0.00942364  -0.0117363  0.0202783  0.0202783  0.0159831  0  0  0  0.2645  0.2645  0.146086  0.0159179  0.0138111  -0.01506  -0.0232074  -0.00886461  -0.00736674  -0.00188011  0.00598888  -0.0241119  -0.191496  0.155436  -0.0421518 
1703174814.688428000  0  0  11.9853  0.11678  -0.115013  0.0275753  nan  nan  nan  nan  nan  nan  -2.49873  -0.298729  0.99113  -0.00282924  0.00887275  -0.0118631  0.0216298  0.0216298  0.0167149  0  0  0  0.276125  0.276125  0.146579  0.0160395  0.0141626  -0.0150911  -0.0213352  -0.00746113  -0.0130565  -0.00362575  0.00726215  -0.0244156  -0.208694  0.163069  -0.0526554 
1703174814.693561000  0  0  11.9369  0.141693  -0.112206  0.0256948  nan  nan  nan  nan  nan  nan  -2.49862  -0.298618  0.99122  -0.00371827  0.0115899  -0.0120217  0.02304  0.02304  0.0174485  0  0  0  0.288  0.288  0.146823  0.0159222  0.0141361  -0.0151262  -0.0231503  -0.00698431  -0.00948805  -0.00429905  0.00558202  -0.0242872  -0.254367  0.176381  -0.0305431 
1703174814.698373000  0  0  11.9297  0.142124  -0.0872859  0.0263021  nan  nan  nan  nan  nan  nan  -2.4985  -0.298499  0.99131  -0.00401435  0.0132326  -0.0121786  0.0245102  0.0245102  0.0181827  0  0  0  0.300125  0.300125  0.146816  0.0159609  0.0143609  -0.0151437  -0.0239213  -0.00639725  -0.00892012  -0.00502171  0.00424396  -0.0244328  -0.246979  0.138339  -0.0364287 
1703174814.703463000  0  0  12.0104  0.13553  -0.0971168  0.0276005  nan  nan  nan  nan  nan  nan  -2.49837  -0.298372  0.9914  -0.00597988  0.0129718  -0.0123563  0.0260417  0.0260417  0.0189163  0  0  0  0.3125  0.3125  0.146559  0.0158624  0.0143242  -0.0152338  -0.0218074  -0.00742663  -0.0144842  -0.00424573  0.0053155  -0.0246092  -0.241766  0.147091  -0.0506407 
1703174814.708426000  0  0  11.9962  0.160883  -0.111142  0.0242929  nan  nan  nan  nan  nan  nan  -2.49824  -0.298238  0.99149  -0.00612766  0.0157702  -0.0125346  0.0276356  0.0276356  0.0196479  0  0  0  0.325125  0.325125  0.146052  0.0157486  0.0144074  -0.0153062  -0.0236815  -0.00614105  -0.0133287  -0.00561062  0.00386996  -0.0242867  -0.280427  0.193795  -0.0129109 
1703174814.714030000  0  0  11.9462  0.135347  -0.069879  0.0251494  nan  nan  nan  nan  nan  nan  -2.4981  -0.298096  0.99159  -0.00780422  0.0183804  -0.0127471  0.0292933  0.0292933  0.0203764  0  0  0  0.338  0.338  0.145295  0.0156567  0.014486  -0.0153377  -0.0252654  -0.00689531  -0.00971965  -0.00491387  0.0016913  -0.0242473  -0.233686  0.130381  -0.0241627 
1703174814.718419000  0  0  12.044  0.120274  -0.0915314  0.0271048  nan  nan  nan  nan  nan  nan  -2.49795  -0.297945  0.9917  -0.00999198  0.0181681  -0.012957  0.031016  0.031016  0.0211004  0  0  0  0.351125  0.351125  0.144289  0.0155521  0.0144328  -0.0154584  -0.0231933  -0.00814249  -0.016483  -0.00355532  0.00285425  -0.0244099  -0.216997  0.16343  -0.0468049 
1703174814.723420000  0  0  12.0542  0.143782  -0.117826  0.0222658  nan  nan  nan  nan  nan  nan  -2.49779  -0.297786  0.99181  -0.00993173  0.0215242  -0.0131675  0.032805  0.032805  0.0218188  0  0  0  0.3645  0.3645  0.143032  0.0154175  0.0145406  -0.0155638  -0.0257451  -0.00654501  -0.0170346  -0.00494898  0.00124929  -0.0238764  -0.251369  0.238277  0.00764983 
1703174814.728422000  0  0  11.9905  0.107438  -0.0698749  0.0231236  nan  nan  nan  nan  nan  nan  -2.49762  -0.297617  0.99192  -0.0127026  0.0252452  -0.0134587  0.0346615  0.0346615  0.0225303  0  0  0  0.378125  0.378125  0.141525  0.0152669  0.0144955  -0.0155975  -0.0285706  -0.00831007  -0.012457  -0.00275495  -0.00199781  -0.0237116  -0.19868  0.172813  -0.00512913 
1703174814.733431000  0  0  12.0588  0.089371  -0.0916422  0.0269699  nan  nan  nan  nan  nan  nan  -2.49744  -0.297439  0.99203  -0.0134975  0.0240713  -0.0136536  0.0365867  0.0365867  0.0232337  0  0  0  0.392  0.392  0.139768  0.0152941  0.0147228  -0.01568  -0.0254023  -0.00834463  -0.0172939  -0.002506  0.000139513  -0.0240957  -0.162804  0.194899  -0.0488948 
1703174814.738846000  0  0  12.0946  0.110313  -0.118364  0.0230284  nan  nan  nan  nan  nan  nan  -2.49725  -0.297251  0.99215  -0.0141257  0.0270354  -0.0139074  0.0385819  0.0385819  0.0239276  0  0  0  0.406125  0.406125  0.137761  0.0151621  0.0147873  -0.0157768  -0.0274233  -0.0075311  -0.0197276  -0.00309299  -0.000878982  -0.0236646  -0.200956  0.263913  -0.0044983 
1703174814.743417000  0  0  12.011  0.0579985  -0.0751941  0.0262362  nan  nan  nan  nan  nan  nan  -2.49705  -0.297053  0.99227  -0.0174096  0.0298359  -0.0142481  0.0406483  0.0406483  0.0246109  0  0  0  0.4205  0.4205  0.135505  0.0150119  0.0147227  -0.0158146  -0.0287935  -0.00980859  -0.0137803  0.000159172  -0.00316379  -0.0238119  -0.126194  0.197632  -0.0430835 
1703174814.748418000  0  0  12.089  0.0419326  -0.106444  0.0296199  nan  nan  nan  nan  nan  nan  -2.49684  -0.296844  0.99239  -0.0186996  0.0290457  -0.0144811  0.0427873  0.0427873  0.0252822  0  0  0  0.435125  0.435125  0.132998  0.0149852  0.0148732  -0.0159051  -0.0259882  -0.010267  -0.0193274  0.00114057  -0.000992727  -0.0242917  -0.103035  0.239664  -0.0798757 
1703174814.753469000  0  0  12.1001  0.0564756  -0.128857  0.0258015  nan  nan  nan  nan  nan  nan  -2.49662  -0.296625  0.99252  -0.0203507  0.0314149  -0.014793  0.045  0.045  0.0259404  0  0  0  0.45  0.45  0.130241  0.0148469  0.0148326  -0.016003  -0.027024  -0.0104605  -0.0200513  0.00180035  -0.00142158  -0.0239078  -0.141809  0.292655  -0.0364596 
1703174814.758418000  0  0  12.0367  0.0257209  -0.104399  0.0270565  nan  nan  nan  nan  nan  nan  -2.49639  -0.296394  0.99265  -0.0233694  0.0344317  -0.0151801  0.0472877  0.0472877  0.0265842  0  0  0  0.465125  0.465125  0.127234  0.0147386  0.0148064  -0.0160219  -0.028755  -0.0123632  -0.0156215  0.0045625  -0.00340685  -0.0239039  -0.10764  0.26305  -0.0522966 
1703174814.763846000  0  0  12.0634  0.0236255  -0.133177  0.0285713  nan  nan  nan  nan  nan  nan  -2.49615  -0.296152  0.99279  -0.0252926  0.0347453  -0.0154824  0.0496517  0.0496517  0.0272124  0  0  0  0.4805  0.4805  0.123977  0.0146797  0.014837  -0.0160702  -0.0271546  -0.0131519  -0.0176389  0.00577269  -0.00187561  -0.0240896  -0.11707  0.307142  -0.0691172 
1703174814.768418000  0  0  12.1083  0.0381706  -0.151922  0.0255693  nan  nan  nan  nan  nan  nan  -2.4959  -0.295898  0.99293  -0.0268103  0.0366206  -0.0158198  0.0520931  0.0520931  0.0278236  0  0  0  0.496125  0.496125  0.120471  0.0145378  0.0147671  -0.0161907  -0.0275391  -0.0130867  -0.0207694  0.00630801  -0.00182677  -0.0237067  -0.154416  0.346774  -0.0359604 
1703174814.773431000  0  0  12.0302  0.0305885  -0.143645  0.0254742  nan  nan  nan  nan  nan  nan  -2.49563  -0.295631  0.99307  -0.0293568  0.0396134  -0.0162416  0.0546133  0.0546133  0.0284166  0  0  0  0.512  0.512  0.116714  0.0144301  0.0147846  -0.0162025  -0.0290322  -0.0142563  -0.0153617  0.00810335  -0.00305539  -0.0235317  -0.158813  0.343161  -0.0368746 
1703174814.778423000  0  0  12.021  0.0173623  -0.136188  0.0273183  nan  nan  nan  nan  nan  nan  -2.49535  -0.295351  0.99321  -0.032273  0.0411181  -0.0166526  0.0572135  0.0572135  0.0289903  0  0  0  0.528125  0.528125  0.112707  0.0142927  0.0147067  -0.0162777  -0.0286414  -0.0158705  -0.0147625  0.0103012  -0.00299287  -0.0236104  -0.155738  0.326452  -0.059128 
1703174814.783414000  0  0  12.0649  0.0423866  -0.159951  0.0261353  nan  nan  nan  nan  nan  nan  -2.49506  -0.295059  0.99336  -0.033074  0.0421157  -0.0169716  0.059895  0.059895  0.0295433  0  0  0  0.5445  0.5445  0.10845  0.0141934  0.0147469  -0.0163676  -0.0278326  -0.0150596  -0.0179741  0.00987418  -0.00189729  -0.0234942  -0.204483  0.364802  -0.045644 
1703174814.788416000  0  0  11.9795  0.0556621  -0.146188  0.0240371  nan  nan  nan  nan  nan  nan  -2.49475  -0.294752  0.99351  -0.0358093  0.0464178  -0.0175003  0.062659  0.062659  0.0300744  0  0  0  0.561125  0.561125  0.103943  0.0140261  0.0146697  -0.0164024  -0.0307764  -0.0159791  -0.0119806  0.0110914  -0.00431322  -0.0230519  -0.246952  0.363083  -0.0245749 
1703174814.793425000  0  0  11.937  0.0392117  -0.116905  0.0281858  nan  nan  nan  nan  nan  nan  -2.49443  -0.294432  0.99366  -0.0386137  0.0482212  -0.0179659  0.0655067  0.0655067  0.0305823  0  0  0  0.578  0.578  0.0991865  0.013927  0.014687  -0.0164124  -0.0306103  -0.0174233  -0.00919712  0.0129498  -0.00490754  -0.0233488  -0.233059  0.307131  -0.0731958 
1703174814.798415000  0  0  11.9965  0.0702035  -0.150835  0.0262271  nan  nan  nan  nan  nan  nan  -2.4941  -0.294097  0.99381  -0.0386929  0.0488458  -0.0182657  0.0684394  0.068439  0.0310658  0  0  0  0.595125  0.594911  0.0941797  0.0138683  0.0148112  -0.0164183  -0.0294021  -0.0158772  -0.0137598  0.0114144  -0.00344083  -0.0232312  -0.281848  0.363011  -0.04997 
1703174814.803414000  0  0  11.9091  0.0856582  -0.129243  0.0241796  nan  nan  nan  nan  nan  nan  -2.49375  -0.293747  0.99397  -0.041727  0.0536247  -0.0188914  0.0714583  0.0714554  0.0315237  0  0  0  0.6125  0.611572  0.0889229  0.0136945  0.0147273  -0.0164372  -0.0327857  -0.0170679  -0.00766096  0.0125098  -0.00644286  -0.0227738  -0.327589  0.35125  -0.0297213 
1703174814.808415000  0  0  11.8664  0.0549978  -0.0883489  0.0296755  nan  nan  nan  nan  nan  nan  -2.49338  -0.293382  0.99413  -0.0450001  0.0551537  -0.0194203  0.0745648  0.0745544  0.0319546  0  0  0  0.630125  0.627984  0.0834161  0.0135758  0.0147206  -0.0164276  -0.0320576  -0.0190898  -0.00494096  0.0147199  -0.00713954  -0.023264  -0.287271  0.271578  -0.0929632 
1703174814.813920000  0  0  11.9166  0.0998848  -0.127059  0.0286027  nan  nan  nan  nan  nan  nan  -2.493  -0.293002  0.99429  -0.0444436  0.0561836  -0.0197259  0.07776  0.0777348  0.0323574  0  0  0  0.647955  0.644146  0.0776593  0.0135197  0.0149213  -0.0163784  -0.031289  -0.0169625  -0.0090029  0.0118666  -0.00590802  -0.0234046  -0.350695  0.340413  -0.0777704 
1703174814.818420000  0  0  11.8427  0.107662  -0.0993407  0.0255039  nan  nan  nan  nan  nan  nan  -2.4926  -0.292605  0.99445  -0.0476434  0.0606762  -0.0204167  0.081044  0.0809954  0.0327308  0  0  0  0.665619  0.660058  0.0716736  0.0133171  0.0148021  -0.016388  -0.0341512  -0.0183539  -0.0039145  0.0130747  -0.00902727  -0.0228299  -0.381269  0.316864  -0.0457077 
1703174814.823420000  0  0  11.8357  0.0822958  -0.0768883  0.0310334  nan  nan  nan  nan  nan  nan  -2.49219  -0.292192  0.99461  -0.0497999  0.0621117  -0.0209224  0.0844157  0.0843349  0.0330744  0  0  0  0.683032  0.67572  0.0658122  0.0131842  0.0148154  -0.0164125  -0.0334728  -0.0191522  -0.00369394  0.0139481  -0.00932286  -0.0233706  -0.336926  0.272121  -0.108764 
1703174814.828417000  0  0  11.9099  0.125138  -0.11572  0.0273851  nan  nan  nan  nan  nan  nan  -2.49176  -0.291761  0.99478  -0.0507738  0.0638034  -0.0213781  0.0878739  0.0877522  0.0333894  0  0  0  0.700196  0.691132  0.0602008  0.0130203  0.014733  -0.0164899  -0.0336594  -0.0185506  -0.00909357  0.0123803  -0.00872126  -0.0230668  -0.410754  0.348465  -0.0665216 
1703174814.833427000  0  0  11.8646  0.126407  -0.102373  0.0258333  nan  nan  nan  nan  nan  nan  -2.49131  -0.291314  0.99495  -0.0525055  0.0665114  -0.0219465  0.0914173  0.0912458  0.0336769  0  0  0  0.71711  0.706294  0.0548394  0.0129312  0.0148819  -0.0164071  -0.0346203  -0.0189541  -0.00627345  0.0120225  -0.00988793  -0.0227035  -0.409359  0.333267  -0.0513747 
1703174814.838846000  0  0  11.8532  0.11713  -0.0892986  0.0292924  nan  nan  nan  nan  nan  nan  -2.49085  -0.290849  0.99512  -0.0529769  0.0685967  -0.0224101  0.0950446  0.0948147  0.0339382  0  0  0  0.733773  0.721205  0.0497281  0.0128628  0.015033  -0.0163775  -0.0350294  -0.017886  -0.00579097  0.0107346  -0.0105289  -0.0230717  -0.37465  0.312606  -0.0904615 
1703174814.843419000  0  0  11.8946  0.145396  -0.119942  0.0254832  nan  nan  nan  nan  nan  nan  -2.49036  -0.290366  0.99529  -0.0550815  0.0699943  -0.0229597  0.0987546  0.0984575  0.0341746  0  0  0  0.750187  0.735867  0.0448667  0.0126667  0.0149118  -0.0164428  -0.03465  -0.0186468  -0.00879656  0.0104668  -0.00981954  -0.0225538  -0.432178  0.370153  -0.048775 
1703174814.848939000  0  0  11.9141  0.134443  -0.124051  0.0251994  nan  nan  nan  nan  nan  nan  -2.48986  -0.289864  0.99546  -0.0567737  0.071492  -0.0234977  0.102546  0.102173  0.0343873  0  0  0  0.76635  0.750279  0.0402553  0.0125946  0.0150446  -0.0164217  -0.0346125  -0.0194672  -0.010419  0.0101025  -0.00932796  -0.0222839  -0.404502  0.373309  -0.0484584 
1703174814.853376000  0  0  11.8906  0.12367  -0.11248  0.0262826  nan  nan  nan  nan  nan  nan  -2.48934  -0.289344  0.99563  -0.0589225  0.0750501  -0.0242018  0.106418  0.10596  0.0345775  0  0  0  0.782264  0.764441  0.0358939  0.0123726  0.0149082  -0.0164629  -0.0366698  -0.0198256  -0.00872176  0.0107412  -0.0112401  -0.0221815  -0.388749  0.370495  -0.063321 
1703174814.858426000  0  0  11.9169  0.126036  -0.133219  0.0259459  nan  nan  nan  nan  nan  nan  -2.48879  -0.288804  0.99581  -0.0609823  0.0757887  -0.0247485  0.110368  0.109817  0.0347466  0  0  0  0.797928  0.778353  0.0317825  0.0122321  0.0148911  -0.0165099  -0.0355498  -0.0208639  -0.0106566  0.0107703  -0.00977685  -0.0219908  -0.394157  0.39813  -0.0613832 
1703174814.863851000  0  0  12.0078  0.113392  -0.150424  0.027255  nan  nan  nan  nan  nan  nan  -2.48823  -0.288246  0.99598  -0.0623786  0.077394  -0.0253077  0.114397  0.113743  0.0348958  0  0  0  0.813341  0.792015  0.0279211  0.0120731  0.0148917  -0.0166782  -0.0361764  -0.0215006  -0.0168527  0.010432  -0.00869297  -0.0220396  -0.363154  0.422552  -0.0772663 
1703174814.868377000  0  0  11.8973  0.106834  -0.135769  0.0268705  nan  nan  nan  nan  nan  nan  -2.48765  -0.287667  0.99615  -0.0647881  0.0814216  -0.0261147  0.118501  0.117737  0.0350263  0  0  0  0.828505  0.805427  0.0243098  0.0118449  0.0147491  -0.0166823  -0.0381736  -0.0216349  -0.00895741  0.0113013  -0.0108516  -0.0218053  -0.359092  0.415963  -0.0752528 
1703174814.873436000  0  0  11.9509  0.0917348  -0.15253  0.0270581  nan  nan  nan  nan  nan  nan  -2.48705  -0.287068  0.99633  -0.066952  0.0817597  -0.0266796  0.122681  0.121797  0.0351393  0  0  0  0.843418  0.818589  0.0209484  0.0116955  0.0147623  -0.0168666  -0.0368721  -0.0232278  -0.0124768  0.0119261  -0.00859386  -0.0216759  -0.333903  0.425928  -0.0791727 
1703174814.878426000  0  0  12.0576  0.0812481  -0.168233  0.0268496  nan  nan  nan  nan  nan  nan  -2.48642  -0.286449  0.99651  -0.0688302  0.0831784  -0.0273031  0.126935  0.125922  0.0352362  0  0  0  0.858082  0.8315  0.017837  0.0115012  0.0146445  -0.0169955  -0.0374928  -0.0244743  -0.0197913  0.0123356  -0.00761455  -0.02154  -0.316128  0.448333  -0.0781869 
1703174814.883375000  0  0  11.9106  0.0872427  -0.155362  0.0261655  nan  nan  nan  nan  nan  nan  -2.48578  -0.285809  0.99668  -0.0708626  0.0862708  -0.0280696  0.131262  0.130111  0.0353181  0  0  0  0.872495  0.844162  0.0149756  0.0113671  0.0146277  -0.0169322  -0.0381352  -0.0242102  -0.00943549  0.0126469  -0.00869184  -0.021309  -0.332564  0.433128  -0.0723644 
1703174814.888381000  0  0  11.9334  0.0646562  -0.159008  0.0274653  nan  nan  nan  nan  nan  nan  -2.48511  -0.285148  0.99686  -0.0733972  0.0871091  -0.0287349  0.13566  0.134363  0.0353863  0  0  0  0.886659  0.856574  0.0123642  0.0112238  0.014608  -0.0169714  -0.0373846  -0.0260708  -0.0109697  0.0139579  -0.00741608  -0.0212645  -0.299215  0.426269  -0.0892564 
1703174814.893432000  0  0  11.9998  0.0605533  -0.17151  0.0275339  nan  nan  nan  nan  nan  nan  -2.48442  -0.284465  0.99704  -0.0750935  0.0885171  -0.0293794  0.140128  0.138677  0.0354421  0  0  0  0.900573  0.868736  0.0100028  0.01104  0.0144862  -0.0170715  -0.0377667  -0.0268746  -0.0154266  0.0141939  -0.00648815  -0.0212025  -0.293132  0.442402  -0.0908654 
1703174814.898422000  0  0  11.8902  0.0651547  -0.167998  0.0250824  nan  nan  nan  nan  nan  nan  -2.48371  -0.283761  0.99721  -0.0771101  0.0910744  -0.0301524  0.144665  0.14305  0.0354868  0  0  0  0.914236  0.880648  0.0078914  0.0109146  0.0144686  -0.0170101  -0.0380971  -0.0268993  -0.00767586  0.0145729  -0.00690578  -0.0207644  -0.307359  0.439676  -0.0653013 
1703174814.903418000  0  0  11.9155  0.0495932  -0.150689  0.0262601  nan  nan  nan  nan  nan  nan  -2.48297  -0.283034  0.99739  -0.0800036  0.0928931  -0.0309654  0.14927  0.147483  0.0355215  0  0  0  0.92765  0.89231  0.0060301  0.010717  0.0143232  -0.0170739  -0.0387053  -0.0289589  -0.00916088  0.0160839  -0.00693414  -0.0205946  -0.291375  0.402887  -0.0821658 
1703174814.908417000  0  0  11.9797  0.0508294  -0.159677  0.0274637  nan  nan  nan  nan  nan  nan  -2.48222  -0.282286  0.99757  -0.081008  0.0931181  -0.0314868  0.153941  0.151973  0.0355475  0  0  0  0.940813  0.903722  0.0044187  0.0105908  0.0143154  -0.017149  -0.0377125  -0.0293096  -0.0135642  0.0157232  -0.00513571  -0.0206643  -0.289876  0.40147  -0.0964692 
1703174814.913900000  0  0  11.8897  0.0792142  -0.16632  0.0250938  nan  nan  nan  nan  nan  nan  -2.48143  -0.281515  0.99775  -0.0820038  0.0953707  -0.0321799  0.158677  0.15652  0.0355661  0  0  0  0.953727  0.914883  0.0030573  0.0105069  0.0143712  -0.0170939  -0.0379581  -0.0283575  -0.00718541  0.0145816  -0.0050406  -0.0203379  -0.337607  0.41462  -0.0705853 
1703174814.918421000  0  0  11.8731  0.0633439  -0.137913  0.025724  nan  nan  nan  nan  nan  nan  -2.48063  -0.280721  0.99792  -0.0851238  0.098471  -0.0331643  0.163478  0.161121  0.0355785  0  0  0  0.966391  0.925795  0.0019459  0.0102538  0.0141605  -0.0171294  -0.0398196  -0.0301683  -0.00558975  0.0163137  -0.00674305  -0.020032  -0.323504  0.373294  -0.0822023 
1703174814.923418000  0  0  11.9452  0.0651073  -0.147364  0.0276842  nan  nan  nan  nan  nan  nan  -2.4798  -0.279903  0.9981  -0.0858251  0.0973836  -0.0335687  0.168341  0.165777  0.0355859  0  0  0  0.978804  0.936457  0.0010845  0.010157  0.0141422  -0.0171435  -0.0373265  -0.0303466  -0.0107253  0.015471  -0.00401353  -0.0202228  -0.317589  0.362158  -0.104566 
1703174814.928454000  0  0  11.9103  0.107409  -0.158221  0.0242733  nan  nan  nan  nan  nan  nan  -2.47895  -0.279063  0.99828  -0.0871001  0.100498  -0.0343986  0.173265  0.170486  0.0355897  0  0  0  0.990968  0.946869  0.0004731  0.00996286  0.0140092  -0.0171668  -0.0391551  -0.0297511  -0.00790337  0.0141576  -0.00491415  -0.019724  -0.393185  0.3958  -0.0676615 
1703174814.933428000  0  0  11.8957  0.0919571  -0.108774  0.0265325  nan  nan  nan  nan  nan  nan  -2.47807  -0.278198  0.99846  -0.0896119  0.10338  -0.0353507  0.17825  0.175245  0.0355911  0  0  0  1.00288  0.957031  0.0001118  0.00974338  0.0139124  -0.0172816  -0.0409154  -0.0311629  -0.00624638  0.014975  -0.00661022  -0.0196646  -0.369456  0.309284  -0.0968033 
1703174814.938867000  0  0  11.967  0.102559  -0.132657  0.0291386  nan  nan  nan  nan  nan  nan  -2.47716  -0.27731  0.99864  -0.0900558  0.10171  -0.0356939  0.183294  0.180055  0.0355913  0  0  0  1.01454  0.966943  -0  0.00962142  0.0139043  -0.017434  -0.0376711  -0.0311782  -0.0110364  0.0134005  -0.00304849  -0.0200695  -0.374076  0.319521  -0.124715 
1703174814.943444000  0  0  11.9507  0.151062  -0.151199  0.0235781  nan  nan  nan  nan  nan  nan  -2.47623  -0.276398  0.99881  -0.0916141  0.105827  -0.0366826  0.188395  0.184914  0.0355913  0  0  0  1.02596  0.976605  -0  0.00934237  0.0136962  -0.0174727  -0.0409817  -0.0309461  -0.0093259  0.0121514  -0.00500177  -0.0193009  -0.463709  0.38175  -0.0640144 
1703174814.948445000  0  0  11.8837  0.120385  -0.0947228  0.0263137  nan  nan  nan  nan  nan  nan  -2.47528  -0.275461  0.99899  -0.0938114  0.108799  -0.0376541  0.193553  0.189821  0.0355913  0  0  0  1.03712  0.986017  -0  0.00919015  0.0136911  -0.0174255  -0.0424811  -0.031722  -0.00429061  0.0127101  -0.00725094  -0.0192924  -0.404357  0.286526  -0.0985364 
1703174814.953474000  0  0  11.9456  0.127755  -0.128798  0.0289403  nan  nan  nan  nan  nan  nan  -2.4743  -0.274499  0.99917  -0.0949381  0.107741  -0.038143  0.198766  0.194774  0.0355913  0  0  0  1.04804  0.995178  -0  0.00901154  0.0135384  -0.0174926  -0.0399877  -0.0322461  -0.00848386  0.0117315  -0.00437484  -0.019594  -0.408901  0.326504  -0.12795 
1703174814.958428000  0  0  11.9348  0.170439  -0.151457  0.0238424  nan  nan  nan  nan  nan  nan  -2.47329  -0.273513  0.99935  -0.0954397  0.10961  -0.0388472  0.204033  0.199772  0.0355913  0  0  0  1.0587  1.00409  -0  0.0088468  0.0134988  -0.0174496  -0.0406304  -0.0313245  -0.0075794  0.00934382  -0.00419351  -0.0189666  -0.472957  0.373006  -0.0713697 
1703174814.963820000  0  0  11.9128  0.143252  -0.1163  0.026901  nan  nan  nan  nan  nan  nan  -2.47226  -0.272502  0.99953  -0.0966402  0.111252  -0.039616  0.209353  0.204815  0.0355913  0  0  0  1.06911  1.01275  -0  0.00878788  0.0135427  -0.0173936  -0.0411831  -0.0315119  -0.00589653  0.00870105  -0.00481484  -0.0191539  -0.407267  0.304768  -0.107596 
1703174814.968444000  0  0  11.9685  0.142444  -0.145573  0.0284287  nan  nan  nan  nan  nan  nan  -2.4712  -0.271465  0.9997  -0.0982371  0.111039  -0.0402585  0.214724  0.2099  0.0355913  0  0  0  1.07928  1.02116  -0  0.00853666  0.0133184  -0.0174586  -0.0397202  -0.0324672  -0.00956035  0.00845502  -0.00279311  -0.0192663  -0.402704  0.344277  -0.125462 
1703174814.973436000  0  0  11.9902  0.165682  -0.157413  0.0248457  nan  nan  nan  nan  nan  nan  -2.47011  -0.270403  0.99988  -0.0991058  0.112265  -0.0409674  0.220145  0.215026  0.0355913  0  0  0  1.08919  1.02933  -0  0.00836554  0.013261  -0.0174574  -0.0400191  -0.0324761  -0.0108852  0.00686934  -0.00223295  -0.0187963  -0.434291  0.363222  -0.0860466 
1703174814.978444000  0  0  11.9746  0.142619  -0.137533  0.0257248  nan  nan  nan  nan  nan  nan  -2.469  -0.269315  1.00006  -0.101009  0.1146  -0.0419147  0.225615  0.220192  0.0355913  0  0  0  1.09885  1.03724  -0  0.00816021  0.0130994  -0.017492  -0.0413512  -0.0331406  -0.00933598  0.00710158  -0.0031764  -0.0186406  -0.38751  0.331448  -0.0989847 
1703174814.983443000  0  0  12.0257  0.140859  -0.153844  0.0268935  nan  nan  nan  nan  nan  nan  -2.46785  -0.268201  1.00024  -0.102007  0.114263  -0.0424988  0.231133  0.225398  0.0355913  0  0  0  1.10827  1.0449  -0  0.00798778  0.0130683  -0.0175768  -0.0399735  -0.0339108  -0.0126865  0.00632915  -0.00109585  -0.0186925  -0.374849  0.342486  -0.113062 
1703174814.988913000  0  0  12.0694  0.152956  -0.178962  0.0254179  nan  nan  nan  nan  nan  nan  -2.46668  -0.267061  1.00042  -0.101789  0.113683  -0.0429243  0.236697  0.230641  0.0355913  0  0  0  1.11743  1.05231  -0  0.00791373  0.0131379  -0.0176197  -0.038399  -0.0332821  -0.0157351  0.00401885  0.00151965  -0.0185766  -0.37421  0.366256  -0.0958941 
1703174814.993439000  0  0  12.028  0.139043  -0.161717  0.0246449  nan  nan  nan  nan  nan  nan  -2.46549  -0.265894  1.00059  -0.104166  0.117317  -0.0440897  0.242307  0.235921  0.0355913  0  0  0  1.12634  1.05947  -0  0.00761194  0.0128789  -0.0176582  -0.0410579  -0.0340166  -0.0121865  0.00486765  -0.000645271  -0.0181558  -0.354141  0.354184  -0.0912393 
1703174814.998446000  0  0  12.0211  0.123944  -0.156881  0.0262732  nan  nan  nan  nan  nan  nan  -2.46426  -0.264701  1.00077  -0.10572  0.117797  -0.044846  0.24796  0.241235  0.0355913  0  0  0  1.13501  1.06639  -0  0.00741844  0.0128337  -0.0177467  -0.0401017  -0.0348876  -0.0113336  0.00504148  0.000304545  -0.018144  -0.323766  0.332888  -0.11187 
1703174815.003442000  0  0  12.1183  0.120361  -0.184524  0.0263889  nan  nan  nan  nan  nan  nan  -2.46301  -0.263482  1.00095  -0.106244  0.117632  -0.0454187  0.253657  0.246584  0.0355913  0  0  0  1.14342  1.07305  -0  0.00722542  0.0126621  -0.0178629  -0.0396874  -0.0352898  -0.0178793  0.0041132  0.00247514  -0.0181527  -0.305404  0.36719  -0.113221 
1703174815.008443000  0  0  12.0213  0.130055  -0.167205  0.0229176  nan  nan  nan  nan  nan  nan  -2.46172  -0.262235  1.00113  -0.107385  0.121881  -0.046543  0.259394  0.251965  0.0355913  0  0  0  1.15159  1.07946  -0  0.00697382  0.0126374  -0.0179199  -0.0425664  -0.0343606  -0.0104146  0.00358553  -7.70957e-05  -0.0175653  -0.320119  0.359415  -0.0766237 
1703174815.013907000  0  0  12.0226  0.0942481  -0.150165  0.0276539  nan  nan  nan  nan  nan  nan  -2.46041  -0.260962  1.00131  -0.108863  0.120532  -0.0471185  0.265172  0.257378  0.0355913  0  0  0  1.1595  1.08562  -0  0.00691007  0.0126766  -0.0179741  -0.039666  -0.0357034  -0.0104058  0.00417755  0.00236539  -0.0179242  -0.250151  0.294779  -0.131892 
1703174815.018435000  0  0  12.1237  0.0993411  -0.174694  0.0278316  nan  nan  nan  nan  nan  nan  -2.45907  -0.259662  1.00148  -0.109393  0.12094  -0.0477737  0.270989  0.262821  0.0355913  0  0  0  1.16716  1.09153  -0  0.00660422  0.0124022  -0.0180958  -0.0399284  -0.0359444  -0.0171468  0.0034846  0.00368784  -0.0179755  -0.2531  0.332162  -0.133509 
1703174815.023435000  0  0  11.9891  0.108835  -0.145503  0.0234993  nan  nan  nan  nan  nan  nan  -2.4577  -0.258334  1.00166  -0.111576  0.124074  -0.0489407  0.276843  0.268293  0.0355913  0  0  0  1.17458  1.09719  -0  0.00638787  0.0123066  -0.0180887  -0.0409438  -0.0359127  -0.00719658  0.00404662  0.00167119  -0.0172648  -0.279922  0.292769  -0.0875662 
1703174815.028465000  0  0  11.9803  0.0657005  -0.123581  0.026952  nan  nan  nan  nan  nan  nan  -2.4563  -0.256979  1.00184  -0.114284  0.123788  -0.0498056  0.282734  0.273793  0.0355913  0  0  0  1.18174  1.10261  -0  0.00620465  0.0121195  -0.018133  -0.0392228  -0.0381534  -0.00627109  0.00610538  0.00262078  -0.0173316  -0.211116  0.234837  -0.130204 
1703174815.033428000  0  0  12.0575  0.096566  -0.154022  0.0237874  nan  nan  nan  nan  nan  nan  -2.45488  -0.255596  1.00202  -0.113323  0.124531  -0.0503329  0.28866  0.279319  0.0355913  0  0  0  1.18865  1.10777  -0  0.00600669  0.012038  -0.0182046  -0.039942  -0.0367262  -0.0115329  0.00367884  0.00357399  -0.0171112  -0.249384  0.289146  -0.0930418 
1703174815.038446000  0  0  12.0158  0.0944419  -0.141485  0.0219335  nan  nan  nan  nan  nan  nan  -2.45342  -0.254185  1.00219  -0.115402  0.126026  -0.0513357  0.29462  0.28487  0.0355913  0  0  0  1.19532  1.11268  -0  0.00580749  0.011854  -0.0182203  -0.0401774  -0.0376264  -0.00822718  0.00431351  0.00319967  -0.0165277  -0.252131  0.26657  -0.0767497 
1703174815.043442000  0  0  12.0236  0.0735818  -0.125174  0.0253977  nan  nan  nan  nan  nan  nan  -2.45193  -0.252747  1.00237  -0.116372  0.126729  -0.0521157  0.300613  0.290445  0.0355913  0  0  0  1.20173  1.11734  -0  0.00560885  0.011737  -0.0182555  -0.0400167  -0.0379247  -0.00852983  0.00453542  0.00325532  -0.016678  -0.209955  0.230955  -0.118525 
1703174815.048443000  0  0  12.0753  0.0995741  -0.137952  0.0228168  nan  nan  nan  nan  nan  nan  -2.45041  -0.251281  1.00255  -0.116065  0.127387  -0.0527327  0.306637  0.296043  0.0355913  0  0  0  1.20789  1.12175  -0  0.00542742  0.0116301  -0.0182888  -0.0404557  -0.0371077  -0.0120324  0.00275491  0.00379768  -0.0163536  -0.245205  0.252113  -0.0899623 
1703174815.053438000  0  0  12.0491  0.0864264  -0.137132  0.0227648  nan  nan  nan  nan  nan  nan  -2.44886  -0.249787  1.00273  -0.118351  0.127884  -0.0536712  0.312691  0.301662  0.0355913  0  0  0  1.21381  1.12592  -0  0.00523029  0.0114325  -0.0183267  -0.039664  -0.0386192  -0.00984509  0.00386126  0.00437924  -0.0159476  -0.229741  0.243665  -0.0942026 
1703174815.058445000  0  0  12.0519  0.0830174  -0.128786  0.0247917  nan  nan  nan  nan  nan  nan  -2.44728  -0.248264  1.00291  -0.119033  0.129448  -0.0545354  0.318775  0.307302  0.0355913  0  0  0  1.21947  1.12983  -0  0.00503577  0.0113138  -0.018338  -0.0407209  -0.0384675  -0.00977155  0.00353094  0.00364925  -0.0160338  -0.218631  0.234166  -0.118665 
1703174815.063891000  0  0  12.0258  0.103173  -0.132963  0.0244318  nan  nan  nan  nan  nan  nan  -2.44568  -0.246714  1.00308  -0.118954  0.128899  -0.0550556  0.324886  0.31296  0.0355913  0  0  0  1.22488  1.13349  -0  0.00500518  0.0113257  -0.0182932  -0.0388425  -0.0375181  -0.00811134  0.00193156  0.0050977  -0.0160147  -0.243449  0.22646  -0.114368 
1703174815.068425000  0  0  12.0698  0.101768  -0.147773  0.0236915  nan  nan  nan  nan  nan  nan  -2.44404  -0.245135  1.00326  -0.121291  0.129235  -0.0560012  0.331023  0.318636  0.0355913  0  0  0  1.23005  1.1369  -0  0.00467966  0.0109948  -0.0183747  -0.0386597  -0.0397295  -0.0107485  0.0029328  0.00596482  -0.0155818  -0.251957  0.24824  -0.110271 
1703174815.073388000  0  0  12.0552  0.107774  -0.140239  0.023808  nan  nan  nan  nan  nan  nan  -2.44237  -0.243527  1.00344  -0.121853  0.130723  -0.0568605  0.337186  0.324329  0.0355913  0  0  0  1.23496  1.14006  -0  0.00450544  0.0108546  -0.0183919  -0.0394962  -0.0392232  -0.00946694  0.00205541  0.00520513  -0.0154509  -0.25474  0.240826  -0.113315 
1703174815.078499000  0  0  12.0385  0.114544  -0.131125  0.0245828  nan  nan  nan  nan  nan  nan  -2.44066  -0.241891  1.00362  -0.12262  0.130422  -0.0575346  0.343372  0.330036  0.0355913  0  0  0  1.23963  1.14298  -0  0.00434476  0.0106944  -0.0184267  -0.0379046  -0.0391209  -0.00818784  0.00136616  0.00624967  -0.0154403  -0.261327  0.209267  -0.123191 
1703174815.083414000  0  0  12.124  0.125999  -0.154497  0.02338  nan  nan  nan  nan  nan  nan  -2.43893  -0.240227  1.0038  -0.123244  0.130511  -0.0582416  0.349582  0.335758  0.0355913  0  0  0  1.24404  1.14564  -0  0.00409723  0.0105164  -0.0185606  -0.0382381  -0.0401248  -0.0138156  0.000537208  0.00755298  -0.015226  -0.276352  0.244388  -0.11064 
1703174815.088908000  0  0  12.0743  0.139225  -0.137461  0.0235951  nan  nan  nan  nan  nan  nan  -2.43717  -0.238534  1.00397  -0.122681  0.132271  -0.059  0.355812  0.341492  0.0355913  0  0  0  1.2482  1.14805  -0  0.00400848  0.0105231  -0.0186575  -0.0391567  -0.038099  -0.0100035  -0.00166982  0.00681835  -0.0152806  -0.279324  0.21631  -0.112689 
1703174815.093439000  0  0  12.0648  0.140846  -0.129215  0.0243703  nan  nan  nan  nan  nan  nan  -2.43537  -0.236812  1.00415  -0.124081  0.132796  -0.0598741  0.362063  0.347238  0.0355913  0  0  0  1.25212  1.15021  -0  0.00366903  0.0101896  -0.0187141  -0.0384697  -0.0384692  -0.00901314  -0.00166818  0.00693688  -0.0151339  -0.282817  0.197265  -0.124211 
1703174815.098445000  0  0  12.1053  0.152503  -0.140901  0.0240209  nan  nan  nan  nan  nan  nan  -2.43355  -0.235061  1.00433  -0.124159  0.133186  -0.0605579  0.368333  0.352994  0.0355913  0  0  0  1.25578  1.15212  -0  0.00338336  0.010126  -0.0188213  -0.0384796  -0.0385235  -0.0115775  -0.00302436  0.00758938  -0.0150617  -0.292212  0.214817  -0.120685 
1703174815.103447000  0  0  12.0797  0.150201  -0.135589  0.0231288  nan  nan  nan  nan  nan  nan  -2.43169  -0.233282  1.00451  -0.124247  0.135041  -0.0614278  0.374621  0.358759  0.0355913  0  0  0  1.25919  1.15378  -0  0.00317653  0.0099465  -0.0188616  -0.0397198  -0.0372501  -0.00948352  -0.00428076  0.00669984  -0.0149291  -0.272821  0.213659  -0.111059 
1703174815.108446000  0  0  12.0506  0.158103  -0.124287  0.0235886  nan  nan  nan  nan  nan  nan  -2.4298  -0.231474  1.00469  -0.124295  0.136031  -0.0621884  0.380925  0.364531  0.0355913  0  0  0  1.26236  1.1552  -0  0.00289752  0.00987383  -0.018947  -0.0395162  -0.0363019  -0.007156  -0.00558998  0.00633393  -0.0149025  -0.274703  0.193635  -0.117165 
1703174815.113859000  0  0  12.1268  0.162308  -0.137576  0.0236231  nan  nan  nan  nan  nan  nan  -2.42788  -0.229637  1.00486  -0.124184  0.134064  -0.0625646  0.387244  0.37031  0.0355913  0  0  0  1.26527  1.15636  -0  0.0028252  0.00987353  -0.0189979  -0.0375334  -0.0371096  -0.0126347  -0.00722078  0.00896546  -0.0148715  -0.264957  0.191856  -0.117973 
1703174815.118443000  0  0  12.1358  0.164219  -0.143001  0.0216873  nan  nan  nan  nan  nan  nan  -2.42593  -0.227771  1.00504  -0.1247  0.135759  -0.0634822  0.393577  0.376095  0.0355913  0  0  0  1.26793  1.15727  -0  0.00248024  0.00955828  -0.0190682  -0.0388665  -0.0366055  -0.0128699  -0.00796455  0.00829474  -0.0144819  -0.260499  0.211205  -0.0983117 
1703174815.123394000  0  0  12.1064  0.162075  -0.12111  0.0207296  nan  nan  nan  nan  nan  nan  -2.42395  -0.225876  1.00522  -0.125047  0.137465  -0.0643819  0.399923  0.381883  0.0355913  0  0  0  1.27035  1.15793  -0  0.00220149  0.00946756  -0.0191434  -0.0397849  -0.0360204  -0.010422  -0.00872638  0.0070086  -0.0141463  -0.247137  0.179061  -0.0903068 
1703174815.128461000  0  0  12.1925  0.133269  -0.138719  0.0234641  nan  nan  nan  nan  nan  nan  -2.42193  -0.223952  1.0054  -0.125848  0.134015  -0.0647028  0.40628  0.387673  0.0355913  0  0  0  1.27251  1.15834  -0  0.00205597  0.00929279  -0.019249  -0.0358623  -0.0379912  -0.0165613  -0.00849499  0.0111254  -0.0142881  -0.188034  0.169458  -0.123004 
1703174815.133440000  0  0  12.1962  0.161588  -0.165117  0.0187797  nan  nan  nan  nan  nan  nan  -2.41988  -0.221999  1.00558  -0.124399  0.137095  -0.0655314  0.412647  0.393466  0.0355913  0  0  0  1.27442  1.15851  -0  0.00177405  0.00917549  -0.0194259  -0.0391714  -0.0352216  -0.0162634  -0.011294  0.00985603  -0.0138267  -0.216554  0.240665  -0.0696246 
1703174815.138822000  0  0  12.0979  0.138439  -0.124779  0.0199025  nan  nan  nan  nan  nan  nan  -2.4178  -0.220017  1.00575  -0.125377  0.138171  -0.066447  0.419024  0.399258  0.0355913  0  0  0  1.27609  1.15842  -0  0.00172788  0.0091736  -0.0193719  -0.0388782  -0.0349928  -0.00926815  -0.0111289  0.00869591  -0.0135572  -0.168818  0.167517  -0.0870009 
1703174815.143390000  0  0  12.2217  0.0958469  -0.145832  0.0254092  nan  nan  nan  nan  nan  nan  -2.41569  -0.218006  1.00593  -0.126805  0.135312  -0.0669331  0.425408  0.405049  0.0355913  0  0  0  1.2775  1.15808  -0  0.00139706  0.00881831  -0.0195141  -0.0360483  -0.0378562  -0.0178169  -0.0096657  0.0122432  -0.0139057  -0.0943222  0.17185  -0.152087 
1703174815.148442000  0  0  12.2269  0.135279  -0.177022  0.0206495  nan  nan  nan  nan  nan  nan  -2.41355  -0.215967  1.00611  -0.12487  0.138021  -0.0676534  0.431798  0.410839  0.0355913  0  0  0  1.27867  1.15749  -0  0.00111346  0.00878841  -0.019604  -0.0389172  -0.0348152  -0.0179048  -0.0126585  0.0112648  -0.0136286  -0.144444  0.249986  -0.0955404 
1703174815.153437000  0  0  12.0965  0.0722677  -0.104978  0.0243078  nan  nan  nan  nan  nan  nan  -2.41137  -0.213898  1.00629  -0.128297  0.138853  -0.0688885  0.438194  0.416624  0.0355913  0  0  0  1.27958  1.15665  -0  0.000921231  0.00859328  -0.0196048  -0.0376459  -0.0370492  -0.00828587  -0.00907476  0.00988912  -0.0135101  -0.050561  0.111332  -0.142997 
1703174815.158443000  0  0  12.1971  0.0699274  -0.145062  0.0267523  nan  nan  nan  nan  nan  nan  -2.40917  -0.2118  1.00647  -0.127368  0.136959  -0.0691687  0.444594  0.422405  0.0355913  0  0  0  1.28024  1.15556  -0  0.000719084  0.00853071  -0.0196984  -0.0360516  -0.0372233  -0.0154715  -0.0100114  0.0127217  -0.0140498  -0.034767  0.164694  -0.16725 
1703174815.163825000  0  0  12.1094  0.124665  -0.174354  0.018417  nan  nan  nan  nan  nan  nan  -2.40693  -0.209674  1.00664  -0.126356  0.139335  -0.0699791  0.450996  0.428179  0.0355913  0  0  0  1.28066  1.15423  -0  0.000627976  0.0085524  -0.0197803  -0.0376024  -0.0344787  -0.00902521  -0.0123944  0.0121899  -0.0132762  -0.124723  0.233623  -0.0716979 
1703174815.168447000  0  0  12.0149  0.0523183  -0.121062  0.0222675  nan  nan  nan  nan  nan  nan  -2.40466  -0.207519  1.00682  -0.129972  0.140311  -0.0712687  0.4574  0.433946  0.0355913  0  0  0  1.28082  1.15264  -0  0.000292466  0.0082103  -0.0197839  -0.0368237  -0.0370588  -0.00186717  -0.00822058  0.0108813  -0.0130637  -0.0176112  0.134405  -0.122707 
1703174815.173438000  0  0  12.1121  0.0651823  -0.157781  0.0228563  nan  nan  nan  nan  nan  nan  -2.40235  -0.205334  1.007  -0.128717  0.138787  -0.0715487  0.463804  0.439705  0.0355913  0  0  0  1.28073  1.1508  -0  5.15315e-05  0.00808187  -0.0199712  -0.0356849  -0.0366406  -0.00861947  -0.00969582  0.0136847  -0.0132881  -0.0282231  0.180888  -0.127411 
1703174815.178426000  0  0  12.0739  0.0983937  -0.166675  0.0167886  nan  nan  nan  nan  nan  nan  -2.40002  -0.203121  1.00718  -0.128663  0.139375  -0.0722704  0.470207  0.445454  0.0355913  0  0  0  1.2804  1.14871  -0  -0.000129965  0.00790594  -0.0199962  -0.0354916  -0.0356182  -0.00585076  -0.0107368  0.0141365  -0.0124757  -0.087461  0.194762  -0.060858 
1703174815.183394000  0  0  11.9865  0.0488019  -0.129155  0.021259  nan  nan  nan  nan  nan  nan  -2.39765  -0.20088  1.00736  -0.130513  0.140414  -0.0733216  0.476607  0.451192  0.0355913  0  0  0  1.27981  1.14637  -0  -0.000398284  0.00778415  -0.0199088  -0.0350416  -0.0366037  0.000427351  -0.00841396  0.0129561  -0.0125221  -0.00784654  0.12789  -0.116547 
1703174815.188865000  0  0  12.0535  0.0799861  -0.152184  0.0228033  nan  nan  nan  nan  nan  nan  -2.39525  -0.19861  1.00753  -0.127379  0.138777  -0.0733231  0.483005  0.456917  0.0355913  0  0  0  1.27897  1.14379  -0  -0.000417553  0.00787544  -0.0199188  -0.0337847  -0.0339795  -0.00482098  -0.0118933  0.0152892  -0.0131426  -0.034686  0.150428  -0.128498 
1703174815.193436000  0  0  12.03  0.0986773  -0.150378  0.0188362  nan  nan  nan  nan  nan  nan  -2.39282  -0.196311  1.00771  -0.128671  0.139236  -0.0742189  0.489397  0.462629  0.0355913  0  0  0  1.27789  1.14095  -0  -0.000777677  0.00751873  -0.0199426  -0.0333795  -0.0345768  -0.00293133  -0.0114535  0.0153807  -0.01239  -0.0798242  0.145502  -0.0876546 
1703174815.198442000  0  0  11.9744  0.079382  -0.129934  0.0213779  nan  nan  nan  nan  nan  nan  -2.39036  -0.193983  1.00789  -0.129365  0.140256  -0.0751038  0.495783  0.468326  0.0355913  0  0  0  1.27655  1.13786  -0  -0.000948903  0.0073544  -0.0199113  -0.033705  -0.0344269  0.00109521  -0.0108823  0.0144916  -0.0124564  -0.0450213  0.111894  -0.118833 
1703174815.203450000  0  0  11.9623  0.0998103  -0.133489  0.0224398  nan  nan  nan  nan  nan  nan  -2.38786  -0.191627  1.00807  -0.128296  0.139551  -0.0755179  0.502162  0.474008  0.0355913  0  0  0  1.27496  1.13452  -0  -0.00111051  0.00719899  -0.0199142  -0.0322875  -0.0327922  0.00171738  -0.0125198  0.0155539  -0.0127373  -0.0699859  0.107296  -0.12881 
