ts fx fy fz tx ty tz exfx exfy exfz extx exty extz xd yd zd rolld pitchd yawd vxd vyd vzd wxd wyd wzd axd ayd azd e_x e_y e_z e_vx e_vy e_vz e_rx e_ry e_rz e_wx e_wy e_wz
1699967711.741199000  0  0  11.9041  0.167417  -0.199737  0.00660921  nan  nan  nan  nan  nan  nan  -1  0  1  0.0275115  -0.0486856  -0.00133922  0  0  0  0  0  0  0  0  0  0.0311402  0.00767251  -0.0268378  -0.00470295  0.0193062  -0.00745397  -0.0380168  0.0419353  -0.00737322  0.0149213  0.0136691  -0.00888291 
1699967711.745202000  0  0  11.8956  0.175167  -0.198669  0.00601811  nan  nan  nan  nan  nan  nan  -1  0  1  0.0280562  -0.0485804  -0.0013628  0  0  0  0  0  0  0  0  0  0.0311206  0.00775114  -0.0268595  -0.00484224  0.0198259  -0.00671214  -0.0385958  0.0418397  -0.00732373  0.0047467  0.0124132  -0.00198903 
1699967711.750224000  0  0  11.9116  0.181102  -0.228117  0.00526302  nan  nan  nan  nan  nan  nan  -1  0  1  0.0277285  -0.0485116  -0.00134497  0  0  0  0  0  0  0  0  0  0.0311706  0.00767127  -0.0268666  -0.00495773  0.0196207  -0.00805651  -0.0382956  0.0425252  -0.00724083  -0.0098852  0.0650026  0.00662053 
1699967711.755201000  0  0  11.9116  0.170571  -0.205434  0.00587736  nan  nan  nan  nan  nan  nan  -1  0  1  0.0281092  -0.0486942  -0.00136857  0  0  0  0  0  0  0  0  0  0.0311502  0.0077668  -0.0269023  -0.00466919  0.0199115  -0.00797465  -0.0384841  0.0425579  -0.00726971  0.012912  0.0193352  -0.000769903 
1699967711.760197000  0  0  11.8756  0.177571  -0.20132  0.00560248  nan  nan  nan  nan  nan  nan  -1  0  1  0.0277526  -0.0492809  -0.00136747  0  0  0  0  0  0  0  0  0  0.0312041  0.00770227  -0.0268754  -0.00420928  0.0194708  -0.00502034  -0.0381407  0.043143  -0.00722177  -0.00424642  0.0057248  0.00218664 
1699967711.765201000  0  0  11.8965  0.183398  -0.22252  0.00525474  nan  nan  nan  nan  nan  nan  -1  0  1  0.0285187  -0.0484516  -0.00138161  0  0  0  0  0  0  0  0  0  0.0311759  0.00780316  -0.0269201  -0.00512613  0.0203263  -0.00671128  -0.0389762  0.042877  -0.00717114  -0.00821465  0.0505712  0.00602711 
1699967711.770212000  0  0  11.9074  0.162566  -0.19481  0.00637079  nan  nan  nan  nan  nan  nan  -1  0  1  0.0277862  -0.0491615  -0.00136581  0  0  0  0  0  0  0  0  0  0.0312551  0.00770756  -0.0269235  -0.00430639  0.0196017  -0.00757239  -0.037808  0.0432746  -0.00727229  0.0227021  -0.00850535  -0.00691202 
1699967711.775207000  0  0  11.8797  0.182603  -0.187638  0.00576135  nan  nan  nan  nan  nan  nan  -1  0  1  0.0271062  -0.0498081  -0.00134988  0  0  0  0  0  0  0  0  0  0.0313173  0.0076314  -0.0269067  -0.0037434  0.0187865  -0.00528347  -0.0374042  0.0436798  -0.00722758  -0.0210875  -0.026578  0.000258913 
1699967711.780198000  0  0  11.9014  0.188555  -0.207329  0.00546162  nan  nan  nan  nan  nan  nan  -1  0  1  0.0280085  -0.0489929  -0.00137203  0  0  0  0  0  0  0  0  0  0.0312919  0.00773049  -0.026951  -0.00464238  0.0198271  -0.00703653  -0.0384667  0.0432537  -0.00717714  -0.0232158  0.0167238  0.00350118 
1699967711.785198000  0  0  11.8955  0.166382  -0.180121  0.00560598  nan  nan  nan  nan  nan  nan  -1  0  1  0.0275165  -0.0493841  -0.00135867  0  0  0  0  0  0  0  0  0  0.0313472  0.00765784  -0.0269298  -0.00428298  0.0193182  -0.00655277  -0.0375798  0.0432217  -0.00717801  0.0129707  -0.0373983  0.00170537 
1699967711.790219000  0  0  11.866  0.200099  -0.172433  0.00566492  nan  nan  nan  nan  nan  nan  -1  0  1  0.0283323  -0.0492799  -0.00139602  0  0  0  0  0  0  0  0  0  0.0313258  0.00775678  -0.0269406  -0.00453128  0.0200841  -0.00408688  -0.0389225  0.0427606  -0.00714635  -0.0421113  -0.0485308  0.00065192 
1699967711.795206000  0  0  11.8776  0.198911  -0.187587  0.00573992  nan  nan  nan  nan  nan  nan  -1  0  1  0.0279064  -0.0491829  -0.00137232  0  0  0  0  0  0  0  0  0  0.0313802  0.00767394  -0.0269329  -0.0047184  0.0197432  -0.00507318  -0.0386212  0.0428411  -0.00714355  -0.0425071  -0.0189635  -0.000313477 
1699967711.800958000  0  0  11.8691  0.17278  -0.167395  0.00627464  nan  nan  nan  nan  nan  nan  -1  0  1  0.0276703  -0.0490671  -0.0013575  0  0  0  0  0  0  0  0  0  0.0314145  0.00764919  -0.0269233  -0.00499761  0.0194594  -0.00434713  -0.0379955  0.0422653  -0.00720508  0.0039991  -0.0540509  -0.00638215 
1699967711.806274000  0  0  11.8755  0.221636  -0.173722  0.00497852  nan  nan  nan  nan  nan  nan  -1  0  1  0.0288211  -0.0485939  -0.00140036  0  0  0  0  0  0  0  0  0  0.0313871  0.00775823  -0.0269501  -0.00552145  0.020757  -0.00486481  -0.039934  0.0416263  -0.00705792  -0.0758784  -0.0355178  0.00834765 
1699967711.811215000  0  0  11.8756  0.207276  -0.186094  0.00481939  nan  nan  nan  nan  nan  nan  -1  0  1  0.0286867  -0.0483254  -0.00138614  0  0  0  0  0  0  0  0  0  0.0314123  0.00770475  -0.0269309  -0.00593242  0.0206997  -0.00492045  -0.0397816  0.0415461  -0.00699917  -0.048561  -0.0100363  0.00974925 
1699967711.816391000  0  0  11.8673  0.184649  -0.158432  0.00527903  nan  nan  nan  nan  nan  nan  -1  0  1  0.0275948  -0.0486118  -0.00134124  0  0  0  0  0  0  0  0  0  0.0314484  0.00763605  -0.0269153  -0.00568516  0.0193844  -0.0042159  -0.0385091  0.0412446  -0.00704508  -0.0150155  -0.0625862  0.00446288 
1699967711.821333000  0  0  11.8777  0.202433  -0.157249  0.00494769  nan  nan  nan  nan  nan  nan  -1  0  1  0.0285299  -0.0482569  -0.0013766  0  0  0  0  0  0  0  0  0  0.0314202  0.0077372  -0.0269433  -0.00603165  0.0204265  -0.00504222  -0.0397751  0.0405743  -0.00695706  -0.0389353  -0.0587861  0.0077245 
1699967711.826253000  0  0  11.8735  0.199901  -0.175217  0.00498578  nan  nan  nan  nan  nan  nan  -1  0  1  0.028154  -0.0482126  -0.00135721  0  0  0  0  0  0  0  0  0  0.0314462  0.00767348  -0.0269155  -0.00617187  0.0200592  -0.004753  -0.0394857  0.0406704  -0.00693402  -0.0365326  -0.0237327  0.00701797 
1699967711.831878000  0  0  11.865  0.183935  -0.158468  0.00555966  nan  nan  nan  nan  nan  nan  -1  -0  1  0.0277665  -0.0481445  -0.00133663  6e-07  -6e-07  6e-07  0  0  0  0  0  0  0.0314477  0.00766113  -0.0268945  -0.00631351  0.0195487  -0.00406621  -0.0389278  0.0402528  -0.00697885  -0.00973516  -0.0533901  0.000292659 
1699967711.836200000  0  0  11.8899  0.19028  -0.153962  0.00570964  nan  nan  nan  nan  nan  nan  -1  -0  1  0.0282831  -0.0480587  -0.00135909  5e-06  -5e-06  5e-06  0  0  0  0  0  0  0.0314235  0.00774696  -0.0269293  -0.00623834  0.020117  -0.00606602  -0.0395601  0.0398495  -0.00697886  -0.0166066  -0.0586918  -0.00158194 
1699967711.841754000  0  0  11.8728  0.192139  -0.177984  0.00501498  nan  nan  nan  nan  nan  nan  -1  -1e-07  1  0.0280969  -0.0479925  -0.00134828  1.69e-05  -1.69e-05  1.69e-05  0  0  0  0  0  0  0.0314598  0.00768696  -0.0269231  -0.00649809  0.0199517  -0.00466404  -0.0394847  0.0400154  -0.00691043  -0.0210188  -0.0121732  0.00641713 
1699967711.846186000  0  0  11.893  0.177918  -0.168076  0.0054346  nan  nan  nan  nan  nan  nan  -1  -2e-07  1  0.0285694  -0.0477025  -0.00136259  4e-05  -4e-05  4e-05  0  0  0  0  0  0  0.0314318  0.00777507  -0.0269573  -0.00671156  0.0204432  -0.00626544  -0.0397148  0.0395378  -0.00692478  0.00953896  -0.0275964  0.00131524 
1699967711.851186000  0  0  11.8942  0.17991  -0.163407  0.00578896  nan  nan  nan  nan  nan  nan  -1  -5e-07  1  0.0278994  -0.0482426  -0.00134557  7.81e-05  -7.81e-05  7.81e-05  0  0  0  0  0  0  0.0314781  0.00770856  -0.0269435  -0.00609566  0.0197078  -0.00637316  -0.0391009  0.0397729  -0.00699157  -9.20527e-05  -0.0390967  -0.00244634 
1699967711.856195000  0  0  11.8901  0.180516  -0.189598  0.00557823  nan  nan  nan  nan  nan  nan  -0.999999  -1e-06  1  0.0286459  -0.0476596  -0.0013647  0.000135  -0.000135  0.000135  0  0  0  0  0  0  0.0314426  0.00780969  -0.0269683  -0.00680711  0.0204583  -0.00600636  -0.0397952  0.0395949  -0.00697561  0.00508384  0.0149222  2.82451e-05 
1699967711.861315000  0  0  11.9052  0.156633  -0.177673  0.00595227  nan  nan  nan  nan  nan  nan  -0.999998  -1.9e-06  1  0.0280977  -0.047802  -0.00134237  0.0002141  -0.0002144  0.0002134  0  0  0  0  0  0  0.0314769  0.00774136  -0.0269574  -0.00661813  0.0199319  -0.00725827  -0.0387895  0.0395671  -0.00707544  0.0435974  -0.00867032  -0.00364892 
1699967711.866687000  0  0  11.9012  0.170566  -0.179581  0.00569385  nan  nan  nan  nan  nan  nan  -0.999997  -3.2e-06  1  0.0278476  -0.0480261  -0.00133644  0.0003149  -0.00032  0.0003113  0  0  0  0  0  0  0.031496  0.00772991  -0.0269476  -0.0063855  0.0196139  -0.00694438  -0.0386557  0.0397427  -0.00706741  0.0144997  -0.00647134  -0.000499028 
1699967711.871312000  0  0  11.9067  0.173221  -0.200362  0.00536046  nan  nan  nan  nan  nan  nan  -0.999995  -5.1e-06  1.00001  0.0286943  -0.0472339  -0.00135421  0.0004338  -0.0004556  0.0004249  0  0  0  0  0  0  0.0314606  0.00782448  -0.0269873  -0.00732361  0.0205431  -0.00735137  -0.03944  0.0394137  -0.00702366  0.0164058  0.038119  0.00323089 
1699967711.876799000  0  0  11.9243  0.155035  -0.187784  0.00582259  nan  nan  nan  nan  nan  nan  -0.999992  -7.8e-06  1.00001  0.0276057  -0.0478153  -0.00131861  0.0005669  -0.000625  0.0005504  0  0  0  0  0  0  0.0315449  0.00769959  -0.0269912  -0.00665257  0.0194322  -0.00876537  -0.0378662  0.0398931  -0.00711731  0.0382991  0.00855053  -0.00160926 
1699967711.881142000  0  0  11.9138  0.178524  -0.188333  0.00531096  nan  nan  nan  nan  nan  nan  -0.999989  -1.14e-05  1.00001  0.028097  -0.0477382  -0.00133974  0.0007105  -0.0008319  0.0006841  0  0  0  0  0  0  0.0315173  0.00778393  -0.027015  -0.00674619  0.0198637  -0.00786442  -0.0386243  0.0398631  -0.00704481  -0.00170476  0.00992412  0.00406102 
1699967711.886271000  0  0  11.907  0.17068  -0.205336  0.00539049  nan  nan  nan  nan  nan  nan  -0.999985  -1.62e-05  1.00001  0.0279018  -0.0476072  -0.00132657  0.000861  -0.00108  0.0008222  0  0  0  0  0  0  0.0315801  0.00767079  -0.0269955  -0.00709625  0.0198362  -0.00734274  -0.0382664  0.0401798  -0.00706166  0.0106915  0.0410186  0.00323553 
1699967711.891174000  0  0  11.9335  0.15053  -0.197067  0.00632192  nan  nan  nan  nan  nan  nan  -0.999981  -2.23e-05  1.00002  0.0270731  -0.0482319  -0.0013039  0.0010145  -0.0013731  0.000961  0  0  0  0  0  0  0.0316615  0.0075885  -0.0270082  -0.00631036  0.0190008  -0.00950003  -0.0369267  0.040789  -0.00718475  0.0386663  0.0188756  -0.00717643 
1699967711.896243000  0  0  11.8975  0.184919  -0.188179  0.00596402  nan  nan  nan  nan  nan  nan  -0.999975  -3e-05  1.00002  0.0278854  -0.0483126  -0.00134524  0.0011672  -0.001715  0.0010968  0  0  0  0  0  0  0.0316315  0.00768529  -0.0270194  -0.00632629  0.0197511  -0.00648876  -0.0381731  0.0407244  -0.00714676  -0.0186449  0.00169451  -0.00308268 
1699967711.901220000  0  0  11.8942  0.19001  -0.206378  0.00564955  nan  nan  nan  nan  nan  nan  -0.999969  -3.96e-05  1.00003  0.0284166  -0.0481379  -0.00136605  0.0013155  -0.0021094  0.0012257  0  0  0  0  0  0  0.0316656  0.00763892  -0.0270148  -0.00664744  0.0205472  -0.00625434  -0.0388114  0.0409643  -0.00711413  -0.0229553  0.035885  0.000521912 
1699967711.906224000  0  0  11.9104  0.181229  -0.197787  0.00639251  nan  nan  nan  nan  nan  nan  -0.999962  -5.12e-05  1.00004  0.0293519  -0.0476795  -0.00139796  0.0014556  -0.0025587  0.0013441  0  0  0  0  0  0  0.0316312  0.0077425  -0.0270629  -0.00708874  0.0216068  -0.00751303  -0.0395418  0.0405417  -0.00719593  0.00132705  0.02259  -0.00794714 
1699967711.911220000  0  0  11.8881  0.198569  -0.180231  0.00633044  nan  nan  nan  nan  nan  nan  -0.999954  -6.52e-05  1.00004  0.0292644  -0.0479994  -0.00140363  0.0015837  -0.0030604  0.0014482  0  0  0  0  0  0  0.0316659  0.00769486  -0.02703  -0.00686107  0.0215235  -0.00571725  -0.0398148  0.0405935  -0.00721689  -0.0308416  -0.0129977  -0.00696167 
1699967711.916809000  0  0  11.8738  0.205872  -0.191377  0.00562561  nan  nan  nan  nan  nan  nan  -0.999946  -8.19e-05  1.00005  0.0294437  -0.0481987  -0.00141901  0.0016961  -0.0036108  0.0015342  0  0  0  0  0  0  0.0317225  0.00761351  -0.0269982  -0.00679752  0.0218947  -0.00461263  -0.0402769  0.0409526  -0.00717202  -0.0411966  0.00599044  0.00140005 
1699967711.921221000  0  0  11.8645  0.20444  -0.189392  0.00558924  nan  nan  nan  nan  nan  nan  -0.999938  -0.0001014  1.00006  0.0306588  -0.0478123  -0.00146707  0.001789  -0.0042061  0.0015988  0  0  0  0  0  0  0.0316906  0.007715  -0.0270178  -0.00728186  0.0232416  -0.00381038  -0.0415051  0.0405989  -0.00713246  -0.0270326  0.00527345  0.00145905 
1699967711.926832000  0  0  11.8678  0.214281  -0.179183  0.00560658  nan  nan  nan  nan  nan  nan  -0.999928  -0.000124  1.00007  0.0303753  -0.0483149  -0.00147056  0.0018593  -0.0048425  0.0016434  0  0  0  0  0  0  0.0317415  0.00766129  -0.0269927  -0.0067131  0.0229975  -0.00414495  -0.0416029  0.0408839  -0.00712363  -0.0458157  -0.0177663  0.00115408 
1699967711.931223000  0  0  11.8751  0.219234  -0.17896  0.00516846  nan  nan  nan  nan  nan  nan  -0.999919  -0.0001499  1.00007  0.0318992  -0.0477679  -0.0015292  0.0019086  -0.0055164  0.0016716  0  0  0  0  0  0  0.0317079  0.00777243  -0.0270093  -0.00731568  0.0247876  -0.00474082  -0.043281  0.0402991  -0.00703338  -0.0402823  -0.0128318  0.00572811 
1699967711.936240000  0  0  11.8544  0.20912  -0.180322  0.00553492  nan  nan  nan  nan  nan  nan  -0.999909  -0.0001792  1.00008  0.0324294  -0.047754  -0.00155729  0.0019405  -0.0062239  0.0016872  0  0  0  0  0  0  0.0317316  0.00775891  -0.0269842  -0.00749446  0.0254425  -0.00306864  -0.0437155  0.0402717  -0.00704894  -0.0160576  -0.00985609  0.00130287 
1699967711.941223000  0  0  11.8689  0.220782  -0.172527  0.0054124  nan  nan  nan  nan  nan  nan  -0.9999  -0.0002122  1.00009  0.0325539  -0.0480748  -0.00157767  0.0019589  -0.0069612  0.0016939  0  0  0  0  0  0  0.0317574  0.00777116  -0.0269859  -0.00704949  0.0256307  -0.00427351  -0.0441171  0.0403608  -0.00699251  -0.0356864  -0.0262651  0.00227007 
1699967711.946221000  0  0  11.8717  0.224935  -0.174912  0.00557796  nan  nan  nan  nan  nan  nan  -0.99989  -0.0002489  1.0001  0.0340087  -0.0475809  -0.00163598  0.0019674  -0.0077248  0.0016954  0  0  0  0  0  0  0.031719  0.00790431  -0.0270089  -0.00759503  0.0272659  -0.0044845  -0.0456986  0.0398287  -0.00695949  -0.0294422  -0.0165998  -0.00012954 
1699967711.951215000  0  0  11.878  0.212668  -0.179565  0.00626216  nan  nan  nan  nan  nan  nan  -0.99988  -0.0002895  1.00011  0.0343438  -0.0476008  -0.00165882  0.0019699  -0.0085107  0.0016955  0  0  0  0  0  0  0.0317568  0.00788482  -0.0269952  -0.00761761  0.0277749  -0.00503615  -0.0458778  0.0398749  -0.00703692  -0.00325957  -0.00771831  -0.00790778 
1699967711.956201000  0  0  11.889  0.223184  -0.17385  0.00646936  nan  nan  nan  nan  nan  nan  -0.99987  -0.000334  1.00012  0.035375  -0.0475858  -0.00171492  0.0019701  -0.0093153  0.0016955  0  0  0  0  0  0  0.0317224  0.00802293  -0.0270263  -0.00749715  0.0288726  -0.00589954  -0.0470286  0.0396999  -0.00706564  -0.0137053  -0.0175389  -0.0102106 
1699967711.961193000  0  0  11.8823  0.216814  -0.173949  0.00625203  nan  nan  nan  nan  nan  nan  -0.99986  -0.0003826  1.00013  0.0356131  -0.0476917  -0.00173903  0.0019701  -0.0101348  0.0016955  0  0  0  0  0  0  0.0317433  0.00801844  -0.0269985  -0.00743752  0.0291697  -0.00539585  -0.0471755  0.0397336  -0.00706936  0.0003855  -0.0176499  -0.00745672 
1699967711.966191000  0  0  11.9063  0.193308  -0.183472  0.00653397  nan  nan  nan  nan  nan  nan  -0.99985  -0.0004354  1.00013  0.0354936  -0.0475839  -0.00174009  0.0019701  -0.0109655  0.0016955  0  0  0  0  0  0  0.0318071  0.00794078  -0.0269821  -0.0075962  0.0292777  -0.00741128  -0.0466021  0.0397445  -0.00717362  0.0421238  0.00129427  -0.00993848 
1699967711.971192000  0  0  11.9076  0.205025  -0.175701  0.00611148  nan  nan  nan  nan  nan  nan  -0.999841  -0.0004923  1.00014  0.0364092  -0.0476989  -0.00180028  0.0019701  -0.0118035  0.0016955  0  0  0  0  0  0  0.0317753  0.0080852  -0.0270149  -0.00736084  0.0301726  -0.00745422  -0.0474635  0.0397062  -0.00712567  0.0266145  -0.0138953  -0.00513676 
1699967711.976200000  0  0  11.8846  0.201167  -0.179432  0.00640424  nan  nan  nan  nan  nan  nan  -0.999831  -0.0005534  1.00015  0.0367372  -0.048152  -0.00184708  0.0019701  -0.0126452  0.0016955  0  0  0  0  0  0  0.0318092  0.00810225  -0.0269861  -0.00695663  0.0304723  -0.00558072  -0.0474701  0.0401067  -0.00715022  0.0343921  -0.0101177  -0.00855079 
1699967711.981196000  0  0  11.9257  0.185116  -0.202181  0.0068406  nan  nan  nan  nan  nan  nan  -0.999821  -0.0006188  1.00016  0.0381055  -0.0473151  -0.00189796  0.0019701  -0.0134869  0.0016955  0  0  0  0  0  0  0.0317687  0.00826039  -0.0270447  -0.00775161  0.0321036  -0.0088912  -0.0482141  0.0397634  -0.00723595  0.0733379  0.038539  -0.0131479 
1699967711.986191000  0  0  11.9062  0.190444  -0.189123  0.00698713  nan  nan  nan  nan  nan  nan  -0.999811  -0.0006883  1.00017  0.0375267  -0.0480783  -0.00191837  0.0019701  -0.0143246  0.0016955  0  0  0  0  0  0  0.03181  0.00823123  -0.027018  -0.00693595  0.0313154  -0.00729596  -0.0474449  0.0403999  -0.00731329  0.0556051  0.00656632  -0.0142062 
1699967711.991193000  0  0  11.8968  0.190232  -0.190132  0.00675084  nan  nan  nan  nan  nan  nan  -0.999801  -0.000762  1.00018  0.03747  -0.0486174  -0.00195763  0.0019701  -0.0151548  0.0016955  0  0  0  0  0  0  0.031855  0.00819379  -0.0269894  -0.00637094  0.0312812  -0.00656118  -0.047126  0.0409392  -0.00733972  0.0530949  0.00362274  -0.0109883 
1699967711.996197000  0  0  11.9425  0.174883  -0.214924  0.00660886  nan  nan  nan  nan  nan  nan  -0.999791  -0.0008398  1.00018  0.0386344  -0.0479582  -0.00201365  0.0019701  -0.0159736  0.0016955  0  0  0  0  0  0  0.031819  0.00835468  -0.0270445  -0.00691457  0.0326595  -0.0102544  -0.0476053  0.0408649  -0.00736517  0.0882028  0.0538903  -0.00895911 
1699967712.001192000  0  0  11.8949  0.177612  -0.198184  0.00681701  nan  nan  nan  nan  nan  nan  -0.999781  -0.0009217  1.00019  0.0385265  -0.0485285  -0.00205843  0.0019701  -0.0167773  0.0016955  0  0  0  0  0  0  0.0318442  0.00836855  -0.0269983  -0.00646837  0.0322776  -0.00636567  -0.0471814  0.0412949  -0.00742279  0.0788456  0.0164542  -0.0109848 
1699967712.006196000  0  0  11.8806  0.176478  -0.188945  0.00715661  nan  nan  nan  nan  nan  nan  -0.999772  -0.0010076  1.0002  0.0398808  -0.0483628  -0.00214891  0.0019701  -0.0175622  0.0016955  0  0  0  0  0  0  0.0318118  0.00853515  -0.0270221  -0.00668564  0.0336323  -0.00510833  -0.0480417  0.0409842  -0.00746121  0.0890277  0.000835738  -0.0148455 
1699967712.011190000  0  0  11.9234  0.166385  -0.214743  0.00697988  nan  nan  nan  nan  nan  nan  -0.999762  -0.0010973  1.00021  0.0395498  -0.0484728  -0.00217224  0.0019701  -0.0183245  0.0016955  0  0  0  0  0  0  0.0318597  0.00851383  -0.0270269  -0.00641607  0.0334271  -0.00864921  -0.0471  0.0416258  -0.00752271  0.10055  0.0465296  -0.0120214 
1699967712.016198000  0  0  11.8819  0.165967  -0.207055  0.00705199  nan  nan  nan  nan  nan  nan  -0.999752  -0.0011908  1.00022  0.040059  -0.0486915  -0.0022446  0.0019701  -0.0190604  0.0016955  0  0  0  0  0  0  0.0318786  0.0085894  -0.0270033  -0.00638855  0.0337453  -0.00522122  -0.0471049  0.0418945  -0.00754317  0.10143  0.0286813  -0.0127182 
1699967712.021192000  0  0  11.8715  0.178697  -0.186032  0.00692549  nan  nan  nan  nan  nan  nan  -0.999742  -0.0012879  1.00023  0.040997  -0.048771  -0.00233659  0.0019701  -0.0197662  0.0016955  0  0  0  0  0  0  0.0318493  0.00875852  -0.0270256  -0.00626877  0.0345568  -0.00428309  -0.0477421  0.0416287  -0.00752113  0.0818327  -0.0109193  -0.0113573 
1699967712.026192000  0  0  11.9044  0.182788  -0.208321  0.00636976  nan  nan  nan  nan  nan  nan  -0.999732  -0.0013884  1.00024  0.0416747  -0.0484425  -0.00240321  0.0019701  -0.0204382  0.0016955  0  0  0  0  0  0  0.0318581  0.00883582  -0.0270386  -0.00653852  0.0354301  -0.00700836  -0.0480828  0.0417012  -0.00747083  0.0767865  0.0329915  -0.00491367 
1699967712.031194000  0  0  11.887  0.18833  -0.204087  0.00619503  nan  nan  nan  nan  nan  nan  -0.999722  -0.0014922  1.00024  0.0425112  -0.0481683  -0.00248383  0.0019701  -0.0210726  0.0016955  0  0  0  0  0  0  0.0318238  0.00901156  -0.0270486  -0.00691232  0.0360619  -0.00553363  -0.0485987  0.0415496  -0.00741937  0.0704491  0.025917  -0.00324409 
1699967712.036199000  0  0  11.8649  0.197971  -0.17759  0.00643754  nan  nan  nan  nan  nan  nan  -0.999712  -0.001599  1.00025  0.042861  -0.0484472  -0.00256905  0.0019701  -0.0216656  0.0016955  0  0  0  0  0  0  0.0318371  0.00908879  -0.0270154  -0.00668786  0.0362414  -0.0037357  -0.0487836  0.0413491  -0.0073829  0.0528676  -0.0252307  -0.00664022 
1699967712.041194000  0  0  11.883  0.193205  -0.189743  0.00676814  nan  nan  nan  nan  nan  nan  -0.999703  -0.0017087  1.00026  0.0434075  -0.0482344  -0.00264744  0.0019701  -0.0222136  0.0016955  0  0  0  0  0  0  0.0318531  0.00915487  -0.0270083  -0.00690127  0.0368992  -0.00525101  -0.0489605  0.0412462  -0.00740259  0.0640255  2.16026e-05  -0.0105759 
1699967712.046341000  0  0  11.8692  0.20061  -0.18332  0.00736767  nan  nan  nan  nan  nan  nan  -0.999693  -0.0018211  1.00027  0.0442617  -0.0477851  -0.00273503  0.0019701  -0.0227126  0.0016955  0  0  0  0  0  0  0.0318149  0.00934057  -0.0270258  -0.00747671  0.0375442  -0.00405717  -0.0495858  0.0407524  -0.00745251  0.0549704  -0.0082825  -0.0175709 
1699967712.051193000  0  0  11.8392  0.20358  -0.157989  0.00778428  nan  nan  nan  nan  nan  nan  -0.999683  -0.0019358  1.00028  0.0442088  -0.0481348  -0.00281934  0.0019701  -0.0231591  0.0016955  0  0  0  0  0  0  0.0318283  0.00939195  -0.0269686  -0.00720317  0.037205  -0.0016379  -0.0493482  0.0405334  -0.00749827  0.046844  -0.0569299  -0.0223208 
1699967712.056201000  0  0  11.8676  0.206448  -0.169699  0.00725821  nan  nan  nan  nan  nan  nan  -0.999673  -0.0020526  1.00029  0.0455131  -0.047487  -0.00292936  0.0019701  -0.0235507  0.0016955  0  0  0  0  0  0  0.0317888  0.00958587  -0.0270035  -0.00780731  0.0386325  -0.00393661  -0.0503686  0.0398882  -0.00745315  0.0504964  -0.0275744  -0.0161961 
1699967712.061192000  0  0  11.8682  0.205863  -0.184788  0.00631204  nan  nan  nan  nan  nan  nan  -0.999663  -0.0021712  1.0003  0.0454229  -0.0473723  -0.00300186  0.0019701  -0.0238899  0.0016955  0  0  0  0  0  0  0.0318109  0.00963597  -0.0269715  -0.00800108  0.0384  -0.00404748  -0.0500165  0.0399791  -0.00733396  0.0484265  0.00176795  -0.00556093 
1699967712.066193000  0  0  11.8208  0.213053  -0.152435  0.00590591  nan  nan  nan  nan  nan  nan  -0.999653  -0.0022914  1.0003  0.0459078  -0.0477428  -0.00312947  0.0019701  -0.0241806  0.0016955  0  0  0  0  0  0  0.0317765  0.00982259  -0.0269479  -0.00768029  0.0383746  -0.000108725  -0.050387  0.0396756  -0.00719595  0.0374535  -0.0601448  -0.0018644 
1699967712.071192000  0  0  11.8491  0.201729  -0.177417  0.0053912  nan  nan  nan  nan  nan  nan  -0.999643  -0.0024129  1.00031  0.0460622  -0.0474555  -0.00321693  0.0019701  -0.0244265  0.0016955  0  0  0  0  0  0  0.0318057  0.00987241  -0.0269314  -0.00796802  0.0386064  -0.00249544  -0.0501167  0.0395693  -0.00707252  0.0576154  -0.00920225  0.00333524 
1699967712.076199000  0  0  11.8674  0.198788  -0.197142  0.00504071  nan  nan  nan  nan  nan  nan  -0.999634  -0.0025356  1.00032  0.0455035  -0.0473376  -0.003284  0.0019701  -0.0246313  0.0016955  0  0  0  0  0  0  0.0318338  0.00990738  -0.0269125  -0.00808773  0.0378792  -0.00406144  -0.0492807  0.0398389  -0.00694441  0.0558064  0.0277653  0.0064353 
1699967712.081194000  0  0  11.7916  0.19928  -0.157552  0.00611066  nan  nan  nan  nan  nan  nan  -0.999624  -0.0026592  1.00033  0.046163  -0.0477825  -0.00344071  0.0019701  -0.0247989  0.0016955  0  0  0  0  0  0  0.0317984  0.0100938  -0.026875  -0.00781558  0.0379361  0.00222026  -0.0496385  0.0395656  -0.00691201  0.0581144  -0.048899  -0.00726317 
1699967712.086192000  0  0  11.8361  0.185231  -0.179425  0.00640609  nan  nan  nan  nan  nan  nan  -0.999614  -0.0027835  1.00034  0.0457943  -0.0474348  -0.00351795  0.0019701  -0.0249328  0.0016955  0  0  0  0  0  0  0.0318058  0.0101269  -0.0268488  -0.00805134  0.0375985  -0.00152269  -0.0487537  0.0394277  -0.00691007  0.0780726  -0.00388531  -0.0109754 
1699967712.091267000  0  0  11.8601  0.175675  -0.194539  0.00612962  nan  nan  nan  nan  nan  nan  -0.999604  -0.0029085  1.00035  0.046053  -0.0467434  -0.00361531  0.0019701  -0.025037  0.0016955  0  0  0  0  0  0  0.0317612  0.0103136  -0.0268736  -0.00873111  0.0376424  -0.00346645  -0.0484358  0.039137  -0.00684363  0.094259  0.0290188  -0.00818401 
1699967712.096199000  0  0  11.7776  0.163903  -0.164797  0.00675793  nan  nan  nan  nan  nan  nan  -0.999594  -0.0030339  1.00035  0.0453409  -0.0476303  -0.00374506  0.0019701  -0.0251151  0.0016955  0  0  0  0  0  0  0.0317935  0.0103159  -0.0267599  -0.00807012  0.0362675  0.00323577  -0.0470724  0.0394325  -0.00681984  0.10526  -0.033185  -0.0162757 
1699967712.101194000  0  0  11.8209  0.159932  -0.186945  0.00671534  nan  nan  nan  nan  nan  nan  -0.999584  -0.0031596  1.00036  0.0443572  -0.0476383  -0.00382758  0.0019701  -0.0251709  0.0016955  0  0  0  0  0  0  0.0318179  0.0102807  -0.0267301  -0.00788467  0.0352618  -0.00042353  -0.0455487  0.0397287  -0.00679148  0.0991848  0.00838625  -0.0160269 
1699967712.106196000  0  0  11.8495  0.149697  -0.201893  0.0073889  nan  nan  nan  nan  nan  nan  -0.999575  -0.0032855  1.00037  0.0446233  -0.0470638  -0.00394986  0.0019701  -0.0252082  0.0016955  0  0  0  0  0  0  0.0317763  0.0104565  -0.0267529  -0.00838998  0.0353564  -0.00275071  -0.0451486  0.039584  -0.00684386  0.115974  0.0396127  -0.0239226 
1699967712.111193000  0  0  11.7945  0.138601  -0.175858  0.00823867  nan  nan  nan  nan  nan  nan  -0.999565  -0.0034116  1.00038  0.0440176  -0.0477048  -0.00409091  0.0019701  -0.0252306  0.0016955  0  0  0  0  0  0  0.0317922  0.0104928  -0.0266915  -0.00787095  0.034194  0.00175823  -0.0438164  0.0398141  -0.00693109  0.125908  -0.0145747  -0.0336724 
1699967712.116200000  0  0  11.8434  0.152688  -0.193354  0.00731193  nan  nan  nan  nan  nan  nan  -0.999555  -0.0035378  1.00039  0.0434581  -0.0476125  -0.00420787  0.0019701  -0.025242  0.0016955  0  0  0  0  0  0  0.0318042  0.0105302  -0.0266906  -0.00775544  0.0336039  -0.00231471  -0.0429754  0.0399751  -0.00685253  0.0899973  0.0189379  -0.0228739 
1699967712.121192000  0  0  11.8637  0.146945  -0.21491  0.00650162  nan  nan  nan  nan  nan  nan  -0.999545  -0.003664  1.0004  0.0439701  -0.0469424  -0.00435673  0.0019701  -0.0252461  0.0016955  0  0  0  0  0  0  0.0317605  0.010701  -0.0267121  -0.00842349  0.033992  -0.00396875  -0.0429314  0.0399252  -0.00672959  0.101079  0.0625089  -0.0139743 
1699967712.126192000  0  0  11.817  0.139358  -0.187506  0.00608192  nan  nan  nan  nan  nan  nan  -0.999535  -0.0037903  1.00041  0.0429748  -0.047461  -0.00449242  0.0019701  -0.0252466  0.0016955  0  0  0  0  0  0  0.0317838  0.0106979  -0.0266535  -0.00803811  0.0324489  -0.000164125  -0.0413639  0.0401545  -0.00660799  0.101832  0.00559168  -0.00994409 
1699967712.131192000  0  0  11.8427  0.154951  -0.188956  0.00543209  nan  nan  nan  nan  nan  nan  -0.999525  -0.0039165  1.00041  0.0434639  -0.0470388  -0.00466372  0.0019701  -0.0252462  0.0016955  0  0  0  0  0  0  0.0317421  0.0108637  -0.0266667  -0.00835385  0.0328382  -0.00227022  -0.0416512  0.0397999  -0.00641991  0.0732897  0.0117527  -0.00370204 
1699967712.136198000  0  0  11.8541  0.145863  -0.204115  0.00506211  nan  nan  nan  nan  nan  nan  -0.999515  -0.0040427  1.00042  0.043055  -0.0468778  -0.00481023  0.0019701  -0.0252424  0.0016955  0  0  0  0  0  0  0.0317539  0.0108765  -0.0266552  -0.00852729  0.032316  -0.00323937  -0.0407361  0.0400437  -0.0062464  0.0830452  0.0398277  -0.00081241 
1699967712.141192000  0  0  11.8178  0.14367  -0.177656  0.00544569  nan  nan  nan  nan  nan  nan  -0.999506  -0.0041689  1.00043  0.0423524  -0.0469133  -0.00495765  0.0019701  -0.0252316  0.0016955  0  0  0  0  0  0  0.0317609  0.0109005  -0.0266179  -0.00868409  0.0311539  -0.000264508  -0.0396395  0.0397618  -0.00614728  0.0773437  -0.0104961  -0.00659831 
1699967712.146190000  0  0  11.8294  0.158257  -0.16814  0.00512781  nan  nan  nan  nan  nan  nan  -0.999496  -0.004295  1.00044  0.0427577  -0.046694  -0.00515252  0.0019701  -0.02521  0.0016955  0  0  0  0  0  0  0.0317187  0.011058  -0.0266318  -0.00880522  0.0313808  -0.00119597  -0.0399363  0.0392887  -0.00596228  0.0508997  -0.0251766  -0.00447482 
1699967712.151190000  0  0  11.8625  0.166273  -0.188767  0.00493355  nan  nan  nan  nan  nan  nan  -0.999486  -0.004421  1.00045  0.0436192  -0.0459572  -0.00535208  0.0019701  -0.0251737  0.0016955  0  0  0  0  0  0  0.0316706  0.0112225  -0.0266632  -0.00948086  0.0323014  -0.00389394  -0.0406453  0.0389265  -0.00578582  0.0413911  0.0194103  -0.00381113 
1699967712.156201000  0  0  11.8352  0.172709  -0.173782  0.00527441  nan  nan  nan  nan  nan  nan  -0.999476  -0.0045467  1.00046  0.0425382  -0.046177  -0.00550937  0.0019701  -0.0251192  0.0016955  0  0  0  0  0  0  0.0316864  0.0112063  -0.0266323  -0.00936551  0.03077  -0.00168227  -0.0395636  0.0389594  -0.0056797  0.0185665  -0.0108618  -0.00913302 
1699967712.161191000  0  0  11.8231  0.180594  -0.155412  0.00581706  nan  nan  nan  nan  nan  nan  -0.999466  -0.0046722  1.00046  0.04219  -0.0463794  -0.00570571  0.0019701  -0.0250426  0.0016955  0  0  0  0  0  0  0.0317044  0.0112079  -0.0266114  -0.00919407  0.0302372  -0.000704727  -0.0392995  0.0387122  -0.00559489  0.000366652  -0.0453276  -0.0167644 
1699967712.166192000  0  0  11.8586  0.184584  -0.184857  0.00505674  nan  nan  nan  nan  nan  nan  -0.999456  -0.0047971  1.00047  0.0418266  -0.0458779  -0.00587796  0.0019701  -0.0249402  0.0016955  0  0  0  0  0  0  0.0317138  0.011209  -0.0266267  -0.00968492  0.0299136  -0.00365124  -0.0389989  0.0386433  -0.00540237  -0.0103784  0.0141954  -0.00918553 
1699967712.171191000  0  0  11.8227  0.192725  -0.166589  0.00500921  nan  nan  nan  nan  nan  nan  -0.999446  -0.0049215  1.00048  0.0419221  -0.0458176  -0.00609622  0.0019701  -0.0248082  0.0016955  0  0  0  0  0  0  0.0316671  0.0113536  -0.0266156  -0.00983198  0.0295388  -0.000680228  -0.0392986  0.0383337  -0.00523139  -0.0239028  -0.019493  -0.0103013 
1699967712.176198000  0  0  11.7997  0.192686  -0.149588  0.00508282  nan  nan  nan  nan  nan  nan  -0.999437  -0.0050451  1.00049  0.0413792  -0.0459435  -0.00629922  0.0019701  -0.0246429  0.0016955  0  0  0  0  0  0  0.0316769  0.0113513  -0.0265852  -0.00980028  0.0287105  0.00118205  -0.0388842  0.0379964  -0.00508196  -0.0276383  -0.0503899  -0.0127157 
1699967712.181658000  0  0  11.8435  0.196062  -0.183044  0.00457795  nan  nan  nan  nan  nan  nan  -0.999427  -0.0051679  1.0005  0.0408083  -0.0453205  -0.00647645  0.0019701  -0.0244405  0.0016955  0  0  0  0  0  0  0.0316805  0.0113387  -0.0266001  -0.0103979  0.0281804  -0.00246451  -0.0385559  0.0378875  -0.00489411  -0.0374105  0.0175229  -0.00828327 
1699967712.186196000  0  0  11.8182  0.183988  -0.165393  0.00465211  nan  nan  nan  nan  nan  nan  -0.999417  -0.0052895  1.00051  0.0408095  -0.0453228  -0.00671179  0.0019701  -0.0241973  0.0016955  0  0  0  0  0  0  0.0316353  0.0114735  -0.0265915  -0.0104108  0.0277535  -0.000363606  -0.0384641  0.0376636  -0.00472051  -0.0141066  -0.0157193  -0.0109463 
1699967712.191219000  0  0  11.8072  0.184456  -0.154798  0.00447482  nan  nan  nan  nan  nan  nan  -0.999407  -0.0054098  1.00052  0.0399782  -0.045623  -0.00692746  0.0019701  -0.0239095  0.0016955  0  0  0  0  0  0  0.0316497  0.0114504  -0.0265707  -0.0101009  0.026647  0.000519035  -0.0377267  0.0376243  -0.00454306  -0.0218272  -0.0365469  -0.0105048 
1699967712.196234000  0  0  11.8697  0.191374  -0.187299  0.00369507  nan  nan  nan  nan  nan  nan  -0.999397  -0.0055285  1.00052  0.04012  -0.0445719  -0.00713949  0.0019701  -0.0235734  0.0016955  0  0  0  0  0  0  0.0315925  0.0115861  -0.0266074  -0.0110285  0.0268051  -0.00465099  -0.0381025  0.0371708  -0.00428203  -0.0322042  0.0326257  -0.00336811 
1699967712.201347000  0  0  11.8496  0.17219  -0.165325  0.00417288  nan  nan  nan  nan  nan  nan  -0.999387  -0.0056454  1.00053  0.0392119  -0.0450467  -0.00737147  0.0019701  -0.0231852  0.0016955  0  0  0  0  0  0  0.0315986  0.011571  -0.0265996  -0.0105137  0.0255336  -0.00297815  -0.0370112  0.0373992  -0.00412494  -0.00387672  -0.0134226  -0.0109117 
1699967712.206169000  0  0  11.8549  0.185303  -0.16619  0.00390818  nan  nan  nan  nan  nan  nan  -0.999378  -0.0057603  1.00054  0.0391794  -0.0449404  -0.00762605  0.0019701  -0.0227412  0.0016955  0  0  0  0  0  0  0.0315497  0.0116973  -0.0266166  -0.0105055  0.0252189  -0.00339099  -0.0372289  0.0372393  -0.00390429  -0.0280993  -0.0102219  -0.00980936 
1699967712.211341000  0  0  11.8889  0.185999  -0.209015  0.00409188  nan  nan  nan  nan  nan  nan  -0.999368  -0.0058727  1.00055  0.0381644  -0.0445217  -0.00783081  0.0019701  -0.0222377  0.0016955  0  0  0  0  0  0  0.031568  0.0116425  -0.0266485  -0.0109264  0.0241373  -0.00620153  -0.0364805  0.0377031  -0.00375429  -0.0363782  0.0711623  -0.0136055 
1699967712.216806000  0  0  11.8764  0.160337  -0.189524  0.00499318  nan  nan  nan  nan  nan  nan  -0.999358  -0.0059825  1.00056  0.0370455  -0.0449286  -0.0080686  0.0019701  -0.0216708  0.0016955  0  0  0  0  0  0  0.0315923  0.0115912  -0.0266556  -0.0105056  0.0227011  -0.00513434  -0.0351013  0.0380556  -0.0037066  0.00225753  0.0289369  -0.0253487 
1699967712.221343000  0  0  11.8618  0.178562  -0.189617  0.00462049  nan  nan  nan  nan  nan  nan  -0.999348  -0.0060893  1.00057  0.0368044  -0.0450339  -0.00834063  0.0019701  -0.0210368  0.0016955  0  0  0  0  0  0  0.0315466  0.0117013  -0.0266681  -0.0103271  0.0220621  -0.00390704  -0.0351886  0.0381955  -0.00352685  -0.0333884  0.0278345  -0.0224876 
1699967712.226292000  0  0  11.8867  0.166743  -0.21623  0.00422744  nan  nan  nan  nan  nan  nan  -0.999338  -0.0061928  1.00057  0.0354111  -0.0450593  -0.00856383  0.0019701  -0.0203326  0.0016955  0  0  0  0  0  0  0.0315828  0.0115977  -0.0266829  -0.0102518  0.020537  -0.00597589  -0.0338421  0.0388872  -0.00336863  -0.0221393  0.074698  -0.0191567 
1699967712.231816000  0  0  11.8607  0.139572  -0.193712  0.0046529  nan  nan  nan  nan  nan  nan  -0.999328  -0.0062925  1.00058  0.0340329  -0.04525  -0.00879956  0.0019701  -0.0195595  0.0016955  0  0  0  0  0  0  0.0316137  0.0115199  -0.0266881  -0.0102057  0.0187727  -0.00378761  -0.0321201  0.0390185  -0.00328819  0.0163613  0.0284534  -0.0252794 
1699967712.236233000  0  0  11.8658  0.155789  -0.181262  0.00393713  nan  nan  nan  nan  nan  nan  -0.999318  -0.0063883  1.00059  0.03334  -0.0453688  -0.00906984  0.0019701  -0.0187213  0.0016955  0  0  0  0  0  0  0.0315713  0.0116091  -0.0267132  -0.00992479  0.0176611  -0.00416721  -0.0317141  0.0389929  -0.00303984  -0.0198083  0.00378907  -0.0188157 
1699967712.241215000  0  0  11.8749  0.160693  -0.206514  0.00312202  nan  nan  nan  nan  nan  nan  -0.999309  -0.0064796  1.0006  0.0323607  -0.0453043  -0.00932719  0.0019701  -0.0178216  0.0016955  0  0  0  0  0  0  0.0315889  0.011519  -0.0267183  -0.0100017  0.016587  -0.00494775  -0.0310443  0.0394539  -0.00277693  -0.0357783  0.0500525  -0.011256 
1699967712.246212000  0  0  11.8847  0.142722  -0.205166  0.0035011  nan  nan  nan  nan  nan  nan  -0.999299  -0.0065664  1.00061  0.0318603  -0.0449037  -0.00960195  0.0019701  -0.0168643  0.0016955  0  0  0  0  0  0  0.0315371  0.011599  -0.0267497  -0.0103611  0.0157701  -0.00570591  -0.030365  0.0393361  -0.00261011  -0.00608672  0.04844  -0.0176627 
1699967712.251213000  0  0  11.8527  0.156306  -0.183303  0.00328243  nan  nan  nan  nan  nan  nan  -0.999289  -0.0066482  1.00062  0.0300091  -0.0453216  -0.0098477  0.0019701  -0.0158531  0.0016955  0  0  0  0  0  0  0.0315562  0.0114899  -0.0267175  -0.0100266  0.0134395  -0.00311208  -0.0289686  0.0395043  -0.00241237  -0.0461007  0.0031667  -0.0169067 
1699967712.256158000  0  0  11.8572  0.16019  -0.197884  0.00276299  nan  nan  nan  nan  nan  nan  -0.999279  -0.0067248  1.00063  0.0302037  -0.0450883  -0.0101722  0.0019701  -0.0147918  0.0016955  0  0  0  0  0  0  0.0315062  0.0115641  -0.0267421  -0.0101839  0.0135303  -0.0034581  -0.0294442  0.0395895  -0.00212438  -0.0494933  0.0315451  -0.0132936 
1699967712.261165000  0  0  11.8713  0.152814  -0.208521  0.00286552  nan  nan  nan  nan  nan  nan  -0.999269  -0.006796  1.00063  0.0285816  -0.044854  -0.0104212  0.0019701  -0.0136841  0.0016955  0  0  0  0  0  0  0.0315192  0.0114488  -0.0267263  -0.0104627  0.0116791  -0.00468695  -0.0280474  0.0397584  -0.0019552  -0.0475923  0.0512647  -0.016267 
1699967712.266212000  0  0  11.8389  0.157168  -0.177092  0.00329287  nan  nan  nan  nan  nan  nan  -0.999259  -0.0068616  1.00064  0.0269294  -0.0452401  -0.0106927  0.0019701  -0.0125337  0.0016955  0  0  0  0  0  0  0.0315416  0.0113255  -0.0266915  -0.0101799  0.00965374  -0.00205354  -0.0268552  0.0397341  -0.00181577  -0.0672678  -0.0113706  -0.0230033 
1699967712.271212000  0  0  11.833  0.171831  -0.179097  0.00276229  nan  nan  nan  nan  nan  nan  -0.999249  -0.0069213  1.00065  0.0268524  -0.0448045  -0.0110189  0.0019701  -0.0113444  0.0016955  0  0  0  0  0  0  0.0314883  0.0113771  -0.0267034  -0.0106532  0.00940739  -0.00156163  -0.0273849  0.0392973  -0.00154575  -0.0917209  -0.00334036  -0.0190711 
1699967712.276888000  0  0  11.8366  0.16888  -0.186732  0.00185808  nan  nan  nan  nan  nan  nan  -0.99924  -0.006975  1.00066  0.0256766  -0.0443607  -0.0113024  0.0019701  -0.01012  0.0016955  0  0  0  0  0  0  0.0314796  0.0112729  -0.0266892  -0.0112067  0.00809072  -0.00191518  -0.0267421  0.0390738  -0.00124438  -0.0917327  0.0139859  -0.0107822 
1699967712.281862000  0  0  11.8156  0.172913  -0.1486  0.00169708  nan  nan  nan  nan  nan  nan  -0.99923  -0.0070225  1.00067  0.0241522  -0.0447845  -0.011599  0.0019701  -0.0088642  0.0016955  0  0  0  0  0  0  0.0314898  0.0111567  -0.0266627  -0.0107912  0.00626229  -0.000198577  -0.02583  0.0387541  -0.000985607  -0.10819  -0.0593365  -0.0113574 
1699967712.286214000  0  0  11.7972  0.186264  -0.159035  0.00125757  nan  nan  nan  nan  nan  nan  -0.99922  -0.0070636  1.00068  0.0240711  -0.0441131  -0.0119393  0.0019701  -0.0075807  0.0016955  0  0  0  0  0  0  0.0314362  0.0111925  -0.0266575  -0.0116352  0.00601813  0.00130346  -0.0264322  0.0380961  -0.000648778  -0.129353  -0.0324135  -0.00923189 
1699967712.291213000  0  0  11.8109  0.182785  -0.164042  0.0014123  nan  nan  nan  nan  nan  nan  -0.99921  -0.0070982  1.00069  0.0222649  -0.0438578  -0.0121083  0.0019701  -0.0062733  0.0016955  0  0  0  0  0  0  0.0314278  0.0110069  -0.0266507  -0.011907  0.00408754  0.000128747  -0.0253503  0.0378702  -0.000523895  -0.132347  -0.0203225  -0.0124148 
1699967712.296195000  0  0  11.8176  0.181609  -0.143247  0.0023546  nan  nan  nan  nan  nan  nan  -0.9992  -0.0071263  1.00069  0.0217299  -0.0440101  -0.0120882  0.0019701  -0.0049458  0.0016954  0  0  0  0  0  0  0.0313746  0.0110252  -0.0266482  -0.011565  0.00335855  -0.000429796  -0.0254241  0.0374964  -0.000694741  -0.129316  -0.0584722  -0.0224851 
1699967712.301346000  0  0  11.8031  0.203218  -0.164566  0.00160576  nan  nan  nan  nan  nan  nan  -0.99919  -0.0071477  1.0007  0.0203865  -0.0435405  -0.0120195  0.0019701  -0.0036019  0.0016932  0  0  0  0  0  0  0.031352  0.010856  -0.0266214  -0.0122239  0.00194825  0.0006862  -0.0252892  0.0372205  -0.000746233  -0.173775  -0.0132955  -0.0126097 
1699967712.306863000  0  0  11.8129  0.180725  -0.156263  0.00275828  nan  nan  nan  nan  nan  nan  -0.999181  -0.0071623  1.00071  0.018952  -0.043631  -0.0119587  0.0019701  -0.0022454  0.0016853  0  0  0  0  0  0  0.0313691  0.0106676  -0.0265915  -0.0121198  0.000505682  -0.000186705  -0.0245121  0.0370909  -0.000993064  -0.135938  -0.0287105  -0.0245479 
1699967712.311212000  0  0  11.809  0.177058  -0.147203  0.00352825  nan  nan  nan  nan  nan  nan  -0.999171  -0.0071701  1.00072  0.0182537  -0.0437432  -0.0119303  0.0019701  -0.0008799  0.001668  0  0  0  0  0  0  0.0313191  0.0106672  -0.026591  -0.0118919  -0.000418567  0.000136257  -0.024331  0.0368876  -0.00118817  -0.130272  -0.0449609  -0.0322214 
1699967712.316156000  0  0  11.7942  0.192894  -0.171935  0.00348088  nan  nan  nan  nan  nan  nan  -0.999161  -0.0071711  1.00073  0.0170045  -0.0434535  -0.0118707  0.0019701  0.0004907  0.0016374  0  0  0  0  0  0  0.0313096  0.0105208  -0.0265603  -0.0123424  -0.00175294  0.00127502  -0.0241817  0.036886  -0.00135847  -0.163317  0.00451971  -0.0299262 
1699967712.321212000  0  0  11.8131  0.169305  -0.164108  0.00369714  nan  nan  nan  nan  nan  nan  -0.999151  -0.0071652  1.00074  0.0165286  -0.0428694  -0.0118404  0.0019701  0.0018626  0.0015898  0  0  0  0  0  0  0.031245  0.0105108  -0.0265707  -0.0128829  -0.00231102  -0.000283771  -0.0240459  0.0362442  -0.00153165  -0.117388  -0.00523058  -0.0308978 
1699967712.326214000  0  0  11.8237  0.161098  -0.159047  0.0034479  nan  nan  nan  nan  nan  nan  -0.999141  -0.0071525  1.00074  0.0151009  -0.0433181  -0.011786  0.0019701  0.0032323  0.0015215  0  0  0  0  0  0  0.0312413  0.0103653  -0.0265496  -0.0122572  -0.00384999  -0.00120082  -0.0231232  0.0364958  -0.00168041  -0.109463  -0.0176666  -0.0262947 
1699967712.331863000  0  0  11.8319  0.181531  -0.194838  0.00221162  nan  nan  nan  nan  nan  nan  -0.999131  -0.0071329  1.00075  0.0130975  -0.0437035  -0.0117043  0.0019701  0.0045958  0.0014287  0  0  0  0  0  0  0.0312928  0.0100689  -0.0265484  -0.0118551  -0.00581472  -0.00191588  -0.0224286  0.0374517  -0.00172471  -0.156719  0.0451213  -0.0103981 
1699967712.336205000  0  0  11.8382  0.15763  -0.191452  0.00230849  nan  nan  nan  nan  nan  nan  -0.999121  -0.0071065  1.00076  0.0127479  -0.0431746  -0.0116822  0.0019701  0.0059495  0.0013081  0  0  0  0  0  0  0.0312364  0.0100413  -0.0265619  -0.0124009  -0.00619551  -0.00242423  -0.0222815  0.0370947  -0.00178425  -0.110271  0.0416319  -0.0110137 
1699967712.341217000  0  0  11.8691  0.155488  -0.186914  0.00248853  nan  nan  nan  nan  nan  nan  -0.999112  -0.0070734  1.00076  0.0102949  -0.0438942  -0.0115838  0.0019701  0.0072895  0.0011611  0  0  0  0  0  0  0.0313099  0.0097304  -0.0266015  -0.0115045  -0.00870568  -0.00490757  -0.0206429  0.0378234  -0.00198405  -0.121061  0.0258533  -0.0112662 
1699967712.346198000  0  0  11.858  0.180446  -0.206658  0.00223164  nan  nan  nan  nan  nan  nan  -0.999102  -0.0070336  1.00077  0.01002  -0.0439131  -0.0115719  0.0019701  0.0086123  0.0009912  0  0  0  0  0  0  0.0312542  0.00968826  -0.0266148  -0.0114125  -0.00898589  -0.00398972  -0.0214777  0.0383337  -0.00198711  -0.163298  0.0606451  -0.00802438 
1699967712.351213000  0  0  11.8625  0.155613  -0.212374  0.0031874  nan  nan  nan  nan  nan  nan  -0.999092  -0.0069873  1.00077  0.0086566  -0.0441392  -0.011514  0.0019701  0.0099139  0.0008024  0  0  0  0  0  0  0.0312827  0.00943338  -0.026616  -0.0111763  -0.0102133  -0.00436933  -0.0206078  0.038918  -0.00223114  -0.121634  0.0667015  -0.0175311 
1699967712.356205000  0  0  11.8836  0.15752  -0.199226  0.00386609  nan  nan  nan  nan  nan  nan  -0.999082  -0.0069346  1.00078  0.00774594  -0.043842  -0.0114715  0.0019701  0.0111906  0.0005983  0  0  0  0  0  0  0.031226  0.00937535  -0.0266564  -0.0113533  -0.0112618  -0.00605083  -0.0203368  0.0386944  -0.00241289  -0.127941  0.0424639  -0.0241973 
1699967712.361214000  0  0  11.8528  0.172902  -0.1957  0.00429366  nan  nan  nan  nan  nan  nan  -0.999072  -0.0068755  1.00078  0.00697323  -0.0444079  -0.0114416  0.0019701  0.0124388  0.0003827  0  0  0  0  0  0  0.0312433  0.00920641  -0.0266279  -0.0108067  -0.0119363  -0.00355608  -0.0206522  0.0392604  -0.00259719  -0.155803  0.0302045  -0.0276988 
1699967712.366214000  0  0  11.8684  0.158317  -0.206069  0.00452065  nan  nan  nan  nan  nan  nan  -0.999062  -0.0068102  1.00078  0.0064514  -0.0442288  -0.0114172  0.0019701  0.0136546  0.0001593  0  0  0  0  0  0  0.0312528  0.00903481  -0.0266409  -0.0109945  -0.0122283  -0.00484407  -0.0206935  0.0394104  -0.00277553  -0.126255  0.0495612  -0.0287528 
1699967712.371214000  0  0  11.8844  0.162991  -0.195386  0.00409119  nan  nan  nan  nan  nan  nan  -0.999052  -0.006739  1.00078  0.00577419  -0.0441346  -0.0113868  0.0019701  0.0148343  -6.81e-05  0  0  0  0  0  0  0.0311997  0.00896758  -0.0266749  -0.0109326  -0.0129602  -0.00611162  -0.0207185  0.0393588  -0.00285677  -0.135372  0.0286715  -0.0225722 
1699967712.376233000  0  0  11.8568  0.174549  -0.187789  0.00313623  nan  nan  nan  nan  nan  nan  -0.999043  -0.0066619  1.00078  0.00523874  -0.0444378  -0.0113647  0.0019701  0.0159741  -0.0002958  0  0  0  0  0  0  0.0312139  0.0087917  -0.0266678  -0.0107075  -0.0132948  -0.00383103  -0.0211846  0.0395614  -0.00285181  -0.154201  0.0116136  -0.0106847 
1699967712.381212000  0  0  11.8778  0.175454  -0.197554  0.00273347  nan  nan  nan  nan  nan  nan  -0.999033  -0.0065793  1.00078  0.0052572  -0.0439066  -0.0113628  0.0019701  0.0170704  -0.00052  0  0  0  0  0  0  0.0311576  0.00872676  -0.0267035  -0.0111783  -0.0131069  -0.00554265  -0.0219003  0.0393132  -0.00284744  -0.149425  0.0334262  -0.00569404 
1699967712.386211000  0  0  11.8986  0.180471  -0.189117  0.00233386  nan  nan  nan  nan  nan  nan  -0.999023  -0.0064913  1.00077  0.00427383  -0.0443558  -0.0113215  0.0019701  0.0181193  -0.000737  0  0  0  0  0  0  0.0311774  0.00852345  -0.02671  -0.0105409  -0.0139496  -0.00726097  -0.0218574  0.0397181  -0.00282858  -0.159854  0.0128285  -0.000887481 
1699967712.391205000  0  0  11.8547  0.197503  -0.177507  0.00241031  nan  nan  nan  nan  nan  nan  -0.999013  -0.0063982  1.00077  0.0038555  -0.0446171  -0.011304  0.0019701  0.019117  -0.000943  0  0  0  0  0  0  0.0311907  0.00833234  -0.0266963  -0.0104483  -0.0140977  -0.00363461  -0.0226309  0.0397312  -0.0028265  -0.186802  -0.0105135  -0.00186386 
1699967712.396157000  0  0  11.8365  0.203843  -0.181297  0.00325786  nan  nan  nan  nan  nan  nan  -0.999003  -0.0063002  1.00077  0.00401957  -0.0439106  -0.0113084  0.0019701  0.02006  -0.0011342  0  0  0  0  0  0  0.0311323  0.00826268  -0.0267094  -0.0113354  -0.0137234  -0.00212644  -0.0237677  0.0391292  -0.00292065  -0.189023  0.00260526  -0.0115167 
1699967712.401346000  0  0  11.8779  0.19093  -0.162079  0.00459035  nan  nan  nan  nan  nan  nan  -0.998993  -0.0061977  1.00076  0.00356435  -0.0442126  -0.0112895  0.0019701  0.0209443  -0.001307  0  0  0  0  0  0  0.0311373  0.00809343  -0.0267358  -0.0107521  -0.0139359  -0.00551453  -0.0240102  0.0390491  -0.00312913  -0.160966  -0.0350934  -0.0260882 
1699967712.406203000  0  0  11.834  0.211172  -0.163183  0.00480606  nan  nan  nan  nan  nan  nan  -0.998984  -0.0060909  1.00075  0.00390057  -0.0440291  -0.0113037  0.0019701  0.0217663  -0.0014575  0  0  0  0  0  0  0.031084  0.00802502  -0.0267247  -0.011085  -0.0133543  -0.00190233  -0.0254235  0.0387259  -0.00324281  -0.188447  -0.0299117  -0.0276476 
1699967712.411164000  0  0  11.8163  0.212144  -0.16772  0.0052614  nan  nan  nan  nan  nan  nan  -0.998974  -0.0059802  1.00074  0.00376403  -0.0435915  -0.011296  0.0019703  0.0225221  -0.0015821  0  0  0  0  0  0  0.0310794  0.00784995  -0.0267056  -0.0117375  -0.0131444  -0.000493781  -0.0262273  0.0382751  -0.00342663  -0.182997  -0.0166919  -0.0315011 
1699967712.416233000  0  0  11.8824  0.190019  -0.151586  0.00569013  nan  nan  nan  nan  nan  nan  -0.998964  -0.0058658  1.00074  0.00317855  -0.0437139  -0.0112709  0.0019731  0.0232082  -0.0016769  0  0  0  0  0  0  0.0310881  0.00765454  -0.0267401  -0.0112842  -0.0134603  -0.00591494  -0.026111  0.0379838  -0.00363955  -0.139816  -0.0462777  -0.034731 
1699967712.421348000  0  0  11.8359  0.220889  -0.167061  0.00399031  nan  nan  nan  nan  nan  nan  -0.998954  -0.0057482  1.00073  0.00367719  -0.0437083  -0.0112927  0.0019823  0.0238206  -0.0017383  0  0  0  0  0  0  0.031032  0.0075901  -0.0267278  -0.0113828  -0.0126756  -0.00211203  -0.0278151  0.0380178  -0.0035672  -0.185878  -0.0156414  -0.0142069 
1699967712.426215000  0  0  11.8398  0.213696  -0.175561  0.00317946  nan  nan  nan  nan  nan  nan  -0.998944  -0.0056277  1.00072  0.00310995  -0.0435843  -0.0112675  0.0020015  0.0243556  -0.0017624  0  0  0  0  0  0  0.0310507  0.00735635  -0.0267152  -0.0115771  -0.0128985  -0.00246827  -0.0280399  0.0379357  -0.00357211  -0.169425  0.0021129  -0.00402221 
1699967712.431862000  0  0  11.9008  0.1909  -0.16217  0.00355689  nan  nan  nan  nan  nan  nan  -0.998934  -0.0055048  1.00071  0.00272699  -0.0436664  -0.011251  0.0020346  0.0248096  -0.0017455  0  0  0  0  0  0  0.0310528  0.00715529  -0.0267315  -0.0111833  -0.0129411  -0.00751072  -0.0280704  0.0377228  -0.00364924  -0.123552  -0.0227102  -0.00796875 
1699967712.436233000  0  0  11.8771  0.212267  -0.173131  0.00345653  nan  nan  nan  nan  nan  nan  -0.998924  -0.0053798  1.0007  0.00319852  -0.0436673  -0.0112716  0.0020853  0.0251787  -0.0016839  0  0  0  0  0  0  0.0310044  0.00708465  -0.0267358  -0.0111804  -0.0121682  -0.00556371  -0.0294031  0.0378339  -0.00364407  -0.154025  -0.00180973  -0.00676593 
1699967712.441165000  0  0  11.878  0.212025  -0.185964  0.00383082  nan  nan  nan  nan  nan  nan  -0.998913  -0.0052531  1.00069  0.00425022  -0.0431464  -0.0113153  0.0021573  0.0254592  -0.0015738  0  0  0  0  0  0  0.0309454  0.00702944  -0.0267571  -0.0117143  -0.0106502  -0.00565735  -0.0310768  0.0376113  -0.00368893  -0.138143  0.0259035  -0.0109959 
1699967712.446163000  0  0  11.9367  0.18478  -0.186136  0.00475189  nan  nan  nan  nan  nan  nan  -0.998902  -0.0051253  1.00069  0.00392567  -0.0429694  -0.0113006  0.0022544  0.0256473  -0.0014115  0  0  0  0  0  0  0.0309589  0.00679976  -0.0267857  -0.0117026  -0.0105427  -0.0104911  -0.0308573  0.0375378  -0.0038817  -0.0856739  0.0269241  -0.0205817 
1699967712.451213000  0  0  11.9143  0.204138  -0.183435  0.00468327  nan  nan  nan  nan  nan  nan  -0.99889  -0.0049968  1.00068  0.00327501  -0.0436845  -0.011275  0.0023803  0.0257393  -0.0011932  0  0  0  0  0  0  0.0309806  0.00657337  -0.0267573  -0.0109189  -0.0109196  -0.00868567  -0.0310826  0.0382012  -0.00397095  -0.122316  0.0154189  -0.0188314 
1699967712.456237000  0  0  11.8973  0.197662  -0.197497  0.00493559  nan  nan  nan  nan  nan  nan  -0.998878  -0.0048681  1.00067  0.00480343  -0.0432951  -0.0113399  0.0025388  0.0257315  -0.0009152  0  0  0  0  0  0  0.0309234  0.00652958  -0.0267789  -0.0113631  -0.00880236  -0.00729552  -0.0329107  0.0381987  -0.00405626  -0.0925464  0.0435655  -0.0211323 
1699967712.461215000  0  0  11.9665  0.181194  -0.202355  0.00561871  nan  nan  nan  nan  nan  nan  -0.998865  -0.0047397  1.00067  0.00414729  -0.0434145  -0.011312  0.0027337  0.0256201  -0.0005737  0  0  0  0  0  0  0.0309531  0.00628712  -0.0268141  -0.0109468  -0.00910403  -0.0129854  -0.0323946  0.0385809  -0.00427137  -0.0643571  0.0497654  -0.0275202 
1699967712.466214000  0  0  11.9416  0.196126  -0.192411  0.00597875  nan  nan  nan  nan  nan  nan  -0.998851  -0.0046121  1.00067  0.00389542  -0.0438915  -0.0113029  0.0029687  0.0254013  -0.0001649  0  0  0  0  0  0  0.0309927  0.00605286  -0.0268166  -0.0105243  -0.00893471  -0.0109073  -0.0327782  0.0389849  -0.00442275  -0.0906926  0.0261614  -0.0305069 
1699967712.471213000  0  0  11.9222  0.192284  -0.203839  0.00610081  nan  nan  nan  nan  nan  nan  -0.998835  -0.0044858  1.00067  0.00562393  -0.0436953  -0.0113777  0.0032475  0.0250714  0.0003148  0  0  0  0  0  0  0.0309394  0.00601866  -0.0268511  -0.0107307  -0.00657442  -0.00928907  -0.0346821  0.0391441  -0.00453913  -0.065493  0.0475525  -0.0308688 
1699967712.476234000  0  0  11.9862  0.182435  -0.217429  0.00576341  nan  nan  nan  nan  nan  nan  -0.998818  -0.0043615  1.00067  0.00536403  -0.0435315  -0.0113654  0.0035738  0.0246267  0.0008692  0  0  0  0  0  0  0.0309837  0.00578319  -0.0269001  -0.010739  -0.00635796  -0.0145434  -0.0345377  0.03945  -0.00465103  -0.047123  0.0719192  -0.0255324 
1699967712.481813000  0  0  11.9747  0.192254  -0.196643  0.00599149  nan  nan  nan  nan  nan  nan  -0.998799  -0.0042398  1.00068  0.00565202  -0.0438225  -0.0113796  0.0039516  0.0240634  0.0015022  0  0  0  0  0  0  0.031011  0.00558153  -0.0269188  -0.0104622  -0.00553743  -0.0135585  -0.0352375  0.039628  -0.004804  -0.0603241  0.0287097  -0.0268536 
1699967712.486213000  0  0  11.9402  0.199094  -0.201826  0.00587495  nan  nan  nan  nan  nan  nan  -0.998779  -0.0041211  1.00069  0.00745488  -0.0432539  -0.0114544  0.0043844  0.0233777  0.0022173  0  0  0  0  0  0  0.0309597  0.00555153  -0.0269514  -0.0112402  -0.00309064  -0.0106936  -0.0372554  0.0393087  -0.00486356  -0.0554388  0.0420127  -0.0248013 
1699967712.491213000  0  0  11.9809  0.188186  -0.207242  0.00574998  nan  nan  nan  nan  nan  nan  -0.998755  -0.0040062  1.0007  0.00736038  -0.0431266  -0.0114493  0.004876  0.0225659  0.0030185  0  0  0  0  0  0  0.0310085  0.00529199  -0.0269723  -0.0113235  -0.0026061  -0.0140498  -0.0371851  0.0394487  -0.0049777  -0.0342698  0.0515563  -0.0220978 
1699967712.496234000  0  0  12.0098  0.194697  -0.180027  0.0057325  nan  nan  nan  nan  nan  nan  -0.99873  -0.0038957  1.00072  0.009009  -0.0427003  -0.0115166  0.0054303  0.0216242  0.0039094  0  0  0  0  0  0  0.0309547  0.00528393  -0.027059  -0.0116064  -0.000359977  -0.016326  -0.0389721  0.0387268  -0.00504444  -0.03085  0.00376742  -0.0212118 
1699967712.500236000  0  0  11.9801  0.209368  -0.180195  0.00562781  nan  nan  nan  nan  nan  nan  -0.998701  -0.0037902  1.00074  0.0107589  -0.0420206  -0.011584  0.0060509  0.020549  0.0048937  0  0  0  0  0  0  0.0308988  0.00526705  -0.0270961  -0.012499  0.00198943  -0.0138378  -0.0409611  0.0380998  -0.00508038  -0.0418933  0.009871  -0.0195438 
1699967712.506812000  0  0  12.029  0.19747  -0.179401  0.00655989  nan  nan  nan  nan  nan  nan  -0.998669  -0.0036904  1.00077  0.0107991  -0.0418264  -0.0115836  0.0067415  0.0193364  0.0059753  0  0  0  0  0  0  0.030994  0.00492047  -0.0271096  -0.0127408  0.00287218  -0.0178872  -0.0410233  0.0379117  -0.00531853  -0.0175256  0.010014  -0.0288133 
1699967712.511183000  0  0  12.0495  0.21252  -0.159506  0.00667217  nan  nan  nan  nan  nan  nan  -0.998633  -0.0035971  1.0008  0.0126397  -0.0413841  -0.011655  0.0075047  0.0179827  0.0071579  0  0  0  0  0  0  0.0309367  0.00492522  -0.0271902  -0.0130784  0.00535676  -0.0194845  -0.0430525  0.037139  -0.0054059  -0.0289577  -0.0226679  -0.0293431 
1699967712.516204000  0  0  12.0173  0.232319  -0.165684  0.00602883  nan  nan  nan  nan  nan  nan  -0.998594  -0.0035108  1.00084  0.0134818  -0.0409926  -0.0116845  0.0083378  0.0164841  0.0084452  0  0  0  0  0  0  0.0309554  0.00472535  -0.0271886  -0.0137769  0.0068885  -0.0168436  -0.0443551  0.036712  -0.00543584  -0.056572  -0.00638205  -0.021002 
1699967712.521198000  0  0  12.0688  0.216883  -0.162936  0.00631132  nan  nan  nan  nan  nan  nan  -0.99855  -0.0034325  1.00088  0.0159916  -0.0395376  -0.0117642  0.009237  0.0148369  0.009841  0  0  0  0  0  0  0.0308799  0.0047694  -0.0272974  -0.015284  0.0102554  -0.0209878  -0.0465965  0.0353148  -0.00554181  -0.00507731  0.000975009  -0.0234734 
1699967712.526150000  0  0  12.093  0.223664  -0.150226  0.00653949  nan  nan  nan  nan  nan  nan  -0.998501  -0.0033627  1.00094  0.016893  -0.0392307  -0.0117946  0.0101986  0.0130374  0.011349  0  0  0  0  0  0  0.0308748  0.00463639  -0.0273503  -0.0155624  0.0118098  -0.0229239  -0.0475716  0.0347108  -0.00565471  -0.00966989  -0.0188868  -0.0251965 
1699967712.531848000  0  0  12.0695  0.240915  -0.160026  0.00611145  nan  nan  nan  nan  nan  nan  -0.998448  -0.0033023  1.001  0.018927  -0.0385444  -0.0118614  0.0112189  0.0110818  0.012973  0  0  0  0  0  0  0.0308493  0.00454405  -0.0273744  -0.0164933  0.0147134  -0.0209936  -0.0498745  0.034098  -0.00569368  -0.0229835  0.00635045  -0.0194562 
1699967712.536244000  0  0  12.1067  0.229763  -0.161893  0.00635059  nan  nan  nan  nan  nan  nan  -0.998389  -0.0032522  1.00107  0.0215514  -0.0371596  -0.0119328  0.012294  0.0089663  0.0147168  0  0  0  0  0  0  0.0307647  0.00461022  -0.0274925  -0.0179645  0.0181992  -0.02392  -0.052122  0.0328972  -0.00579251  0.0199969  0.0211311  -0.0214572 
1699967712.541207000  0  0  12.1205  0.229457  -0.147812  0.00680774  nan  nan  nan  nan  nan  nan  -0.998325  -0.003213  1.00115  0.0223665  -0.036962  -0.0119587  0.0134203  0.0066872  0.016584  0  0  0  0  0  0  0.0307686  0.00446759  -0.0275518  -0.018168  0.0196505  -0.0249572  -0.0527424  0.0324744  -0.00591392  0.0263164  -0.00313997  -0.0259574 
1699967712.546201000  0  0  12.1288  0.243288  -0.152441  0.00624414  nan  nan  nan  nan  nan  nan  -0.998255  -0.0031856  1.00123  0.025484  -0.0360347  -0.0120503  0.0145941  0.0042408  0.0185784  0  0  0  0  0  0  0.0306768  0.00457721  -0.0276614  -0.0191241  0.0236502  -0.0255194  -0.0557477  0.0316645  -0.00592443  0.0263028  0.0135699  -0.0188074 
1699967712.551197000  0  0  12.1748  0.228943  -0.168805  0.00624333  nan  nan  nan  nan  nan  nan  -0.998179  -0.0031708  1.00133  0.0270653  -0.0349799  -0.0120788  0.0158114  0.0016233  0.0207039  0  0  0  0  0  0  0.0306603  0.00447275  -0.0277478  -0.0203032  0.0261704  -0.0292066  -0.0567399  0.0310225  -0.00601784  0.0641221  0.0522032  -0.0178632 
1699967712.556235000  0  0  12.1993  0.235654  -0.161006  0.00656043  nan  nan  nan  nan  nan  nan  -0.998097  -0.0031696  1.00144  0.0297419  -0.0339239  -0.0121411  0.0170687  -0.0011691  0.022964  0  0  0  0  0  0  0.0305581  0.00460843  -0.0278952  -0.0213648  0.0295942  -0.0310154  -0.0589985  0.0301389  -0.00612754  0.0714782  0.0447342  -0.0207299 
1699967712.561215000  0  0  12.2219  0.238217  -0.163434  0.0070025  nan  nan  nan  nan  nan  nan  -0.998008  -0.0031828  1.00156  0.0316972  -0.0335213  -0.0121947  0.0183621  -0.0041401  0.0253627  0  0  0  0  0  0  0.0305399  0.00453022  -0.0279745  -0.0217498  0.0325091  -0.0327686  -0.0605199  0.0299139  -0.00625957  0.0803489  0.0516603  -0.0249356 
1699967712.566209000  0  0  12.2662  0.230109  -0.191828  0.00736489  nan  nan  nan  nan  nan  nan  -0.997913  -0.0032113  1.00169  0.0337129  -0.0325363  -0.0122291  0.0196879  -0.0072916  0.0279036  0  0  0  0  0  0  0.0305023  0.00449127  -0.0280853  -0.0228076  0.03552  -0.0362753  -0.0618048  0.0297411  -0.00646441  0.108386  0.110037  -0.0274171 
1699967712.571211000  0  0  12.2857  0.234641  -0.18318  0.00757064  nan  nan  nan  nan  nan  nan  -0.997811  -0.003256  1.00184  0.0368293  -0.0315322  -0.0122936  0.0210424  -0.0106205  0.0305904  0  0  0  0  0  0  0.0303876  0.00467491  -0.0282623  -0.0237972  0.0394662  -0.0375927  -0.0642326  0.0291668  -0.00661269  0.121659  0.0980249  -0.0285061 
1699967712.576193000  0  0  12.2967  0.23103  -0.171408  0.00826307  nan  nan  nan  nan  nan  nan  -0.997703  -0.0033178  1.002  0.039468  -0.0310429  -0.0123576  0.0224217  -0.0141232  0.033427  0  0  0  0  0  0  0.0303137  0.00476071  -0.0283938  -0.024215  0.0429426  -0.0382573  -0.0659746  0.0288619  -0.00681541  0.144907  0.0772858  -0.0351342 
