ts x y z roll pitch yaw vx vy vz wx wy wz ax ay az dwx dwy dwz jx jy jz ddwx ddwy ddwz
1704730483.724407000  -2.5  -0.3  1  0  0  0  -2e-07  2e-07  2e-07  0  0  0  -0.000125  0.000125  0.000125  0  0  0  0  0  0  0  0  0 
1704730483.728097000  -2.5  -0.3  1  0  0  0  -1.7e-06  1.7e-06  1.7e-06  0  0  0  -0.0005  0.0005  0.0005  0  0  0  0  0  0  0  0  0 
1704730483.733098000  -2.5  -0.3  1  0  0  0  -5.6e-06  5.6e-06  5.6e-06  0  0  0  -0.001125  0.001125  0.001125  0  0  0  0  0  0  0  0  0 
1704730483.738100000  -2.5  -0.3  1  0  0  1e-07  -1.33e-05  1.33e-05  1.33e-05  0  0  0  -0.002  0.002  0.002  0  0  0  0  0  0  0  0  0 
1704730483.743101000  -2.5  -0.3  1  0  0  3e-07  -2.6e-05  2.6e-05  2.6e-05  0  0  0  -0.003125  0.003125  0.003125  0  0  0  0  0  0  0  0  0 
1704730483.748102000  -2.5  -0.3  1  0  0  5e-07  -4.5e-05  4.5e-05  4.5e-05  0  0  0  -0.0045  0.0045  0.0045  0  0  0  0  0  0  0  0  0 
1704730483.753097000  -2.5  -0.299999  1  0  0  1e-06  -7.15e-05  7.15e-05  7.15e-05  0  0  0  -0.006125  0.006125  0.006125  0  0  0  0  0  0  0  0  0 
1704730483.758098000  -2.5  -0.299999  1  0  0  1.7e-06  -0.0001067  0.0001067  0.0001067  0  0  0  -0.008  0.008  0.008  0  0  0  0  0  0  0  0  0 
1704730483.763100000  -2.5  -0.299998  1  0  0  2.7e-06  -0.0001519  0.0001519  0.0001519  0  0  0  -0.010125  0.010125  0.010125  0  0  0  0  0  0  0  0  0 
1704730483.768101000  -2.5  -0.299997  1  0  0  4.2e-06  -0.0002083  0.0002083  0.0002083  0  0  0  -0.0125  0.0125  0.0125  0  0  0  0  0  0  0  0  0 
1704730483.773099000  -2.5  -0.299996  1  0  0  6.1e-06  -0.0002773  0.0002773  0.0002773  0  0  0  -0.015125  0.015125  0.015125  0  0  0  0  0  0  0  0  0 
1704730483.778097000  -2.50001  -0.299995  1.00001  0  0  8.6e-06  -0.00036  0.00036  0.00036  0  0  0  -0.018  0.018  0.018  0  0  0  0  0  0  0  0  0 
1704730483.783100000  -2.50001  -0.299993  1.00001  0  0  1.19e-05  -0.0004577  0.0004577  0.0004577  0  0  0  -0.021125  0.021125  0.021125  0  0  0  0  0  0  0  0  0 
1704730483.788103000  -2.50001  -0.29999  1.00001  0  0  1.6e-05  -0.0005717  0.0005717  0.0005717  0  0  0  -0.0245  0.0245  0.0245  0  0  0  0  0  0  0  0  0 
1704730483.793098000  -2.50001  -0.299987  1.00001  0  0  2.11e-05  -0.0007031  0.0007031  0.0007031  0  0  0  -0.028125  0.028125  0.028125  0  0  0  0  0  0  0  0  0 
1704730483.798105000  -2.50002  -0.299983  1.00002  0  0  2.73e-05  -0.0008533  0.0008533  0.0008533  0  0  0  -0.032  0.032  0.032  0  0  0  0  0  0  0  0  0 
1704730483.803098000  -2.50002  -0.299978  1.00002  0  0  3.48e-05  -0.0010235  0.0010235  0.0010235  0  0  0  -0.036125  0.036125  0.036125  0  0  0  0  0  0  0  0  0 
1704730483.808098000  -2.50003  -0.299973  1.00003  0  0  4.37e-05  -0.001215  0.001215  0.001215  0  0  0  -0.0405  0.0405  0.0405  0  0  0  0  0  0  0  0  0 
1704730483.813099000  -2.50003  -0.299966  1.00003  0  0  5.42e-05  -0.001429  0.001429  0.001429  0  0  0  -0.045125  0.045125  0.045125  0  0  0  0  0  0  0  0  0 
1704730483.818091000  -2.50004  -0.299958  1.00004  0  0  6.65e-05  -0.0016667  0.0016667  0.0016667  0  0  0  -0.05  0.05  0.05  0  0  0  0  0  0  0  0  0 
1704730483.823103000  -2.50005  -0.299949  1.00005  0  0  8.05e-05  -0.0019294  0.0019294  0.0019294  0  0  0  -0.055125  0.055125  0.055125  0  0  0  0  0  0  0  0  0 
1704730483.828091000  -2.50006  -0.299939  1.00006  0  0  9.66e-05  -0.0022183  0.0022183  0.0022183  0  0  0  -0.0605  0.0605  0.0605  0  0  0  0  0  0  0  0  0 
1704730483.833092000  -2.50007  -0.299927  1.00007  0  0  0.0001147  -0.0025347  0.0025348  0.0025348  0  0  0  -0.0660297  0.066125  0.066125  0  0  0  0  0  0  0  0  0 
1704730483.838091000  -2.50009  -0.299914  1.00009  0  0  0.000135  -0.0028782  0.00288  0.00288  0  0  0  -0.0713459  0.072  0.072  0  0  0  0  0  0  0  0  0 
1704730483.843119000  -2.5001  -0.299898  1.0001  0  0  0.0001575  -0.0032477  0.0032552  0.0032552  0  0  0  -0.0764122  0.078125  0.0781087  0  0  0  0  0  0  0  0  0 
1704730483.848089000  -2.50012  -0.299881  1.00012  0  0  0.0001824  -0.0036419  0.0036617  0.0036608  0  0  0  -0.0812284  0.0845  0.0841061  0  0  0  0  0  0  0  0  0 
1704730483.853089000  -2.50014  -0.299862  1.00014  0  0  0.0002096  -0.0040596  0.0041006  0.0040958  0  0  0  -0.0857947  0.091125  0.0898535  0  0  0  0  0  0  0  0  0 
1704730483.858092000  -2.50016  -0.29984  1.00016  0  0  0.0002393  -0.0044995  0.0045733  0.004559  0  0  0  -0.0901109  0.098  0.0953509  0  0  0  0  0  0  0  0  0 
1704730483.863097000  -2.50018  -0.299816  1.00018  0  0  0.0002715  -0.0049603  0.0050808  0.0050489  0  0  0  -0.0941772  0.104945  0.100598  0  0  0  0  0  0  0  0  0 
1704730483.868094000  -2.50021  -0.299789  1.00021  0  0  0.0003063  -0.0054408  0.0056224  0.0055645  0  0  0  -0.0979934  0.111645  0.105596  0  0  0  0  0  0  0  0  0 
1704730483.873094000  -2.50024  -0.29976  1.00024  0  0  0.0003436  -0.0059398  0.0061968  0.0061045  0  0  0  -0.10156  0.118096  0.110343  0  0  0  0  0  0  0  0  0 
1704730483.878091000  -2.50027  -0.299727  1.00027  0  0  0.0003835  -0.006456  0.0068029  0.0066675  0  0  0  -0.104876  0.124296  0.11484  0  0  0  0  0  0  0  0  0 
1704730483.883101000  -2.5003  -0.299691  1.00031  0  0  0.0004259  -0.0069882  0.0074394  0.0072525  0  0  0  -0.107942  0.130247  0.119088  0  0  0  0  0  0  0  0  0 
1704730483.888091000  -2.50034  -0.299653  1.00034  0  0  0.000471  -0.007535  0.008105  0.007858  0  0  0  -0.110758  0.135947  0.123085  0  0  0  0  0  0  0  0  0 
1704730483.893092000  -2.50038  -0.29961  1.00039  0  0  0.0005186  -0.0080953  0.0087984  0.0084829  0  0  0  -0.113325  0.141398  0.126833  0  0  0  0  0  0  0  0  0 
1704730483.898093000  -2.50042  -0.299565  1.00043  0  0  0.0005688  -0.0086678  0.0095185  0.0091259  0  0  0  -0.115641  0.146598  0.13033  0  0  0  0  0  0  0  0  0 
1704730483.903105000  -2.50046  -0.299515  1.00048  0  0  0.0006215  -0.0092513  0.010264  0.0097858  0  0  0  -0.117707  0.151549  0.133577  0  0  0  0  0  0  0  0  0 
1704730483.908096000  -2.50051  -0.299462  1.00053  0  0  0.0006767  -0.0098445  0.0110336  0.0104613  0  0  0  -0.119523  0.156249  0.136575  0  0  0  0  0  0  0  0  0 
1704730483.913092000  -2.50056  -0.299405  1.00058  0  0  0.0007342  -0.0104461  0.0118261  0.0111511  0  0  0  -0.12109  0.1607  0.139322  0  0  0  0  0  0  0  0  0 
1704730483.918091000  -2.50062  -0.299344  1.00064  0  0  0.0007942  -0.011055  0.0126402  0.0118541  0  0  0  -0.122406  0.1649  0.14182  0  0  0  0  0  0  0  0  0 
1704730483.923100000  -2.50067  -0.299278  1.0007  0  0  0.0008564  -0.0116698  0.0134747  0.0125689  0  0  0  -0.123472  0.168851  0.144067  0  0  0  0  0  0  0  0  0 
1704730483.928091000  -2.50073  -0.299209  1.00076  0  0  0.0009208  -0.0122893  0.0143283  0.0132943  0  0  0  -0.124288  0.172552  0.146064  0  0  0  0  0  0  0  0  0 
1704730483.933090000  -2.5008  -0.299135  1.00083  0  0  0.0009873  -0.0129122  0.0151998  0.0140291  0  0  0  -0.124855  0.176002  0.147812  0  0  0  0  0  0  0  0  0 
1704730483.938091000  -2.50086  -0.299057  1.0009  0  0  0.0010558  -0.0135374  0.0160879  0.014772  0  0  0  -0.125171  0.179203  0.149309  0  0  0  0  0  0  0  0  0 
1704730483.943105000  -2.50093  -0.298974  1.00098  0  0  0.0011262  -0.0141635  0.0169914  0.0155218  0  0  0  -0.125237  0.182153  0.150557  0  0  0  0  0  0  0  0  0 
1704730483.948092000  -2.501  -0.298887  1.00106  0  0  0.0011984  -0.0147894  0.017909  0.0162772  0  0  0  -0.125053  0.184854  0.151554  0  0  0  0  0  0  0  0  0 
1704730483.953089000  -2.50108  -0.298795  1.00114  0  0  0.0012722  -0.0154137  0.0188395  0.0170369  0  0  0  -0.12462  0.187304  0.152301  0  0  0  0  0  0  0  0  0 
1704730483.958092000  -2.50116  -0.298698  1.00123  0  0  0.0013475  -0.0160352  0.0197816  0.0177998  0  0  0  -0.123936  0.189505  0.152799  0  0  0  0  0  0  0  0  0 
1704730483.963107000  -2.50124  -0.298597  1.00132  0  0  0.0014241  -0.0166526  0.0207341  0.0185645  0  0  0  -0.123002  0.191455  0.153046  0  0  0  0  0  0  0  0  0 
1704730483.968092000  -2.50132  -0.298491  1.00142  0  0  0.0015019  -0.0172648  0.0216957  0.0193298  0  0  0  -0.121819  0.193156  0.153044  0  0  0  0  0  0  0  0  0 
1704730483.973095000  -2.50141  -0.29838  1.00151  0  0  0.0015807  -0.0178704  0.0226653  0.0200945  0  0  0  -0.120385  0.194606  0.152791  0  0  0  0  0  0  0  0  0 
1704730483.978103000  -2.5015  -0.298264  1.00162  0  0  0.0016605  -0.0184682  0.0236414  0.0208573  0  0  0  -0.118701  0.195807  0.152288  0  0  0  0  0  0  0  0  0 
1704730483.983115000  -2.5016  -0.298144  1.00172  0  0  0.0017409  -0.019057  0.0246229  0.021617  0  0  0  -0.116767  0.196757  0.151536  0  0  0  0  0  0  0  0  0 
1704730483.988115000  -2.50169  -0.298018  1.00183  0  0  0.0018221  -0.0196354  0.0256085  0.0223723  0  0  0  -0.114584  0.197458  0.150533  0  0  0  0  0  0  0  0  0 
1704730483.993095000  -2.50179  -0.297888  1.00195  0  0  0.0019037  -0.0202024  0.0265971  0.0231219  0  0  0  -0.11215  0.197908  0.149281  0  0  0  0  0  0  0  0  0 
1704730483.998093000  -2.5019  -0.297752  1.00206  0  0  0.0019858  -0.0207565  0.0275872  0.0238646  0  0  0  -0.109466  0.198109  0.147778  0  0  0  0  0  0  0  0  0 
1704730484.003101000  -2.502  -0.297612  1.00219  0  0  0.0020683  -0.0212966  0.0285777  0.0245993  0  0  0  -0.106532  0.198059  0.146025  0  0  0  0  0  0  0  0  0 
1704730484.008091000  -2.50211  -0.297466  1.00231  0  0  0.002151  -0.0218214  0.0295674  0.0253245  0  0  0  -0.103349  0.19776  0.144023  0  0  0  0  0  0  0  0  0 
1704730484.013090000  -2.50222  -0.297316  1.00244  0  0  0.002234  -0.0223297  0.0305549  0.0260391  0  0  0  -0.0999148  0.19721  0.14177  0  0  0  0  0  0  0  0  0 
1704730484.018088000  -2.50233  -0.297161  1.00257  0  0  0.002317  -0.0228202  0.0315391  0.0267418  0  0  0  -0.096231  0.196411  0.139268  0  0  0  0  0  0  0  0  0 
1704730484.023101000  -2.50245  -0.297001  1.00271  0  0  0.0024002  -0.0232916  0.0325186  0.0274313  0  0  0  -0.0922973  0.195361  0.136515  0  0  0  0  0  0  0  0  0 
1704730484.028108000  -2.50256  -0.296836  1.00284  0  0  0.0024834  -0.0237427  0.0334923  0.0281065  0  0  0  -0.0881135  0.194062  0.133512  0  0  0  0  0  0  0  0  0 
1704730484.033100000  -2.50268  -0.296666  1.00299  0  0  0.0025667  -0.0241723  0.0344588  0.028766  0  0  0  -0.0836798  0.192512  0.13026  0  0  0  0  0  0  0  0  0 
1704730484.038094000  -2.50281  -0.296491  1.00313  0  0  0.0026499  -0.0245791  0.035417  0.0294087  0  0  0  -0.078996  0.190713  0.126757  0  0  0  0  0  0  0  0  0 
1704730484.043101000  -2.50293  -0.296312  1.00328  0  0  0.0027332  -0.0249619  0.0363655  0.0300332  0  0  0  -0.0740623  0.188663  0.123005  0  0  0  0  0  0  0  0  0 
1704730484.048093000  -2.50306  -0.296128  1.00343  0  0  0.0028164  -0.0253193  0.0373032  0.0306383  0  0  0  -0.0688785  0.186364  0.119002  0  0  0  0  0  0  0  0  0 
1704730484.053093000  -2.50318  -0.295939  1.00359  0  0  0.0028997  -0.0256502  0.0382287  0.0312228  0  0  0  -0.0634448  0.183814  0.114749  0  0  0  0  0  0  0  0  0 
1704730484.058092000  -2.50331  -0.295745  1.00374  0  0  0.002983  -0.0259536  0.0391409  0.0317854  0  0  0  -0.0579427  0.181015  0.110247  0  0  0  0  0  0  0  0  0 
1704730484.063109000  -2.50344  -0.295547  1.00391  0  0  0.0030662  -0.0262301  0.0400385  0.0323248  0  0  0  -0.0526852  0.177965  0.105494  0  0  0  0  0  0  0  0  0 
1704730484.068112000  -2.50357  -0.295345  1.00407  0  0  0.0031495  -0.0264809  0.0409202  0.0328399  0  0  0  -0.0476777  0.174666  0.100492  0  0  0  0  0  0  0  0  0 
1704730484.073095000  -2.50371  -0.295138  1.00423  0  0  0.0032328  -0.0267073  0.0417847  0.0333293  0  0  0  -0.0429202  0.171116  0.0952389  0  0  0  0  0  0  0  0  0 
1704730484.078092000  -2.50384  -0.294927  1.0044  0  0  0.003316  -0.0269105  0.0426309  0.0337919  0  0  0  -0.0384127  0.167317  0.0897363  0  0  0  0  0  0  0  0  0 
1704730484.083119000  -2.50398  -0.294712  1.00457  0  0  0.0033993  -0.0270918  0.0434575  0.0342263  0  0  0  -0.0341552  0.163267  0.0839837  0  0  0  0  0  0  0  0  0 
1704730484.088100000  -2.50411  -0.294493  1.00474  0  0  0.0034826  -0.0272525  0.0442632  0.0346313  0  0  0  -0.0301477  0.158968  0.0779811  0  0  0  0  0  0  0  0  0 
1704730484.093095000  -2.50425  -0.294269  1.00492  0  0  0.0035658  -0.0273937  0.0450467  0.0350059  0  0  0  -0.0263902  0.154418  0.071875  0  0  0  0  0  0  0  0  0 
1704730484.098092000  -2.50439  -0.294042  1.00509  0  0  0.0036491  -0.0275168  0.0458069  0.0353505  0  0  0  -0.0228827  0.149619  0.0660052  0  0  0  0  0  0  0  0  0 
1704730484.103117000  -2.50452  -0.293811  1.00527  0  0  0.0037323  -0.0276229  0.0465425  0.0356663  0  0  0  -0.0196252  0.14457  0.0603855  0  0  0  0  0  0  0  0  0 
1704730484.108110000  -2.50466  -0.293577  1.00545  0  0  0.0038156  -0.0277134  0.0472522  0.0359547  0  0  0  -0.0166177  0.13927  0.0550157  0  0  0  0  0  0  0  0  0 
1704730484.113095000  -2.5048  -0.293339  1.00563  0  0  0.0038989  -0.0277895  0.0479348  0.0362169  0  0  0  -0.0138602  0.133721  0.0498959  0  0  0  0  0  0  0  0  0 
1704730484.118091000  -2.50494  -0.293097  1.00581  0  0  0.0039821  -0.0278525  0.048589  0.0364541  0  0  0  -0.0113527  0.127921  0.0450261  0  0  0  0  0  0  0  0  0 
1704730484.123100000  -2.50508  -0.292853  1.006  0  0  0.0040654  -0.0279035  0.0492136  0.0366676  0  0  0  -0.0090952  0.121872  0.0404063  0  0  0  0  0  0  0  0  0 
1704730484.128102000  -2.50522  -0.292605  1.00618  0  0  0.0041486  -0.0279438  0.0498073  0.0368586  0  0  0  -0.0070877  0.115572  0.0360365  0  0  0  0  0  0  0  0  0 
1704730484.133094000  -2.50536  -0.292355  1.00636  0  0  0.0042319  -0.0279748  0.0503689  0.0370284  0  0  0  -0.0053301  0.109023  0.0319167  0  0  0  0  0  0  0  0  0 
1704730484.138107000  -2.5055  -0.292102  1.00655  0  0  0.0043152  -0.0279975  0.0508971  0.0371782  0  0  0  -0.0038226  0.102223  0.0280469  0  0  0  0  0  0  0  0  0 
1704730484.143113000  -2.50564  -0.291846  1.00674  0  0  0.0043984  -0.0280134  0.0513908  0.0373093  0  0  0  -0.0025651  0.0952484  0.0244271  0  0  0  0  0  0  0  0  0 
1704730484.148098000  -2.50578  -0.291588  1.00692  0  0  0.0044817  -0.0280236  0.05185  0.0374229  0  0  0  -0.0015576  0.0884724  0.0210573  0  0  0  0  0  0  0  0  0 
1704730484.153106000  -2.50592  -0.291328  1.00711  0  0  0.004565  -0.0280294  0.0522759  0.0375203  0  0  0  -0.0008001  0.0819464  0.0179375  0  0  0  0  0  0  0  0  0 
1704730484.158093000  -2.50606  -0.291065  1.0073  0  0  0.0046482  -0.028032  0.0526698  0.0376027  0  0  0  -0.0002926  0.0756703  0.0150678  0  0  0  0  0  0  0  0  0 
1704730484.163105000  -2.5062  -0.290801  1.00749  0  0  0.0047315  -0.0280327  0.053033  0.0376713  0  0  0  -3.51e-05  0.0696443  0.012448  0  0  0  0  0  0  0  0  0 
1704730484.168090000  -2.50634  -0.290535  1.00767  0  0  0.0048147  -0.0280328  0.0533667  0.0377276  0  0  0  0  0.0638683  0.0100782  0  0  0  0  0  0  0  0  0 
1704730484.173093000  -2.50648  -0.290267  1.00786  0  0  0.004898  -0.0280328  0.0536721  0.0377725  0  0  0  0  0.0583422  0.0079584  0  0  0  0  0  0  0  0  0 
1704730484.178092000  -2.50662  -0.289998  1.00805  0  0  0.0049813  -0.0280328  0.0539505  0.0378076  0  0  0  0  0.0530662  0.0060886  0  0  0  0  0  0  0  0  0 
1704730484.183100000  -2.50676  -0.289728  1.00824  0  0  0.0050645  -0.0280328  0.0542032  0.0378338  0  0  0  0  0.0480402  0.0044688  0  0  0  0  0  0  0  0  0 
1704730484.188090000  -2.5069  -0.289456  1.00843  0  0  0.0051478  -0.0280328  0.0544314  0.0378527  0  0  0  0  0.0432642  0.003099  0  0  0  0  0  0  0  0  0 
1704730484.193092000  -2.50704  -0.289184  1.00862  0  0  0.0052311  -0.0280328  0.0546363  0.0378653  0  0  0  0  0.0387381  0.0019792  0  0  0  0  0  0  0  0  0 
1704730484.198090000  -2.50718  -0.28891  1.00881  0  0  0.0053143  -0.0280328  0.0548192  0.0378729  0  0  0  0  0.0344621  0.0011094  0  0  0  0  0  0  0  0  0 
1704730484.203098000  -2.50732  -0.288635  1.009  0  0  0.0053976  -0.0280328  0.0549813  0.0378768  0  0  0  0  0.0304361  0.0004896  0  0  0  0  0  0  0  0  0 
1704730484.208091000  -2.50746  -0.28836  1.00919  0  0  0.0054808  -0.0280328  0.0551239  0.0378782  0  0  0  0  0.02666  0.0001198  0  0  0  0  0  0  0  0  0 
1704730484.213092000  -2.5076  -0.288084  1.00938  0  0  0.0055641  -0.0280328  0.0552483  0.0378784  0  0  0  0  0.023134  0  0  0  0  0  0  0  0  0  0 
1704730484.218090000  -2.50774  -0.287808  1.00957  0  0  0.0056474  -0.0280328  0.0553557  0.0378784  0  0  0  0  0.019858  0  0  0  0  0  0  0  0  0  0 
1704730484.223105000  -2.50788  -0.287531  1.00976  0  0  0.0057306  -0.0280328  0.0554473  0.0378784  0  0  0  0  0.0168319  0  0  0  0  0  0  0  0  0  0 
1704730484.228091000  -2.50802  -0.287253  1.00995  0  0  0.0058139  -0.0280328  0.0555244  0.0378784  0  0  0  0  0.0140559  0  0  0  0  0  0  0  0  0  0 
1704730484.233097000  -2.50816  -0.286975  1.01013  0  0  0.0058972  -0.0280328  0.0555883  0.0378784  0  0  0  0  0.0115299  0  0  0  0  0  0  0  0  0  0 
1704730484.238091000  -2.5083  -0.286697  1.01032  0  0  0.0059804  -0.0280328  0.0556402  0.0378784  0  0  0  0  0.0092539  0  0  0  0  0  0  0  0  0  0 
1704730484.243104000  -2.50844  -0.286419  1.01051  0  0  0.0060637  -0.0280328  0.0556813  0.0378784  0  0  0  0  0.0072278  0  0  0  0  0  0  0  0  0  0 
1704730484.248090000  -2.50858  -0.286141  1.0107  0  0  0.0061469  -0.0280328  0.0557128  0.0378784  0  0  0  0  0.0054518  0  0  0  0  0  0  0  0  0  0 
1704730484.253093000  -2.50872  -0.285862  1.01089  0  0  0.0062302  -0.0280328  0.0557362  0.0378784  0  0  0  0  0.0039258  0  0  0  0  0  0  0  0  0  0 
1704730484.258091000  -2.50886  -0.285583  1.01108  0  0  0.0063135  -0.0280328  0.0557525  0.0378784  0  0  0  0  0.0026497  0  0  0  0  0  0  0  0  0  0 
1704730484.263103000  -2.509  -0.285304  1.01127  0  0  0.0063967  -0.0280328  0.0557631  0.0378784  0  0  0  0  0.0016237  0  0  0  0  0  0  0  0  0  0 
1704730484.268091000  -2.50914  -0.285026  1.01146  0  0  0.00648  -0.0280328  0.0557692  0.0378784  0  0  0  0  0.0008477  0  0  0  0  0  0  0  0  0  0 
1704730484.273097000  -2.50928  -0.284747  1.01165  0  0  0.0065632  -0.0280328  0.055772  0.0378784  0  0  0  0  0.0003216  0  0  0  0  0  0  0  0  0  0 
1704730484.278090000  -2.50942  -0.284468  1.01184  0  0  0.0066465  -0.0280328  0.0557728  0.0378784  0  0  0  0  4.56e-05  0  0  0  0  0  0  0  0  0  0 
1704730484.283103000  -2.50956  -0.284189  1.01203  0  0  0.0067298  -0.0280328  0.0557728  0.0378784  0  0  0  0  -1.02e-05  0  0  0  0  0  0  0  0  0  0 
1704730484.288091000  -2.5097  -0.28391  1.01222  0  0  0.006813  -0.0280328  0.0557724  0.0378784  0  0  0  0  -0.0002068  0  0  0  0  0  0  0  0  0  0 
1704730484.293092000  -2.50984  -0.283631  1.01241  0  0  0.0068963  -0.0280328  0.0557704  0.0378784  0  0  0  0  -0.0006533  0  0  0  0  0  0  0  0  0  0 
1704730484.298090000  -2.50998  -0.283352  1.0126  0  0  0.0069796  -0.0280328  0.0557655  0.0378784  0  0  0  0  -0.0013498  0  0  0  0  0  0  0  0  0  0 
1704730484.303104000  -2.51012  -0.283074  1.01279  0  0  0.0070628  -0.0280328  0.0557564  0.0378784  0  0  0  0  -0.0022964  0  0  0  0  0  0  0  0  0  0 
1704730484.308089000  -2.51026  -0.282795  1.01298  0  0  0.0071461  -0.0280328  0.0557421  0.0378784  0  0  0  0  -0.0034929  0  0  0  0  0  0  0  0  0  0 
1704730484.313095000  -2.51041  -0.282516  1.01316  0  0  0.0072293  -0.0280328  0.0557211  0.0378784  0  0  0  0  -0.0049394  0  0  0  0  0  0  0  0  0  0 
1704730484.318090000  -2.51055  -0.282238  1.01335  0  0  0.0073126  -0.0280328  0.0556923  0.0378784  0  0  0  0  -0.006636  0  0  0  0  0  0  0  0  0  0 
1704730484.323110000  -2.51069  -0.281959  1.01354  0  0  0.0073959  -0.0280328  0.0556543  0.0378784  0  0  0  0  -0.0085825  0  0  0  0  0  0  0  0  0  0 
1704730484.328090000  -2.51083  -0.281681  1.01373  0  0  0.0074791  -0.0280328  0.055606  0.0378784  0  0  0  0  -0.0107791  0  0  0  0  0  0  0  0  0  0 
1704730484.333094000  -2.51097  -0.281403  1.01392  0  0  0.0075624  -0.0280328  0.0555461  0.0378784  0  0  0  0  -0.0132256  0  0  0  0  0  0  0  0  0  0 
1704730484.338091000  -2.51111  -0.281126  1.01411  0  0  0.0076457  -0.0280328  0.0554734  0.0378784  0  0  0  0  -0.0159221  0  0  0  0  0  0  0  0  0  0 
1704730484.343104000  -2.51125  -0.280849  1.0143  0  0  0.0077289  -0.0280328  0.0553865  0.0378784  0  0  0  0  -0.0188687  0  0  0  0  0  0  0  0  0  0 
1704730484.348091000  -2.51139  -0.280572  1.01449  0  0  0.0078122  -0.0280328  0.0552843  0.0378784  0  0  0  0  -0.0220652  0  0  0  0  0  0  0  0  0  0 
1704730484.353094000  -2.51153  -0.280296  1.01468  0  0  0.0078955  -0.0280328  0.0551654  0.0378784  0  0  0  0  -0.0255117  0  0  0  0  0  0  0  0  0  0 
1704730484.358091000  -2.51167  -0.28002  1.01487  0  0  0.0079787  -0.0280328  0.0550287  0.0378784  0  0  0  0  -0.0292083  0  0  0  0  0  0  0  0  0  0 
1704730484.363096000  -2.51181  -0.279745  1.01506  0  0  0.008062  -0.0280328  0.0548729  0.0378784  0  0  0  0  -0.0331548  0  0  0  0  0  0  0  0  0  0 
1704730484.368091000  -2.51195  -0.279472  1.01525  0  0  0.0081452  -0.0280328  0.0546968  0.0378784  0  0  0  0  -0.0373514  0  0  0  0  0  0  0  0  0  0 
1704730484.373096000  -2.51209  -0.279199  1.01544  0  0  0.0082285  -0.0280328  0.054499  0.0378784  0  0  0  0  -0.0417979  0  0  0  0  0  0  0  0  0  0 
1704730484.378090000  -2.51223  -0.278927  1.01563  0  0  0.0083118  -0.0280328  0.0542784  0.0378784  0  0  0  0  -0.0464944  0  0  0  0  0  0  0  0  0  0 
1704730484.383107000  -2.51237  -0.278656  1.01582  0  0  0.008395  -0.0280328  0.0540336  0.0378784  0  0  0  0  -0.051441  0  0  0  0  0  0  0  0  0  0 
1704730484.388090000  -2.51251  -0.278386  1.01601  0  0  0.0084783  -0.0280328  0.0537635  0.0378784  0  0  0  0  -0.0566375  0  0  0  0  0  0  0  0  0  0 
1704730484.393094000  -2.51265  -0.278118  1.01619  0  0  0.0085615  -0.0280328  0.0534668  0.0378784  0  0  0  0  -0.062084  0  0  0  0  0  0  0  0  0  0 
1704730484.398091000  -2.51279  -0.277852  1.01638  0  0  0.0086448  -0.0280328  0.0531423  0.0378782  0  0  0  0  -0.0677806  -9.92e-05  0  0  0  0  0  0  0  0  0 
1704730484.403109000  -2.51293  -0.277587  1.01657  0  0  0.0087281  -0.0280328  0.0527886  0.037877  0  0  0  0  -0.0737271  -0.0004468  0  0  0  0  0  0  0  0  0 
1704730484.408088000  -2.51307  -0.277324  1.01676  0  0  0.0088113  -0.0280328  0.0524046  0.0378733  0  0  0  0  -0.0799236  -0.0010445  0  0  0  0  0  0  0  0  0 
1704730484.413093000  -2.51321  -0.277063  1.01695  0  0  0.0088946  -0.0280328  0.051989  0.0378661  0  0  0  0  -0.0863702  -0.0018922  0  0  0  0  0  0  0  0  0 
1704730484.418091000  -2.51335  -0.276804  1.01714  0  0  0.0089779  -0.0280328  0.0515405  0.037854  0  0  0  0  -0.0930667  -0.0029898  0  0  0  0  0  0  0  0  0 
1704730484.423103000  -2.51349  -0.276547  1.01733  0  0  0.0090611  -0.0280328  0.0510579  0.0378358  0  0  0  0  -0.100013  -0.0043375  0  0  0  0  0  0  0  0  0 
1704730484.428090000  -2.51363  -0.276293  1.01752  0  0  0.0091444  -0.0280328  0.0505399  0.0378102  0  0  0  0  -0.10721  -0.0059352  0  0  0  0  0  0  0  0  0 
1704730484.433099000  -2.51377  -0.276042  1.01771  0  0  0.0092277  -0.0280328  0.0499854  0.037776  0  0  0  0  -0.114656  -0.0077829  0  0  0  0  0  0  0  0  0 
1704730484.438090000  -2.51391  -0.275794  1.0179  0  0  0.0093109  -0.0280328  0.0493929  0.037732  0  0  0  0  -0.122353  -0.0098805  0  0  0  0  0  0  0  0  0 
1704730484.443107000  -2.51405  -0.275548  1.01809  0  0  0.0093942  -0.0280328  0.0487614  0.0376768  0  0  0  0  -0.130299  -0.0122282  0  0  0  0  0  0  0  0  0 
1704730484.448090000  -2.51419  -0.275306  1.01827  0  0  0.0094774  -0.0280328  0.0480895  0.0376093  0  0  0  0  -0.138496  -0.0148259  0  0  0  0  0  0  0  0  0 
1704730484.453094000  -2.51433  -0.275067  1.01846  0  0  0.0095607  -0.0280328  0.047376  0.0375281  0  0  0  0  -0.146942  -0.0176735  0  0  0  0  0  0  0  0  0 
1704730484.458089000  -2.51447  -0.274832  1.01865  0  0  0.009644  -0.0280328  0.0466197  0.0374321  0  0  0  0  -0.155639  -0.0207712  0  0  0  0  0  0  0  0  0 
1704730484.463104000  -2.51461  -0.274601  1.01884  0  0  0.0097272  -0.0280328  0.0458192  0.03732  0  0  0  0  -0.164586  -0.0241189  0  0  0  0  0  0  0  0  0 
1704730484.468091000  -2.51475  -0.274374  1.01902  0  0  0.0098105  -0.0280328  0.0449734  0.0371905  0  0  0  0  -0.173782  -0.0277165  0  0  0  0  0  0  0  0  0 
1704730484.473097000  -2.51489  -0.274152  1.01921  0  0  0.0098937  -0.0280328  0.044081  0.0370424  0  0  0  0  -0.183229  -0.0315642  0  0  0  0  0  0  0  0  0 
1704730484.478091000  -2.51503  -0.273934  1.01939  0  0  0.009977  -0.0280328  0.0431407  0.0368745  0  0  0  0  -0.192925  -0.0356619  0  0  0  0  0  0  0  0  0 
1704730484.483109000  -2.51517  -0.27372  1.01958  0  0  0.0100603  -0.0280328  0.0421513  0.0366854  0  0  0  0  -0.202872  -0.0400095  0  0  0  0  0  0  0  0  0 
1704730484.488090000  -2.51531  -0.273512  1.01976  0  0  0.0101435  -0.0280328  0.0411116  0.0364739  0  0  0  0  -0.213068  -0.0446072  0  0  0  0  0  0  0  0  0 
1704730484.493092000  -2.51545  -0.273309  1.01994  0  0  0.0102268  -0.0280328  0.0400202  0.0362389  0  0  0  0  -0.223515  -0.0494549  0  0  0  0  0  0  0  0  0 
1704730484.498089000  -2.51559  -0.273112  1.02012  0  0  0.0103101  -0.0280328  0.038876  0.035979  0  0  0  0  -0.234178  -0.0545525  0  0  0  0  0  0  0  0  0 
1704730484.503106000  -2.51573  -0.272921  1.0203  0  0  0.0103933  -0.0280328  0.0376788  0.035693  0  0  0  0  -0.244691  -0.0599002  0  0  0  0  0  0  0  0  0 
1704730484.508093000  -2.51587  -0.272735  1.02048  0  0  0.0104766  -0.0280328  0.0364295  0.0353796  0  0  0  0  -0.254954  -0.0654979  0  0  0  0  0  0  0  0  0 
1704730484.513091000  -2.51601  -0.272556  1.02066  0  0  0.0105598  -0.0280328  0.0351296  0.0350376  0  0  0  0  -0.264968  -0.0713456  0  0  0  0  0  0  0  0  0 
1704730484.518091000  -2.51615  -0.272384  1.02083  0  0  0.0106431  -0.0280328  0.0337803  0.0346657  0  0  0  0  -0.274731  -0.0774432  0  0  0  0  0  0  0  0  0 
1704730484.523099000  -2.51629  -0.272219  1.021  0  0  0.0107264  -0.0280328  0.0323827  0.0342627  0  0  0  0  -0.284244  -0.0837909  0  0  0  0  0  0  0  0  0 
1704730484.528091000  -2.51643  -0.27206  1.02117  0  0  0.0108096  -0.0280328  0.0309383  0.0338274  0  0  0  0  -0.293507  -0.0903886  0  0  0  0  0  0  0  0  0 
1704730484.533093000  -2.51657  -0.271909  1.02134  0  0  0.0108929  -0.0280328  0.0294481  0.0333584  0  0  0  0  -0.302521  -0.0972362  0  0  0  0  0  0  0  0  0 
1704730484.538091000  -2.51671  -0.271766  1.02151  0  0  0.0109762  -0.0280328  0.0279135  0.0328546  0  0  0  0  -0.311284  -0.104334  0  0  0  0  0  0  0  0  0 
1704730484.543105000  -2.51685  -0.27163  1.02167  0  0  0.0110594  -0.0280328  0.0263357  0.0323146  0  0  0  0  -0.319797  -0.111682  0  0  0  0  0  0  0  0  0 
1704730484.548091000  -2.51699  -0.271503  1.02183  0  0  0.0111427  -0.0280328  0.0247159  0.0317374  0  0  0  0  -0.328061  -0.119279  0  0  0  0  0  0  0  0  0 
1704730484.553093000  -2.51713  -0.271383  1.02199  0  0  0.0112259  -0.0280328  0.0230555  0.0311214  0  0  0  0  -0.336074  -0.127127  0  0  0  0  0  0  0  0  0 
1704730484.558092000  -2.51727  -0.271272  1.02214  0  0  0.0113092  -0.0280328  0.0213556  0.0304657  0  0  0  0  -0.343837  -0.135225  0  0  0  0  0  0  0  0  0 
1704730484.563111000  -2.51741  -0.27117  1.02229  0  0  0.0113925  -0.0280328  0.0196175  0.0297688  0  0  0  0  -0.35135  -0.143572  0  0  0  0  0  0  0  0  0 
1704730484.568094000  -2.51755  -0.271076  1.02244  0  0  0.0114757  -0.0280328  0.0178425  0.0290295  0  0  0  0  -0.358614  -0.15217  0  0  0  0  0  0  0  0  0 
1704730484.573090000  -2.51769  -0.270991  1.02258  0  0  0.011559  -0.0280328  0.0160318  0.0282467  0  0  0  0  -0.365627  -0.161018  0  0  0  0  0  0  0  0  0 
1704730484.578091000  -2.51783  -0.270916  1.02272  0  0  0.0116423  -0.0280328  0.0141866  0.0274189  0  0  0  0  -0.37239  -0.170115  0  0  0  0  0  0  0  0  0 
1704730484.583104000  -2.51797  -0.27085  1.02286  0  0  0.0117255  -0.0280328  0.0123083  0.0265451  0  0  0  0  -0.378904  -0.179463  0  0  0  0  0  0  0  0  0 
1704730484.588089000  -2.51811  -0.270793  1.02299  0  0  0.0118088  -0.0280328  0.010398  0.0256239  0  0  0  0  -0.385167  -0.189061  0  0  0  0  0  0  0  0  0 
1704730484.593089000  -2.51825  -0.270746  1.02311  0  0  0.011892  -0.0280328  0.0084571  0.0246541  0  0  0  0  -0.39118  -0.198908  0  0  0  0  0  0  0  0  0 
1704730484.598089000  -2.51839  -0.270708  1.02323  0  0  0.0119753  -0.0280328  0.0064866  0.0236344  0  0  0  0  -0.396943  -0.209006  0  0  0  0  0  0  0  0  0 
1704730484.603103000  -2.51853  -0.270681  1.02335  0  0  0.0120586  -0.0280328  0.004488  0.0225636  0  0  0  0  -0.402457  -0.219354  0  0  0  0  0  0  0  0  0 
1704730484.608090000  -2.51867  -0.270663  1.02346  0  0  0.0121418  -0.0280328  0.0024625  0.0214404  0  0  0  0  -0.40772  -0.229951  0  0  0  0  0  0  0  0  0 
1704730484.613089000  -2.51881  -0.270656  1.02356  0  0  0.0122251  -0.0280328  0.0004113  0.0202637  0  0  0  0  -0.412733  -0.240799  0  0  0  0  0  0  0  0  0 
1704730484.618091000  -2.51896  -0.270659  1.02366  0  0  0.0123084  -0.0280328  -0.0016644  0.019032  0  0  0  0  -0.417497  -0.251897  0  0  0  0  0  0  0  0  0 
1704730484.623107000  -2.5191  -0.270673  1.02375  0  0  0.0123916  -0.0280328  -0.0037633  0.0177443  0  0  0  0  -0.42201  -0.263244  0  0  0  0  0  0  0  0  0 
1704730484.628092000  -2.51924  -0.270697  1.02384  0  0  0.0124749  -0.0280328  -0.0058841  0.0163992  0  0  0  0  -0.426273  -0.274842  0  0  0  0  0  0  0  0  0 
1704730484.633092000  -2.51938  -0.270732  1.02392  0  0  0.0125581  -0.0280328  -0.0080256  0.0149954  0  0  0  0  -0.430286  -0.28669  0  0  0  0  0  0  0  0  0 
1704730484.638092000  -2.51952  -0.270777  1.02399  0  0  0.0126414  -0.0280328  -0.0101866  0.0135319  0  0  0  0  -0.43405  -0.298787  0  0  0  0  0  0  0  0  0 
1704730484.643109000  -2.51966  -0.270834  1.02405  0  0  0.0127247  -0.0280328  -0.0123657  0.0120072  0  0  0  0  -0.437563  -0.311135  0  0  0  0  0  0  0  0  0 
1704730484.648091000  -2.5198  -0.270901  1.02411  0  0  0.0128079  -0.0280328  -0.0145618  0.0104203  0  0  0  0  -0.440826  -0.323559  0  0  0  0  0  0  0  0  0 
1704730484.653095000  -2.51994  -0.270979  1.02416  0  0  0.0128912  -0.0280328  -0.0167735  0.008772  0  0  0  0  -0.44384  -0.33574  0  0  0  0  0  0  0  0  0 
1704730484.658091000  -2.52008  -0.271069  1.02419  0  0  0.0129745  -0.0280328  -0.0189997  0.0070634  0  0  0  2.51e-05  -0.446603  -0.347671  0  0  0  0  0  0  0  0  0 
1704730484.663107000  -2.52022  -0.271169  1.02423  0  0  0.0130577  -0.0280321  -0.0212391  0.0052957  0  0  0  0.0002621  -0.449116  -0.359353  0  0  0  0  0  0  0  0  0 
1704730484.668092000  -2.52036  -0.271281  1.02425  0  0  0.013141  -0.0280297  -0.0234905  0.0034702  0  0  0  0.0007492  -0.451379  -0.370784  0  0  0  0  0  0  0  0  0 
1704730484.673091000  -2.5205  -0.271404  1.02426  0  0  0.0132242  -0.0280242  -0.0257525  0.0015883  0  0  0  0.0014862  -0.453393  -0.381965  0  0  0  0  0  0  0  0  0 
1704730484.678090000  -2.52064  -0.271539  1.02426  0  0  0.0133075  -0.0280144  -0.028024  -0.000349  0  0  0  0.0024732  -0.455156  -0.392896  0  0  0  0  0  0  0  0  0 
1704730484.683105000  -2.52078  -0.271685  1.02426  0  0  0.0133908  -0.0279991  -0.0303037  -0.0023403  0  0  0  0.0037103  -0.456669  -0.403577  0  0  0  0  0  0  0  0  0 
1704730484.688088000  -2.52092  -0.271842  1.02424  0  0  0.013474  -0.0279769  -0.0325903  -0.0043844  0  0  0  0.0051973  -0.457932  -0.414008  0  0  0  0  0  0  0  0  0 
1704730484.693088000  -2.52106  -0.27201  1.02421  0  0  0.0135573  -0.0279467  -0.0348826  -0.0064799  0  0  0  0.0069343  -0.458946  -0.424189  0  0  0  0  0  0  0  0  0 
1704730484.698089000  -2.5212  -0.272191  1.02418  0  0  0.0136406  -0.0279072  -0.0371793  -0.0086258  0  0  0  0.0089214  -0.459709  -0.434121  0  0  0  0  0  0  0  0  0 
1704730484.703104000  -2.52134  -0.272382  1.02413  0  0  0.0137238  -0.0278571  -0.0394792  -0.0108207  0  0  0  0.0111584  -0.460222  -0.443802  0  0  0  0  0  0  0  0  0 
1704730484.708090000  -2.52147  -0.272585  1.02407  0  0  0.0138071  -0.0277952  -0.0417811  -0.0130634  0  0  0  0.0136455  -0.460486  -0.453233  0  0  0  0  0  0  0  0  0 
1704730484.713089000  -2.52161  -0.2728  1.024  0  0  0.0138903  -0.0277202  -0.0440837  -0.0153526  0  0  0  0.0163825  -0.460499  -0.462414  0  0  0  0  0  0  0  0  0 
1704730484.718089000  -2.52175  -0.273026  1.02391  0  0  0.0139736  -0.0276309  -0.0463857  -0.0176872  0  0  0  0.0193695  -0.460262  -0.471345  0  0  0  0  0  0  0  0  0 
1704730484.723103000  -2.52189  -0.273264  1.02382  0  0  0.0140569  -0.0275261  -0.0486859  -0.0200657  0  0  0  0.0226066  -0.459775  -0.480026  0  0  0  0  0  0  0  0  0 
1704730484.728089000  -2.52203  -0.273513  1.02371  0  0  0.0141401  -0.0274044  -0.050983  -0.022487  0  0  0  0.0260936  -0.459039  -0.488457  0  0  0  0  0  0  0  0  0 
1704730484.733088000  -2.52216  -0.273774  1.02359  0  0  0.0142234  -0.0272647  -0.0532759  -0.0249498  0  0  0  0.0298306  -0.458052  -0.496639  0  0  0  0  0  0  0  0  0 
1704730484.738091000  -2.5223  -0.274046  1.02346  0  0  0.0143067  -0.0271057  -0.0555631  -0.027453  0  0  0  0.0338177  -0.456815  -0.50457  0  0  0  0  0  0  0  0  0 
1704730484.743099000  -2.52244  -0.274329  1.02332  0  0  0.0143899  -0.0269261  -0.0578436  -0.0299951  0  0  0  0.0380547  -0.455329  -0.512251  0  0  0  0  0  0  0  0  0 
1704730484.748091000  -2.52257  -0.274624  1.02316  0  0  0.0144732  -0.0267248  -0.060116  -0.0325751  0  0  0  0.0425417  -0.453592  -0.519682  0  0  0  0  0  0  0  0  0 
1704730484.753090000  -2.5227  -0.274931  1.02299  0  0  0.0145564  -0.0265003  -0.0623791  -0.0351915  0  0  0  0.0472788  -0.451605  -0.526863  0  0  0  0  0  0  0  0  0 
1704730484.758087000  -2.52283  -0.275248  1.02281  0  0  0.0146397  -0.0262515  -0.0646316  -0.0378433  0  0  0  0.0522658  -0.449368  -0.533794  0  0  0  0  0  0  0  0  0 
1704730484.763113000  -2.52296  -0.275577  1.02262  0  0  0.014723  -0.0259774  -0.0668724  -0.0405291  0  0  0  0.0573568  -0.446882  -0.540475  0  0  0  0  0  0  0  0  0 
1704730484.768091000  -2.52309  -0.275917  1.02241  0  0  0.0148062  -0.0256784  -0.0691  -0.0432476  0  0  0  0.0622118  -0.444145  -0.546907  0  0  0  0  0  0  0  0  0 
1704730484.773090000  -2.52322  -0.276268  1.02218  0  0  0.0148895  -0.0253557  -0.0713134  -0.0459977  0  0  0  0.0668167  -0.441158  -0.553088  0  0  0  0  0  0  0  0  0 
1704730484.778108000  -2.52335  -0.27663  1.02195  0  0  0.0149728  -0.0250106  -0.0735112  -0.0487781  0  0  0  0.0711716  -0.437922  -0.559019  0  0  0  0  0  0  0  0  0 
1704730484.783110000  -2.52347  -0.277003  1.02169  0  0  0.015056  -0.0246444  -0.0756922  -0.0515875  0  0  0  0.0752765  -0.434435  -0.5647  0  0  0  0  0  0  0  0  0 
1704730484.788094000  -2.52359  -0.277387  1.02143  0  0  0.0151393  -0.0242583  -0.0778551  -0.0544247  0  0  0  0.0791315  -0.430698  -0.570131  0  0  0  0  0  0  0  0  0 
1704730484.793094000  -2.52371  -0.277781  1.02115  0  0  0.0152225  -0.0238535  -0.0799988  -0.0572884  0  0  0  0.0827364  -0.426711  -0.575312  0  0  0  0  0  0  0  0  0 
1704730484.798092000  -2.52383  -0.278187  1.02086  0  0  0.0153058  -0.0234313  -0.0821218  -0.0601774  0  0  0  0.0860913  -0.422475  -0.580243  0  0  0  0  0  0  0  0  0 
1704730484.803112000  -2.52395  -0.278603  1.02055  0  0  0.0153891  -0.022993  -0.0842231  -0.0630904  0  0  0  0.0891962  -0.417988  -0.584925  0  0  0  0  0  0  0  0  0 
1704730484.808093000  -2.52406  -0.279029  1.02023  0  0  0.0154723  -0.0225398  -0.0863013  -0.0660262  0  0  0  0.0920512  -0.413251  -0.589356  0  0  0  0  0  0  0  0  0 
1704730484.813094000  -2.52417  -0.279466  1.01989  0  0  0.0155556  -0.0220729  -0.0883552  -0.0689835  0  0  0  0.0946561  -0.408265  -0.593537  0  0  0  0  0  0  0  0  0 
1704730484.818091000  -2.52428  -0.279912  1.01954  0  0  0.0156389  -0.0215937  -0.0903835  -0.0719611  0  0  0  0.097011  -0.403028  -0.597468  0  0  0  0  0  0  0  0  0 
1704730484.823090000  -2.52439  -0.280369  1.01917  0  0  0.0157221  -0.0211032  -0.0923851  -0.0749578  0  0  0  0.0991159  -0.397541  -0.601149  0  0  0  0  0  0  0  0  0 
1704730484.828111000  -2.52449  -0.280836  1.01879  0  0  0.0158054  -0.0206029  -0.0943585  -0.0779722  0  0  0  0.100971  -0.391804  -0.60458  0  0  0  0  0  0  0  0  0 
1704730484.833110000  -2.5246  -0.281313  1.01839  0  0  0.0158886  -0.0200939  -0.0963027  -0.0810032  0  0  0  0.102576  -0.385818  -0.607762  0  0  0  0  0  0  0  0  0 
1704730484.838090000  -2.52469  -0.281799  1.01798  0  0  0.0159719  -0.0195776  -0.0982163  -0.0840494  0  0  0  0.103931  -0.379581  -0.610693  0  0  0  0  0  0  0  0  0 
1704730484.843110000  -2.52479  -0.282295  1.01755  0  0  0.0160552  -0.019055  -0.100098  -0.0871097  0  0  0  0.105036  -0.373094  -0.613374  0  0  0  0  0  0  0  0  0 
1704730484.848103000  -2.52489  -0.2828  1.01711  0  0  0.0161384  -0.0185276  -0.101947  -0.0901827  0  0  0  0.105891  -0.366358  -0.615805  0  0  0  0  0  0  0  0  0 
1704730484.853109000  -2.52498  -0.283314  1.01665  0  0  0.0162217  -0.0179966  -0.103761  -0.0932673  0  0  0  0.106495  -0.359371  -0.617986  0  0  0  0  0  0  0  0  0 
1704730484.858094000  -2.52507  -0.283838  1.01617  0  0  0.016305  -0.0174631  -0.10554  -0.0963622  0  0  0  0.10685  -0.352134  -0.619917  0  0  0  0  0  0  0  0  0 
1704730484.863102000  -2.52515  -0.28437  1.01568  0  0  0.0163882  -0.0169285  -0.107282  -0.0994661  0  0  0  0.106955  -0.344647  -0.621598  0  0  0  0  0  0  0  0  0 
1704730484.868092000  -2.52523  -0.28491  1.01518  0  0  0.0164715  -0.016394  -0.108986  -0.102578  0  0  0  0.10681  -0.336911  -0.62303  0  0  0  0  0  0  0  0  0 
1704730484.873095000  -2.52532  -0.28546  1.01466  0  0  0.0165547  -0.0158608  -0.110651  -0.105696  0  0  0  0.106415  -0.328924  -0.624211  0  0  0  0  0  0  0  0  0 
1704730484.878092000  -2.52539  -0.286017  1.01412  0  0  0.016638  -0.0153302  -0.112275  -0.108819  0  0  0  0.10577  -0.320687  -0.625142  0  0  0  0  0  0  0  0  0 
1704730484.883101000  -2.52547  -0.286582  1.01357  0  0  0.0167213  -0.0148035  -0.113857  -0.111947  0  0  0  0.104875  -0.312201  -0.625823  0  0  0  0  0  0  0  0  0 
1704730484.888091000  -2.52554  -0.287155  1.013  0  0  0.0168045  -0.0142819  -0.115397  -0.115077  0  0  0  0.10373  -0.303464  -0.626254  0  0  0  0  0  0  0  0  0 
1704730484.893103000  -2.52561  -0.287736  1.01242  0  0  0.0168878  -0.0137666  -0.116892  -0.118209  0  0  0  0.102335  -0.294477  -0.626435  0  0  0  0  0  0  0  0  0 
1704730484.898090000  -2.52568  -0.288324  1.01182  0  0  0.0169711  -0.013259  -0.118341  -0.121341  0  0  0  0.10069  -0.28524  -0.626366  0  0  0  0  0  0  0  0  0 
1704730484.903096000  -2.52574  -0.288919  1.0112  0  0  0.0170543  -0.0127601  -0.119744  -0.124472  0  0  0  0.0987948  -0.275754  -0.626048  0  0  0  0  0  0  0  0  0 
1704730484.908090000  -2.52581  -0.289522  1.01057  0  0  0.0171376  -0.0122714  -0.121098  -0.127601  0  0  0  0.0966497  -0.266017  -0.625479  0  0  0  0  0  0  0  0  0 
1704730484.913100000  -2.52587  -0.29013  1.00993  0  0  0.0172208  -0.0117941  -0.122403  -0.130727  0  0  0  0.0942546  -0.25603  -0.62466  0  0  0  0  0  0  0  0  0 
1704730484.918091000  -2.52592  -0.290746  1.00927  0  0  0.0173041  -0.0113293  -0.123658  -0.133847  0  0  0  0.0916095  -0.245794  -0.623591  0  0  0  0  0  0  0  0  0 
1704730484.923094000  -2.52598  -0.291367  1.00859  0  0  0.0173874  -0.0108784  -0.124861  -0.136962  0  0  0  0.0887145  -0.235307  -0.622272  0  0  0  0  0  0  0  0  0 
1704730484.928097000  -2.52603  -0.291994  1.0079  0  0  0.0174706  -0.0104426  -0.126011  -0.14007  0  0  0  0.0855694  -0.22457  -0.620703  0  0  0  0  0  0  0  0  0 
1704730484.933105000  -2.52608  -0.292627  1.00719  0  0  0.0175539  -0.0100231  -0.127106  -0.143169  0  0  0  0.0821743  -0.213583  -0.618884  0  0  0  0  0  0  0  0  0 
1704730484.938090000  -2.52613  -0.293265  1.00647  0  0  0.0176372  -0.0096212  -0.128146  -0.146258  0  0  0  0.0785292  -0.202347  -0.616816  0  0  0  0  0  0  0  0  0 
1704730484.943092000  -2.52618  -0.293908  1.00573  0  0  0.0177204  -0.0092382  -0.129129  -0.149337  0  0  0  0.0746342  -0.19086  -0.614497  0  0  0  0  0  0  0  0  0 
1704730484.948090000  -2.52623  -0.294556  1.00497  0  0  0.0178037  -0.0088753  -0.130054  -0.152403  0  0  0  0.0704891  -0.179123  -0.611928  0  0  0  0  0  0  0  0  0 
1704730484.953098000  -2.52627  -0.295209  1.0042  0  0  0.0178869  -0.0085337  -0.13092  -0.155455  0  0  0  0.066094  -0.167137  -0.609109  0  0  0  0  0  0  0  0  0 
1704730484.958091000  -2.52631  -0.295865  1.00342  0  0  0.0179702  -0.0082148  -0.131725  -0.158493  0  0  0  0.0614489  -0.1549  -0.60604  0  0  0  0  0  0  0  0  0 
1704730484.963094000  -2.52635  -0.296526  1.00262  0  0  0.0180535  -0.0079197  -0.132469  -0.161515  0  0  0  0.0565539  -0.142413  -0.602721  0  0  0  0  0  0  0  0  0 
1704730484.968091000  -2.52639  -0.29719  1.0018  0  0  0.0181367  -0.0076497  -0.133149  -0.16452  0  0  0  0.0514088  -0.129676  -0.599152  0  0  0  0  0  0  0  0  0 
1704730484.973126000  -2.52643  -0.297857  1.00097  0  0  0.01822  -0.007406  -0.133765  -0.167507  0  0  0  0.0460137  -0.11669  -0.595334  0  0  0  0  0  0  0  0  0 
1704730484.978090000  -2.52646  -0.298527  1.00013  0  0  0.0183033  -0.0071899  -0.134315  -0.170473  0  0  0  0.0403686  -0.103453  -0.591265  0  0  0  0  0  0  0  0  0 
1704730484.983095000  -2.5265  -0.2992  0.999268  0  0  0.0183865  -0.0070027  -0.134799  -0.173419  0  0  0  0.0344736  -0.0899662  -0.586946  0  0  0  0  0  0  0  0  0 
1704730484.988109000  -2.52653  -0.299875  0.998394  0  0  0.0184698  -0.0068456  -0.135215  -0.176342  0  0  0  0.0283285  -0.0762295  -0.582377  0  0  0  0  0  0  0  0  0 
1704730484.993109000  -2.52657  -0.300552  0.997505  0  0  0.018553  -0.0067199  -0.135561  -0.179242  0  0  0  0.0219334  -0.0622428  -0.577558  0  0  0  0  0  0  0  0  0 
1704730484.998107000  -2.5266  -0.301231  0.996601  0  0  0.0186363  -0.0066267  -0.135837  -0.182117  0  0  0  0.0152884  -0.0480061  -0.572489  0  0  0  0  0  0  0  0  0 
1704730485.003118000  -2.52664  -0.30191  0.995684  0  0  0.0187196  -0.0065674  -0.13604  -0.184967  0  0  0  0.0083933  -0.0335193  -0.56717  0  0  0  0  0  0  0  0  0 
1704730485.008104000  -2.52667  -0.302591  0.994752  0  0  0.0188028  -0.0065432  -0.136171  -0.187789  0  0  0  0.0012482  -0.0187826  -0.561602  0  0  0  0  0  0  0  0  0 
1704730485.013095000  -2.5267  -0.303272  0.993806  0  0  0.0188861  -0.0065553  -0.136228  -0.190582  0  0  0  -0.0061469  -0.0037959  -0.555783  0  0  0  0  0  0  0  0  0 
1704730485.018094000  -2.52673  -0.303953  0.992846  0  0  0.0189694  -0.0066051  -0.136209  -0.193346  0  0  0  -0.0137919  0.0114408  -0.549714  0  0  0  0  0  0  0  0  0 
1704730485.023103000  -2.52677  -0.304634  0.991872  0  0  0.0190526  -0.0066937  -0.136113  -0.196079  0  0  0  -0.021687  0.0269275  -0.543395  0  0  0  0  0  0  0  0  0 
1704730485.028092000  -2.5268  -0.305314  0.990885  0  0  0.0191359  -0.0068224  -0.135939  -0.19878  0  0  0  -0.0298321  0.0426642  -0.536826  0  0  0  0  0  0  0  0  0 
1704730485.033096000  -2.52683  -0.305993  0.989885  0  0  0.0192191  -0.0069924  -0.135686  -0.201447  0  0  0  -0.0382272  0.058651  -0.530007  0  0  0  0  0  0  0  0  0 
1704730485.038093000  -2.52687  -0.306671  0.988871  0  0  0.0193024  -0.0072051  -0.135352  -0.204079  0  0  0  -0.0468722  0.0748869  -0.522938  0  0  0  0  0  0  0  0  0 
1704730485.043092000  -2.52691  -0.307347  0.987844  0  0  0.0193857  -0.0074615  -0.134937  -0.206676  0  0  0  -0.0557673  0.0910949  -0.51562  0  0  0  0  0  0  0  0  0 
1704730485.048103000  -2.52695  -0.30802  0.986804  0  0  0.0194689  -0.0077631  -0.134442  -0.209235  0  0  0  -0.0649124  0.107053  -0.508051  0  0  0  0  0  0  0  0  0 
1704730485.053096000  -2.52698  -0.308691  0.985752  0  0  0.0195522  -0.0081111  -0.133867  -0.211756  0  0  0  -0.0743075  0.122761  -0.500232  0  0  0  0  0  0  0  0  0 
1704730485.058098000  -2.52703  -0.309359  0.984687  0  0  0.0196355  -0.0085066  -0.133215  -0.214237  0  0  0  -0.0839525  0.138219  -0.492163  0  0  0  0  0  0  0  0  0 
1704730485.063099000  -2.52707  -0.310023  0.983609  0  0  0.0197188  -0.008951  -0.132485  -0.216677  0  0  0  -0.0938476  0.153427  -0.483844  0  0  0  0  0  0  0  0  0 
1704730485.068097000  -2.52712  -0.310683  0.98252  0  0  0.0198022  -0.0094455  -0.131681  -0.219075  0  0  0  -0.103993  0.168385  -0.475275  0  0  0  0  0  0  0  0  0 
1704730485.073098000  -2.52716  -0.31134  0.981419  0  0  0.0198858  -0.0099914  -0.130802  -0.221429  0  0  0  -0.114388  0.183093  -0.466456  0  0  0  0  0  0  0  0  0 
1704730485.078096000  -2.52722  -0.311991  0.980306  0  0  0.0199695  -0.0105898  -0.12985  -0.223739  0  0  0  -0.125033  0.197551  -0.457388  0  0  0  0  0  0  0  0  0 
1704730485.083109000  -2.52727  -0.312638  0.979181  0  0  0.0200534  -0.0112421  -0.128827  -0.226003  0  0  0  -0.135928  0.211759  -0.448069  0  0  0  0  0  0  0  0  0 
1704730485.088092000  -2.52733  -0.313279  0.978046  0  0  0.0201377  -0.0119495  -0.127733  -0.228219  0  0  0  -0.147073  0.225717  -0.4385  0  0  0  0  0  0  0  0  0 
1704730485.093092000  -2.52739  -0.313915  0.976899  0  0  0.0202223  -0.0127133  -0.12657  -0.230387  0  0  0  -0.158468  0.239425  -0.428681  0  0  0  0  0  0  0  0  0 
1704730485.098090000  -2.52746  -0.314545  0.975742  0  0  0.0203075  -0.0135346  -0.125339  -0.232506  0  0  0  -0.170113  0.252883  -0.418612  0  0  0  0  0  0  0  0  0 
1704730485.103097000  -2.52753  -0.315169  0.974574  0  0  0.0203932  -0.0144148  -0.124042  -0.234573  0  0  0  -0.182008  0.266091  -0.408293  0  0  0  0  0  0  0  0  0 
1704730485.108089000  -2.5276  -0.315785  0.973396  0  0  0.0204797  -0.0153551  -0.122679  -0.236588  0  0  0  -0.194153  0.279049  -0.397725  0  0  0  0  0  0  0  0  0 
1704730485.113093000  -2.52768  -0.316395  0.972209  0  0  0.020567  -0.0163568  -0.121252  -0.23855  0  0  0  -0.206548  0.291757  -0.386906  0  0  0  0  0  0  0  0  0 
1704730485.118096000  -2.52776  -0.316998  0.971011  0  0  0.0206553  -0.0174207  -0.119762  -0.240457  0  0  0  -0.219004  0.304215  -0.375837  0  0  0  0  0  0  0  0  0 
1704730485.123095000  -2.52785  -0.317593  0.969804  0  0  0.0207447  -0.0185464  -0.11821  -0.242308  0  0  0  -0.231213  0.316423  -0.364518  0  0  0  0  0  0  0  0  0 
1704730485.128091000  -2.52795  -0.31818  0.968588  0  0  0.0208353  -0.0197325  -0.116598  -0.244102  0  0  0  -0.243173  0.328381  -0.352949  0  0  0  0  0  0  0  0  0 
1704730485.133092000  -2.52805  -0.318759  0.967363  0  0  0.0209274  -0.0209777  -0.114926  -0.245837  0  0  0  -0.254882  0.34009  -0.341261  0  0  0  0  0  0  0  0  0 
1704730485.138090000  -2.52816  -0.319329  0.96613  0  0  0.0210211  -0.0222809  -0.113197  -0.247515  0  0  0  -0.266342  0.351548  -0.329803  0  0  0  0  0  0  0  0  0 
1704730485.143100000  -2.52827  -0.319891  0.964888  0  0  0.0211166  -0.0236407  -0.111411  -0.249136  0  0  0  -0.277551  0.362756  -0.318596  0  0  0  0  0  0  0  0  0 
1704730485.148095000  -2.5284  -0.320443  0.963638  0  0  0.0212141  -0.025056  -0.10957  -0.250701  0  0  0  -0.288511  0.373714  -0.307639  0  0  0  0  0  0  0  0  0 
1704730485.153092000  -2.52852  -0.320986  0.962381  0  0  0.0213137  -0.0265254  -0.107675  -0.252212  0  0  0  -0.29922  0.384422  -0.296931  0  0  0  0  0  0  0  0  0 
1704730485.158095000  -2.52866  -0.32152  0.961116  0  0  0.0214158  -0.0280477  -0.105726  -0.253671  0  0  0  -0.309679  0.39488  -0.286474  0  0  0  0  0  0  0  0  0 
1704730485.163100000  -2.52881  -0.322043  0.959845  0  0  0.0215205  -0.0296218  -0.103726  -0.255078  0  0  0  -0.319889  0.405088  -0.276267  0  0  0  0  0  0  0  0  0 
1704730485.168100000  -2.52896  -0.322557  0.958566  0  0  0.021628  -0.0312462  -0.101676  -0.256434  0  0  0  -0.329848  0.415046  -0.266309  0  0  0  0  0  0  0  0  0 
1704730485.173111000  -2.52912  -0.32306  0.95728  0  0  0.0217387  -0.0329198  -0.0995762  -0.257741  0  0  0  -0.339558  0.424754  -0.256602  0  0  0  0  0  0  0  0  0 
1704730485.178107000  -2.52929  -0.323552  0.955988  0  0  0.0218527  -0.0346414  -0.0974287  -0.259  0  0  0  -0.349017  0.434212  -0.247144  0  0  0  0  0  0  0  0  0 
1704730485.183110000  -2.52946  -0.324034  0.95469  0  0  0.0219703  -0.0364096  -0.0952345  -0.260213  0  0  0  -0.358227  0.44342  -0.237937  0  0  0  0  0  0  0  0  0 
1704730485.188094000  -2.52965  -0.324505  0.953386  0  0  0.0220917  -0.0382232  -0.0929949  -0.26138  0  0  0  -0.367186  0.452378  -0.22898  0  0  0  0  0  0  0  0  0 
1704730485.193086000  -2.52985  -0.324964  0.952077  0  0  0.0222172  -0.040081  -0.0907112  -0.262503  0  0  0  -0.375896  0.461086  -0.220272  0  0  0  0  0  0  0  0  0 
1704730485.198091000  -2.53005  -0.325412  0.950761  0  0  0.0223469  -0.0419818  -0.0883845  -0.263583  0  0  0  -0.384355  0.469544  -0.211815  0  0  0  0  0  0  0  0  0 
1704730485.203100000  -2.53027  -0.325848  0.949441  0  0  0.022481  -0.0439242  -0.0860161  -0.264622  0  0  0  -0.392565  0.477752  -0.203607  0  0  0  0  0  0  0  0  0 
1704730485.208091000  -2.53049  -0.326272  0.948115  0  0  0.0226197  -0.045907  -0.0836074  -0.26562  0  0  0  -0.400524  0.48571  -0.19565  0  0  0  0  0  0  0  0  0 
1704730485.213091000  -2.53073  -0.326684  0.946785  0  0  0.0227632  -0.047929  -0.0811595  -0.266579  0  0  0  -0.408234  0.493418  -0.187943  0  0  0  0  0  0  0  0  0 
1704730485.218092000  -2.53097  -0.327083  0.94545  0  0  0.0229117  -0.0499889  -0.0786736  -0.2675  0  0  0  -0.415693  0.500876  -0.180485  0  0  0  0  0  0  0  0  0 
1704730485.223105000  -2.53123  -0.327471  0.94411  0  0  0.0230653  -0.0520855  -0.0761511  -0.268384  0  0  0  -0.422903  0.508084  -0.173278  0  0  0  0  0  0  0  0  0 
1704730485.228095000  -2.53149  -0.327845  0.942766  0  0  0.0232241  -0.0542175  -0.0735932  -0.269233  0  0  0  -0.429862  0.515042  -0.16632  0  0  0  0  0  0  0  0  0 
1704730485.233094000  -2.53177  -0.328206  0.941418  0  0  0.0233884  -0.0563837  -0.0710011  -0.270047  0  0  0  -0.436572  0.52175  -0.159613  0  0  0  0  0  0  0  0  0 
1704730485.238094000  -2.53205  -0.328555  0.940065  0  0  0.0235581  -0.0585828  -0.0683761  -0.270829  0  0  0  -0.443031  0.528208  -0.153156  0  0  0  0  0  0  0  0  0 
1704730485.243099000  -2.53235  -0.32889  0.938709  0  0  0.0237335  -0.0608136  -0.0657194  -0.271579  0  0  0  -0.449241  0.534416  -0.146948  0  0  0  0  0  0  0  0  0 
1704730485.248094000  -2.53266  -0.329212  0.93735  0  0  0.0239147  -0.0630748  -0.0630324  -0.272299  0  0  0  -0.4552  0.540374  -0.140991  0  0  0  0  0  0  0  0  0 
1704730485.253102000  -2.53298  -0.32952  0.935986  0  0  0.0241016  -0.0653652  -0.0603161  -0.27299  0  0  0  -0.460909  0.546082  -0.135283  0  0  0  0  0  0  0  0  0 
1704730485.258093000  -2.53332  -0.329815  0.93462  0  0  0.0242945  -0.0676835  -0.057572  -0.273652  0  0  0  -0.466369  0.55154  -0.129826  0  0  0  0  0  0  0  0  0 
1704730485.263101000  -2.53366  -0.330096  0.93325  0  0  0.0244934  -0.0700285  -0.0548011  -0.274288  0  0  0  -0.471578  0.556748  -0.124619  0  0  0  0  0  0  0  0  0 
1704730485.268094000  -2.53402  -0.330363  0.931877  0  0  0.0246984  -0.0723989  -0.0520049  -0.274899  0  0  0  -0.476538  0.561706  -0.119661  0  0  0  0  0  0  0  0  0 
1704730485.273101000  -2.53439  -0.330616  0.930501  0  0  0.0249095  -0.0747934  -0.0491845  -0.275485  0  0  0  -0.481247  0.566414  -0.114954  0  0  0  0  0  0  0  0  0 
1704730485.278093000  -2.53477  -0.330855  0.929122  0  0  0.0251267  -0.0772109  -0.0463412  -0.276049  0  0  0  -0.485707  0.570873  -0.110496  0  0  0  0  0  0  0  0  0 
1704730485.283104000  -2.53516  -0.331079  0.92774  0  0  0.0253502  -0.0796501  -0.0434762  -0.276591  0  0  0  -0.489916  0.575081  -0.106289  0  0  0  0  0  0  0  0  0 
1704730485.288094000  -2.53556  -0.33129  0.926356  0  0  0.0255799  -0.0821097  -0.0405908  -0.277112  0  0  0  -0.493876  0.579039  -0.102332  0  0  0  0  0  0  0  0  0 
1704730485.293097000  -2.53598  -0.331485  0.924969  0  0  0.0258158  -0.0845884  -0.0376862  -0.277615  0  0  0  -0.497585  0.582747  -0.0986242  0  0  0  0  0  0  0  0  0 
1704730485.298091000  -2.53641  -0.331666  0.92358  0  0  0.0260579  -0.0870851  -0.0347637  -0.278099  0  0  0  -0.501045  0.586205  -0.0951668  0  0  0  0  0  0  0  0  0 
1704730485.303102000  -2.53685  -0.331833  0.922188  0  0  0.0263064  -0.0895984  -0.0318246  -0.278567  0  0  0  -0.504254  0.589413  -0.0919594  0  0  0  0  0  0  0  0  0 
1704730485.308091000  -2.5373  -0.331985  0.920794  0  0  0.026561  -0.0921272  -0.02887  -0.279019  0  0  0  -0.507214  0.592371  -0.089002  0  0  0  0  0  0  0  0  0 
1704730485.313098000  -2.53777  -0.332122  0.919398  0  0  0.026822  -0.0946702  -0.0259013  -0.279457  0  0  0  -0.509923  0.595079  -0.0862946  0  0  0  0  0  0  0  0  0 
1704730485.318091000  -2.53825  -0.332244  0.918  0  0  0.0270891  -0.097226  -0.0229196  -0.279882  0  0  0  -0.512383  0.597537  -0.0838372  0  0  0  0  0  0  0  0  0 
1704730485.323099000  -2.53874  -0.332351  0.916599  0  0  0.0273625  -0.0997936  -0.0199263  -0.280296  0  0  0  -0.514592  0.599745  -0.0816298  0  0  0  0  0  0  0  0  0 
1704730485.328091000  -2.53925  -0.332443  0.915197  0  0  0.0276422  -0.102372  -0.0169226  -0.280699  0  0  0  -0.516552  0.601703  -0.0796724  0  0  0  0  0  0  0  0  0 
1704730485.333091000  -2.53977  -0.33252  0.913792  0  0  0.0279281  -0.104959  -0.0139097  -0.281093  0  0  0  -0.518261  0.603411  -0.077965  0  0  0  0  0  0  0  0  0 
1704730485.338091000  -2.5403  -0.332582  0.912386  0  0  0.0282203  -0.107554  -0.0108889  -0.281479  0  0  0  -0.519721  0.604869  -0.0765076  0  0  0  0  0  0  0  0  0 
1704730485.343097000  -2.54084  -0.332629  0.910978  0  0  0.0285187  -0.110155  -0.0078614  -0.281859  0  0  0  -0.52093  0.606077  -0.0753002  0  0  0  0  0  0  0  0  0 
1704730485.348095000  -2.5414  -0.332661  0.909567  0  0  0.0288234  -0.112763  -0.0048286  -0.282233  0  0  0  -0.521889  0.607035  -0.0743429  0  0  0  0  0  0  0  0  0 
1704730485.353095000  -2.54197  -0.332677  0.908155  0  0  0.0291343  -0.115374  -0.0017915  -0.282602  0  0  0  -0.522599  0.607743  -0.0736355  0  0  0  0  0  0  0  0  0 
1704730485.358090000  -2.54255  -0.332678  0.906741  0  0  0.0294515  -0.117988  0.0012485  -0.282969  0  0  0  -0.523058  0.608201  -0.0731781  0  0  0  0  0  0  0  0  0 
1704730485.363115000  -2.54315  -0.332665  0.905326  0  0  0.0297749  -0.120604  0.0042901  -0.283335  0  0  0  -0.523268  0.608409  -0.0729707  0  0  0  0  0  0  0  0  0 
1704730485.368094000  -2.54334  -0.332702  0.904831  0  0  0.0299542  -0.121472  0.0052586  -0.283479  0  0  0  -0.523282  0.608423  -0.0729571  0  0  0  0  0  0  0  0  0 
1704730485.373093000  -2.54395  -0.332668  0.903413  0  0  0.0302862  -0.124088  0.0083009  -0.283843  0  0  0  -0.523157  0.608548  -0.0728321  0  0  0  0  0  0  0  0  0 
1704730485.378093000  -2.54458  -0.332619  0.901993  0  0  0.0306245  -0.126703  0.0113445  -0.284206  0  0  0  -0.522782  0.608923  -0.0724571  0  0  0  0  0  0  0  0  0 
1704730485.383109000  -2.54522  -0.332555  0.900571  0  0  0.030969  -0.129316  0.0143906  -0.284567  0  0  0  -0.522157  0.609548  -0.0718321  0  0  0  0  0  0  0  0  0 
1704730485.388093000  -2.54587  -0.332475  0.899147  0  0  0.0313198  -0.131925  0.0174404  -0.284924  0  0  0  -0.521282  0.610423  -0.0709571  0  0  0  0  0  0  0  0  0 
1704730485.393098000  -2.54654  -0.33238  0.897722  0  0  0.0316766  -0.134528  0.0204952  -0.285276  0  0  0  -0.520157  0.611548  -0.0698321  0  0  0  0  0  0  0  0  0 
1704730485.398091000  -2.54721  -0.33227  0.896294  0  0  0.0320397  -0.137126  0.0235563  -0.285622  0  0  0  -0.518782  0.612923  -0.0684571  0  0  0  0  0  0  0  0  0 
1704730485.403105000  -2.54791  -0.332145  0.894865  0  0  0.0324087  -0.139716  0.0266249  -0.285961  0  0  0  -0.517157  0.614548  -0.0668321  0  0  0  0  0  0  0  0  0 
1704730485.408091000  -2.54861  -0.332004  0.893435  0  0  0.0327838  -0.142297  0.0297022  -0.28629  0  0  0  -0.515282  0.616423  -0.0649571  0  0  0  0  0  0  0  0  0 
1704730485.413091000  -2.54933  -0.331848  0.892003  0  0  0.0331649  -0.144868  0.0327895  -0.28661  0  0  0  -0.513157  0.618548  -0.0628321  0  0  0  0  0  0  0  0  0 
1704730485.418091000  -2.55006  -0.331676  0.890569  0  0  0.0335517  -0.147428  0.0358881  -0.286918  0  0  0  -0.510782  0.620923  -0.0604571  0  0  0  0  0  0  0  0  0 
1704730485.423097000  -2.5508  -0.331489  0.889133  0  0  0.0339443  -0.149975  0.0389992  -0.287214  0  0  0  -0.508157  0.623548  -0.0578321  0  0  0  0  0  0  0  0  0 
1704730485.428091000  -2.55156  -0.331286  0.887697  0  0  0.0343426  -0.152509  0.042124  -0.287496  0  0  0  -0.505282  0.626423  -0.0549571  0  0  0  0  0  0  0  0  0 
1704730485.433091000  -2.55233  -0.331068  0.886259  0  0  0.0347464  -0.155028  0.0452638  -0.287763  0  0  0  -0.502157  0.629548  -0.0518321  0  0  0  0  0  0  0  0  0 
1704730485.438091000  -2.55311  -0.330833  0.884819  0  0  0.0351556  -0.15753  0.0484199  -0.288014  0  0  0  -0.498782  0.632923  -0.0484571  0  0  0  0  0  0  0  0  0 
1704730485.443107000  -2.5539  -0.330583  0.883378  0  0  0.03557  -0.160015  0.0515935  -0.288247  0  0  0  -0.495157  0.636548  -0.0448321  0  0  0  0  0  0  0  0  0 
1704730485.448090000  -2.55471  -0.330317  0.881937  0  0  0.0359896  -0.162481  0.0547858  -0.288462  0  0  0  -0.491282  0.640423  -0.0409571  0  0  0  0  0  0  0  0  0 
1704730485.453092000  -2.55553  -0.330035  0.880494  0  0  0.0364142  -0.164928  0.0579981  -0.288656  0  0  0  -0.487157  0.644548  -0.0368321  0  0  0  0  0  0  0  0  0 
1704730485.458090000  -2.55636  -0.329737  0.87905  0  0  0.0368435  -0.167353  0.0612317  -0.28883  0  0  0  -0.482782  0.648923  -0.0324571  0  0  0  0  0  0  0  0  0 
1704730485.463107000  -2.5572  -0.329423  0.877606  0  0  0.0372775  -0.169755  0.0644878  -0.288981  0  0  0  -0.478157  0.653548  -0.0278321  0  0  0  0  0  0  0  0  0 
1704730485.468092000  -2.55806  -0.329092  0.87616  0  0  0.0377159  -0.172134  0.0677676  -0.289108  0  0  0  -0.473282  0.658423  -0.0229571  0  0  0  0  0  0  0  0  0 
1704730485.473091000  -2.55892  -0.328745  0.874715  0  0  0.0381586  -0.174487  0.0710724  -0.28921  0  0  0  -0.468157  0.663548  -0.0178321  0  0  0  0  0  0  0  0  0 
1704730485.478091000  -2.5598  -0.328382  0.873268  0  0  0.0386054  -0.176815  0.0744035  -0.289286  0  0  0  -0.462782  0.668923  -0.0124571  0  0  0  0  0  0  0  0  0 
1704730485.483097000  -2.56069  -0.328001  0.871822  0  0  0.0390559  -0.179115  0.077762  -0.289334  0  0  0  -0.457157  0.674548  -0.0068321  0  0  0  0  0  0  0  0  0 
1704730485.488090000  -2.56159  -0.327604  0.870375  0  0  0.0395101  -0.181386  0.0811494  -0.289353  0  0  0  -0.451282  0.680423  -0.0009571  0  0  0  0  0  0  0  0  0 
1704730485.493091000  -2.56251  -0.32719  0.868928  0  0  0.0399676  -0.183627  0.0845667  -0.289343  0  0  0  -0.445157  0.686538  0.0051679  0  0  0  0  0  0  0  0  0 
1704730485.498090000  -2.56343  -0.326758  0.867482  0  0  0.0404282  -0.185837  0.0880145  -0.289301  0  0  0  -0.438782  0.692565  0.0115429  0  0  0  0  0  0  0  0  0 
1704730485.503107000  -2.56436  -0.32631  0.866035  0  0  0.0408918  -0.188015  0.0914919  -0.289227  0  0  0  -0.432157  0.698342  0.0181679  0  0  0  0  0  0  0  0  0 
1704730485.508093000  -2.56531  -0.325843  0.864589  0  0  0.0413579  -0.190158  0.0949975  -0.289119  0  0  0  -0.425282  0.703868  0.0250429  0  0  0  0  0  0  0  0  0 
