    ts      x      y      z   roll  pitch    yaw     vx     vy     vz     wx     wy     wz     ax     ay     az    dwx    dwy    dwz
 0.0050000  -2.5000000  -0.3000000   1.0000000   0.0000000   0.0000000   0.0000000  -0.0000002   0.0000002   0.0000002   0.0000000   0.0000000   0.0000000  -0.0001250   0.0001250   0.0001250   0.0000000   0.0000000   0.0000000
 0.0100000  -2.5000000  -0.3000000   1.0000000   0.0000000   0.0000000   0.0000000  -0.0000017   0.0000017   0.0000017   0.0000000   0.0000000   0.0000000  -0.0005000   0.0005000   0.0005000   0.0000000   0.0000000   0.0000000
 0.0150000  -2.5000000  -0.3000000   1.0000000   0.0000000   0.0000000   0.0000000  -0.0000056   0.0000056   0.0000056   0.0000000   0.0000000   0.0000000  -0.0011250   0.0011250   0.0011250   0.0000000   0.0000000   0.0000000
 0.0200000  -2.5000000  -0.3000000   1.0000000   0.0000000   0.0000000   0.0000001  -0.0000133   0.0000133   0.0000133   0.0000000   0.0000000   0.0000000  -0.0020000   0.0020000   0.0020000   0.0000000   0.0000000   0.0000000
 0.0250000  -2.5000000  -0.3000000   1.0000000   0.0000000   0.0000000   0.0000003  -0.0000260   0.0000260   0.0000260   0.0000000   0.0000000   0.0000000  -0.0031250   0.0031250   0.0031250   0.0000000   0.0000000   0.0000000
 0.0300000  -2.5000000  -0.3000000   1.0000000   0.0000000   0.0000000   0.0000005  -0.0000450   0.0000450   0.0000450   0.0000000   0.0000000   0.0000000  -0.0045000   0.0045000   0.0045000   0.0000000   0.0000000   0.0000000
 0.0350000  -2.5000000  -0.2999990   1.0000000   0.0000000   0.0000000   0.0000010  -0.0000715   0.0000715   0.0000715   0.0000000   0.0000000   0.0000000  -0.0061250   0.0061250   0.0061250   0.0000000   0.0000000   0.0000000
 0.0400000  -2.5000000  -0.2999990   1.0000000   0.0000000   0.0000000   0.0000017  -0.0001067   0.0001067   0.0001067   0.0000000   0.0000000   0.0000000  -0.0080000   0.0080000   0.0080000   0.0000000   0.0000000   0.0000000
 0.0450000  -2.5000000  -0.2999980   1.0000000   0.0000000   0.0000000   0.0000027  -0.0001519   0.0001519   0.0001519   0.0000000   0.0000000   0.0000000  -0.0101250   0.0101250   0.0101250   0.0000000   0.0000000   0.0000000
 0.0500000  -2.5000000  -0.2999970   1.0000000   0.0000000   0.0000000   0.0000042  -0.0002083   0.0002083   0.0002083   0.0000000   0.0000000   0.0000000  -0.0125000   0.0125000   0.0125000   0.0000000   0.0000000   0.0000000
 0.0550000  -2.5000000  -0.2999960   1.0000000   0.0000000   0.0000000   0.0000061  -0.0002773   0.0002773   0.0002773   0.0000000   0.0000000   0.0000000  -0.0151250   0.0151250   0.0151250   0.0000000   0.0000000   0.0000000
 0.0600000  -2.5000100  -0.2999950   1.0000100   0.0000000   0.0000000   0.0000086  -0.0003600   0.0003600   0.0003600   0.0000000   0.0000000   0.0000000  -0.0180000   0.0180000   0.0180000   0.0000000   0.0000000   0.0000000
 0.0650000  -2.5000100  -0.2999930   1.0000100   0.0000000   0.0000000   0.0000119  -0.0004577   0.0004577   0.0004577   0.0000000   0.0000000   0.0000000  -0.0211250   0.0211250   0.0211250   0.0000000   0.0000000   0.0000000
 0.0700000  -2.5000100  -0.2999900   1.0000100   0.0000000   0.0000000   0.0000160  -0.0005717   0.0005717   0.0005717   0.0000000   0.0000000   0.0000000  -0.0245000   0.0245000   0.0245000   0.0000000   0.0000000   0.0000000
 0.0750000  -2.5000100  -0.2999870   1.0000100   0.0000000   0.0000000   0.0000211  -0.0007031   0.0007031   0.0007031   0.0000000   0.0000000   0.0000000  -0.0281250   0.0281250   0.0281250   0.0000000   0.0000000   0.0000000
 0.0800000  -2.5000200  -0.2999830   1.0000200   0.0000000   0.0000000   0.0000273  -0.0008533   0.0008533   0.0008533   0.0000000   0.0000000   0.0000000  -0.0320000   0.0320000   0.0320000   0.0000000   0.0000000   0.0000000
 0.0850000  -2.5000200  -0.2999780   1.0000200   0.0000000   0.0000000   0.0000348  -0.0010235   0.0010235   0.0010235   0.0000000   0.0000000   0.0000000  -0.0361250   0.0361250   0.0361250   0.0000000   0.0000000   0.0000000
 0.0900000  -2.5000300  -0.2999730   1.0000300   0.0000000   0.0000000   0.0000437  -0.0012150   0.0012150   0.0012150   0.0000000   0.0000000   0.0000000  -0.0405000   0.0405000   0.0405000   0.0000000   0.0000000   0.0000000
 0.0950000  -2.5000300  -0.2999660   1.0000300   0.0000000   0.0000000   0.0000542  -0.0014290   0.0014290   0.0014290   0.0000000   0.0000000   0.0000000  -0.0451250   0.0451250   0.0451250   0.0000000   0.0000000   0.0000000
 0.1000000  -2.5000400  -0.2999580   1.0000400   0.0000000   0.0000000   0.0000665  -0.0016667   0.0016667   0.0016667   0.0000000   0.0000000   0.0000000  -0.0500000   0.0500000   0.0500000   0.0000000   0.0000000   0.0000000
 0.1050000  -2.5000500  -0.2999490   1.0000500   0.0000000   0.0000000   0.0000805  -0.0019294   0.0019294   0.0019294   0.0000000   0.0000000   0.0000000  -0.0551250   0.0551250   0.0551250   0.0000000   0.0000000   0.0000000
 0.1100000  -2.5000600  -0.2999390   1.0000600   0.0000000   0.0000000   0.0000966  -0.0022183   0.0022183   0.0022183   0.0000000   0.0000000   0.0000000  -0.0605000   0.0605000   0.0605000   0.0000000   0.0000000   0.0000000
 0.1150000  -2.5000700  -0.2999270   1.0000700   0.0000000   0.0000000   0.0001147  -0.0025347   0.0025348   0.0025348   0.0000000   0.0000000   0.0000000  -0.0660297   0.0661250   0.0661250   0.0000000   0.0000000   0.0000000
 0.1200000  -2.5000900  -0.2999140   1.0000900   0.0000000   0.0000000   0.0001350  -0.0028782   0.0028800   0.0028800   0.0000000   0.0000000   0.0000000  -0.0713459   0.0720000   0.0720000   0.0000000   0.0000000   0.0000000
 0.1250000  -2.5001000  -0.2998980   1.0001000   0.0000000   0.0000000   0.0001575  -0.0032477   0.0032552   0.0032552   0.0000000   0.0000000   0.0000000  -0.0764122   0.0781250   0.0781087   0.0000000   0.0000000   0.0000000
 0.1300000  -2.5001200  -0.2998810   1.0001200   0.0000000   0.0000000   0.0001824  -0.0036419   0.0036617   0.0036608   0.0000000   0.0000000   0.0000000  -0.0812284   0.0845000   0.0841061   0.0000000   0.0000000   0.0000000
 0.1350000  -2.5001400  -0.2998620   1.0001400   0.0000000   0.0000000   0.0002096  -0.0040596   0.0041006   0.0040958   0.0000000   0.0000000   0.0000000  -0.0857947   0.0911250   0.0898535   0.0000000   0.0000000   0.0000000
 0.1400000  -2.5001600  -0.2998400   1.0001600   0.0000000   0.0000000   0.0002393  -0.0044995   0.0045733   0.0045590   0.0000000   0.0000000   0.0000000  -0.0901109   0.0980000   0.0953509   0.0000000   0.0000000   0.0000000
 0.1450000  -2.5001800  -0.2998160   1.0001800   0.0000000   0.0000000   0.0002715  -0.0049603   0.0050808   0.0050489   0.0000000   0.0000000   0.0000000  -0.0941772   0.1049450   0.1005980   0.0000000   0.0000000   0.0000000
 0.1500000  -2.5002100  -0.2997890   1.0002100   0.0000000   0.0000000   0.0003063  -0.0054408   0.0056224   0.0055645   0.0000000   0.0000000   0.0000000  -0.0979934   0.1116450   0.1055960   0.0000000   0.0000000   0.0000000
 0.1550000  -2.5002400  -0.2997600   1.0002400   0.0000000   0.0000000   0.0003436  -0.0059398   0.0061968   0.0061045   0.0000000   0.0000000   0.0000000  -0.1015600   0.1180960   0.1103430   0.0000000   0.0000000   0.0000000
 0.1600000  -2.5002700  -0.2997270   1.0002700   0.0000000   0.0000000   0.0003835  -0.0064560   0.0068029   0.0066675   0.0000000   0.0000000   0.0000000  -0.1048760   0.1242960   0.1148400   0.0000000   0.0000000   0.0000000
 0.1650000  -2.5003000  -0.2996910   1.0003100   0.0000000   0.0000000   0.0004259  -0.0069882   0.0074394   0.0072525   0.0000000   0.0000000   0.0000000  -0.1079420   0.1302470   0.1190880   0.0000000   0.0000000   0.0000000
 0.1700000  -2.5003400  -0.2996530   1.0003400   0.0000000   0.0000000   0.0004710  -0.0075350   0.0081050   0.0078580   0.0000000   0.0000000   0.0000000  -0.1107580   0.1359470   0.1230850   0.0000000   0.0000000   0.0000000
 0.1750000  -2.5003800  -0.2996100   1.0003900   0.0000000   0.0000000   0.0005186  -0.0080953   0.0087984   0.0084829   0.0000000   0.0000000   0.0000000  -0.1133250   0.1413980   0.1268330   0.0000000   0.0000000   0.0000000
 0.1800000  -2.5004200  -0.2995650   1.0004300   0.0000000   0.0000000   0.0005688  -0.0086678   0.0095185   0.0091259   0.0000000   0.0000000   0.0000000  -0.1156410   0.1465980   0.1303300   0.0000000   0.0000000   0.0000000
 0.1850000  -2.5004600  -0.2995150   1.0004800   0.0000000   0.0000000   0.0006215  -0.0092513   0.0102640   0.0097858   0.0000000   0.0000000   0.0000000  -0.1177070   0.1515490   0.1335770   0.0000000   0.0000000   0.0000000
 0.1900000  -2.5005100  -0.2994620   1.0005300   0.0000000   0.0000000   0.0006767  -0.0098445   0.0110336   0.0104613   0.0000000   0.0000000   0.0000000  -0.1195230   0.1562490   0.1365750   0.0000000   0.0000000   0.0000000
 0.1950000  -2.5005600  -0.2994050   1.0005800   0.0000000   0.0000000   0.0007342  -0.0104461   0.0118261   0.0111511   0.0000000   0.0000000   0.0000000  -0.1210900   0.1607000   0.1393220   0.0000000   0.0000000   0.0000000
 0.2000000  -2.5006200  -0.2993440   1.0006400   0.0000000   0.0000000   0.0007942  -0.0110550   0.0126402   0.0118541   0.0000000   0.0000000   0.0000000  -0.1224060   0.1649000   0.1418200   0.0000000   0.0000000   0.0000000
 0.2050000  -2.5006700  -0.2992780   1.0007000   0.0000000   0.0000000   0.0008564  -0.0116698   0.0134747   0.0125689   0.0000000   0.0000000   0.0000000  -0.1234720   0.1688510   0.1440670   0.0000000   0.0000000   0.0000000
 0.2100000  -2.5007300  -0.2992090   1.0007600   0.0000000   0.0000000   0.0009208  -0.0122893   0.0143283   0.0132943   0.0000000   0.0000000   0.0000000  -0.1242880   0.1725520   0.1460640   0.0000000   0.0000000   0.0000000
 0.2150000  -2.5008000  -0.2991350   1.0008300   0.0000000   0.0000000   0.0009873  -0.0129122   0.0151998   0.0140291   0.0000000   0.0000000   0.0000000  -0.1248550   0.1760020   0.1478120   0.0000000   0.0000000   0.0000000
 0.2200000  -2.5008600  -0.2990570   1.0009000   0.0000000   0.0000000   0.0010558  -0.0135374   0.0160879   0.0147720   0.0000000   0.0000000   0.0000000  -0.1251710   0.1792030   0.1493090   0.0000000   0.0000000   0.0000000
 0.2250000  -2.5009300  -0.2989740   1.0009800   0.0000000   0.0000000   0.0011262  -0.0141635   0.0169914   0.0155218   0.0000000   0.0000000   0.0000000  -0.1252370   0.1821530   0.1505570   0.0000000   0.0000000   0.0000000
 0.2300000  -2.5010000  -0.2988870   1.0010600   0.0000000   0.0000000   0.0011984  -0.0147894   0.0179090   0.0162772   0.0000000   0.0000000   0.0000000  -0.1250530   0.1848540   0.1515540   0.0000000   0.0000000   0.0000000
 0.2350000  -2.5010800  -0.2987950   1.0011400   0.0000000   0.0000000   0.0012722  -0.0154137   0.0188395   0.0170369   0.0000000   0.0000000   0.0000000  -0.1246200   0.1873040   0.1523010   0.0000000   0.0000000   0.0000000
 0.2400000  -2.5011600  -0.2986980   1.0012300   0.0000000   0.0000000   0.0013475  -0.0160352   0.0197816   0.0177998   0.0000000   0.0000000   0.0000000  -0.1239360   0.1895050   0.1527990   0.0000000   0.0000000   0.0000000
 0.2450000  -2.5012400  -0.2985970   1.0013200   0.0000000   0.0000000   0.0014241  -0.0166526   0.0207341   0.0185645   0.0000000   0.0000000   0.0000000  -0.1230020   0.1914550   0.1530460   0.0000000   0.0000000   0.0000000
 0.2500000  -2.5013200  -0.2984910   1.0014200   0.0000000   0.0000000   0.0015019  -0.0172648   0.0216957   0.0193298   0.0000000   0.0000000   0.0000000  -0.1218190   0.1931560   0.1530440   0.0000000   0.0000000   0.0000000
 0.2550000  -2.5014100  -0.2983800   1.0015100   0.0000000   0.0000000   0.0015807  -0.0178704   0.0226653   0.0200945   0.0000000   0.0000000   0.0000000  -0.1203850   0.1946060   0.1527910   0.0000000   0.0000000   0.0000000
 0.2600000  -2.5015000  -0.2982640   1.0016200   0.0000000   0.0000000   0.0016605  -0.0184682   0.0236414   0.0208573   0.0000000   0.0000000   0.0000000  -0.1187010   0.1958070   0.1522880   0.0000000   0.0000000   0.0000000
 0.2650000  -2.5016000  -0.2981440   1.0017200   0.0000000   0.0000000   0.0017409  -0.0190570   0.0246229   0.0216170   0.0000000   0.0000000   0.0000000  -0.1167670   0.1967570   0.1515360   0.0000000   0.0000000   0.0000000
 0.2700000  -2.5016900  -0.2980180   1.0018300   0.0000000   0.0000000   0.0018221  -0.0196354   0.0256085   0.0223723   0.0000000   0.0000000   0.0000000  -0.1145840   0.1974580   0.1505330   0.0000000   0.0000000   0.0000000
 0.2750000  -2.5017900  -0.2978880   1.0019500   0.0000000   0.0000000   0.0019037  -0.0202024   0.0265971   0.0231219   0.0000000   0.0000000   0.0000000  -0.1121500   0.1979080   0.1492810   0.0000000   0.0000000   0.0000000
 0.2800000  -2.5019000  -0.2977520   1.0020600   0.0000000   0.0000000   0.0019858  -0.0207565   0.0275872   0.0238646   0.0000000   0.0000000   0.0000000  -0.1094660   0.1981090   0.1477780   0.0000000   0.0000000   0.0000000
 0.2850000  -2.5020000  -0.2976120   1.0021900   0.0000000   0.0000000   0.0020683  -0.0212966   0.0285777   0.0245993   0.0000000   0.0000000   0.0000000  -0.1065320   0.1980590   0.1460250   0.0000000   0.0000000   0.0000000
 0.2900000  -2.5021100  -0.2974660   1.0023100   0.0000000   0.0000000   0.0021510  -0.0218214   0.0295674   0.0253245   0.0000000   0.0000000   0.0000000  -0.1033490   0.1977600   0.1440230   0.0000000   0.0000000   0.0000000
 0.2950000  -2.5022200  -0.2973160   1.0024400   0.0000000   0.0000000   0.0022340  -0.0223297   0.0305549   0.0260391   0.0000000   0.0000000   0.0000000  -0.0999148   0.1972100   0.1417700   0.0000000   0.0000000   0.0000000
 0.3000000  -2.5023300  -0.2971610   1.0025700   0.0000000   0.0000000   0.0023170  -0.0228202   0.0315391   0.0267418   0.0000000   0.0000000   0.0000000  -0.0962310   0.1964110   0.1392680   0.0000000   0.0000000   0.0000000
 0.3050000  -2.5024500  -0.2970010   1.0027100   0.0000000   0.0000000   0.0024002  -0.0232916   0.0325186   0.0274313   0.0000000   0.0000000   0.0000000  -0.0922973   0.1953610   0.1365150   0.0000000   0.0000000   0.0000000
 0.3100000  -2.5025600  -0.2968360   1.0028400   0.0000000   0.0000000   0.0024834  -0.0237427   0.0334923   0.0281065   0.0000000   0.0000000   0.0000000  -0.0881135   0.1940620   0.1335120   0.0000000   0.0000000   0.0000000
 0.3150000  -2.5026800  -0.2966660   1.0029900   0.0000000   0.0000000   0.0025667  -0.0241723   0.0344588   0.0287660   0.0000000   0.0000000   0.0000000  -0.0836798   0.1925120   0.1302600   0.0000000   0.0000000   0.0000000
 0.3200000  -2.5028100  -0.2964910   1.0031300   0.0000000   0.0000000   0.0026499  -0.0245791   0.0354170   0.0294087   0.0000000   0.0000000   0.0000000  -0.0789960   0.1907130   0.1267570   0.0000000   0.0000000   0.0000000
 0.3250000  -2.5029300  -0.2963120   1.0032800   0.0000000   0.0000000   0.0027332  -0.0249619   0.0363655   0.0300332   0.0000000   0.0000000   0.0000000  -0.0740623   0.1886630   0.1230050   0.0000000   0.0000000   0.0000000
 0.3300000  -2.5030600  -0.2961280   1.0034300   0.0000000   0.0000000   0.0028164  -0.0253193   0.0373032   0.0306383   0.0000000   0.0000000   0.0000000  -0.0688785   0.1863640   0.1190020   0.0000000   0.0000000   0.0000000
 0.3350000  -2.5031800  -0.2959390   1.0035900   0.0000000   0.0000000   0.0028997  -0.0256502   0.0382287   0.0312228   0.0000000   0.0000000   0.0000000  -0.0634448   0.1838140   0.1147490   0.0000000   0.0000000   0.0000000
 0.3400000  -2.5033100  -0.2957450   1.0037400   0.0000000   0.0000000   0.0029830  -0.0259536   0.0391409   0.0317854   0.0000000   0.0000000   0.0000000  -0.0579427   0.1810150   0.1102470   0.0000000   0.0000000   0.0000000
 0.3450000  -2.5034400  -0.2955470   1.0039100   0.0000000   0.0000000   0.0030662  -0.0262301   0.0400385   0.0323248   0.0000000   0.0000000   0.0000000  -0.0526852   0.1779650   0.1054940   0.0000000   0.0000000   0.0000000
 0.3500000  -2.5035700  -0.2953450   1.0040700   0.0000000   0.0000000   0.0031495  -0.0264809   0.0409202   0.0328399   0.0000000   0.0000000   0.0000000  -0.0476777   0.1746660   0.1004920   0.0000000   0.0000000   0.0000000
 0.3550000  -2.5037100  -0.2951380   1.0042300   0.0000000   0.0000000   0.0032328  -0.0267073   0.0417847   0.0333293   0.0000000   0.0000000   0.0000000  -0.0429202   0.1711160   0.0952389   0.0000000   0.0000000   0.0000000
 0.3600000  -2.5038400  -0.2949270   1.0044000   0.0000000   0.0000000   0.0033160  -0.0269105   0.0426309   0.0337919   0.0000000   0.0000000   0.0000000  -0.0384127   0.1673170   0.0897363   0.0000000   0.0000000   0.0000000
 0.3650000  -2.5039800  -0.2947120   1.0045700   0.0000000   0.0000000   0.0033993  -0.0270918   0.0434575   0.0342263   0.0000000   0.0000000   0.0000000  -0.0341552   0.1632670   0.0839837   0.0000000   0.0000000   0.0000000
 0.3700000  -2.5041100  -0.2944930   1.0047400   0.0000000   0.0000000   0.0034826  -0.0272525   0.0442632   0.0346313   0.0000000   0.0000000   0.0000000  -0.0301477   0.1589680   0.0779811   0.0000000   0.0000000   0.0000000
 0.3750000  -2.5042500  -0.2942690   1.0049200   0.0000000   0.0000000   0.0035658  -0.0273937   0.0450467   0.0350059   0.0000000   0.0000000   0.0000000  -0.0263902   0.1544180   0.0718750   0.0000000   0.0000000   0.0000000
 0.3800000  -2.5043900  -0.2940420   1.0050900   0.0000000   0.0000000   0.0036491  -0.0275168   0.0458069   0.0353505   0.0000000   0.0000000   0.0000000  -0.0228827   0.1496190   0.0660052   0.0000000   0.0000000   0.0000000
 0.3850000  -2.5045200  -0.2938110   1.0052700   0.0000000   0.0000000   0.0037323  -0.0276229   0.0465425   0.0356663   0.0000000   0.0000000   0.0000000  -0.0196252   0.1445700   0.0603855   0.0000000   0.0000000   0.0000000
 0.3900000  -2.5046600  -0.2935770   1.0054500   0.0000000   0.0000000   0.0038156  -0.0277134   0.0472522   0.0359547   0.0000000   0.0000000   0.0000000  -0.0166177   0.1392700   0.0550157   0.0000000   0.0000000   0.0000000
 0.3950000  -2.5048000  -0.2933390   1.0056300   0.0000000   0.0000000   0.0038989  -0.0277895   0.0479348   0.0362169   0.0000000   0.0000000   0.0000000  -0.0138602   0.1337210   0.0498959   0.0000000   0.0000000   0.0000000
 0.4000000  -2.5049400  -0.2930970   1.0058100   0.0000000   0.0000000   0.0039821  -0.0278525   0.0485890   0.0364541   0.0000000   0.0000000   0.0000000  -0.0113527   0.1279210   0.0450261   0.0000000   0.0000000   0.0000000
 0.4050000  -2.5050800  -0.2928530   1.0060000   0.0000000   0.0000000   0.0040654  -0.0279035   0.0492136   0.0366676   0.0000000   0.0000000   0.0000000  -0.0090952   0.1218720   0.0404063   0.0000000   0.0000000   0.0000000
 0.4100000  -2.5052200  -0.2926050   1.0061800   0.0000000   0.0000000   0.0041486  -0.0279438   0.0498073   0.0368586   0.0000000   0.0000000   0.0000000  -0.0070877   0.1155720   0.0360365   0.0000000   0.0000000   0.0000000
 0.4150000  -2.5053600  -0.2923550   1.0063600   0.0000000   0.0000000   0.0042319  -0.0279748   0.0503689   0.0370284   0.0000000   0.0000000   0.0000000  -0.0053301   0.1090230   0.0319167   0.0000000   0.0000000   0.0000000
 0.4200000  -2.5055000  -0.2921020   1.0065500   0.0000000   0.0000000   0.0043152  -0.0279975   0.0508971   0.0371782   0.0000000   0.0000000   0.0000000  -0.0038226   0.1022230   0.0280469   0.0000000   0.0000000   0.0000000
 0.4250000  -2.5056400  -0.2918460   1.0067400   0.0000000   0.0000000   0.0043984  -0.0280134   0.0513908   0.0373093   0.0000000   0.0000000   0.0000000  -0.0025651   0.0952484   0.0244271   0.0000000   0.0000000   0.0000000
 0.4300000  -2.5057800  -0.2915880   1.0069200   0.0000000   0.0000000   0.0044817  -0.0280236   0.0518500   0.0374229   0.0000000   0.0000000   0.0000000  -0.0015576   0.0884724   0.0210573   0.0000000   0.0000000   0.0000000
 0.4350000  -2.5059200  -0.2913280   1.0071100   0.0000000   0.0000000   0.0045650  -0.0280294   0.0522759   0.0375203   0.0000000   0.0000000   0.0000000  -0.0008001   0.0819464   0.0179375   0.0000000   0.0000000   0.0000000
 0.4400000  -2.5060600  -0.2910650   1.0073000   0.0000000   0.0000000   0.0046482  -0.0280320   0.0526698   0.0376027   0.0000000   0.0000000   0.0000000  -0.0002926   0.0756703   0.0150678   0.0000000   0.0000000   0.0000000
 0.4450000  -2.5062000  -0.2908010   1.0074900   0.0000000   0.0000000   0.0047315  -0.0280327   0.0530330   0.0376713   0.0000000   0.0000000   0.0000000  -0.0000351   0.0696443   0.0124480   0.0000000   0.0000000   0.0000000
 0.4500000  -2.5063400  -0.2905350   1.0076700   0.0000000   0.0000000   0.0048147  -0.0280328   0.0533667   0.0377276   0.0000000   0.0000000   0.0000000   0.0000000   0.0638683   0.0100782   0.0000000   0.0000000   0.0000000
 0.4550000  -2.5064800  -0.2902670   1.0078600   0.0000000   0.0000000   0.0048980  -0.0280328   0.0536721   0.0377725   0.0000000   0.0000000   0.0000000   0.0000000   0.0583422   0.0079584   0.0000000   0.0000000   0.0000000
 0.4600000  -2.5066200  -0.2899980   1.0080500   0.0000000   0.0000000   0.0049813  -0.0280328   0.0539505   0.0378076   0.0000000   0.0000000   0.0000000   0.0000000   0.0530662   0.0060886   0.0000000   0.0000000   0.0000000
 0.4650000  -2.5067600  -0.2897280   1.0082400   0.0000000   0.0000000   0.0050645  -0.0280328   0.0542032   0.0378338   0.0000000   0.0000000   0.0000000   0.0000000   0.0480402   0.0044688   0.0000000   0.0000000   0.0000000
 0.4700000  -2.5069000  -0.2894560   1.0084300   0.0000000   0.0000000   0.0051478  -0.0280328   0.0544314   0.0378527   0.0000000   0.0000000   0.0000000   0.0000000   0.0432642   0.0030990   0.0000000   0.0000000   0.0000000
 0.4750000  -2.5070400  -0.2891840   1.0086200   0.0000000   0.0000000   0.0052311  -0.0280328   0.0546363   0.0378653   0.0000000   0.0000000   0.0000000   0.0000000   0.0387381   0.0019792   0.0000000   0.0000000   0.0000000
 0.4800000  -2.5071800  -0.2889100   1.0088100   0.0000000   0.0000000   0.0053143  -0.0280328   0.0548192   0.0378729   0.0000000   0.0000000   0.0000000   0.0000000   0.0344621   0.0011094   0.0000000   0.0000000   0.0000000
 0.4850000  -2.5073200  -0.2886350   1.0090000   0.0000000   0.0000000   0.0053976  -0.0280328   0.0549813   0.0378768   0.0000000   0.0000000   0.0000000   0.0000000   0.0304361   0.0004896   0.0000000   0.0000000   0.0000000
 0.4900000  -2.5074600  -0.2883600   1.0091900   0.0000000   0.0000000   0.0054808  -0.0280328   0.0551239   0.0378782   0.0000000   0.0000000   0.0000000   0.0000000   0.0266600   0.0001198   0.0000000   0.0000000   0.0000000
 0.4950000  -2.5076000  -0.2880840   1.0093800   0.0000000   0.0000000   0.0055641  -0.0280328   0.0552483   0.0378784   0.0000000   0.0000000   0.0000000   0.0000000   0.0231340   0.0000000   0.0000000   0.0000000   0.0000000
 0.5000000  -2.5077400  -0.2878080   1.0095700   0.0000000   0.0000000   0.0056474  -0.0280328   0.0553557   0.0378784   0.0000000   0.0000000   0.0000000   0.0000000   0.0198580   0.0000000   0.0000000   0.0000000   0.0000000
 0.5050000  -2.5078800  -0.2875310   1.0097600   0.0000000   0.0000000   0.0057306  -0.0280328   0.0554473   0.0378784   0.0000000   0.0000000   0.0000000   0.0000000   0.0168319   0.0000000   0.0000000   0.0000000   0.0000000
 0.5100000  -2.5080200  -0.2872530   1.0099500   0.0000000   0.0000000   0.0058139  -0.0280328   0.0555244   0.0378784   0.0000000   0.0000000   0.0000000   0.0000000   0.0140559   0.0000000   0.0000000   0.0000000   0.0000000
 0.5150000  -2.5081600  -0.2869750   1.0101300   0.0000000   0.0000000   0.0058972  -0.0280328   0.0555883   0.0378784   0.0000000   0.0000000   0.0000000   0.0000000   0.0115299   0.0000000   0.0000000   0.0000000   0.0000000
 0.5200000  -2.5083000  -0.2866970   1.0103200   0.0000000   0.0000000   0.0059804  -0.0280328   0.0556402   0.0378784   0.0000000   0.0000000   0.0000000   0.0000000   0.0092539   0.0000000   0.0000000   0.0000000   0.0000000
 0.5250000  -2.5084400  -0.2864190   1.0105100   0.0000000   0.0000000   0.0060637  -0.0280328   0.0556813   0.0378784   0.0000000   0.0000000   0.0000000   0.0000000   0.0072278   0.0000000   0.0000000   0.0000000   0.0000000
 0.5300000  -2.5085800  -0.2861410   1.0107000   0.0000000   0.0000000   0.0061469  -0.0280328   0.0557128   0.0378784   0.0000000   0.0000000   0.0000000   0.0000000   0.0054518   0.0000000   0.0000000   0.0000000   0.0000000
 0.5350000  -2.5087200  -0.2858620   1.0108900   0.0000000   0.0000000   0.0062302  -0.0280328   0.0557362   0.0378784   0.0000000   0.0000000   0.0000000   0.0000000   0.0039258   0.0000000   0.0000000   0.0000000   0.0000000
 0.5400000  -2.5088600  -0.2855830   1.0110800   0.0000000   0.0000000   0.0063135  -0.0280328   0.0557525   0.0378784   0.0000000   0.0000000   0.0000000   0.0000000   0.0026497   0.0000000   0.0000000   0.0000000   0.0000000
 0.5450000  -2.5090000  -0.2853040   1.0112700   0.0000000   0.0000000   0.0063967  -0.0280328   0.0557631   0.0378784   0.0000000   0.0000000   0.0000000   0.0000000   0.0016237   0.0000000   0.0000000   0.0000000   0.0000000
 0.5500000  -2.5091400  -0.2850260   1.0114600   0.0000000   0.0000000   0.0064800  -0.0280328   0.0557692   0.0378784   0.0000000   0.0000000   0.0000000   0.0000000   0.0008477   0.0000000   0.0000000   0.0000000   0.0000000
 0.5550000  -2.5092800  -0.2847470   1.0116500   0.0000000   0.0000000   0.0065632  -0.0280328   0.0557720   0.0378784   0.0000000   0.0000000   0.0000000   0.0000000   0.0003216   0.0000000   0.0000000   0.0000000   0.0000000
 0.5600000  -2.5094200  -0.2844680   1.0118400   0.0000000   0.0000000   0.0066465  -0.0280328   0.0557728   0.0378784   0.0000000   0.0000000   0.0000000   0.0000000   0.0000456   0.0000000   0.0000000   0.0000000   0.0000000
 0.5650000  -2.5095600  -0.2841890   1.0120300   0.0000000   0.0000000   0.0067298  -0.0280328   0.0557728   0.0378784   0.0000000   0.0000000   0.0000000   0.0000000  -0.0000102   0.0000000   0.0000000   0.0000000   0.0000000
 0.5700000  -2.5097000  -0.2839100   1.0122200   0.0000000   0.0000000   0.0068130  -0.0280328   0.0557724   0.0378784   0.0000000   0.0000000   0.0000000   0.0000000  -0.0002068   0.0000000   0.0000000   0.0000000   0.0000000
 0.5750000  -2.5098400  -0.2836310   1.0124100   0.0000000   0.0000000   0.0068963  -0.0280328   0.0557704   0.0378784   0.0000000   0.0000000   0.0000000   0.0000000  -0.0006533   0.0000000   0.0000000   0.0000000   0.0000000
 0.5800000  -2.5099800  -0.2833520   1.0126000   0.0000000   0.0000000   0.0069796  -0.0280328   0.0557655   0.0378784   0.0000000   0.0000000   0.0000000   0.0000000  -0.0013498   0.0000000   0.0000000   0.0000000   0.0000000
 0.5850000  -2.5101200  -0.2830740   1.0127900   0.0000000   0.0000000   0.0070628  -0.0280328   0.0557564   0.0378784   0.0000000   0.0000000   0.0000000   0.0000000  -0.0022964   0.0000000   0.0000000   0.0000000   0.0000000
 0.5900000  -2.5102600  -0.2827950   1.0129800   0.0000000   0.0000000   0.0071461  -0.0280328   0.0557421   0.0378784   0.0000000   0.0000000   0.0000000   0.0000000  -0.0034929   0.0000000   0.0000000   0.0000000   0.0000000
 0.5950000  -2.5104100  -0.2825160   1.0131600   0.0000000   0.0000000   0.0072293  -0.0280328   0.0557211   0.0378784   0.0000000   0.0000000   0.0000000   0.0000000  -0.0049394   0.0000000   0.0000000   0.0000000   0.0000000
 0.6000000  -2.5105500  -0.2822380   1.0133500   0.0000000   0.0000000   0.0073126  -0.0280328   0.0556923   0.0378784   0.0000000   0.0000000   0.0000000   0.0000000  -0.0066360   0.0000000   0.0000000   0.0000000   0.0000000
 0.6050000  -2.5106900  -0.2819590   1.0135400   0.0000000   0.0000000   0.0073959  -0.0280328   0.0556543   0.0378784   0.0000000   0.0000000   0.0000000   0.0000000  -0.0085825   0.0000000   0.0000000   0.0000000   0.0000000
 0.6100000  -2.5108300  -0.2816810   1.0137300   0.0000000   0.0000000   0.0074791  -0.0280328   0.0556060   0.0378784   0.0000000   0.0000000   0.0000000   0.0000000  -0.0107791   0.0000000   0.0000000   0.0000000   0.0000000
 0.6150000  -2.5109700  -0.2814030   1.0139200   0.0000000   0.0000000   0.0075624  -0.0280328   0.0555461   0.0378784   0.0000000   0.0000000   0.0000000   0.0000000  -0.0132256   0.0000000   0.0000000   0.0000000   0.0000000
 0.6200000  -2.5111100  -0.2811260   1.0141100   0.0000000   0.0000000   0.0076457  -0.0280328   0.0554734   0.0378784   0.0000000   0.0000000   0.0000000   0.0000000  -0.0159221   0.0000000   0.0000000   0.0000000   0.0000000
 0.6250000  -2.5112500  -0.2808490   1.0143000   0.0000000   0.0000000   0.0077289  -0.0280328   0.0553865   0.0378784   0.0000000   0.0000000   0.0000000   0.0000000  -0.0188687   0.0000000   0.0000000   0.0000000   0.0000000
 0.6300000  -2.5113900  -0.2805720   1.0144900   0.0000000   0.0000000   0.0078122  -0.0280328   0.0552843   0.0378784   0.0000000   0.0000000   0.0000000   0.0000000  -0.0220652   0.0000000   0.0000000   0.0000000   0.0000000
 0.6350000  -2.5115300  -0.2802960   1.0146800   0.0000000   0.0000000   0.0078955  -0.0280328   0.0551654   0.0378784   0.0000000   0.0000000   0.0000000   0.0000000  -0.0255117   0.0000000   0.0000000   0.0000000   0.0000000
 0.6400000  -2.5116700  -0.2800200   1.0148700   0.0000000   0.0000000   0.0079787  -0.0280328   0.0550287   0.0378784   0.0000000   0.0000000   0.0000000   0.0000000  -0.0292083   0.0000000   0.0000000   0.0000000   0.0000000
 0.6450000  -2.5118100  -0.2797450   1.0150600   0.0000000   0.0000000   0.0080620  -0.0280328   0.0548729   0.0378784   0.0000000   0.0000000   0.0000000   0.0000000  -0.0331548   0.0000000   0.0000000   0.0000000   0.0000000
 0.6500000  -2.5119500  -0.2794720   1.0152500   0.0000000   0.0000000   0.0081452  -0.0280328   0.0546968   0.0378784   0.0000000   0.0000000   0.0000000   0.0000000  -0.0373514   0.0000000   0.0000000   0.0000000   0.0000000
 0.6550000  -2.5120900  -0.2791990   1.0154400   0.0000000   0.0000000   0.0082285  -0.0280328   0.0544990   0.0378784   0.0000000   0.0000000   0.0000000   0.0000000  -0.0417979   0.0000000   0.0000000   0.0000000   0.0000000
 0.6600000  -2.5122300  -0.2789270   1.0156300   0.0000000   0.0000000   0.0083118  -0.0280328   0.0542784   0.0378784   0.0000000   0.0000000   0.0000000   0.0000000  -0.0464944   0.0000000   0.0000000   0.0000000   0.0000000
 0.6650000  -2.5123700  -0.2786560   1.0158200   0.0000000   0.0000000   0.0083950  -0.0280328   0.0540336   0.0378784   0.0000000   0.0000000   0.0000000   0.0000000  -0.0514410   0.0000000   0.0000000   0.0000000   0.0000000
 0.6700000  -2.5125100  -0.2783860   1.0160100   0.0000000   0.0000000   0.0084783  -0.0280328   0.0537635   0.0378784   0.0000000   0.0000000   0.0000000   0.0000000  -0.0566375   0.0000000   0.0000000   0.0000000   0.0000000
 0.6750000  -2.5126500  -0.2781180   1.0161900   0.0000000   0.0000000   0.0085615  -0.0280328   0.0534668   0.0378784   0.0000000   0.0000000   0.0000000   0.0000000  -0.0620840   0.0000000   0.0000000   0.0000000   0.0000000
 0.6800000  -2.5127900  -0.2778520   1.0163800   0.0000000   0.0000000   0.0086448  -0.0280328   0.0531423   0.0378782   0.0000000   0.0000000   0.0000000   0.0000000  -0.0677806  -0.0000992   0.0000000   0.0000000   0.0000000
 0.6850000  -2.5129300  -0.2775870   1.0165700   0.0000000   0.0000000   0.0087281  -0.0280328   0.0527886   0.0378770   0.0000000   0.0000000   0.0000000   0.0000000  -0.0737271  -0.0004468   0.0000000   0.0000000   0.0000000
 0.6900000  -2.5130700  -0.2773240   1.0167600   0.0000000   0.0000000   0.0088113  -0.0280328   0.0524046   0.0378733   0.0000000   0.0000000   0.0000000   0.0000000  -0.0799236  -0.0010445   0.0000000   0.0000000   0.0000000
 0.6950000  -2.5132100  -0.2770630   1.0169500   0.0000000   0.0000000   0.0088946  -0.0280328   0.0519890   0.0378661   0.0000000   0.0000000   0.0000000   0.0000000  -0.0863702  -0.0018922   0.0000000   0.0000000   0.0000000
 0.7000000  -2.5133500  -0.2768040   1.0171400   0.0000000   0.0000000   0.0089779  -0.0280328   0.0515405   0.0378540   0.0000000   0.0000000   0.0000000   0.0000000  -0.0930667  -0.0029898   0.0000000   0.0000000   0.0000000
 0.7050000  -2.5134900  -0.2765470   1.0173300   0.0000000   0.0000000   0.0090611  -0.0280328   0.0510579   0.0378358   0.0000000   0.0000000   0.0000000   0.0000000  -0.1000130  -0.0043375   0.0000000   0.0000000   0.0000000
 0.7100000  -2.5136300  -0.2762930   1.0175200   0.0000000   0.0000000   0.0091444  -0.0280328   0.0505399   0.0378102   0.0000000   0.0000000   0.0000000   0.0000000  -0.1072100  -0.0059352   0.0000000   0.0000000   0.0000000
 0.7150000  -2.5137700  -0.2760420   1.0177100   0.0000000   0.0000000   0.0092277  -0.0280328   0.0499854   0.0377760   0.0000000   0.0000000   0.0000000   0.0000000  -0.1146560  -0.0077829   0.0000000   0.0000000   0.0000000
 0.7200000  -2.5139100  -0.2757940   1.0179000   0.0000000   0.0000000   0.0093109  -0.0280328   0.0493929   0.0377320   0.0000000   0.0000000   0.0000000   0.0000000  -0.1223530  -0.0098805   0.0000000   0.0000000   0.0000000
 0.7250000  -2.5140500  -0.2755480   1.0180900   0.0000000   0.0000000   0.0093942  -0.0280328   0.0487614   0.0376768   0.0000000   0.0000000   0.0000000   0.0000000  -0.1302990  -0.0122282   0.0000000   0.0000000   0.0000000
 0.7300000  -2.5141900  -0.2753060   1.0182700   0.0000000   0.0000000   0.0094774  -0.0280328   0.0480895   0.0376093   0.0000000   0.0000000   0.0000000   0.0000000  -0.1384960  -0.0148259   0.0000000   0.0000000   0.0000000
 0.7350000  -2.5143300  -0.2750670   1.0184600   0.0000000   0.0000000   0.0095607  -0.0280328   0.0473760   0.0375281   0.0000000   0.0000000   0.0000000   0.0000000  -0.1469420  -0.0176735   0.0000000   0.0000000   0.0000000
 0.7400000  -2.5144700  -0.2748320   1.0186500   0.0000000   0.0000000   0.0096440  -0.0280328   0.0466197   0.0374321   0.0000000   0.0000000   0.0000000   0.0000000  -0.1556390  -0.0207712   0.0000000   0.0000000   0.0000000
 0.7450000  -2.5146100  -0.2746010   1.0188400   0.0000000   0.0000000   0.0097272  -0.0280328   0.0458192   0.0373200   0.0000000   0.0000000   0.0000000   0.0000000  -0.1645860  -0.0241189   0.0000000   0.0000000   0.0000000
 0.7500000  -2.5147500  -0.2743740   1.0190200   0.0000000   0.0000000   0.0098105  -0.0280328   0.0449734   0.0371905   0.0000000   0.0000000   0.0000000   0.0000000  -0.1737820  -0.0277165   0.0000000   0.0000000   0.0000000
 0.7550000  -2.5148900  -0.2741520   1.0192100   0.0000000   0.0000000   0.0098937  -0.0280328   0.0440810   0.0370424   0.0000000   0.0000000   0.0000000   0.0000000  -0.1832290  -0.0315642   0.0000000   0.0000000   0.0000000
 0.7600000  -2.5150300  -0.2739340   1.0193900   0.0000000   0.0000000   0.0099770  -0.0280328   0.0431407   0.0368745   0.0000000   0.0000000   0.0000000   0.0000000  -0.1929250  -0.0356619   0.0000000   0.0000000   0.0000000
 0.7650000  -2.5151700  -0.2737200   1.0195800   0.0000000   0.0000000   0.0100603  -0.0280328   0.0421513   0.0366854   0.0000000   0.0000000   0.0000000   0.0000000  -0.2028720  -0.0400095   0.0000000   0.0000000   0.0000000
 0.7700000  -2.5153100  -0.2735120   1.0197600   0.0000000   0.0000000   0.0101435  -0.0280328   0.0411116   0.0364739   0.0000000   0.0000000   0.0000000   0.0000000  -0.2130680  -0.0446072   0.0000000   0.0000000   0.0000000
 0.7750000  -2.5154500  -0.2733090   1.0199400   0.0000000   0.0000000   0.0102268  -0.0280328   0.0400202   0.0362389   0.0000000   0.0000000   0.0000000   0.0000000  -0.2235150  -0.0494549   0.0000000   0.0000000   0.0000000
 0.7800000  -2.5155900  -0.2731120   1.0201200   0.0000000   0.0000000   0.0103101  -0.0280328   0.0388760   0.0359790   0.0000000   0.0000000   0.0000000   0.0000000  -0.2341780  -0.0545525   0.0000000   0.0000000   0.0000000
 0.7850000  -2.5157300  -0.2729210   1.0203000   0.0000000   0.0000000   0.0103933  -0.0280328   0.0376788   0.0356930   0.0000000   0.0000000   0.0000000   0.0000000  -0.2446910  -0.0599002   0.0000000   0.0000000   0.0000000
 0.7900000  -2.5158700  -0.2727350   1.0204800   0.0000000   0.0000000   0.0104766  -0.0280328   0.0364295   0.0353796   0.0000000   0.0000000   0.0000000   0.0000000  -0.2549540  -0.0654979   0.0000000   0.0000000   0.0000000
 0.7950000  -2.5160100  -0.2725560   1.0206600   0.0000000   0.0000000   0.0105598  -0.0280328   0.0351296   0.0350376   0.0000000   0.0000000   0.0000000   0.0000000  -0.2649680  -0.0713456   0.0000000   0.0000000   0.0000000
 0.8000000  -2.5161500  -0.2723840   1.0208300   0.0000000   0.0000000   0.0106431  -0.0280328   0.0337803   0.0346657   0.0000000   0.0000000   0.0000000   0.0000000  -0.2747310  -0.0774432   0.0000000   0.0000000   0.0000000
 0.8050000  -2.5162900  -0.2722190   1.0210000   0.0000000   0.0000000   0.0107264  -0.0280328   0.0323827   0.0342627   0.0000000   0.0000000   0.0000000   0.0000000  -0.2842440  -0.0837909   0.0000000   0.0000000   0.0000000
 0.8100000  -2.5164300  -0.2720600   1.0211700   0.0000000   0.0000000   0.0108096  -0.0280328   0.0309383   0.0338274   0.0000000   0.0000000   0.0000000   0.0000000  -0.2935070  -0.0903886   0.0000000   0.0000000   0.0000000
 0.8150000  -2.5165700  -0.2719090   1.0213400   0.0000000   0.0000000   0.0108929  -0.0280328   0.0294481   0.0333584   0.0000000   0.0000000   0.0000000   0.0000000  -0.3025210  -0.0972362   0.0000000   0.0000000   0.0000000
 0.8200000  -2.5167100  -0.2717660   1.0215100   0.0000000   0.0000000   0.0109762  -0.0280328   0.0279135   0.0328546   0.0000000   0.0000000   0.0000000   0.0000000  -0.3112840  -0.1043340   0.0000000   0.0000000   0.0000000
 0.8250000  -2.5168500  -0.2716300   1.0216700   0.0000000   0.0000000   0.0110594  -0.0280328   0.0263357   0.0323146   0.0000000   0.0000000   0.0000000   0.0000000  -0.3197970  -0.1116820   0.0000000   0.0000000   0.0000000
 0.8300000  -2.5169900  -0.2715030   1.0218300   0.0000000   0.0000000   0.0111427  -0.0280328   0.0247159   0.0317374   0.0000000   0.0000000   0.0000000   0.0000000  -0.3280610  -0.1192790   0.0000000   0.0000000   0.0000000
 0.8350000  -2.5171300  -0.2713830   1.0219900   0.0000000   0.0000000   0.0112259  -0.0280328   0.0230555   0.0311214   0.0000000   0.0000000   0.0000000   0.0000000  -0.3360740  -0.1271270   0.0000000   0.0000000   0.0000000
 0.8400000  -2.5172700  -0.2712720   1.0221400   0.0000000   0.0000000   0.0113092  -0.0280328   0.0213556   0.0304657   0.0000000   0.0000000   0.0000000   0.0000000  -0.3438370  -0.1352250   0.0000000   0.0000000   0.0000000
 0.8450000  -2.5174100  -0.2711700   1.0222900   0.0000000   0.0000000   0.0113925  -0.0280328   0.0196175   0.0297688   0.0000000   0.0000000   0.0000000   0.0000000  -0.3513500  -0.1435720   0.0000000   0.0000000   0.0000000
 0.8500000  -2.5175500  -0.2710760   1.0224400   0.0000000   0.0000000   0.0114757  -0.0280328   0.0178425   0.0290295   0.0000000   0.0000000   0.0000000   0.0000000  -0.3586140  -0.1521700   0.0000000   0.0000000   0.0000000
 0.8550000  -2.5176900  -0.2709910   1.0225800   0.0000000   0.0000000   0.0115590  -0.0280328   0.0160318   0.0282467   0.0000000   0.0000000   0.0000000   0.0000000  -0.3656270  -0.1610180   0.0000000   0.0000000   0.0000000
 0.8600000  -2.5178300  -0.2709160   1.0227200   0.0000000   0.0000000   0.0116423  -0.0280328   0.0141866   0.0274189   0.0000000   0.0000000   0.0000000   0.0000000  -0.3723900  -0.1701150   0.0000000   0.0000000   0.0000000
 0.8650000  -2.5179700  -0.2708500   1.0228600   0.0000000   0.0000000   0.0117255  -0.0280328   0.0123083   0.0265451   0.0000000   0.0000000   0.0000000   0.0000000  -0.3789040  -0.1794630   0.0000000   0.0000000   0.0000000
 0.8700000  -2.5181100  -0.2707930   1.0229900   0.0000000   0.0000000   0.0118088  -0.0280328   0.0103980   0.0256239   0.0000000   0.0000000   0.0000000   0.0000000  -0.3851670  -0.1890610   0.0000000   0.0000000   0.0000000
 0.8750000  -2.5182500  -0.2707460   1.0231100   0.0000000   0.0000000   0.0118920  -0.0280328   0.0084571   0.0246541   0.0000000   0.0000000   0.0000000   0.0000000  -0.3911800  -0.1989080   0.0000000   0.0000000   0.0000000
 0.8800000  -2.5183900  -0.2707080   1.0232300   0.0000000   0.0000000   0.0119753  -0.0280328   0.0064866   0.0236344   0.0000000   0.0000000   0.0000000   0.0000000  -0.3969430  -0.2090060   0.0000000   0.0000000   0.0000000
 0.8850000  -2.5185300  -0.2706810   1.0233500   0.0000000   0.0000000   0.0120586  -0.0280328   0.0044880   0.0225636   0.0000000   0.0000000   0.0000000   0.0000000  -0.4024570  -0.2193540   0.0000000   0.0000000   0.0000000
 0.8900000  -2.5186700  -0.2706630   1.0234600   0.0000000   0.0000000   0.0121418  -0.0280328   0.0024625   0.0214404   0.0000000   0.0000000   0.0000000   0.0000000  -0.4077200  -0.2299510   0.0000000   0.0000000   0.0000000
 0.8950000  -2.5188100  -0.2706560   1.0235600   0.0000000   0.0000000   0.0122251  -0.0280328   0.0004113   0.0202637   0.0000000   0.0000000   0.0000000   0.0000000  -0.4127330  -0.2407990   0.0000000   0.0000000   0.0000000
 0.9000000  -2.5189600  -0.2706590   1.0236600   0.0000000   0.0000000   0.0123084  -0.0280328  -0.0016644   0.0190320   0.0000000   0.0000000   0.0000000   0.0000000  -0.4174970  -0.2518970   0.0000000   0.0000000   0.0000000
 0.9050000  -2.5191000  -0.2706730   1.0237500   0.0000000   0.0000000   0.0123916  -0.0280328  -0.0037633   0.0177443   0.0000000   0.0000000   0.0000000   0.0000000  -0.4220100  -0.2632440   0.0000000   0.0000000   0.0000000
 0.9100000  -2.5192400  -0.2706970   1.0238400   0.0000000   0.0000000   0.0124749  -0.0280328  -0.0058841   0.0163992   0.0000000   0.0000000   0.0000000   0.0000000  -0.4262730  -0.2748420   0.0000000   0.0000000   0.0000000
 0.9150000  -2.5193800  -0.2707320   1.0239200   0.0000000   0.0000000   0.0125581  -0.0280328  -0.0080256   0.0149954   0.0000000   0.0000000   0.0000000   0.0000000  -0.4302860  -0.2866900   0.0000000   0.0000000   0.0000000
 0.9200000  -2.5195200  -0.2707770   1.0239900   0.0000000   0.0000000   0.0126414  -0.0280328  -0.0101866   0.0135319   0.0000000   0.0000000   0.0000000   0.0000000  -0.4340500  -0.2987870   0.0000000   0.0000000   0.0000000
 0.9250000  -2.5196600  -0.2708340   1.0240500   0.0000000   0.0000000   0.0127247  -0.0280328  -0.0123657   0.0120072   0.0000000   0.0000000   0.0000000   0.0000000  -0.4375630  -0.3111350   0.0000000   0.0000000   0.0000000
 0.9300000  -2.5198000  -0.2709010   1.0241100   0.0000000   0.0000000   0.0128079  -0.0280328  -0.0145618   0.0104203   0.0000000   0.0000000   0.0000000   0.0000000  -0.4408260  -0.3235590   0.0000000   0.0000000   0.0000000
 0.9350000  -2.5199400  -0.2709790   1.0241600   0.0000000   0.0000000   0.0128912  -0.0280328  -0.0167735   0.0087720   0.0000000   0.0000000   0.0000000   0.0000000  -0.4438400  -0.3357400   0.0000000   0.0000000   0.0000000
 0.9400000  -2.5200800  -0.2710690   1.0241900   0.0000000   0.0000000   0.0129745  -0.0280328  -0.0189997   0.0070634   0.0000000   0.0000000   0.0000000   0.0000251  -0.4466030  -0.3476710   0.0000000   0.0000000   0.0000000
 0.9450000  -2.5202200  -0.2711690   1.0242300   0.0000000   0.0000000   0.0130577  -0.0280321  -0.0212391   0.0052957   0.0000000   0.0000000   0.0000000   0.0002621  -0.4491160  -0.3593530   0.0000000   0.0000000   0.0000000
 0.9500000  -2.5203600  -0.2712810   1.0242500   0.0000000   0.0000000   0.0131410  -0.0280297  -0.0234905   0.0034702   0.0000000   0.0000000   0.0000000   0.0007492  -0.4513790  -0.3707840   0.0000000   0.0000000   0.0000000
 0.9550000  -2.5205000  -0.2714040   1.0242600   0.0000000   0.0000000   0.0132242  -0.0280242  -0.0257525   0.0015883   0.0000000   0.0000000   0.0000000   0.0014862  -0.4533930  -0.3819650   0.0000000   0.0000000   0.0000000
 0.9600000  -2.5206400  -0.2715390   1.0242600   0.0000000   0.0000000   0.0133075  -0.0280144  -0.0280240  -0.0003490   0.0000000   0.0000000   0.0000000   0.0024732  -0.4551560  -0.3928960   0.0000000   0.0000000   0.0000000
 0.9650000  -2.5207800  -0.2716850   1.0242600   0.0000000   0.0000000   0.0133908  -0.0279991  -0.0303037  -0.0023403   0.0000000   0.0000000   0.0000000   0.0037103  -0.4566690  -0.4035770   0.0000000   0.0000000   0.0000000
 0.9700000  -2.5209200  -0.2718420   1.0242400   0.0000000   0.0000000   0.0134740  -0.0279769  -0.0325903  -0.0043844   0.0000000   0.0000000   0.0000000   0.0051973  -0.4579320  -0.4140080   0.0000000   0.0000000   0.0000000
 0.9750000  -2.5210600  -0.2720100   1.0242100   0.0000000   0.0000000   0.0135573  -0.0279467  -0.0348826  -0.0064799   0.0000000   0.0000000   0.0000000   0.0069343  -0.4589460  -0.4241890   0.0000000   0.0000000   0.0000000
 0.9800000  -2.5212000  -0.2721910   1.0241800   0.0000000   0.0000000   0.0136406  -0.0279072  -0.0371793  -0.0086258   0.0000000   0.0000000   0.0000000   0.0089214  -0.4597090  -0.4341210   0.0000000   0.0000000   0.0000000
 0.9850000  -2.5213400  -0.2723820   1.0241300   0.0000000   0.0000000   0.0137238  -0.0278571  -0.0394792  -0.0108207   0.0000000   0.0000000   0.0000000   0.0111584  -0.4602220  -0.4438020   0.0000000   0.0000000   0.0000000
 0.9900000  -2.5214700  -0.2725850   1.0240700   0.0000000   0.0000000   0.0138071  -0.0277952  -0.0417811  -0.0130634   0.0000000   0.0000000   0.0000000   0.0136455  -0.4604860  -0.4532330   0.0000000   0.0000000   0.0000000
 0.9950000  -2.5216100  -0.2728000   1.0240000   0.0000000   0.0000000   0.0138903  -0.0277202  -0.0440837  -0.0153526   0.0000000   0.0000000   0.0000000   0.0163825  -0.4604990  -0.4624140   0.0000000   0.0000000   0.0000000
 1.0000000  -2.5217500  -0.2730260   1.0239100   0.0000000   0.0000000   0.0139736  -0.0276309  -0.0463857  -0.0176872   0.0000000   0.0000000   0.0000000   0.0193695  -0.4602620  -0.4713450   0.0000000   0.0000000   0.0000000
 1.0050000  -2.5218900  -0.2732640   1.0238200   0.0000000   0.0000000   0.0140569  -0.0275261  -0.0486859  -0.0200657   0.0000000   0.0000000   0.0000000   0.0226066  -0.4597750  -0.4800260   0.0000000   0.0000000   0.0000000
 1.0100000  -2.5220300  -0.2735130   1.0237100   0.0000000   0.0000000   0.0141401  -0.0274044  -0.0509830  -0.0224870   0.0000000   0.0000000   0.0000000   0.0260936  -0.4590390  -0.4884570   0.0000000   0.0000000   0.0000000
 1.0150000  -2.5221600  -0.2737740   1.0235900   0.0000000   0.0000000   0.0142234  -0.0272647  -0.0532759  -0.0249498   0.0000000   0.0000000   0.0000000   0.0298306  -0.4580520  -0.4966390   0.0000000   0.0000000   0.0000000
 1.0200000  -2.5223000  -0.2740460   1.0234600   0.0000000   0.0000000   0.0143067  -0.0271057  -0.0555631  -0.0274530   0.0000000   0.0000000   0.0000000   0.0338177  -0.4568150  -0.5045700   0.0000000   0.0000000   0.0000000
 1.0250000  -2.5224400  -0.2743290   1.0233200   0.0000000   0.0000000   0.0143899  -0.0269261  -0.0578436  -0.0299951   0.0000000   0.0000000   0.0000000   0.0380547  -0.4553290  -0.5122510   0.0000000   0.0000000   0.0000000
 1.0300000  -2.5225700  -0.2746240   1.0231600   0.0000000   0.0000000   0.0144732  -0.0267248  -0.0601160  -0.0325751   0.0000000   0.0000000   0.0000000   0.0425417  -0.4535920  -0.5196820   0.0000000   0.0000000   0.0000000
 1.0350000  -2.5227000  -0.2749310   1.0229900   0.0000000   0.0000000   0.0145564  -0.0265003  -0.0623791  -0.0351915   0.0000000   0.0000000   0.0000000   0.0472788  -0.4516050  -0.5268630   0.0000000   0.0000000   0.0000000
 1.0400000  -2.5228300  -0.2752480   1.0228100   0.0000000   0.0000000   0.0146397  -0.0262515  -0.0646316  -0.0378433   0.0000000   0.0000000   0.0000000   0.0522658  -0.4493680  -0.5337940   0.0000000   0.0000000   0.0000000
 1.0450000  -2.5229600  -0.2755770   1.0226200   0.0000000   0.0000000   0.0147230  -0.0259774  -0.0668724  -0.0405291   0.0000000   0.0000000   0.0000000   0.0573568  -0.4468820  -0.5404750   0.0000000   0.0000000   0.0000000
 1.0500000  -2.5230900  -0.2759170   1.0224100   0.0000000   0.0000000   0.0148062  -0.0256784  -0.0691000  -0.0432476   0.0000000   0.0000000   0.0000000   0.0622118  -0.4441450  -0.5469070   0.0000000   0.0000000   0.0000000
 1.0550000  -2.5232200  -0.2762680   1.0221800   0.0000000   0.0000000   0.0148895  -0.0253557  -0.0713134  -0.0459977   0.0000000   0.0000000   0.0000000   0.0668167  -0.4411580  -0.5530880   0.0000000   0.0000000   0.0000000
 1.0600000  -2.5233500  -0.2766300   1.0219500   0.0000000   0.0000000   0.0149728  -0.0250106  -0.0735112  -0.0487781   0.0000000   0.0000000   0.0000000   0.0711716  -0.4379220  -0.5590190   0.0000000   0.0000000   0.0000000
 1.0650000  -2.5234700  -0.2770030   1.0216900   0.0000000   0.0000000   0.0150560  -0.0246444  -0.0756922  -0.0515875   0.0000000   0.0000000   0.0000000   0.0752765  -0.4344350  -0.5647000   0.0000000   0.0000000   0.0000000
 1.0700000  -2.5235900  -0.2773870   1.0214300   0.0000000   0.0000000   0.0151393  -0.0242583  -0.0778551  -0.0544247   0.0000000   0.0000000   0.0000000   0.0791315  -0.4306980  -0.5701310   0.0000000   0.0000000   0.0000000
 1.0750000  -2.5237100  -0.2777810   1.0211500   0.0000000   0.0000000   0.0152225  -0.0238535  -0.0799988  -0.0572884   0.0000000   0.0000000   0.0000000   0.0827364  -0.4267110  -0.5753120   0.0000000   0.0000000   0.0000000
 1.0800000  -2.5238300  -0.2781870   1.0208600   0.0000000   0.0000000   0.0153058  -0.0234313  -0.0821218  -0.0601774   0.0000000   0.0000000   0.0000000   0.0860913  -0.4224750  -0.5802430   0.0000000   0.0000000   0.0000000
 1.0850000  -2.5239500  -0.2786030   1.0205500   0.0000000   0.0000000   0.0153891  -0.0229930  -0.0842231  -0.0630904   0.0000000   0.0000000   0.0000000   0.0891962  -0.4179880  -0.5849250   0.0000000   0.0000000   0.0000000
 1.0900000  -2.5240600  -0.2790290   1.0202300   0.0000000   0.0000000   0.0154723  -0.0225398  -0.0863013  -0.0660262   0.0000000   0.0000000   0.0000000   0.0920512  -0.4132510  -0.5893560   0.0000000   0.0000000   0.0000000
 1.0950000  -2.5241700  -0.2794660   1.0198900   0.0000000   0.0000000   0.0155556  -0.0220729  -0.0883552  -0.0689835   0.0000000   0.0000000   0.0000000   0.0946561  -0.4082650  -0.5935370   0.0000000   0.0000000   0.0000000
 1.1000000  -2.5242800  -0.2799120   1.0195400   0.0000000   0.0000000   0.0156389  -0.0215937  -0.0903835  -0.0719611   0.0000000   0.0000000   0.0000000   0.0970110  -0.4030280  -0.5974680   0.0000000   0.0000000   0.0000000
 1.1050000  -2.5243900  -0.2803690   1.0191700   0.0000000   0.0000000   0.0157221  -0.0211032  -0.0923851  -0.0749578   0.0000000   0.0000000   0.0000000   0.0991159  -0.3975410  -0.6011490   0.0000000   0.0000000   0.0000000
 1.1100000  -2.5244900  -0.2808360   1.0187900   0.0000000   0.0000000   0.0158054  -0.0206029  -0.0943585  -0.0779722   0.0000000   0.0000000   0.0000000   0.1009710  -0.3918040  -0.6045800   0.0000000   0.0000000   0.0000000
 1.1150000  -2.5246000  -0.2813130   1.0183900   0.0000000   0.0000000   0.0158886  -0.0200939  -0.0963027  -0.0810032   0.0000000   0.0000000   0.0000000   0.1025760  -0.3858180  -0.6077620   0.0000000   0.0000000   0.0000000
 1.1200000  -2.5246900  -0.2817990   1.0179800   0.0000000   0.0000000   0.0159719  -0.0195776  -0.0982163  -0.0840494   0.0000000   0.0000000   0.0000000   0.1039310  -0.3795810  -0.6106930   0.0000000   0.0000000   0.0000000
 1.1250000  -2.5247900  -0.2822950   1.0175500   0.0000000   0.0000000   0.0160552  -0.0190550  -0.1000980  -0.0871097   0.0000000   0.0000000   0.0000000   0.1050360  -0.3730940  -0.6133740   0.0000000   0.0000000   0.0000000
 1.1300000  -2.5248900  -0.2828000   1.0171100   0.0000000   0.0000000   0.0161384  -0.0185276  -0.1019470  -0.0901827   0.0000000   0.0000000   0.0000000   0.1058910  -0.3663580  -0.6158050   0.0000000   0.0000000   0.0000000
 1.1350000  -2.5249800  -0.2833140   1.0166500   0.0000000   0.0000000   0.0162217  -0.0179966  -0.1037610  -0.0932673   0.0000000   0.0000000   0.0000000   0.1064950  -0.3593710  -0.6179860   0.0000000   0.0000000   0.0000000
 1.1400000  -2.5250700  -0.2838380   1.0161700   0.0000000   0.0000000   0.0163050  -0.0174631  -0.1055400  -0.0963622   0.0000000   0.0000000   0.0000000   0.1068500  -0.3521340  -0.6199170   0.0000000   0.0000000   0.0000000
 1.1450000  -2.5251500  -0.2843700   1.0156800   0.0000000   0.0000000   0.0163882  -0.0169285  -0.1072820  -0.0994661   0.0000000   0.0000000   0.0000000   0.1069550  -0.3446470  -0.6215980   0.0000000   0.0000000   0.0000000
 1.1500000  -2.5252300  -0.2849100   1.0151800   0.0000000   0.0000000   0.0164715  -0.0163940  -0.1089860  -0.1025780   0.0000000   0.0000000   0.0000000   0.1068100  -0.3369110  -0.6230300   0.0000000   0.0000000   0.0000000
 1.1550000  -2.5253200  -0.2854600   1.0146600   0.0000000   0.0000000   0.0165547  -0.0158608  -0.1106510  -0.1056960   0.0000000   0.0000000   0.0000000   0.1064150  -0.3289240  -0.6242110   0.0000000   0.0000000   0.0000000
 1.1600000  -2.5253900  -0.2860170   1.0141200   0.0000000   0.0000000   0.0166380  -0.0153302  -0.1122750  -0.1088190   0.0000000   0.0000000   0.0000000   0.1057700  -0.3206870  -0.6251420   0.0000000   0.0000000   0.0000000
 1.1650000  -2.5254700  -0.2865820   1.0135700   0.0000000   0.0000000   0.0167213  -0.0148035  -0.1138570  -0.1119470   0.0000000   0.0000000   0.0000000   0.1048750  -0.3122010  -0.6258230   0.0000000   0.0000000   0.0000000
 1.1700000  -2.5255400  -0.2871550   1.0130000   0.0000000   0.0000000   0.0168045  -0.0142819  -0.1153970  -0.1150770   0.0000000   0.0000000   0.0000000   0.1037300  -0.3034640  -0.6262540   0.0000000   0.0000000   0.0000000
 1.1750000  -2.5256100  -0.2877360   1.0124200   0.0000000   0.0000000   0.0168878  -0.0137666  -0.1168920  -0.1182090   0.0000000   0.0000000   0.0000000   0.1023350  -0.2944770  -0.6264350   0.0000000   0.0000000   0.0000000
 1.1800000  -2.5256800  -0.2883240   1.0118200   0.0000000   0.0000000   0.0169711  -0.0132590  -0.1183410  -0.1213410   0.0000000   0.0000000   0.0000000   0.1006900  -0.2852400  -0.6263660   0.0000000   0.0000000   0.0000000
 1.1850000  -2.5257400  -0.2889190   1.0112000   0.0000000   0.0000000   0.0170543  -0.0127601  -0.1197440  -0.1244720   0.0000000   0.0000000   0.0000000   0.0987948  -0.2757540  -0.6260480   0.0000000   0.0000000   0.0000000
 1.1900000  -2.5258100  -0.2895220   1.0105700   0.0000000   0.0000000   0.0171376  -0.0122714  -0.1210980  -0.1276010   0.0000000   0.0000000   0.0000000   0.0966497  -0.2660170  -0.6254790   0.0000000   0.0000000   0.0000000
 1.1950000  -2.5258700  -0.2901300   1.0099300   0.0000000   0.0000000   0.0172208  -0.0117941  -0.1224030  -0.1307270   0.0000000   0.0000000   0.0000000   0.0942546  -0.2560300  -0.6246600   0.0000000   0.0000000   0.0000000
 1.2000000  -2.5259200  -0.2907460   1.0092700   0.0000000   0.0000000   0.0173041  -0.0113293  -0.1236580  -0.1338470   0.0000000   0.0000000   0.0000000   0.0916095  -0.2457940  -0.6235910   0.0000000   0.0000000   0.0000000
 1.2050000  -2.5259800  -0.2913670   1.0085900   0.0000000   0.0000000   0.0173874  -0.0108784  -0.1248610  -0.1369620   0.0000000   0.0000000   0.0000000   0.0887145  -0.2353070  -0.6222720   0.0000000   0.0000000   0.0000000
 1.2100000  -2.5260300  -0.2919940   1.0079000   0.0000000   0.0000000   0.0174706  -0.0104426  -0.1260110  -0.1400700   0.0000000   0.0000000   0.0000000   0.0855694  -0.2245700  -0.6207030   0.0000000   0.0000000   0.0000000
 1.2150000  -2.5260800  -0.2926270   1.0071900   0.0000000   0.0000000   0.0175539  -0.0100231  -0.1271060  -0.1431690   0.0000000   0.0000000   0.0000000   0.0821743  -0.2135830  -0.6188840   0.0000000   0.0000000   0.0000000
 1.2200000  -2.5261300  -0.2932650   1.0064700   0.0000000   0.0000000   0.0176372  -0.0096212  -0.1281460  -0.1462580   0.0000000   0.0000000   0.0000000   0.0785292  -0.2023470  -0.6168160   0.0000000   0.0000000   0.0000000
 1.2250000  -2.5261800  -0.2939080   1.0057300   0.0000000   0.0000000   0.0177204  -0.0092382  -0.1291290  -0.1493370   0.0000000   0.0000000   0.0000000   0.0746342  -0.1908600  -0.6144970   0.0000000   0.0000000   0.0000000
 1.2300000  -2.5262300  -0.2945560   1.0049700   0.0000000   0.0000000   0.0178037  -0.0088753  -0.1300540  -0.1524030   0.0000000   0.0000000   0.0000000   0.0704891  -0.1791230  -0.6119280   0.0000000   0.0000000   0.0000000
 1.2350000  -2.5262700  -0.2952090   1.0042000   0.0000000   0.0000000   0.0178869  -0.0085337  -0.1309200  -0.1554550   0.0000000   0.0000000   0.0000000   0.0660940  -0.1671370  -0.6091090   0.0000000   0.0000000   0.0000000
 1.2400000  -2.5263100  -0.2958650   1.0034200   0.0000000   0.0000000   0.0179702  -0.0082148  -0.1317250  -0.1584930   0.0000000   0.0000000   0.0000000   0.0614489  -0.1549000  -0.6060400   0.0000000   0.0000000   0.0000000
 1.2450000  -2.5263500  -0.2965260   1.0026200   0.0000000   0.0000000   0.0180535  -0.0079197  -0.1324690  -0.1615150   0.0000000   0.0000000   0.0000000   0.0565539  -0.1424130  -0.6027210   0.0000000   0.0000000   0.0000000
 1.2500000  -2.5263900  -0.2971900   1.0018000   0.0000000   0.0000000   0.0181367  -0.0076497  -0.1331490  -0.1645200   0.0000000   0.0000000   0.0000000   0.0514088  -0.1296760  -0.5991520   0.0000000   0.0000000   0.0000000
 1.2550000  -2.5264300  -0.2978570   1.0009700   0.0000000   0.0000000   0.0182200  -0.0074060  -0.1337650  -0.1675070   0.0000000   0.0000000   0.0000000   0.0460137  -0.1166900  -0.5953340   0.0000000   0.0000000   0.0000000
 1.2600000  -2.5264600  -0.2985270   1.0001300   0.0000000   0.0000000   0.0183033  -0.0071899  -0.1343150  -0.1704730   0.0000000   0.0000000   0.0000000   0.0403686  -0.1034530  -0.5912650   0.0000000   0.0000000   0.0000000
 1.2650000  -2.5265000  -0.2992000   0.9992680   0.0000000   0.0000000   0.0183865  -0.0070027  -0.1347990  -0.1734190   0.0000000   0.0000000   0.0000000   0.0344736  -0.0899662  -0.5869460   0.0000000   0.0000000   0.0000000
 1.2700000  -2.5265300  -0.2998750   0.9983940   0.0000000   0.0000000   0.0184698  -0.0068456  -0.1352150  -0.1763420   0.0000000   0.0000000   0.0000000   0.0283285  -0.0762295  -0.5823770   0.0000000   0.0000000   0.0000000
 1.2750000  -2.5265700  -0.3005520   0.9975050   0.0000000   0.0000000   0.0185530  -0.0067199  -0.1355610  -0.1792420   0.0000000   0.0000000   0.0000000   0.0219334  -0.0622428  -0.5775580   0.0000000   0.0000000   0.0000000
 1.2800000  -2.5266000  -0.3012310   0.9966010   0.0000000   0.0000000   0.0186363  -0.0066267  -0.1358370  -0.1821170   0.0000000   0.0000000   0.0000000   0.0152884  -0.0480061  -0.5724890   0.0000000   0.0000000   0.0000000
 1.2850000  -2.5266400  -0.3019100   0.9956840   0.0000000   0.0000000   0.0187196  -0.0065674  -0.1360400  -0.1849670   0.0000000   0.0000000   0.0000000   0.0083933  -0.0335193  -0.5671700   0.0000000   0.0000000   0.0000000
 1.2900000  -2.5266700  -0.3025910   0.9947520   0.0000000   0.0000000   0.0188028  -0.0065432  -0.1361710  -0.1877890   0.0000000   0.0000000   0.0000000   0.0012482  -0.0187826  -0.5616020   0.0000000   0.0000000   0.0000000
 1.2950000  -2.5267000  -0.3032720   0.9938060   0.0000000   0.0000000   0.0188861  -0.0065553  -0.1362280  -0.1905820   0.0000000   0.0000000   0.0000000  -0.0061469  -0.0037959  -0.5557830   0.0000000   0.0000000   0.0000000
 1.3000000  -2.5267300  -0.3039530   0.9928460   0.0000000   0.0000000   0.0189694  -0.0066051  -0.1362090  -0.1933460   0.0000000   0.0000000   0.0000000  -0.0137919   0.0114408  -0.5497140   0.0000000   0.0000000   0.0000000
 1.3050000  -2.5267700  -0.3046340   0.9918720   0.0000000   0.0000000   0.0190526  -0.0066937  -0.1361130  -0.1960790   0.0000000   0.0000000   0.0000000  -0.0216870   0.0269275  -0.5433950   0.0000000   0.0000000   0.0000000
 1.3100000  -2.5268000  -0.3053140   0.9908850   0.0000000   0.0000000   0.0191359  -0.0068224  -0.1359390  -0.1987800   0.0000000   0.0000000   0.0000000  -0.0298321   0.0426642  -0.5368260   0.0000000   0.0000000   0.0000000
 1.3150000  -2.5268300  -0.3059930   0.9898850   0.0000000   0.0000000   0.0192191  -0.0069924  -0.1356860  -0.2014470   0.0000000   0.0000000   0.0000000  -0.0382272   0.0586510  -0.5300070   0.0000000   0.0000000   0.0000000
