ts x y z roll pitch yaw vx vy vz wx wy wz ax ay az dwx dwy dwz jx jy jz ddwx ddwy ddwz
1704464707.834424000  -2.5  -0.3  1  0  0  0  -2e-07  2e-07  -2e-07  0  0  0  -0.000125  0.000125  -0.000125  0  0  0  0  0  0  0  0  0 
1704464707.839340000  -2.5  -0.3  1  0  0  0  -1.7e-06  1.7e-06  -1.7e-06  0  0  0  -0.0005  0.0005  -0.0005  0  0  0  0  0  0  0  0  0 
1704464707.844340000  -2.5  -0.3  1  0  0  0  -5.6e-06  5.6e-06  -5.6e-06  0  0  0  -0.001125  0.001125  -0.001125  0  0  0  0  0  0  0  0  0 
1704464707.849339000  -2.5  -0.3  1  0  0  1e-07  -1.33e-05  1.33e-05  -1.33e-05  0  0  0  -0.002  0.002  -0.002  0  0  0  0  0  0  0  0  0 
1704464707.854338000  -2.5  -0.3  1  0  0  3e-07  -2.6e-05  2.6e-05  -2.6e-05  0  0  0  -0.003125  0.003125  -0.003125  0  0  0  0  0  0  0  0  0 
1704464707.859340000  -2.5  -0.3  1  0  0  5e-07  -4.5e-05  4.5e-05  -4.5e-05  0  0  0  -0.0044988  0.0045  -0.0045  0  0  0  0  0  0  0  0  0 
1704464707.864340000  -2.5  -0.299999  0.999999  0  0  1e-06  -7.09e-05  7.15e-05  -7.15e-05  0  0  0  -0.0058384  0.006125  -0.006125  0  0  0  0  0  0  0  0  0 
1704464707.869340000  -2.5  -0.299999  0.999999  0  0  1.7e-06  -0.000103  0.0001067  -0.0001067  0  0  0  -0.006928  0.008  -0.008  0  0  0  0  0  0  0  0  0 
1704464707.874339000  -2.5  -0.299998  0.999998  0  0  2.7e-06  -0.0001398  0.0001519  -0.0001519  0  0  0  -0.0077677  0.010125  -0.010125  0  0  0  0  0  0  0  0  0 
1704464707.879339000  -2.5  -0.299997  0.999997  0  0  4.2e-06  -0.0001802  0.0002083  -0.0002083  0  0  0  -0.0083573  0.0125  -0.0125  0  0  0  0  0  0  0  0  0 
1704464707.884340000  -2.5  -0.299996  0.999996  0  0  6.1e-06  -0.000223  0.0002773  -0.0002773  0  0  0  -0.0086969  0.015125  -0.015125  0  0  0  0  0  0  0  0  0 
1704464707.889345000  -2.5  -0.299995  0.999995  0  0  8.6e-06  -0.0002668  0.00036  -0.00036  0  0  0  -0.0087866  0.018  -0.018  0  0  0  0  0  0  0  0  0 
1704464707.894341000  -2.50001  -0.299993  0.999993  0  0  1.19e-05  -0.0003104  0.0004577  -0.0004577  0  0  0  -0.0086262  0.021125  -0.021125  0  0  0  0  0  0  0  0  0 
1704464707.899340000  -2.50001  -0.29999  0.99999  0  0  1.6e-05  -0.0003526  0.0005717  -0.0005717  0  0  0  -0.0082158  0.0245  -0.0245  0  0  0  0  0  0  0  0  0 
1704464707.904353000  -2.50001  -0.299987  0.999987  0  0  2.11e-05  -0.0003922  0.0007031  -0.0007031  0  0  0  -0.0075555  0.028125  -0.028125  0  0  0  0  0  0  0  0  0 
1704464707.909343000  -2.50001  -0.299983  0.999983  0  0  2.73e-05  -0.0004278  0.0008533  -0.0008533  0  0  0  -0.0066451  0.032  -0.032  0  0  0  0  0  0  0  0  0 
1704464707.914345000  -2.50001  -0.299978  0.999978  0  0  3.48e-05  -0.0004582  0.0010235  -0.0010235  0  0  0  -0.0054847  0.036125  -0.036125  0  0  0  0  0  0  0  0  0 
1704464707.919343000  -2.50002  -0.299973  0.999973  0  0  4.37e-05  -0.0004822  0.001215  -0.001215  0  0  0  -0.0040856  0.0405  -0.0405  0  0  0  0  0  0  0  0  0 
1704464707.924344000  -2.50002  -0.299966  0.999966  0  0  5.43e-05  -0.0004993  0.001429  -0.001429  0  0  0  -0.0027814  0.045125  -0.045125  0  0  0  0  0  0  0  0  0 
1704464707.929458000  -2.50002  -0.299958  0.999958  0  0  6.67e-05  -0.0005104  0.0016667  -0.0016667  0  0  0  -0.0017271  0.05  -0.05  0  0  0  0  0  0  0  0  0 
1704464707.934353000  -2.50002  -0.299949  0.999949  0  0  8.1e-05  -0.0005169  0.0019294  -0.0019294  0  0  0  -0.0009228  0.055125  -0.055125  0  0  0  0  0  0  0  0  0 
1704464707.939338000  -2.50003  -0.299939  0.999939  0  0  9.76e-05  -0.0005201  0.0022183  -0.0022183  0  0  0  -0.0003685  0.0605  -0.0605  0  0  0  0  0  0  0  0  0 
1704464707.944336000  -2.50003  -0.299927  0.999927  0  0  0.0001166  -0.0005211  0.0025348  -0.0025347  0  0  0  -6.43e-05  0.066125  -0.0660297  0  0  0  0  0  0  0  0  0 
1704464707.949338000  -2.50003  -0.299914  0.999914  0  0  0.0001382  -0.0005211  0.00288  -0.0028782  0  0  0  -0  0.072  -0.0713459  0  0  0  0  0  0  0  0  0 
1704464707.954337000  -2.50003  -0.299898  0.999898  0  0  0.0001628  -0.0005211  0.0032552  -0.0032477  0  0  0  -0  0.078125  -0.0764122  0  0  0  0  0  0  0  0  0 
1704464707.959337000  -2.50004  -0.299881  0.999881  0  0  0.0001904  -0.0005211  0.0036617  -0.0036419  0  0  0  -0  0.0845  -0.0812284  0  0  0  0  0  0  0  0  0 
1704464707.964346000  -2.50004  -0.299862  0.999862  0  0  0.0002213  -0.0005211  0.0041006  -0.0040596  0  0  0  -0  0.091125  -0.0857947  0  0  0  0  0  0  0  0  0 
1704464707.969338000  -2.50004  -0.29984  0.99984  0  0  0.0002558  -0.0005211  0.0045733  -0.0044995  0  0  0  -0  0.098  -0.0901109  0  0  0  0  0  0  0  0  0 
1704464707.974338000  -2.50004  -0.299816  0.999817  0  0  0.0002939  -0.0005211  0.005081  -0.0049603  0  0  0  -0  0.105125  -0.0941772  0  0  0  0  0  0  0  0  0 
1704464707.979340000  -2.50005  -0.299789  0.999791  0  0  0.000336  -0.0005211  0.005625  -0.0054408  0  0  0  -0  0.1125  -0.0979934  0  0  0  0  0  0  0  0  0 
1704464707.984344000  -2.50005  -0.299759  0.999762  0  0  0.0003822  -0.0005211  0.0062065  -0.0059398  0  0  0  -0  0.120125  -0.10156  0  0  0  0  0  0  0  0  0 
1704464707.989338000  -2.50005  -0.299727  0.999731  0  0  0.0004326  -0.0005211  0.0068267  -0.006456  0  0  0  -0  0.128  -0.104876  0  0  0  0  0  0  0  0  0 
1704464707.994337000  -2.50006  -0.299691  0.999698  0  0  0.0004874  -0.0005211  0.0074869  -0.0069882  0  0  0  -0  0.136125  -0.107942  0  0  0  0  0  0  0  0  0 
1704464707.999338000  -2.50006  -0.299652  0.999661  0  0  0.0005467  -0.0005211  0.0081883  -0.007535  0  0  0  -0  0.1445  -0.110758  0  0  0  0  0  0  0  0  0 
1704464708.004345000  -2.50006  -0.299609  0.999622  0  0  0.0006108  -0.0005211  0.0089323  -0.0080953  0  0  0  -0  0.153125  -0.113325  0  0  0  0  0  0  0  0  0 
1704464708.009337000  -2.50006  -0.299563  0.999581  0  0  0.0006796  -0.0005211  0.00972  -0.0086678  0  0  0  -0  0.162  -0.115641  0  0  0  0  0  0  0  0  0 
1704464708.014338000  -2.50007  -0.299512  0.999536  0  0  0.0007533  -0.0005211  0.0105527  -0.0092513  0  0  0  -0  0.171125  -0.117707  0  0  0  0  0  0  0  0  0 
1704464708.019338000  -2.50007  -0.299457  0.999488  0  0  0.0008321  -0.0005211  0.0114317  -0.0098445  0  0  0  -0  0.1805  -0.119523  0  0  0  0  0  0  0  0  0 
1704464708.024345000  -2.50007  -0.299398  0.999437  0  0  0.000916  -0.0005211  0.0123581  -0.0104461  0  0  0  -0  0.190125  -0.12109  0  0  0  0  0  0  0  0  0 
1704464708.029338000  -2.50007  -0.299333  0.999384  0  0  0.0010051  -0.0005211  0.0133333  -0.011055  0  0  0  -0  0.2  -0.122406  0  0  0  0  0  0  0  0  0 
1704464708.034338000  -2.50008  -0.299264  0.999327  0  0  0.0010995  -0.0005211  0.0143585  -0.0116698  0  0  0  -0  0.210125  -0.123472  0  0  0  0  0  0  0  0  0 
1704464708.039336000  -2.50008  -0.29919  0.999267  0  0  0.0011993  -0.0005211  0.015435  -0.0122893  0  0  0  -0  0.2205  -0.124288  0  0  0  0  0  0  0  0  0 
1704464708.044351000  -2.50008  -0.29911  0.999204  0  0  0.0013044  -0.0005211  0.016564  -0.0129122  0  0  0  -0  0.231125  -0.124855  0  0  0  0  0  0  0  0  0 
1704464708.049338000  -2.50008  -0.299024  0.999138  0  0  0.001415  -0.0005211  0.0177467  -0.0135374  0  0  0  -0  0.242  -0.125171  0  0  0  0  0  0  0  0  0 
1704464708.054353000  -2.50009  -0.298932  0.999068  0  0  0.001531  -0.0005211  0.0189844  -0.0141635  0  0  0  -0  0.253125  -0.125237  0  0  0  0  0  0  0  0  0 
1704464708.059336000  -2.50009  -0.298834  0.998996  0  0  0.0016526  -0.0005211  0.0202783  -0.0147894  0  0  0  -0  0.2645  -0.125053  0  0  0  0  0  0  0  0  0 
1704464708.064353000  -2.50009  -0.298729  0.998921  0  0  0.0017797  -0.0005211  0.0216298  -0.0154137  0  0  0  -0  0.276125  -0.12462  0  0  0  0  0  0  0  0  0 
1704464708.069337000  -2.50009  -0.298618  0.998842  0  0  0.0019123  -0.0005211  0.02304  -0.0160352  0  0  0  -0  0.288  -0.123936  0  0  0  0  0  0  0  0  0 
1704464708.074353000  -2.5001  -0.298499  0.99876  0  0  0.0020505  -0.0005211  0.0245102  -0.0166526  0  0  0  -0  0.300125  -0.123002  0  0  0  0  0  0  0  0  0 
1704464708.079353000  -2.5001  -0.298372  0.998675  0  0  0.0021942  -0.0005211  0.0260417  -0.0172648  0  0  0  -0  0.3125  -0.121819  0  0  0  0  0  0  0  0  0 
1704464708.084353000  -2.5001  -0.298238  0.998588  0  0  0.0023433  -0.0005211  0.0276356  -0.0178704  0  0  0  -0  0.325125  -0.120385  0  0  0  0  0  0  0  0  0 
1704464708.089352000  -2.5001  -0.298096  0.998497  0  0  0.0024979  -0.0005211  0.0292933  -0.0184682  0  0  0  -0  0.338  -0.118701  0  0  0  0  0  0  0  0  0 
1704464708.094353000  -2.50011  -0.297945  0.998403  0  0  0.0026579  -0.0005211  0.031016  -0.019057  0  0  0  -0  0.351125  -0.116767  0  0  0  0  0  0  0  0  0 
1704464708.099353000  -2.50011  -0.297786  0.998306  0  0  0.0028233  -0.0005211  0.032805  -0.0196354  0  0  0  -0  0.3645  -0.114584  0  0  0  0  0  0  0  0  0 
1704464708.104354000  -2.50011  -0.297617  0.998207  0  0  0.0029939  -0.0005211  0.0346612  -0.0202024  0  0  0  -0  0.377934  -0.11215  0  0  0  0  0  0  0  0  0 
1704464708.109352000  -2.50012  -0.297439  0.998104  0  0  0.0031698  -0.0005211  0.0365839  -0.0207565  0  0  0  -0  0.391123  -0.109466  0  0  0  0  0  0  0  0  0 
1704464708.114353000  -2.50012  -0.297251  0.997999  0  0  0.0033507  -0.0005211  0.038572  -0.0212966  0  0  0  -0  0.404061  -0.106532  0  0  0  0  0  0  0  0  0 
1704464708.119353000  -2.50012  -0.297053  0.997891  0  0  0.0035367  -0.0005211  0.0406241  -0.0218214  0  0  0  -0  0.416749  -0.103349  0  0  0  0  0  0  0  0  0 
1704464708.124352000  -2.50012  -0.296845  0.997781  0  0  0.0037277  -0.0005211  0.0427391  -0.0223297  0  0  0  -0  0.429187  -0.0999148  0  0  0  0  0  0  0  0  0 
1704464708.129343000  -2.50013  -0.296626  0.997668  0  0  0.0039234  -0.0005211  0.0449156  -0.0228202  0  0  0  -0  0.441376  -0.096231  0  0  0  0  0  0  0  0  0 
1704464708.134353000  -2.50013  -0.296395  0.997553  0  0  0.0041239  -0.0005211  0.0471524  -0.0232916  0  0  0  -0  0.453314  -0.0922973  0  0  0  0  0  0  0  0  0 
1704464708.139353000  -2.50013  -0.296154  0.997435  0  0  0.0043289  -0.0005211  0.0494483  -0.0237427  0  0  0  -0  0.465002  -0.0881135  0  0  0  0  0  0  0  0  0 
1704464708.144352000  -2.50013  -0.295901  0.997315  0  0  0.0045383  -0.0005211  0.051802  -0.0241723  0  0  0  -0  0.476441  -0.0836798  0  0  0  0  0  0  0  0  0 
1704464708.149352000  -2.50014  -0.295636  0.997193  0  0  0.0047519  -0.0005211  0.0542123  -0.0245791  0  0  0  -0  0.487629  -0.078996  0  0  0  0  0  0  0  0  0 
1704464708.154353000  -2.50014  -0.295359  0.99707  0  0  0.0049697  -0.0005211  0.0566779  -0.0249619  0  0  0  -0  0.498567  -0.0740623  0  0  0  0  0  0  0  0  0 
1704464708.159352000  -2.50014  -0.295069  0.996944  0  0  0.0051913  -0.0005211  0.0591975  -0.0253193  0  0  0  -0  0.509256  -0.0688785  0  0  0  0  0  0  0  0  0 
1704464708.164353000  -2.50014  -0.294767  0.996816  0  0  0.0054167  -0.0005211  0.06177  -0.0256502  0  0  0  -0  0.519694  -0.0634448  0  0  0  0  0  0  0  0  0 
1704464708.169353000  -2.50015  -0.294451  0.996687  0  0  0.0056456  -0.0005211  0.0643941  -0.0259536  0  0  0  -0  0.529882  -0.0579427  0  0  0  0  0  0  0  0  0 
1704464708.174353000  -2.50015  -0.294123  0.996557  0  0  0.0058779  -0.0005211  0.0670684  -0.0262301  0  0  0  -0  0.53982  -0.0526852  0  0  0  0  0  0  0  0  0 
1704464708.179358000  -2.50015  -0.29378  0.996425  0  0  0.0061132  -0.0005211  0.0697919  -0.0264809  0  0  0  -0  0.549509  -0.0476777  0  0  0  0  0  0  0  0  0 
1704464708.184351000  -2.50015  -0.293425  0.996292  0  0  0.0063515  -0.0005211  0.0725631  -0.0267073  0  0  0  -0  0.558947  -0.0429202  0  0  0  0  0  0  0  0  0 
1704464708.189352000  -2.50016  -0.293055  0.996158  0  0  0.0065924  -0.0005211  0.0753809  -0.0269105  0  0  0  -0  0.568135  -0.0384127  0  0  0  0  0  0  0  0  0 
1704464708.194353000  -2.50016  -0.292671  0.996023  0  0  0.0068358  -0.0005211  0.078244  -0.0270918  0  0  0  -0  0.577074  -0.0341552  0  0  0  0  0  0  0  0  0 
1704464708.199351000  -2.50016  -0.292272  0.995887  0  0  0.0070814  -0.0005211  0.0811512  -0.0272525  0  0  0  -0  0.585762  -0.0301477  0  0  0  0  0  0  0  0  0 
1704464708.204353000  -2.50016  -0.291859  0.995751  0  0  0.0073289  -0.0005211  0.0841012  -0.0273937  0  0  0  -0  0.5942  -0.0263902  0  0  0  0  0  0  0  0  0 
1704464708.209353000  -2.50017  -0.291431  0.995613  0  0  0.0075784  -0.0005211  0.0870928  -0.0275168  0  0  0  -0  0.602388  -0.0228827  0  0  0  0  0  0  0  0  0 
1704464708.214362000  -2.50017  -0.290988  0.995475  0  0  0.0078294  -0.0005211  0.0901247  -0.0276229  0  0  0  -0  0.610327  -0.0196252  0  0  0  0  0  0  0  0  0 
1704464708.219351000  -2.50017  -0.29053  0.995337  0  0  0.0080819  -0.0005211  0.0931957  -0.0277134  0  0  0  -0  0.618015  -0.0166177  0  0  0  0  0  0  0  0  0 
1704464708.224351000  -2.50017  -0.290056  0.995198  0  0  0.0083357  -0.0005211  0.0963044  -0.0277895  0  0  0  -0  0.625453  -0.0138602  0  0  0  0  0  0  0  0  0 
1704464708.229357000  -2.50018  -0.289567  0.995059  0  0  0.0085906  -0.0005211  0.0994498  -0.0278525  0  0  0  -0  0.632642  -0.0113527  0  0  0  0  0  0  0  0  0 
1704464708.234354000  -2.50018  -0.289062  0.99492  0  0  0.0088465  -0.0005211  0.10263  -0.0279035  0  0  0  -0  0.63958  -0.0090952  0  0  0  0  0  0  0  0  0 
1704464708.239338000  -2.50018  -0.28854  0.99478  0  0  0.0091033  -0.0005211  0.105845  -0.0279438  0  0  0  -0  0.646268  -0.0070877  0  0  0  0  0  0  0  0  0 
1704464708.244346000  -2.50019  -0.288003  0.99464  0  0  0.0093607  -0.0005211  0.109093  -0.0279748  0  0  0  -0  0.652707  -0.0053301  0  0  0  0  0  0  0  0  0 
1704464708.249351000  -2.50019  -0.287449  0.9945  0  0  0.0096188  -0.0005211  0.112372  -0.0279975  0  0  0  -0  0.658895  -0.0038226  0  0  0  0  0  0  0  0  0 
1704464708.254352000  -2.50019  -0.286879  0.99436  0  0  0.0098775  -0.0005211  0.115681  -0.0280134  0  0  0  -0  0.664833  -0.0025651  0  0  0  0  0  0  0  0  0 
1704464708.259348000  -2.50019  -0.286293  0.99422  0  0  0.0101365  -0.0005211  0.11902  -0.0280236  0  0  0  -0  0.670521  -0.0015576  0  0  0  0  0  0  0  0  0 
1704464708.264345000  -2.5002  -0.285689  0.99408  0  0  0.0103958  -0.0005211  0.122386  -0.0280294  0  0  0  -0  0.67596  -0.0008001  0  0  0  0  0  0  0  0  0 
1704464708.269346000  -2.5002  -0.285069  0.99394  0  0  0.0106554  -0.0005211  0.125779  -0.028032  0  0  0  -0  0.681148  -0.0002926  0  0  0  0  0  0  0  0  0 
1704464708.274347000  -2.5002  -0.284431  0.9938  0  0  0.0109152  -0.0005211  0.129197  -0.0280327  0  0  0  -0  0.686086  -3.51e-05  0  0  0  0  0  0  0  0  0 
1704464708.279339000  -2.5002  -0.283777  0.99366  0  0  0.0111751  -0.0005211  0.132639  -0.0280328  0  0  0  -0  0.690775  0  0  0  0  0  0  0  0  0  0 
1704464708.284339000  -2.50021  -0.283105  0.99352  0  0  0.0114351  -0.0005211  0.136104  -0.0280328  0  0  0  -0  0.695213  0  0  0  0  0  0  0  0  0  0 
1704464708.289339000  -2.50021  -0.282416  0.993379  0  0  0.0116952  -0.0005211  0.139591  -0.0280328  0  0  0  -0  0.699401  0  0  0  0  0  0  0  0  0  0 
1704464708.294339000  -2.50021  -0.281709  0.993239  0  0  0.0119552  -0.0005211  0.143098  -0.0280328  0  0  0  -0  0.703339  0  0  0  0  0  0  0  0  0  0 
1704464708.299338000  -2.50021  -0.280985  0.993099  0  0  0.0122153  -0.0005211  0.146624  -0.0280328  0  0  0  -0  0.707028  0  0  0  0  0  0  0  0  0  0 
1704464708.304357000  -2.50022  -0.280243  0.992959  0  0  0.0124754  -0.0005211  0.150168  -0.0280328  0  0  0  -0  0.710466  0  0  0  0  0  0  0  0  0  0 
1704464708.309351000  -2.50022  -0.279483  0.992819  0  0  0.0127354  -0.0005211  0.153728  -0.0280328  0  0  0  -0  0.713654  0  0  0  0  0  0  0  0  0  0 
1704464708.314339000  -2.50022  -0.278705  0.992679  0  0  0.0129955  -0.0005211  0.157304  -0.0280328  0  0  0  -0  0.716593  0  0  0  0  0  0  0  0  0  0 
1704464708.319337000  -2.50022  -0.27791  0.992538  0  0  0.0132555  -0.0005211  0.160894  -0.0280328  0  0  0  -0  0.719281  0  0  0  0  0  0  0  0  0  0 
1704464708.324345000  -2.50023  -0.277096  0.992398  0  0  0.0135154  -0.0005211  0.164496  -0.0280328  0  0  0  -0  0.721719  0  0  0  0  0  0  0  0  0  0 
1704464708.329352000  -2.50023  -0.276265  0.992258  0  0  0.0137753  -0.0005211  0.168111  -0.0280328  0  0  0  -0  0.723908  0  0  0  0  0  0  0  0  0  0 
1704464708.334339000  -2.50023  -0.275415  0.992118  0  0  0.0140349  -0.0005211  0.171735  -0.0280328  0  0  0  -0  0.725846  0  0  0  0  0  0  0  0  0  0 
1704464708.339350000  -2.50023  -0.274547  0.991978  0  0  0.0142944  -0.0005211  0.175369  -0.0280328  0  0  0  -0  0.727534  0  0  0  0  0  0  0  0  0  0 
1704464708.344351000  -2.50024  -0.273661  0.991838  0  0  0.0145535  -0.0005211  0.17901  -0.0280328  0  0  0  -0  0.728972  0  0  0  0  0  0  0  0  0  0 
1704464708.349356000  -2.50024  -0.272757  0.991697  0  0  0.0148122  -0.0005211  0.182658  -0.0280328  0  0  0  -0  0.730161  0  0  0  0  0  0  0  0  0  0 
1704464708.354338000  -2.50024  -0.271835  0.991557  0  0  0.0150705  -0.0005211  0.186311  -0.0280328  0  0  0  -0  0.731099  0  0  0  0  0  0  0  0  0  0 
1704464708.359353000  -2.50025  -0.270894  0.991417  0  0  0.0153282  -0.0005211  0.189968  -0.0280328  0  0  0  -0  0.731787  0  0  0  0  0  0  0  0  0  0 
1704464708.364358000  -2.50025  -0.269935  0.991277  0  0  0.0155852  -0.0005211  0.193629  -0.0280328  0  0  0  -0  0.732226  0  0  0  0  0  0  0  0  0  0 
1704464708.369351000  -2.50025  -0.268958  0.991137  0  0  0.0158414  -0.0005211  0.19729  -0.0280328  0  0  0  -0  0.732414  0  0  0  0  0  0  0  0  0  0 
1704464708.374349000  -2.50025  -0.267962  0.990997  0  0  0.0160966  -0.0005211  0.200952  -0.0280328  0  0  0  -0  0.732352  0  0  0  0  0  0  0  0  0  0 
1704464708.379356000  -2.50026  -0.266948  0.990856  0  0  0.0163508  -0.0005211  0.204613  -0.0280328  0  0  0  -0  0.73204  0  0  0  0  0  0  0  0  0  0 
1704464708.384352000  -2.50026  -0.265916  0.990716  0  0  0.0166037  -0.0005211  0.208272  -0.0280328  0  0  0  -0  0.731479  0  0  0  0  0  0  0  0  0  0 
1704464708.389364000  -2.50026  -0.264866  0.990576  0  0  0.0168552  -0.0005211  0.211928  -0.0280328  0  0  0  -0  0.730667  0  0  0  0  0  0  0  0  0  0 
1704464708.394348000  -2.50026  -0.263797  0.990436  0  0  0.0171051  -0.0005211  0.215579  -0.0280328  0  0  0  -0  0.729605  0  0  0  0  0  0  0  0  0  0 
1704464708.399350000  -2.50027  -0.26271  0.990296  0  0  0.0173533  -0.0005211  0.219223  -0.0280328  0  0  0  -0  0.728294  0  0  0  0  0  0  0  0  0  0 
1704464708.404356000  -2.50027  -0.261605  0.990156  0  0  0.0175995  -0.0005211  0.222861  -0.0280328  0  0  0  -0  0.726732  0  0  0  0  0  0  0  0  0  0 
1704464708.409350000  -2.50027  -0.260481  0.990015  0  0  0.0178436  -0.0005211  0.22649  -0.0280328  0  0  0  -0  0.72492  0  0  0  0  0  0  0  0  0  0 
1704464708.414354000  -2.50027  -0.25934  0.989875  0  0  0.0180853  -0.0005211  0.23011  -0.0280328  0  0  0  -0  0.722859  0  0  0  0  0  0  0  0  0  0 
1704464708.419351000  -2.50028  -0.25818  0.989735  0  0  0.0183244  -0.0005211  0.233719  -0.0280328  0  0  0  -0  0.720547  0  0  0  0  0  0  0  0  0  0 
1704464708.424352000  -2.50028  -0.257003  0.989595  0  0  0.0185607  -0.0005211  0.237315  -0.0280328  0  0  0  -0  0.717985  0  0  0  0  0  0  0  0  0  0 
1704464708.429347000  -2.50028  -0.255807  0.989455  0  0  0.0187939  -0.0005211  0.240898  -0.0280328  0  0  0  -0  0.715173  0  0  0  0  0  0  0  0  0  0 
1704464708.434338000  -2.50028  -0.254594  0.989315  0  0  0.0190239  -0.0005211  0.244466  -0.0280328  0  0  0  -0  0.712112  0  0  0  0  0  0  0  0  0  0 
1704464708.439338000  -2.50029  -0.253362  0.989174  0  0  0.0192502  -0.0005211  0.248019  -0.0280328  0  0  0  -0  0.7088  0  0  0  0  0  0  0  0  0  0 
1704464708.444345000  -2.50029  -0.252113  0.989034  0  0  0.0194728  -0.0005211  0.251554  -0.0280328  0  0  0  -0  0.705238  0  0  0  0  0  0  0  0  0  0 
1704464708.449338000  -2.50029  -0.250847  0.988894  0  0  0.0196915  -0.0005211  0.255071  -0.0280328  0  0  0  -0  0.701427  0  0  0  0  0  0  0  0  0  0 
1704464708.454340000  -2.50029  -0.249563  0.988754  0  0  0.0199059  -0.0005211  0.258568  -0.0280328  0  0  0  -0  0.697365  0  0  0  0  0  0  0  0  0  0 
1704464708.459335000  -2.5003  -0.248261  0.988614  0  0  0.0201159  -0.0005211  0.262044  -0.0280328  0  0  0  -0  0.693053  0  0  0  0  0  0  0  0  0  0 
1704464708.464344000  -2.5003  -0.246942  0.988474  0  0  0.0203213  -0.0005211  0.265498  -0.0280328  0  0  0  -0  0.688491  0  0  0  0  0  0  0  0  0  0 
1704464708.469346000  -2.5003  -0.245606  0.988333  0  0  0.020522  -0.0005211  0.268928  -0.0280328  0  0  0  -0  0.68368  0  0  0  0  0  0  0  0  0  0 
1704464708.474345000  -2.50031  -0.244253  0.988193  0  0  0.0207177  -0.0005211  0.272334  -0.0280328  0  0  0  -0  0.678618  0  0  0  0  0  0  0  0  0  0 
1704464708.479347000  -2.50031  -0.242883  0.988053  0  0  0.0209084  -0.0005211  0.275714  -0.0280328  0  0  0  -0  0.673306  0  0  0  0  0  0  0  0  0  0 
1704464708.484344000  -2.50031  -0.241496  0.987913  0  0  0.0210938  -0.0005211  0.279067  -0.0280328  0  0  0  -0  0.667745  0  0  0  0  0  0  0  0  0  0 
1704464708.489345000  -2.50031  -0.240092  0.987773  0  0  0.0212738  -0.0005211  0.282391  -0.0280328  0  0  0  -0  0.661933  0  0  0  0  0  0  0  0  0  0 
1704464708.494347000  -2.50032  -0.238672  0.987633  0  0  0.0214484  -0.0005211  0.285686  -0.0280328  0  0  0  -0  0.655871  0  0  0  0  0  0  0  0  0  0 
1704464708.499345000  -2.50032  -0.237236  0.987492  0  0  0.0216173  -0.0005211  0.288949  -0.0280328  0  0  0  -0  0.64956  0  0  0  0  0  0  0  0  0  0 
1704464708.504353000  -2.50032  -0.235783  0.987352  0  0  0.0217805  -0.0005211  0.292181  -0.0280328  0  0  0  -0  0.642998  0  0  0  0  0  0  0  0  0  0 
1704464708.509345000  -2.50032  -0.234314  0.987212  0  0  0.0219379  -0.0005211  0.295379  -0.0280328  0  0  0  -0  0.636186  0  0  0  0  0  0  0  0  0  0 
1704464708.514340000  -2.50033  -0.232829  0.987072  0  0  0.0220894  -0.0005211  0.298542  -0.0280328  0  0  0  -0  0.629124  0  0  0  0  0  0  0  0  0  0 
1704464708.519337000  -2.50033  -0.231329  0.986932  0  0  0.0222349  -0.0005211  0.30167  -0.0280328  0  0  0  -0  0.621813  0  0  0  0  0  0  0  0  0  0 
1704464708.524343000  -2.50033  -0.229812  0.986792  0  0  0.0223743  -0.0005211  0.30476  -0.0280328  0  0  0  -0  0.614251  0  0  0  0  0  0  0  0  0  0 
1704464708.529337000  -2.50033  -0.228281  0.986651  0  0  0.0225076  -0.0005211  0.307812  -0.0280328  0  0  0  -0  0.606439  0  0  0  0  0  0  0  0  0  0 
1704464708.534337000  -2.50034  -0.226734  0.986511  0  0  0.0226348  -0.0005211  0.310824  -0.0280328  0  0  0  -0  0.598378  0  0  0  0  0  0  0  0  0  0 
1704464708.539352000  -2.50034  -0.225173  0.986371  0  0  0.0227558  -0.0005211  0.313795  -0.0280328  0  0  0  -0  0.590066  0  0  0  0  0  0  0  0  0  0 
1704464708.544408000  -2.50034  -0.223596  0.986231  0  0  0.0228705  -0.0005211  0.316724  -0.0280328  0  0  0  -0  0.581504  0  0  0  0  0  0  0  0  0  0 
1704464708.549352000  -2.50034  -0.222006  0.986091  0  0  0.022979  -0.0005211  0.31961  -0.0280328  0  0  0  -0  0.572692  0  0  0  0  0  0  0  0  0  0 
1704464708.554354000  -2.50035  -0.2204  0.985951  0  0  0.0230813  -0.0005211  0.322451  -0.0280328  0  0  0  -0  0.563631  0  0  0  0  0  0  0  0  0  0 
1704464708.559351000  -2.50035  -0.218781  0.985811  0  0  0.0231773  -0.0005211  0.325246  -0.0280328  0  0  0  -0  0.554319  0  0  0  0  0  0  0  0  0  0 
1704464708.564351000  -2.50035  -0.217148  0.98567  0  0  0.0232671  -0.0005211  0.327994  -0.0280328  0  0  0  -0  0.544757  0  0  0  0  0  0  0  0  0  0 
1704464708.569352000  -2.50035  -0.215501  0.98553  0  0  0.0233506  -0.0005211  0.330693  -0.0280328  0  0  0  -0  0.534946  0  0  0  0  0  0  0  0  0  0 
1704464708.574351000  -2.50036  -0.213841  0.98539  0  0  0.0234278  -0.0005211  0.333343  -0.0280328  0  0  0  -0  0.524884  0  0  0  0  0  0  0  0  0  0 
1704464708.579350000  -2.50036  -0.212168  0.98525  0  0  0.0234988  -0.0005211  0.335941  -0.0280328  0  0  0  -0  0.514572  0  0  0  0  0  0  0  0  0  0 
1704464708.584353000  -2.50036  -0.210482  0.98511  0  0  0.0235636  -0.0005211  0.338488  -0.0280328  0  0  0  -0  0.50401  0  0  0  0  0  0  0  0  0  0 
1704464708.589339000  -2.50037  -0.208783  0.98497  0  0  0.0236221  -0.0005211  0.340981  -0.0280328  0  0  0  -0  0.493199  0  0  0  0  0  0  0  0  0  0 
1704464708.594339000  -2.50037  -0.207072  0.984829  0  0  0.0236743  -0.0005211  0.34342  -0.0280328  0  0  0  -0  0.482137  0  0  0  0  0  0  0  0  0  0 
1704464708.599335000  -2.50037  -0.205349  0.984689  0  0  0.0237204  -0.0005211  0.345802  -0.0280328  0  0  0  -0  0.470825  0  0  0  0  0  0  0  0  0  0 
1704464708.604350000  -2.50037  -0.203614  0.984549  0  0  0.0237601  -0.0005211  0.348127  -0.0280328  0  0  0  -0  0.459264  0  0  0  0  0  0  0  0  0  0 
1704464708.609349000  -2.50038  -0.201868  0.984409  0  0  0.0237936  -0.0005211  0.350394  -0.0280328  0  0  0  -0  0.447452  0  0  0  0  0  0  0  0  0  0 
1704464708.614351000  -2.50038  -0.20011  0.984269  0  0  0.0238209  -0.0005211  0.352601  -0.0280328  0  0  0  -0  0.43539  0  0  0  0  0  0  0  0  0  0 
1704464708.619350000  -2.50038  -0.198342  0.984129  0  0  0.0238419  -0.0005211  0.354748  -0.0280328  0  0  0  -0  0.423079  0  0  0  0  0  0  0  0  0  0 
1704464708.624351000  -2.50038  -0.196563  0.983988  0  0  0.0238566  -0.0005211  0.356832  -0.0280328  0  0  0  -0  0.410517  0  0  0  0  0  0  0  0  0  0 
1704464708.629338000  -2.50039  -0.194774  0.983848  0  0  0.0238651  -0.0005211  0.358852  -0.0280328  0  0  0  -0  0.397705  0  0  0  0  0  0  0  0  0  0 
1704464708.634351000  -2.50039  -0.192975  0.983708  0  0  0.0238674  -0.0005211  0.360808  -0.0280328  0  0  0  -0  0.384643  0  0  0  0  0  0  0  0  0  0 
1704464708.639337000  -2.50039  -0.191166  0.983568  0  0  0.0238634  -0.0005211  0.362698  -0.0280328  0  0  0  -0  0.371332  0  0  0  0  0  0  0  0  0  0 
1704464708.644345000  -2.50039  -0.189348  0.983428  0  0  0.0238532  -0.0005211  0.364521  -0.0280328  0  0  0  -0  0.357866  0  0  0  0  0  0  0  0  0  0 
1704464708.649338000  -2.5004  -0.187521  0.983288  0  0  0.0238367  -0.0005211  0.366278  -0.0280328  0  0  0  -0  0.344615  0  0  0  0  0  0  0  0  0  0 
1704464708.654337000  -2.5004  -0.185685  0.983147  0  0  0.0238139  -0.0005211  0.367968  -0.0280328  0  0  0  -0  0.331613  0  0  0  0  0  0  0  0  0  0 
1704464708.659337000  -2.5004  -0.183841  0.983007  0  0  0.0237849  -0.0005211  0.369594  -0.0280328  0  0  0  -0  0.318861  0  0  0  0  0  0  0  0  0  0 
1704464708.664337000  -2.5004  -0.181989  0.982867  0  0  0.0237497  -0.0005211  0.371157  -0.0280328  0  0  0  -0  0.30636  0  0  0  0  0  0  0  0  0  0 
1704464708.669337000  -2.50041  -0.18013  0.982727  0  0  0.0237082  -0.0005211  0.372658  -0.0280328  0  0  0  -0  0.294108  0  0  0  0  0  0  0  0  0  0 
1704464708.674336000  -2.50041  -0.178263  0.982587  0  0  0.0236605  -0.0005211  0.374099  -0.0280328  0  0  0  -0  0.282107  0  0  0  0  0  0  0  0  0  0 
1704464708.679347000  -2.50041  -0.176389  0.982447  0  0  0.0236065  -0.0005211  0.37548  -0.0280328  0  0  0  -0  0.270355  0  0  0  0  0  0  0  0  0  0 
1704464708.684350000  -2.50041  -0.174508  0.982306  0  0  0.0235462  -0.0005211  0.376803  -0.0280328  0  0  0  -0  0.258853  0  0  0  0  0  0  0  0  0  0 
1704464708.689338000  -2.50042  -0.172621  0.982166  0  0  0.0234797  -0.0005211  0.378069  -0.0280328  0  0  0  -0  0.247602  0  0  0  0  0  0  0  0  0  0 
1704464708.694338000  -2.50042  -0.170727  0.982026  0  0  0.023407  -0.0005211  0.379279  -0.0280328  0  0  0  -0  0.2366  0  0  0  0  0  0  0  0  0  0 
1704464708.699338000  -2.50042  -0.168828  0.981886  0  0  0.023328  -0.0005211  0.380435  -0.0280328  0  0  0  -0  0.225849  0  0  0  0  0  0  0  0  0  0 
1704464708.704341000  -2.50043  -0.166923  0.981746  0  0  0.0232427  -0.0005211  0.381538  -0.0280328  0  0  0  -0  0.215347  0  0  0  0  0  0  0  0  0  0 
1704464708.709336000  -2.50043  -0.165013  0.981606  0  0  0.0231513  -0.0005211  0.382589  -0.0280328  0  0  0  -0  0.205096  0  0  0  0  0  0  0  0  0  0 
1704464708.714351000  -2.50043  -0.163097  0.981465  0  0  0.0230535  -0.0005211  0.383589  -0.0280328  0  0  0  -0  0.195094  0  0  0  0  0  0  0  0  0  0 
1704464708.719350000  -2.50043  -0.161177  0.981325  0  0  0.0229495  -0.0005211  0.38454  -0.0280328  0  0  0  -0  0.185342  0  0  0  0  0  0  0  0  0  0 
1704464708.724351000  -2.50044  -0.159252  0.981185  0  0  0.0228393  -0.0005211  0.385443  -0.0280328  0  0  0  -0  0.175841  0  0  0  0  0  0  0  0  0  0 
1704464708.729350000  -2.50044  -0.157323  0.981045  0  0  0.0227228  -0.0005211  0.386299  -0.0280328  0  0  0  -0  0.166589  0  0  0  0  0  0  0  0  0  0 
1704464708.734350000  -2.50044  -0.155389  0.980905  0  0  0.0226  -0.0005211  0.387109  -0.0280328  0  0  0  -0  0.157588  0  0  0  0  0  0  0  0  0  0 
1704464708.739351000  -2.50044  -0.153452  0.980765  0  0  0.022471  -0.0005211  0.387875  -0.0280328  0  0  0  -0  0.148836  0  0  0  0  0  0  0  0  0  0 
1704464708.744358000  -2.50045  -0.15151  0.980624  0  0  0.0223358  -0.0005211  0.388598  -0.0280328  0  0  0  -0  0.140334  0  0  0  0  0  0  0  0  0  0 
1704464708.749350000  -2.50045  -0.149566  0.980484  0  0  0.0221943  -0.0005211  0.389279  -0.0280328  0  0  0  -0  0.132083  0  0  0  0  0  0  0  0  0  0 
1704464708.754351000  -2.50045  -0.147618  0.980344  0  0  0.0220466  -0.0005211  0.389919  -0.0280328  0  0  0  -0  0.124081  0  0  0  0  0  0  0  0  0  0 
1704464708.759351000  -2.50045  -0.145667  0.980204  0  0  0.0218926  -0.0005211  0.39052  -0.0280328  0  0  0  -0  0.11633  0  0  0  0  0  0  0  0  0  0 
1704464708.764351000  -2.50046  -0.143713  0.980064  0  0  0.0217323  -0.0005211  0.391083  -0.0280328  0  0  0  -0  0.108828  0  0  0  0  0  0  0  0  0  0 
1704464708.769350000  -2.50046  -0.141756  0.979924  0  0  0.0215658  -0.0005211  0.391609  -0.0280328  0  0  0  -0  0.101577  0  0  0  0  0  0  0  0  0  0 
1704464708.774350000  -2.50046  -0.139797  0.979783  0  0  0.0213931  -0.0005211  0.392099  -0.0280328  0  0  0  -0  0.0945749  0  0  0  0  0  0  0  0  0  0 
1704464708.779356000  -2.50046  -0.137835  0.979643  0  0  0.0212141  -0.0005211  0.392555  -0.0280328  0  0  0  -0  0.0878233  0  0  0  0  0  0  0  0  0  0 
1704464708.784351000  -2.50047  -0.135871  0.979503  0  0  0.0210289  -0.0005211  0.392978  -0.0280328  0  0  0  -0  0.0813217  0  0  0  0  0  0  0  0  0  0 
1704464708.789350000  -2.50047  -0.133905  0.979363  0  0  0.0208374  -0.0005211  0.393369  -0.0280328  0  0  0  -0  0.0750702  0  0  0  0  0  0  0  0  0  0 
1704464708.794350000  -2.50047  -0.131937  0.979223  0  0  0.0206396  -0.0005211  0.393729  -0.0280328  0  0  0  -0  0.0690686  0  0  0  0  0  0  0  0  0  0 
1704464708.799350000  -2.50047  -0.129968  0.979083  0  0  0.0204356  -0.0005211  0.39406  -0.0280328  0  0  0  -0  0.063317  0  0  0  0  0  0  0  0  0  0 
1704464708.804356000  -2.50048  -0.127997  0.978942  0  0  0.0202254  -0.0005211  0.394363  -0.0280328  0  0  0  -0  0.0578154  0  0  0  0  0  0  0  0  0  0 
1704464708.809350000  -2.50048  -0.126024  0.978802  0  0  0.0200089  -0.0005211  0.394638  -0.0280328  0  0  0  -0  0.0525638  0  0  0  0  0  0  0  0  0  0 
1704464708.814350000  -2.50048  -0.124051  0.978662  0  0  0.0197862  -0.0005211  0.394889  -0.0280328  0  0  0  -0  0.0475622  0  0  0  0  0  0  0  0  0  0 
1704464708.819350000  -2.50049  -0.122076  0.978522  0  0  0.0195572  -0.0005211  0.395115  -0.0280328  0  0  0  -0  0.0428106  0  0  0  0  0  0  0  0  0  0 
1704464708.824351000  -2.50049  -0.120099  0.978382  0  0  0.0193219  -0.0005211  0.395317  -0.0280328  0  0  0  -0  0.038309  0  0  0  0  0  0  0  0  0  0 
1704464708.829358000  -2.50049  -0.118122  0.978242  0  0  0.0190804  -0.0005211  0.395498  -0.0280328  0  0  0  -0  0.0340575  0  0  0  0  0  0  0  0  0  0 
1704464708.834350000  -2.50049  -0.116145  0.978101  0  0  0.0188327  -0.0005211  0.395658  -0.0280328  0  0  0  -0  0.0300559  0  0  0  0  0  0  0  0  0  0 
1704464708.839350000  -2.5005  -0.114166  0.977961  0  0  0.0185787  -0.0005211  0.395799  -0.0280328  0  0  0  -0  0.0263043  0  0  0  0  0  0  0  0  0  0 
1704464708.844351000  -2.5005  -0.112187  0.977821  0  0  0.0183184  -0.0005211  0.395922  -0.0280328  0  0  0  -0  0.0228027  0  0  0  0  0  0  0  0  0  0 
1704464708.849350000  -2.5005  -0.110207  0.977681  0  0  0.018052  -0.0005211  0.396027  -0.0280328  0  0  0  -0  0.0195511  0  0  0  0  0  0  0  0  0  0 
1704464708.854350000  -2.5005  -0.108226  0.977541  0  0  0.0177792  -0.0005211  0.396118  -0.0280328  0  0  0  -0  0.0165495  0  0  0  0  0  0  0  0  0  0 
1704464708.859350000  -2.50051  -0.106246  0.977401  0  0  0.0175002  -0.0005211  0.396193  -0.0280328  0  0  0  -0  0.0137979  0  0  0  0  0  0  0  0  0  0 
1704464708.864352000  -2.50051  -0.104264  0.977261  0  0  0.017215  -0.0005211  0.396256  -0.0280328  0  0  0  -0  0.0112963  0  0  0  0  0  0  0  0  0  0 
1704464708.869350000  -2.50051  -0.102283  0.97712  0  0  0.0169235  -0.0005211  0.396307  -0.0280328  0  0  0  -0  0.0090448  0  0  0  0  0  0  0  0  0  0 
1704464708.874351000  -2.50051  -0.100301  0.97698  0  0  0.0166257  -0.0005211  0.396347  -0.0280328  0  0  0  -0  0.0070432  0  0  0  0  0  0  0  0  0  0 
1704464708.879351000  -2.50052  -0.0983195  0.97684  0  0  0.0163217  -0.0005211  0.396378  -0.0280328  0  0  0  -0  0.0052916  0  0  0  0  0  0  0  0  0  0 
1704464708.884351000  -2.50052  -0.0963376  0.9767  0  0  0.0160115  -0.0005211  0.3964  -0.0280328  0  0  0  -0  0.00379  0  0  0  0  0  0  0  0  0  0 
1704464708.889350000  -2.50052  -0.0943555  0.97656  0  0  0.015695  -0.0005211  0.396416  -0.0280328  0  0  0  -0  0.0025384  0  0  0  0  0  0  0  0  0  0 
1704464708.894351000  -2.50052  -0.0923734  0.97642  0  0  0.0153723  -0.0005211  0.396426  -0.0280328  0  0  0  -0  0.0015368  0  0  0  0  0  0  0  0  0  0 
1704464708.899350000  -2.50053  -0.0903913  0.976279  0  0  0.0150433  -0.0005211  0.396432  -0.0280328  0  0  0  -0  0.0007852  0  0  0  0  0  0  0  0  0  0 
1704464708.904351000  -2.50053  -0.0884091  0.976139  0  0  0.014708  -0.0005211  0.396434  -0.0280328  0  0  0  -0  0.0002836  0  0  0  0  0  0  0  0  0  0 
1704464708.909350000  -2.50053  -0.086427  0.975999  0  0  0.0143665  -0.0005211  0.396435  -0.0280328  0  0  0  -0  3.2e-05  0  0  0  0  0  0  0  0  0  0 
1704464708.914351000  -2.50053  -0.0844448  0.975859  0  0  0.0140188  -0.0005211  0.396435  -0.0280328  0  0  0  -0  0  0  0  0  0  0  0  0  0  0  0 
1704464708.919350000  -2.50054  -0.0824626  0.975719  0  0  0.0136648  -0.0005211  0.396435  -0.0280328  0  0  0  -0  0  0  0  0  0  0  0  0  0  0  0 
1704464708.924352000  -2.50054  -0.0804804  0.975579  0  0  0.0133046  -0.0005211  0.396435  -0.0280328  0  0  0  -0  0  0  0  0  0  0  0  0  0  0  0 
1704464708.929342000  -2.50054  -0.0784983  0.975438  0  0  0.0129381  -0.0005211  0.396435  -0.0280328  0  0  0  -0  0  0  0  0  0  0  0  0  0  0  0 
1704464708.934350000  -2.50054  -0.0765161  0.975298  0  0  0.0125653  -0.0005211  0.396435  -0.0280328  0  0  0  -0  0  0  0  0  0  0  0  0  0  0  0 
1704464708.939350000  -2.50055  -0.0745339  0.975158  0  0  0.0121863  -0.0005211  0.396435  -0.0280328  0  0  0  -0  0  0  0  0  0  0  0  0  0  0  0 
1704464708.944351000  -2.50055  -0.0725517  0.975018  0  0  0.0118011  -0.0005211  0.396435  -0.0280328  0  0  0  -0  0  0  0  0  0  0  0  0  0  0  0 
1704464708.949350000  -2.50055  -0.0705696  0.974878  0  0  0.0114096  -0.0005211  0.396435  -0.0280328  0  0  0  -0  0  0  0  0  0  0  0  0  0  0  0 
1704464708.954350000  -2.50056  -0.0685874  0.974738  0  0  0.0110118  -0.0005211  0.396435  -0.0280328  0  0  0  -0  0  0  0  0  0  0  0  0  0  0  0 
1704464708.959349000  -2.50056  -0.0666052  0.974597  0  0  0.0106079  -0.0005211  0.396435  -0.0280328  0  0  0  -0  0  0  0  0  0  0  0  0  0  0  0 
1704464708.964350000  -2.50056  -0.064623  0.974457  0  0  0.0101976  -0.0005211  0.396435  -0.0280328  0  0  0  -0  0  0  0  0  0  0  0  0  0  0  0 
1704464708.969359000  -2.50056  -0.0626409  0.974317  0  0  0.0097811  -0.0005211  0.396435  -0.0280328  0  0  0  -0  0  0  0  0  0  0  0  0  0  0  0 
1704464708.974349000  -2.50057  -0.0606587  0.974177  0  0  0.0093584  -0.0005211  0.396435  -0.0280328  0  0  0  -0  0  0  0  0  0  0  0  0  0  0  0 
1704464708.979351000  -2.50057  -0.0586765  0.974037  0  0  0.0089294  -0.0005211  0.396435  -0.0280328  0  0  0  -0  0  0  0  0  0  0  0  0  0  0  0 
1704464708.984350000  -2.50057  -0.0566943  0.973897  0  0  0.0084941  -0.0005211  0.396435  -0.0280328  0  0  0  -0  0  0  0  0  0  0  0  0  0  0  0 
1704464708.989350000  -2.50057  -0.0547122  0.973756  0  0  0.0080526  -0.0005211  0.396435  -0.0280328  0  0  0  -0  0  0  0  0  0  0  0  0  0  0  0 
1704464708.994350000  -2.50058  -0.05273  0.973616  0  0  0.0076049  -0.0005211  0.396435  -0.0280328  0  0  0  -0  0  0  0  0  0  0  0  0  0  0  0 
1704464708.999349000  -2.50058  -0.0507478  0.973476  0  0  0.0071509  -0.0005211  0.396435  -0.0280328  0  0  0  -0  0  0  0  0  0  0  0  0  0  0  0 
1704464709.004355000  -2.50058  -0.0487656  0.973336  0  0  0.0066907  -0.0005211  0.396435  -0.0280328  0  0  0  -0  0  0  0  0  0  0  0  0  0  0  0 
1704464709.009349000  -2.50058  -0.0467835  0.973196  0  0  0.0062242  -0.0005211  0.396435  -0.0280328  0  0  0  -0  0  0  0  0  0  0  0  0  0  0  0 
1704464709.014349000  -2.50059  -0.0448013  0.973056  0  0  0.0057514  -0.0005211  0.396435  -0.0280328  0  0  0  -0  0  0  0  0  0  0  0  0  0  0  0 
1704464709.019349000  -2.50059  -0.0428191  0.972915  0  0  0.0052724  -0.0005211  0.396435  -0.0280328  0  0  0  2.95e-05  0  0  0  0  0  0  0  0  0  0  0 
1704464709.024350000  -2.50059  -0.0408369  0.972775  0  0  0.0047872  -0.0005204  0.396435  -0.0280328  0  0  0  0.0002759  0  0  0  0  0  0  0  0  0  0  0 
1704464709.029355000  -2.50059  -0.0388548  0.972635  0  0  0.0042957  -0.0005179  0.396435  -0.0280328  0  0  0  0.0007723  0  0  0  0  0  0  0  0  0  0  0 
1704464709.034349000  -2.5006  -0.0368726  0.972495  0  0  0.003798  -0.0005123  0.396435  -0.0280328  0  0  0  0.0015187  0  0  0  0  0  0  0  0  0  0  0 
1704464709.039338000  -2.5006  -0.0348904  0.972355  0  0  0.003294  -0.0005023  0.396435  -0.0280328  0  0  0  0.0025151  0  0  0  0  0  0  0  0  0  0  0 
1704464709.044355000  -2.5006  -0.0329082  0.972215  0  0  0.0027837  -0.0004867  0.396435  -0.0280328  0  0  0  0.0037615  0  0  0  0  0  0  0  0  0  0  0 
1704464709.049344000  -2.5006  -0.0309261  0.972074  0  0  0.0022672  -0.0004643  0.396435  -0.0280328  0  0  0  0.0052579  0  0  0  0  0  0  0  0  0  0  0 
1704464709.054349000  -2.50061  -0.0289439  0.971934  0  0  0.0017445  -0.0004337  0.396435  -0.0280328  0  0  0  0.0070043  0  0  0  0  0  0  0  0  0  0  0 
1704464709.059343000  -2.50061  -0.0269617  0.971794  0  0  0.0012155  -0.0003938  0.396435  -0.0280328  0  0  0  0.0090007  0  0  0  0  0  0  0  0  0  0  0 
1704464709.064351000  -2.50061  -0.0249795  0.971654  0  0  0.0006803  -0.0003433  0.396435  -0.0280328  0  0  0  0.0112471  0  0  0  0  0  0  0  0  0  0  0 
1704464709.069344000  -2.50061  -0.0229974  0.971514  0  0  0.0001388  -0.0002809  0.396435  -0.0280328  0  0  0  0.0137435  0  0  0  0  0  0  0  0  0  0  0 
1704464709.074343000  -2.50061  -0.0210152  0.971374  0  0  -0.000409  -0.0002055  0.396435  -0.0280328  0  0  0  0.0164898  0  0  0  0  0  0  0  0  0  0  0 
1704464709.079343000  -2.50061  -0.019033  0.971233  0  0  -0.000963  -0.0001156  0.396435  -0.0280328  0  0  0  0.0194862  0  0  0  0  0  0  0  0  0  0  0 
1704464709.084352000  -2.50061  -0.0170508  0.971093  0  0  -0.0015232  -1.02e-05  0.396435  -0.0280328  0  0  0  0.0227326  0  0  0  0  0  0  0  0  0  0  0 
1704464709.089344000  -2.50061  -0.0150687  0.970953  0  0  -0.0020897  0.0001121  0.396435  -0.0280328  0  0  0  0.026229  0  0  0  0  0  0  0  0  0  0  0 
1704464709.094345000  -2.50061  -0.0130865  0.970813  0  0  -0.0026625  0.0002525  0.396435  -0.0280328  0  0  0  0.0299754  0  0  0  0  0  0  0  0  0  0  0 
1704464709.099343000  -2.50061  -0.0111043  0.970673  0  0  -0.0032414  0.0004123  0.396435  -0.0280328  0  0  0  0.0339718  0  0  0  0  0  0  0  0  0  0  0 
1704464709.104358000  -2.50061  -0.0091221  0.970533  0  0  -0.0038267  0.0005927  0.396435  -0.0280328  0  0  0  0.0382182  0  0  0  0  0  0  0  0  0  0  0 
1704464709.109343000  -2.50061  -0.00714  0.970392  0  0  -0.0044182  0.0007949  0.396435  -0.0280328  0  0  0  0.0427146  0  0  0  0  0  0  0  0  0  0  0 
1704464709.114338000  -2.5006  -0.0051578  0.970252  0  0  -0.0050159  0.0010202  0.396435  -0.0280328  0  0  0  0.047461  0  0  0  0  0  0  0  0  0  0  0 
1704464709.119338000  -2.5006  -0.0031756  0.970112  0  0  -0.0056199  0.0012699  0.396435  -0.0280328  0  0  0  0.0524574  0  0  0  0  0  0  0  0  0  0  0 
1704464709.124351000  -2.50059  -0.0011934  0.969972  0  0  -0.0062302  0.0015452  0.396435  -0.0280328  0  0  0  0.0577038  0  0  0  0  0  0  0  0  0  0  0 
1704464709.129337000  -2.50058  0.0007887  0.969832  0  0  -0.0068467  0.0018474  0.396435  -0.0280328  0  0  0  0.0632002  0  0  0  0  0  0  0  0  0  0  0 
1704464709.134337000  -2.50057  0.0027709  0.969692  0  0  -0.0074694  0.0021776  0.396435  -0.0280328  0  0  0  0.0689466  0  0  0  0  0  0  0  0  0  0  0 
1704464709.139337000  -2.50056  0.0047531  0.969552  0  0  -0.0080984  0.0025373  0.396435  -0.0280328  0  0  0  0.074943  0  0  0  0  0  0  0  0  0  0  0 
1704464709.144352000  -2.50054  0.0067353  0.969411  0  0  -0.0087336  0.0029275  0.396435  -0.0280328  0  0  0  0.0811894  0  0  0  0  0  0  0  0  0  0  0 
1704464709.149336000  -2.50053  0.0087174  0.969271  0  0  -0.0093751  0.0033496  0.396435  -0.0280328  0  0  0  0.0876858  0  0  0  0  0  0  0  0  0  0  0 
1704464709.154337000  -2.50051  0.0106996  0.969131  0  0  -0.0100229  0.0038047  0.396435  -0.0280328  0  0  0  0.0944322  0  0  0  0  0  0  0  0  0  0  0 
1704464709.159336000  -2.50049  0.0126818  0.968991  0  0  -0.0106769  0.0042943  0.396435  -0.0280328  0  0  0  0.101429  0  0  0  0  0  0  0  0  0  0  0 
1704464709.164352000  -2.50047  0.014664  0.968851  0  0  -0.0113371  0.0048195  0.396435  -0.0280328  0  0  0  0.108675  0  0  0  0  0  0  0  0  0  0  0 
1704464709.169337000  -2.50044  0.0166461  0.968711  0  0  -0.0120036  0.0053815  0.396435  -0.0280328  0  0  0  0.116171  0  0  0  0  0  0  0  0  0  0  0 
1704464709.174336000  -2.50041  0.0186283  0.96857  0  0  -0.0126763  0.0059816  0.396435  -0.0280328  0  0  0  0.123918  0  0  0  0  0  0  0  0  0  0  0 
1704464709.179334000  -2.50038  0.0206105  0.96843  0  0  -0.0133553  0.0066211  0.396435  -0.0280327  0  0  0  0.131914  0  6.72e-05  0  0  0  0  0  0  0  0  0 
1704464709.184352000  -2.50035  0.0225927  0.96829  0  0  -0.0140406  0.0073011  0.396435  -0.0280317  0  0  0  0.140161  0  0.0003756  0  0  0  0  0  0  0  0  0 
1704464709.189343000  -2.50031  0.0245748  0.96815  0  0  -0.0147321  0.0080231  0.396435  -0.0280285  0  0  0  0.148657  0  0.0009339  0  0  0  0  0  0  0  0  0 
1704464709.194338000  -2.50027  0.026557  0.96801  0  0  -0.0154298  0.0087881  0.396435  -0.0280219  0  0  0  0.157403  0  0.0017423  0  0  0  0  0  0  0  0  0 
1704464709.199336000  -2.50022  0.0285392  0.96787  0  0  -0.0161338  0.0095975  0.396435  -0.0280107  0  0  0  0.1664  0  0.0028006  0  0  0  0  0  0  0  0  0 
1704464709.204352000  -2.50017  0.0305214  0.96773  0  0  -0.0168441  0.0104525  0.396435  -0.0279935  0  0  0  0.175646  0  0.0041089  0  0  0  0  0  0  0  0  0 
1704464709.209337000  -2.50012  0.0325035  0.96759  0  0  -0.0175605  0.0113544  0.396435  -0.0279692  0  0  0  0.185143  0  0.0056673  0  0  0  0  0  0  0  0  0 
1704464709.214337000  -2.50006  0.0344857  0.96745  0  0  -0.0182833  0.0123044  0.396435  -0.0279364  0  0  0  0.194889  0  0.0074756  0  0  0  0  0  0  0  0  0 
1704464709.219337000  -2.49999  0.0364679  0.96731  0  0  -0.0190123  0.0133037  0.396435  -0.027894  0  0  0  0.204885  0  0.009534  0  0  0  0  0  0  0  0  0 
1704464709.224344000  -2.49992  0.0384501  0.967171  0  0  -0.0197475  0.0143537  0.396435  -0.0278407  0  0  0  0.215132  0  0.0118423  0  0  0  0  0  0  0  0  0 
1704464709.229335000  -2.49985  0.0404322  0.967032  0  0  -0.020489  0.0154554  0.396435  -0.0277752  0  0  0  0.225628  0  0.0144006  0  0  0  0  0  0  0  0  0 
1704464709.234335000  -2.49977  0.0424144  0.966893  0  0  -0.0212368  0.0166104  0.396435  -0.0276962  0  0  0  0.236375  0  0.017209  0  0  0  0  0  0  0  0  0 
1704464709.239336000  -2.49968  0.0443966  0.966755  0  0  -0.0219908  0.0178196  0.396435  -0.0276027  0  0  0  0.247371  0  0.0202673  0  0  0  0  0  0  0  0  0 
1704464709.244351000  -2.49959  0.0463788  0.966617  0  0  -0.022751  0.0190845  0.396435  -0.0274932  0  0  0  0.258617  0  0.0235757  0  0  0  0  0  0  0  0  0 
1704464709.249336000  -2.49949  0.0483609  0.96648  0  0  -0.0235175  0.0204062  0.396435  -0.0273665  0  0  0  0.270114  0  0.027134  0  0  0  0  0  0  0  0  0 
1704464709.254337000  -2.49939  0.0503431  0.966344  0  0  -0.0242902  0.0217859  0.396435  -0.0272214  0  0  0  0.281719  0  0.0309423  0  0  0  0  0  0  0  0  0 
1704464709.259336000  -2.49928  0.0523253  0.966208  0  0  -0.0250692  0.023223  0.396435  -0.0270566  0  0  0  0.293089  0  0.0350007  0  0  0  0  0  0  0  0  0 
1704464709.264351000  -2.49916  0.0543075  0.966073  0  0  -0.0258545  0.0247163  0.396435  -0.026871  0  0  0  0.304209  0  0.039309  0  0  0  0  0  0  0  0  0 
1704464709.269338000  -2.49903  0.0562896  0.965939  0  0  -0.026646  0.0262646  0.396435  -0.0266631  0  0  0  0.315079  0  0.0438674  0  0  0  0  0  0  0  0  0 
1704464709.274336000  -2.49889  0.0582718  0.965807  0  0  -0.0274437  0.0278667  0.396435  -0.0264319  0  0  0  0.325699  0  0.0486757  0  0  0  0  0  0  0  0  0 
1704464709.279336000  -2.49875  0.060254  0.965675  0  0  -0.0282477  0.0295212  0.396435  -0.026176  0  0  0  0.336069  0  0.0537341  0  0  0  0  0  0  0  0  0 
1704464709.284352000  -2.4986  0.0622362  0.965545  0  0  -0.0290579  0.031227  0.396435  -0.0258941  0  0  0  0.346189  0  0.0590424  0  0  0  0  0  0  0  0  0 
1704464709.289339000  -2.49844  0.0642183  0.965416  0  0  -0.0298744  0.0329827  0.396435  -0.0255851  0  0  0  0.356059  0  0.0646007  0  0  0  0  0  0  0  0  0 
1704464709.294339000  -2.49827  0.0662005  0.965289  0  0  -0.0306972  0.0347871  0.396435  -0.0252477  0  0  0  0.365679  0  0.0704091  0  0  0  0  0  0  0  0  0 
1704464709.299337000  -2.49809  0.0681827  0.965164  0  0  -0.0315262  0.0366391  0.396435  -0.0248806  0  0  0  0.375049  0  0.0764674  0  0  0  0  0  0  0  0  0 
1704464709.304345000  -2.4979  0.0701649  0.96504  0  0  -0.0323614  0.0385372  0.396435  -0.0244826  0  0  0  0.38417  0  0.0827758  0  0  0  0  0  0  0  0  0 
1704464709.309337000  -2.4977  0.072147  0.964919  0  0  -0.0332029  0.0404804  0.396435  -0.0240524  0  0  0  0.39304  0  0.0893341  0  0  0  0  0  0  0  0  0 
1704464709.314337000  -2.4975  0.0741292  0.9648  0  0  -0.0340506  0.0424672  0.396435  -0.0235889  0  0  0  0.40166  0  0.0961424  0  0  0  0  0  0  0  0  0 
1704464709.319338000  -2.49728  0.0761114  0.964683  0  0  -0.0349046  0.0444965  0.396435  -0.0230906  0  0  0  0.41003  0  0.103201  0  0  0  0  0  0  0  0  0 
1704464709.324344000  -2.49705  0.0780936  0.964569  0  0  -0.0357649  0.0465671  0.396435  -0.0225564  0  0  0  0.41815  0  0.110509  0  0  0  0  0  0  0  0  0 
1704464709.329338000  -2.49681  0.0800757  0.964458  0  0  -0.0366314  0.0486776  0.396435  -0.0219851  0  0  0  0.42602  0  0.118067  0  0  0  0  0  0  0  0  0 
1704464709.334337000  -2.49656  0.0820579  0.964349  0  0  -0.0375041  0.0508269  0.396435  -0.0213753  0  0  0  0.43364  0  0.125876  0  0  0  0  0  0  0  0  0 
1704464709.339337000  -2.4963  0.0840401  0.964244  0  0  -0.0383831  0.0530136  0.396435  -0.0207259  0  0  0  0.44101  0  0.133934  0  0  0  0  0  0  0  0  0 
1704464709.344336000  -2.49603  0.0860223  0.964142  0  0  -0.0392684  0.0552366  0.396435  -0.0200356  0  0  0  0.44813  0  0.142242  0  0  0  0  0  0  0  0  0 
1704464709.349337000  -2.49575  0.0880044  0.964044  0  0  -0.0401599  0.0574945  0.396435  -0.0193031  0  0  0  0.455001  0  0.150801  0  0  0  0  0  0  0  0  0 
1704464709.354335000  -2.49546  0.0899866  0.963949  0  0  -0.0410576  0.0597861  0.396435  -0.0185272  0  0  0  0.461621  0  0.159609  0  0  0  0  0  0  0  0  0 
1704464709.359337000  -2.49515  0.0919688  0.963858  0  0  -0.0419616  0.0621103  0.396435  -0.0177066  0  0  0  0.467991  0  0.168668  0  0  0  0  0  0  0  0  0 
1704464709.364344000  -2.49484  0.093951  0.963772  0  0  -0.0428718  0.0644656  0.396435  -0.0168401  0  0  0  0.474111  0  0.177976  0  0  0  0  0  0  0  0  0 
1704464709.369338000  -2.49451  0.0959331  0.96369  0  0  -0.0437883  0.066851  0.396435  -0.0159264  0  0  0  0.479981  0  0.187534  0  0  0  0  0  0  0  0  0 
1704464709.374337000  -2.49417  0.0979153  0.963613  0  0  -0.0447111  0.069265  0.396435  -0.0149648  0  0  0  0.485601  0  0.197081  0  0  0  0  0  0  0  0  0 
1704464709.379338000  -2.49382  0.0998975  0.963541  0  0  -0.0456401  0.0717066  0.396435  -0.013956  0  0  0  0.490971  0  0.206378  0  0  0  0  0  0  0  0  0 
1704464709.384345000  -2.49345  0.10188  0.963473  0  0  -0.0465753  0.0741743  0.396435  -0.0129014  0  0  0  0.496091  0  0.215425  0  0  0  0  0  0  0  0  0 
1704464709.389337000  -2.49308  0.103862  0.963412  0  0  -0.0475168  0.0766671  0.396435  -0.0118022  0  0  0  0.500961  0  0.224223  0  0  0  0  0  0  0  0  0 
1704464709.394337000  -2.49269  0.105844  0.963355  0  0  -0.0484645  0.0791835  0.396435  -0.0106596  0  0  0  0.505581  0  0.23277  0  0  0  0  0  0  0  0  0 
1704464709.399337000  -2.49228  0.107826  0.963305  0  0  -0.0494185  0.0817225  0.396435  -0.0094749  0  0  0  0.509952  0  0.241067  0  0  0  0  0  0  0  0  0 
1704464709.404347000  -2.49187  0.109808  0.963261  0  0  -0.0503788  0.0842826  0.396435  -0.0082493  0  0  0  0.514072  0  0.249114  0  0  0  0  0  0  0  0  0 
1704464709.409337000  -2.49144  0.111791  0.963223  0  0  -0.0513453  0.0868628  0.396435  -0.0069842  0  0  0  0.517942  0  0.256911  0  0  0  0  0  0  0  0  0 
1704464709.414337000  -2.491  0.113773  0.963191  0  0  -0.052318  0.0894616  0.396435  -0.0056806  0  0  0  0.521562  0  0.264458  0  0  0  0  0  0  0  0  0 
1704464709.419379000  -2.49055  0.115755  0.963166  0  0  -0.053297  0.092078  0.396435  -0.00434  0  0  0  0.524932  0  0.271755  0  0  0  0  0  0  0  0  0 
1704464709.424345000  -2.49008  0.117737  0.963148  0  0  -0.0542822  0.0947105  0.396435  -0.0029635  0  0  0  0.528052  0  0.278802  0  0  0  0  0  0  0  0  0 
1704464709.429337000  -2.4896  0.119719  0.963136  0  0  -0.0552737  0.0973581  0.396435  -0.0015524  0  0  0  0.530922  0  0.285599  0  0  0  0  0  0  0  0  0 
1704464709.434337000  -2.48911  0.121701  0.963132  0  0  -0.0562715  0.100019  0.396435  -0.0001079  0  0  0  0.533542  0  0.292147  0  0  0  0  0  0  0  0  0 
1704464709.439338000  -2.4886  0.123684  0.963135  0  0  -0.0572755  0.102693  0.396435  0.0013687  0  0  0  0.535912  0  0.298444  0  0  0  0  0  0  0  0  0 
1704464709.444344000  -2.48808  0.125666  0.963146  0  0  -0.0582857  0.105378  0.396435  0.0028761  0  0  0  0.538032  0  0.304491  0  0  0  0  0  0  0  0  0 
1704464709.449351000  -2.48754  0.127648  0.963164  0  0  -0.0593022  0.108073  0.396435  0.0044132  0  0  0  0.539903  0  0.310288  0  0  0  0  0  0  0  0  0 
1704464709.454352000  -2.487  0.12963  0.96319  0  0  -0.060325  0.110777  0.396435  0.0059786  0  0  0  0.541523  0  0.315835  0  0  0  0  0  0  0  0  0 
1704464709.459339000  -2.48644  0.131612  0.963224  0  0  -0.0613539  0.113488  0.396435  0.0075711  0  0  0  0.542893  0  0.321132  0  0  0  0  0  0  0  0  0 
1704464709.464347000  -2.48586  0.133594  0.963266  0  0  -0.0623892  0.116205  0.396435  0.0091895  0  0  0  0.544013  0  0.326179  0  0  0  0  0  0  0  0  0 
1704464709.469339000  -2.48527  0.135577  0.963316  0  0  -0.0634307  0.118928  0.396435  0.0108325  0  0  0  0.544883  0  0.330976  0  0  0  0  0  0  0  0  0 
1704464709.474338000  -2.48467  0.137559  0.963374  0  0  -0.0644784  0.121654  0.396435  0.0124988  0  0  0  0.545503  0  0.335524  0  0  0  0  0  0  0  0  0 
1704464709.479337000  -2.48406  0.139541  0.963441  0  0  -0.0655324  0.124382  0.396435  0.0141873  0  0  0  0.545873  0  0.339821  0  0  0  0  0  0  0  0  0 
1704464709.484346000  -2.48343  0.141523  0.963516  0  0  -0.0665927  0.127112  0.396435  0.0158966  0  0  0  0.545993  0  0.343868  0  0  0  0  0  0  0  0  0 
1704464709.489337000  -2.48279  0.143505  0.9636  0  0  -0.0676592  0.129842  0.396435  0.0176255  0  0  0  0.545863  0  0.347665  0  0  0  0  0  0  0  0  0 
1704464709.494338000  -2.48213  0.145488  0.963692  0  0  -0.0687319  0.13257  0.396435  0.0193728  0  0  0  0.545484  0  0.351212  0  0  0  0  0  0  0  0  0 
1704464709.499337000  -2.48146  0.14747  0.963794  0  0  -0.0698109  0.135296  0.396435  0.0211372  0  0  0  0.544854  0  0.354509  0  0  0  0  0  0  0  0  0 
1704464709.504348000  -2.48078  0.149452  0.963904  0  0  -0.0708961  0.138018  0.396435  0.0229175  0  0  0  0.543974  0  0.357556  0  0  0  0  0  0  0  0  0 
1704464709.509338000  -2.48008  0.151434  0.964023  0  0  -0.0719876  0.140735  0.396435  0.0247124  0  0  0  0.542844  0  0.360353  0  0  0  0  0  0  0  0  0 
1704464709.514336000  -2.47937  0.153416  0.964151  0  0  -0.0730854  0.143446  0.396435  0.0265206  0  0  0  0.541464  0  0.3629  0  0  0  0  0  0  0  0  0 
1704464709.519336000  -2.47865  0.155398  0.964288  0  0  -0.0741894  0.14615  0.396435  0.028341  0  0  0  0.539834  0  0.365198  0  0  0  0  0  0  0  0  0 
1704464709.524344000  -2.47791  0.157381  0.964434  0  0  -0.0752996  0.148844  0.396435  0.0301722  0  0  0  0.537954  0  0.367245  0  0  0  0  0  0  0  0  0 
1704464709.529338000  -2.47716  0.159363  0.96459  0  0  -0.0764161  0.151529  0.396435  0.032013  0  0  0  0.535824  0  0.369042  0  0  0  0  0  0  0  0  0 
1704464709.534337000  -2.47639  0.161345  0.964755  0  0  -0.0775388  0.154202  0.396435  0.0338622  0  0  0  0.533444  0  0.370589  0  0  0  0  0  0  0  0  0 
1704464709.539336000  -2.47562  0.163327  0.964928  0  0  -0.0786678  0.156863  0.396435  0.0357185  0  0  0  0.530814  0  0.371886  0  0  0  0  0  0  0  0  0 
1704464709.544344000  -2.47483  0.165309  0.965112  0  0  -0.0798031  0.15951  0.396435  0.0375806  0  0  0  0.527935  0  0.372933  0  0  0  0  0  0  0  0  0 
1704464709.549338000  -2.47402  0.167291  0.965304  0  0  -0.0809446  0.162142  0.396435  0.0394474  0  0  0  0.524805  0  0.37373  0  0  0  0  0  0  0  0  0 
1704464709.554337000  -2.4732  0.169274  0.965506  0  0  -0.0820923  0.164757  0.396435  0.0413175  0  0  0  0.521425  0  0.374277  0  0  0  0  0  0  0  0  0 
1704464709.559336000  -2.47237  0.171256  0.965717  0  0  -0.0832463  0.167356  0.396435  0.0431898  0  0  0  0.517795  0  0.374575  0  0  0  0  0  0  0  0  0 
1704464709.564343000  -2.47153  0.173238  0.965938  0  0  -0.0844066  0.169935  0.396435  0.0450629  0  0  0  0.513915  0  0.374622  0  0  0  0  0  0  0  0  0 
1704464709.569340000  -2.47067  0.17522  0.966168  0  0  -0.085573  0.172494  0.396435  0.0469356  0  0  0  0.509785  0  0.374419  0  0  0  0  0  0  0  0  0 
1704464709.574337000  -2.46981  0.177202  0.966407  0  0  -0.0867458  0.175032  0.396435  0.0488066  0  0  0  0.505405  0  0.373966  0  0  0  0  0  0  0  0  0 
1704464709.579337000  -2.46892  0.179184  0.966656  0  0  -0.0879248  0.177548  0.396435  0.0506748  0  0  0  0.500775  0  0.373263  0  0  0  0  0  0  0  0  0 
1704464709.584344000  -2.46803  0.181167  0.966914  0  0  -0.08911  0.18004  0.396435  0.0525388  0  0  0  0.495895  0  0.37231  0  0  0  0  0  0  0  0  0 
1704464709.589338000  -2.46712  0.183149  0.967182  0  0  -0.0903015  0.182506  0.396435  0.0543975  0  0  0  0.490765  0  0.371107  0  0  0  0  0  0  0  0  0 
1704464709.594337000  -2.46621  0.185131  0.967458  0  0  -0.0914993  0.184947  0.396435  0.0562495  0  0  0  0.485386  0  0.369654  0  0  0  0  0  0  0  0  0 
1704464709.599336000  -2.46527  0.187113  0.967744  0  0  -0.0927033  0.18736  0.396435  0.0580936  0  0  0  0.479756  0  0.367951  0  0  0  0  0  0  0  0  0 
1704464709.604346000  -2.46433  0.189095  0.968039  0  0  -0.0939135  0.189744  0.396435  0.0599286  0  0  0  0.473876  0  0.365999  0  0  0  0  0  0  0  0  0 
1704464709.609337000  -2.46338  0.191078  0.968343  0  0  -0.09513  0.192098  0.396435  0.0617532  0  0  0  0.467746  0  0.363796  0  0  0  0  0  0  0  0  0 
1704464709.614336000  -2.46241  0.19306  0.968657  0  0  -0.0963527  0.194421  0.396435  0.0635661  0  0  0  0.461366  0  0.361343  0  0  0  0  0  0  0  0  0 
1704464709.619336000  -2.46143  0.195042  0.968979  0  0  -0.0975817  0.196711  0.396435  0.0653662  0  0  0  0.454736  0  0.35864  0  0  0  0  0  0  0  0  0 
1704464709.624344000  -2.46044  0.197024  0.96931  0  0  -0.098817  0.198968  0.396435  0.0671521  0  0  0  0.447856  0  0.355687  0  0  0  0  0  0  0  0  0 
1704464709.629337000  -2.45944  0.199006  0.96965  0  0  -0.100058  0.20119  0.396435  0.0689226  0  0  0  0.440726  0  0.352484  0  0  0  0  0  0  0  0  0 
1704464709.634337000  -2.45843  0.200988  0.969999  0  0  -0.101306  0.203375  0.396435  0.0706765  0  0  0  0.433346  0  0.349031  0  0  0  0  0  0  0  0  0 
1704464709.639336000  -2.45741  0.202971  0.970357  0  0  -0.10256  0.205523  0.396435  0.0724125  0  0  0  0.425717  0  0.345328  0  0  0  0  0  0  0  0  0 
1704464709.644344000  -2.45638  0.204953  0.970724  0  0  -0.10382  0.207651  0.396435  0.074139  0  0  0  0.425592  -0.000125  0.345203  0  0  0  0  0  0  0  0  0 
1704464709.649336000  -2.45533  0.206935  0.971099  0  0  -0.105087  0.209778  0.396433  0.0758642  0  0  0  0.425217  -0.0005  0.344828  0  0  0  0  0  0  0  0  0 
1704464709.654336000  -2.45428  0.208917  0.971482  0  0  -0.10636  0.211903  0.396429  0.0775868  0  0  0  0.424592  -0.001125  0.344203  0  0  0  0  0  0  0  0  0 
1704464709.659337000  -2.45321  0.210899  0.971874  0  0  -0.107639  0.214024  0.396422  0.0793058  0  0  0  0.423717  -0.002  0.343328  0  0  0  0  0  0  0  0  0 
1704464709.664344000  -2.45214  0.212881  0.972275  0  0  -0.108924  0.216139  0.396409  0.0810197  0  0  0  0.422592  -0.0031187  0.342203  0  0  0  0  0  0  0  0  0 
1704464709.669337000  -2.45105  0.214863  0.972685  0  0  -0.110215  0.218249  0.396391  0.0827274  0  0  0  0.421217  -0.0041643  0.340828  0  0  0  0  0  0  0  0  0 
1704464709.674337000  -2.44996  0.216845  0.973102  0  0  -0.111513  0.220351  0.396368  0.0844276  0  0  0  0.419592  -0.0049599  0.339203  0  0  0  0  0  0  0  0  0 
1704464709.679337000  -2.44885  0.218827  0.973529  0  0  -0.112817  0.222445  0.396341  0.086119  0  0  0  0.417717  -0.0055055  0.337328  0  0  0  0  0  0  0  0  0 
1704464709.684345000  -2.44773  0.220809  0.973964  0  0  -0.114127  0.224528  0.396313  0.0878004  0  0  0  0.415592  -0.0058012  0.335203  0  0  0  0  0  0  0  0  0 
1704464709.689337000  -2.4466  0.22279  0.974407  0  0  -0.115444  0.2266  0.396284  0.0894706  0  0  0  0.413217  -0.0058468  0.332828  0  0  0  0  0  0  0  0  0 
1704464709.694337000  -2.44547  0.224771  0.974858  0  0  -0.116767  0.22866  0.396255  0.0911283  0  0  0  0.410592  -0.0056424  0.330203  0  0  0  0  0  0  0  0  0 
1704464709.699337000  -2.44432  0.226753  0.975318  0  0  -0.118096  0.230706  0.396228  0.0927722  0  0  0  0.407717  -0.005188  0.327328  0  0  0  0  0  0  0  0  0 
1704464709.704350000  -2.44316  0.228734  0.975786  0  0  -0.119431  0.232736  0.396204  0.0944012  0  0  0  0.404592  -0.0044836  0.324203  0  0  0  0  0  0  0  0  0 
