ts fx fy fz tx ty tz exfx exfy exfz extx exty extz xd yd zd rolld pitchd yawd vxd vyd vzd wxd wyd wzd axd ayd azd e_x e_y e_z e_vx e_vy e_vz e_rx e_ry e_rz e_wx e_wy e_wz
1704464707.685749000  0  0  11.3636  0.091172  -0.0926775  0.0294233  nan  nan  nan  nan  nan  nan  -2.5  -0.3  1  0.0136328  -0.0268761  -0.000366377  0  0  0  0  0  0  0  0  0  0.0210852  0.00540781  -0.00463043  -0.00956709  0.00583437  -0.0027501  -0.0144537  0.0251148  -0.0335259  -0.0220307  -0.128187  -0.0558215 
1704464707.690752000  0  0  11.4796  0.125276  -0.12743  0.0262351  nan  nan  nan  nan  nan  nan  -2.5  -0.3  1  0.0148822  -0.0272584  -0.000405645  0  0  0  0  0  0  0  0  0  0.0210625  0.00542686  -0.00467869  -0.00870541  0.00752082  -0.0116246  -0.0165612  0.0258116  -0.0332702  -0.0779367  -0.0502593  -0.0113915 
1704464707.695759000  0  0  11.4082  0.122813  -0.108423  0.022637  nan  nan  nan  nan  nan  nan  -2.5  -0.3  1  0.0144873  -0.0260825  -0.000377849  0  0  0  0  0  0  0  0  0  0.0210253  0.00541342  -0.00461931  -0.0102964  0.00694525  -0.0062305  -0.0165481  0.0241023  -0.0326794  -0.0718895  -0.0736888  0.0353146 
1704464707.700713000  0  0  11.4424  0.0976698  -0.104  0.0284598  nan  nan  nan  nan  nan  nan  -2.5  -0.3  1  0.0142643  -0.0257553  -0.000367365  0  0  0  0  0  0  0  0  0  0.0209738  0.0054427  -0.00466406  -0.0105021  0.00666318  -0.00875927  -0.0159818  0.0233765  -0.0334929  -0.0164064  -0.0744035  -0.0418908 
1704464707.704770000  0  0  11.4743  0.114024  -0.12896  0.0256015  nan  nan  nan  nan  nan  nan  -2.5  -0.3  1  0.0149173  -0.0265536  -0.000396092  0  0  0  0  0  0  0  0  0  0.0209426  0.00547631  -0.00471223  -0.00935569  0.00745594  -0.0111281  -0.0170052  0.0244332  -0.0332447  -0.0430302  -0.0264684  -0.00227518 
1704464707.710759000  0  0  11.4493  0.113015  -0.135215  0.020802  nan  nan  nan  nan  nan  nan  -2.5  -0.3  1  0.0141014  -0.027069  -0.00038169  0  0  0  0  0  0  0  0  0  0.0210099  0.00534338  -0.00457455  -0.00892479  0.00667244  -0.00950534  -0.0164752  0.0249387  -0.0324764  -0.0481344  -0.0179327  0.0602517 
1704464707.715766000  0  0  11.4218  0.0937105  -0.132734  0.0242282  nan  nan  nan  nan  nan  nan  -2.5  -0.3  1  0.0131602  -0.0259812  -0.000341898  0  0  0  0  0  0  0  0  0  0.0210435  0.00521537  -0.00445063  -0.0104216  0.0057255  -0.00765662  -0.015301  0.0239234  -0.0328622  -0.0162175  -0.00954704  0.0137664 
1704464707.720779000  0  0  11.4337  0.0892771  -0.143036  0.0244104  nan  nan  nan  nan  nan  nan  -2.5  -0.3  1  0.013338  -0.0275979  -0.000368075  0  0  0  0  0  0  0  0  0  0.0210361  0.00520933  -0.00445802  -0.00836879  0.00597412  -0.00855826  -0.0154631  0.0254524  -0.0328495  -0.002649  -0.00555098  0.0109172 
1704464707.725668000  0  0  11.468  0.100783  -0.167878  0.0234355  nan  nan  nan  nan  nan  nan  -2.5  -0.3  1  0.0138759  -0.0278282  -0.000386117  0  0  0  0  0  0  0  0  0  0.0209974  0.00524251  -0.00451901  -0.00790032  0.00662482  -0.0110844  -0.0162372  0.0262713  -0.0326371  -0.0205988  0.0455193  0.0229789 
1704464707.730733000  0  0  11.3932  0.0884256  -0.152604  0.0247742  nan  nan  nan  nan  nan  nan  -2.5  -0.3  1  0.0133458  -0.0256493  -0.000342294  0  0  0  0  0  0  0  0  0  0.0209588  0.0052212  -0.00447555  -0.0107399  0.00590252  -0.005409  -0.0155246  0.0242227  -0.0327692  0.000396242  0.03644  0.00460334 
1704464707.734888000  0  0  11.3851  0.0746995  -0.149191  0.0286744  nan  nan  nan  nan  nan  nan  -2.5  -0.3  1  0.01339  -0.027021  -0.000361789  0  0  0  0  0  0  0  0  0  0.020932  0.00524487  -0.00449652  -0.00901532  0.00589652  -0.0047235  -0.0152104  0.0253461  -0.0333979  0.0306122  0.011568  -0.046157 
1704464707.740681000  0  0  11.4499  0.0902291  -0.180587  0.0269716  nan  nan  nan  nan  nan  nan  -2.5  -0.3  1  0.0139567  -0.0278757  -0.000389028  0  0  0  0  0  0  0  0  0  0.0209245  0.00523808  -0.00452705  -0.00774775  0.00670709  -0.00968387  -0.0159938  0.0269416  -0.0333706  0.00260789  0.0680156  -0.0211869 
1704464707.745668000  0  0  11.3538  0.0907532  -0.156481  0.0246584  nan  nan  nan  nan  nan  nan  -2.5  -0.3  1  0.0133877  -0.0261053  -0.000349471  0  0  0  0  0  0  0  0  0  0.020893  0.00521678  -0.00446353  -0.0101545  0.00590594  -0.0024003  -0.0155111  0.0251295  -0.0330599  -0.00569274  0.0331556  0.00962691 
1704464707.750732000  0  0  11.3666  0.0724887  -0.155631  0.0286737  nan  nan  nan  nan  nan  nan  -2.5  -0.3  1  0.0135375  -0.0268312  -0.000363207  0  0  0  0  0  0  0  0  0  0.0208537  0.00524781  -0.00449488  -0.00914433  0.00604572  -0.00330977  -0.0152079  0.0258434  -0.0336699  0.0361731  0.020691  -0.0430545 
1704464707.755720000  0  0  11.4156  0.0971882  -0.16913  0.0243024  nan  nan  nan  nan  nan  nan  -2.5  -0.3  1  0.0142838  -0.0272741  -0.000389557  0  0  0  0  0  0  0  0  0  0.0208503  0.00523488  -0.00449946  -0.00844525  0.00706667  -0.00710511  -0.016314  0.0266301  -0.0332308  -0.0103874  0.0435066  0.0168555 
1704464707.760672000  0  0  11.4222  0.10148  -0.163363  0.0231842  nan  nan  nan  nan  nan  nan  -2.5  -0.3  1  0.0142396  -0.0265932  -0.000378657  0  0  0  0  0  0  0  0  0  0.0208009  0.00526562  -0.00453247  -0.00916897  0.00696031  -0.00754513  -0.0164277  0.0260873  -0.0329672  -0.0196123  0.0367442  0.0304609 
1704464707.765719000  0  0  11.372  0.0790707  -0.140688  0.0268971  nan  nan  nan  nan  nan  nan  -2.5  -0.3  1  0.0141832  -0.0256409  -0.000363653  0  0  0  0  0  0  0  0  0  0.0207854  0.00523946  -0.00447995  -0.0104572  0.00686657  -0.00377168  -0.0158198  0.0248173  -0.0334702  0.0283489  -0.00232286  -0.0189476 
1704464707.769667000  0  0  11.3583  0.0881675  -0.139339  0.0262654  nan  nan  nan  nan  nan  nan  -2.5  -0.3  1  0.0146904  -0.0263925  -0.000387699  0  0  0  0  0  0  0  0  0  0.0207548  0.00526957  -0.00448904  -0.00950743  0.0074081  -0.00268522  -0.0164033  0.0253903  -0.0334313  0.0137443  -0.0140171  -0.0100111 
1704464707.775719000  0  0  11.5115  0.110588  -0.161379  0.0230868  nan  nan  nan  nan  nan  nan  -2.5  -0.3  1  0.014548  -0.0272669  -0.000396659  0  0  0  0  0  0  0  0  0  0.0207582  0.00524679  -0.0045697  -0.00798405  0.00752036  -0.0143572  -0.0168999  0.0266731  -0.032911  -0.0358508  0.0232577  0.0312689 
1704464707.780891000  0  0  11.3855  0.0975033  -0.121468  0.0260055  nan  nan  nan  nan  nan  nan  -2.5  -0.3  1  0.0144917  -0.0251728  -0.000364784  0  0  0  0  0  0  0  0  0  0.020734  0.00520827  -0.00447493  -0.0108932  0.00733111  -0.00482512  -0.0166304  0.0239965  -0.0332043  -0.0066137  -0.03913  -0.00873307 
1704464707.784828000  0  0  11.4316  0.0944677  -0.130516  0.0288521  nan  nan  nan  nan  nan  nan  -2.5  -0.3  1  0.0148287  -0.0277444  -0.000411389  0  0  0  0  0  0  0  0  0  0.020718  0.0052399  -0.00452689  -0.00754756  0.00775524  -0.00825902  -0.0169486  0.0262226  -0.0336277  0.00567092  -0.0483817  -0.0461838 
1704464707.790710000  0  0  11.557  0.122191  -0.167229  0.0256153  nan  nan  nan  nan  nan  nan  -2.5  -0.3  1  0.0153206  -0.0283777  -0.000434738  0  0  0  0  0  0  0  0  0  0.0207293  0.00521296  -0.00459006  -0.00639838  0.00862697  -0.0178254  -0.0180993  0.0274798  -0.0333457  -0.0479032  0.0264144  -0.00133273 
1704464707.795752000  0  0  11.4423  0.115553  -0.124124  0.024883  nan  nan  nan  nan  nan  nan  -2.5  -0.3  1  0.0152254  -0.0257026  -0.00039132  0  0  0  0  0  0  0  0  0  0.0206537  0.00525131  -0.00457744  -0.00991775  0.00824243  -0.00898744  -0.0180383  0.0242719  -0.0331714  -0.0319766  -0.0363842  0.00755945 
1704464707.800695000  0  0  11.4234  0.114635  -0.121805  0.0249172  nan  nan  nan  nan  nan  nan  -2.5  -0.3  1  0.0149746  -0.0255377  -0.000382405  0  0  0  0  0  0  0  0  0  0.020674  0.00519933  -0.00454223  -0.010216  0.00800616  -0.00760545  -0.0179163  0.0239183  -0.0331633  -0.031413  -0.0371454  0.00695999 
1704464707.805840000  0  0  11.6298  0.177013  -0.187419  0.0165418  nan  nan  nan  nan  nan  nan  -2.5  -0.3  1  0.0167862  -0.0247201  -0.000414954  0  0  0  0  0  0  0  0  0  0.0206845  0.00517631  -0.00466119  -0.0106925  0.0106719  -0.0233579  -0.0213404  0.0250558  -0.0317344  -0.139892  0.112561  0.11507 
1704464707.810693000  0  0  11.4023  0.145498  -0.116188  0.0171932  nan  nan  nan  nan  nan  nan  -2.5  -0.3  1  0.0159787  -0.0216788  -0.000346401  0  0  0  0  0  0  0  0  0  0.0205938  0.00521219  -0.00459285  -0.0148805  0.00918875  -0.00590229  -0.0202735  0.0208857  -0.0313359  -0.0755067  -0.00755388  0.100869 
1704464707.815728000  0  0  11.4649  0.105597  -0.13135  0.0297873  nan  nan  nan  nan  nan  nan  -2.5  -0.3  1  0.0161308  -0.0260205  -0.000419721  0  0  0  0  0  0  0  0  0  0.0206464  0.00516117  -0.00457289  -0.00944353  0.00958658  -0.0107539  -0.0196445  0.0246063  -0.03315  0.0164399  -0.0229187  -0.0654973 
1704464707.820739000  0  0  11.5517  0.138188  -0.168195  0.0238293  nan  nan  nan  nan  nan  nan  -2.5  -0.3  1  0.0166269  -0.0261563  -0.000434888  0  0  0  0  0  0  0  0  0  0.0206597  0.00511604  -0.00460407  -0.0090537  0.010451  -0.0174233  -0.0208567  0.0255921  -0.0325309  -0.0485713  0.0561343  0.0159251 
1704464707.825695000  0  0  11.486  0.130799  -0.12814  0.020016  nan  nan  nan  nan  nan  nan  -2.5  -0.3  1  0.016505  -0.023779  -0.000392471  0  0  0  0  0  0  0  0  0  0.0205791  0.00516179  -0.00462544  -0.012038  0.0100896  -0.0122954  -0.0207991  0.0227847  -0.0316975  -0.0306929  -0.00472817  0.0630699 
1704464707.830753000  0  0  11.4619  0.0886691  -0.122258  0.0313961  nan  nan  nan  nan  nan  nan  -2.5  -0.3  1  0.0164042  -0.0251228  -0.000412112  0  0  0  0  0  0  0  0  0  0.0206216  0.00510263  -0.00458127  -0.0105171  0.0100397  -0.0105037  -0.0197473  0.023664  -0.0332991  0.0607882  -0.0323261  -0.0876894 
1704464707.834747000  0  0  11.5089  0.105642  -0.142787  0.0295493  nan  nan  nan  nan  nan  nan  -2.5  -0.3  1  0.0166653  -0.0254484  -0.000424098  -2e-07  2e-07  -2e-07  0  0  0  -0.000125  0.000125  -0.000125  0.0205836  0.00514563  -0.00465854  -0.00992073  0.0103773  -0.013986  -0.0202525  0.0243888  -0.0333219  0.0251095  0.00918517  -0.0600094 
1704464707.840852000  0  0  11.5055  0.0986305  -0.131994  0.0227611  nan  nan  nan  nan  nan  nan  -2.5  -0.3  1  0.0162212  -0.0245658  -0.000398481  -1.7e-06  1.7e-06  -1.7e-06  0  0  0  -0.0005  0.0005  -0.0005  0.0205878  0.00508639  -0.00464605  -0.0110865  0.00998434  -0.0137836  -0.0196404  0.0234519  -0.0322937  0.0340206  -0.00460899  0.0290892 
1704464707.845702000  0  0  11.462  0.0868706  -0.132542  0.0270295  nan  nan  nan  nan  nan  nan  -2.5  -0.3  1  0.01548  -0.0248601  -0.000384826  -5.6e-06  5.6e-06  -5.6e-06  0  0  0  -0.001125  0.001125  -0.001125  0.0206368  0.00500268  -0.0045803  -0.011014  0.00923387  -0.0106144  -0.0185485  0.0237029  -0.0328498  0.0480225  -0.00684925  -0.0279645 
1704464707.850808000  0  0  11.5201  0.0835861  -0.148174  0.0219252  nan  nan  nan  nan  nan  nan  -2.5  -0.3  1  0.0155197  -0.0264203  -0.000409921  -1.33e-05  1.33e-05  -1.33e-05  0  0  0  -0.002  0.002  -0.002  0.0205994  0.00505031  -0.00467446  -0.00894132  0.00939173  -0.014965  -0.0183241  0.0253925  -0.0322025  0.0530963  0.00832224  0.0404624 
1704464707.855714000  0  0  11.5497  0.0818832  -0.155467  0.0199432  nan  nan  nan  nan  nan  nan  -2.5  -0.3  1  0.0151345  -0.0263218  -0.000398052  -2.6e-05  2.6e-05  -2.6e-05  0  0  0  -0.003125  0.003125  -0.003125  0.0206381  0.0049654  -0.00465961  -0.00919755  0.00927045  -0.0173824  -0.0176941  0.0255433  -0.031716  0.0483064  0.0246094  0.064361 
1704464707.860702000  0  0  11.4201  0.0672846  -0.135857  0.023215  nan  nan  nan  nan  nan  nan  -2.5  -0.3  1  0.014626  -0.0244686  -0.000357367  -4.5e-05  4.5e-05  -4.5e-05  0  0  0  -0.0044988  0.0045  -0.0045  0.0205636  0.0050036  -0.00464627  -0.0118818  0.00852224  -0.0075119  -0.0166292  0.0235869  -0.0319769  0.0698866  0.00322156  0.0187489 
1704464707.865721000  0  0  11.4602  0.0477006  -0.144615  0.0257065  nan  nan  nan  nan  nan  nan  -2.5  -0.299999  0.999999  0.0140055  -0.0266898  -0.000372784  -7.09e-05  7.15e-05  -7.15e-05  0  0  0  -0.0058384  0.006125  -0.006125  0.0206326  0.00491  -0.00461682  -0.00932167  0.0082046  -0.0108088  -0.0153091  0.02568  -0.0323401  0.100403  -0.00484319  -0.0141136 
1704464707.870724000  0  0  11.4998  0.0646794  -0.168341  0.0242979  nan  nan  nan  nan  nan  nan  -2.5  -0.299999  0.999999  0.0138227  -0.0270104  -0.000371635  -0.000103  0.0001067  -0.0001067  0  0  0  -0.006928  0.008  -0.008  0.0206822  0.00480761  -0.00458621  -0.00904228  0.00847599  -0.0141118  -0.0151381  0.0265699  -0.0322242  0.0549393  0.0423764  0.00548168 
1704464707.875714000  0  0  11.3969  0.0540544  -0.140983  0.0247639  nan  nan  nan  nan  nan  nan  -2.5  -0.299998  0.999998  0.0130663  -0.0252743  -0.000327526  -0.0001398  0.0001519  -0.0001519  0  0  0  -0.0077677  0.010125  -0.010125  0.0206128  0.00483978  -0.00458008  -0.0114533  0.00758634  -0.00635001  -0.0139614  0.0245872  -0.0322644  0.0648424  0.00174898  -0.00097969 
1704464707.880694000  0  0  11.3961  0.0422061  -0.147887  0.0275077  nan  nan  nan  nan  nan  nan  -2.5  -0.299997  0.999997  0.0124259  -0.0266658  -0.000327123  -0.0001802  0.0002083  -0.0002083  0  0  0  -0.0083573  0.0125  -0.0125  0.0206823  0.00473159  -0.00450733  -0.00995062  0.00730655  -0.00665479  -0.0128303  0.0259505  -0.0327444  0.0785016  -0.000466283  -0.0362632 
1704464707.885718000  0  0  11.4581  0.0664283  -0.160597  0.0241176  nan  nan  nan  nan  nan  nan  -2.5  -0.299996  0.999996  0.0131486  -0.0267936  -0.000346176  -0.000223  0.0002773  -0.0002773  0  0  0  -0.0086969  0.015125  -0.015125  0.0206351  0.00477892  -0.00458906  -0.00955815  0.00851566  -0.0114991  -0.0137509  0.0263894  -0.0323776  0.0304694  0.0253755  0.0099022 
1704464707.890726000  0  0  11.3775  0.0646383  -0.146551  0.0228807  nan  nan  nan  nan  nan  nan  -2.5  -0.299995  0.999995  0.0116498  -0.0258705  -0.000292765  -0.0002668  0.00036  -0.00036  0  0  0  -0.0087866  0.018  -0.018  0.0206778  0.00464292  -0.00446111  -0.0110298  0.00718495  -0.0058132  -0.0122647  0.0253851  -0.032125  0.0135284  0.00431907  0.0253959 
1704464707.894726000  0  0  11.3602  0.0578647  -0.134255  0.0259432  nan  nan  nan  nan  nan  nan  -2.50001  -0.299993  0.999993  0.011797  -0.0254647  -0.000288488  -0.0003104  0.0004577  -0.0004577  0  0  0  -0.0086262  0.021125  -0.021125  0.0206419  0.00467506  -0.00447965  -0.0114857  0.00766557  -0.00470105  -0.0121385  0.024725  -0.0325289  0.0288567  -0.0172778  -0.0154824 
1704464707.900741000  0  0  11.3627  0.0720705  -0.144905  0.0246207  nan  nan  nan  nan  nan  nan  -2.50001  -0.29999  0.99999  0.0114646  -0.0272698  -0.000296613  -0.0003526  0.0005717  -0.0005717  0  0  0  -0.0082158  0.0245  -0.0245  0.0207054  0.00457637  -0.00440093  -0.00933304  0.00787617  -0.00537193  -0.012104  0.026431  -0.0324443  -0.00761206  -0.01496  0.00319061 
1704464707.905717000  0  0  11.3821  0.0826148  -0.152453  0.0229518  nan  nan  nan  nan  nan  nan  -2.50001  -0.299987  0.999987  0.0107289  -0.0268344  -0.000266781  -0.0003922  0.0007031  -0.0007031  0  0  0  -0.0075555  0.028125  -0.028125  0.0207534  0.0044618  -0.00432945  -0.00982864  0.00767371  -0.00736012  -0.0117649  0.0262136  -0.0321665  -0.0392114  0.0072955  0.0248116 
1704464707.910674000  0  0  11.3216  0.0850653  -0.128528  0.0244221  nan  nan  nan  nan  nan  nan  -2.50001  -0.299983  0.999983  0.0108301  -0.024789  -0.00024115  -0.0004278  0.0008533  -0.0008533  0  0  0  -0.0066451  0.032  -0.032  0.0206802  0.00450154  -0.00432328  -0.0122548  0.00812685  -0.00303959  -0.0120326  0.0238887  -0.0323107  -0.0415474  -0.0196954  0.00462095 
1704464707.915715000  0  0  11.3493  0.0840405  -0.144932  0.0263626  nan  nan  nan  nan  nan  nan  -2.50001  -0.299978  0.999978  0.00999702  -0.0284202  -0.000249289  -0.0004582  0.0010235  -0.0010235  0  0  0  -0.0054847  0.036125  -0.036125  0.0207759  0.00438585  -0.00424343  -0.00776338  0.00787832  -0.00571318  -0.0115444  0.0272806  -0.0326367  -0.0460063  -0.0271652  -0.0204854 
1704464707.920692000  0  0  11.3978  0.104413  -0.165281  0.0232757  nan  nan  nan  nan  nan  nan  -2.50002  -0.299973  0.999973  0.00972014  -0.0277022  -0.000225544  -0.0004822  0.001215  -0.001215  0  0  0  -0.0040856  0.0405  -0.0405  0.0208314  0.00428167  -0.00419241  -0.00843989  0.00834151  -0.00998459  -0.0120101  0.0271395  -0.032248  -0.0908632  0.0263984  0.0209286 
1704464707.925725000  0  0  11.2594  0.104797  -0.116798  0.0229953  nan  nan  nan  nan  nan  nan  -2.50002  -0.299966  0.999966  0.00924844  -0.0237208  -0.000165066  -0.0004993  0.001429  -0.001429  0  0  0  -0.0027814  0.045125  -0.045125  0.0207347  0.00432005  -0.00414103  -0.0133592  0.0081158  0.000189675  -0.0119695  0.0226486  -0.032089  -0.0924219  -0.031481  0.0232846 
1704464707.929751000  0  0  11.2808  0.0863749  -0.119952  0.0285025  nan  nan  nan  nan  nan  nan  -2.50002  -0.299958  0.999958  0.00929075  -0.0265981  -0.000180394  -0.0005104  0.0016667  -0.0016667  0  0  0  -0.0017271  0.05  -0.05  0.0207145  0.00435659  -0.00416728  -0.00961486  0.00871717  -0.00182018  -0.0119409  0.0250094  -0.0328887  -0.0461893  -0.0576022  -0.0493921 
1704464707.935745000  0  0  11.3925  0.131662  -0.171527  0.022716  nan  nan  nan  nan  nan  nan  -2.50002  -0.299949  0.999949  0.00934862  -0.0262948  -0.000164799  -0.0005169  0.0019294  -0.0019294  0  0  0  -0.0009228  0.055125  -0.055125  0.0207662  0.00427058  -0.00415294  -0.00967156  0.00970953  -0.0109704  -0.0134315  0.0259236  -0.0323015  -0.139326  0.0597819  0.0298468 
1704464707.940706000  0  0  11.2889  0.109719  -0.127726  0.0213742  nan  nan  nan  nan  nan  nan  -2.50003  -0.299939  0.999939  0.00756826  -0.0239987  -8.40142e-05  -0.0005201  0.0022183  -0.0022183  0  0  0  -0.0003685  0.0605  -0.0605  0.0208029  0.00414733  -0.00401086  -0.0127838  0.00834229  -0.00374737  -0.0118587  0.0231024  -0.031991  -0.106486  -0.0103671  0.0462391 
1704464707.945749000  0  0  11.3238  0.075701  -0.150724  0.030645  nan  nan  nan  nan  nan  nan  -2.50003  -0.299927  0.999927  0.00723875  -0.0285266  -8.98727e-05  -0.0005211  0.0025348  -0.0025347  0  0  0  -6.43e-05  0.066125  -0.0660297  0.0209059  0.00405809  -0.00394805  -0.00730575  0.00884268  -0.00706144  -0.0112189  0.0274017  -0.0333418  -0.0295932  -0.0142501  -0.0760529 
1704464707.950744000  0  0  11.4068  0.126717  -0.18676  0.0215586  nan  nan  nan  nan  nan  nan  -2.50003  -0.299914  0.999914  0.00758308  -0.0270961  -6.72508e-05  -0.0005211  0.00288  -0.0028782  0  0  0  -0  0.072  -0.0713459  0.0208407  0.00411705  -0.00404185  -0.00867694  0.00994138  -0.0137771  -0.0130103  0.027164  -0.0322342  -0.132889  0.0804325  0.0462662 
1704464707.954694000  0  0  11.3564  0.117034  -0.149474  0.0184756  nan  nan  nan  nan  nan  nan  -2.50003  -0.299898  0.999898  0.00645561  -0.0248025  2.69871e-06  -0.0005211  0.0032552  -0.0032477  0  0  0  -0  0.078125  -0.0764122  0.0207706  0.00414772  -0.00404522  -0.0115078  0.00920899  -0.010309  -0.0122074  0.0244927  -0.0315767  -0.11997  0.0246139  0.0845668 
1704464707.960714000  0  0  11.322  0.0766364  -0.147018  0.0279999  nan  nan  nan  nan  nan  nan  -2.50004  -0.299881  0.999881  0.00556436  -0.0264527  4.32229e-05  -0.0005211  0.0036617  -0.0036419  0  0  0  -0  0.0845  -0.0812284  0.0208447  0.00404472  -0.00396349  -0.0097257  0.00908925  -0.00824103  -0.0108855  0.0258158  -0.0328682  -0.0367781  -0.000720815  -0.0421627 
1704464707.965749000  0  0  11.3629  0.109448  -0.182411  0.0206926  nan  nan  nan  nan  nan  nan  -2.50004  -0.299862  0.999862  0.00445386  -0.0271103  0.000100568  -0.0005211  0.0041006  -0.0040596  0  0  0  -0  0.091125  -0.0857947  0.0209158  0.00394485  -0.00392249  -0.00894154  0.00876959  -0.0119257  -0.0109899  0.0273897  -0.0319673  -0.118352  0.0661576  0.0560909 
1704464707.969743000  0  0  11.3751  0.100947  -0.153108  0.0182377  nan  nan  nan  nan  nan  nan  -2.50004  -0.29984  0.99984  0.00379271  -0.0253825  0.000159541  -0.0005211  0.0045733  -0.0044995  0  0  0  -0  0.098  -0.0901109  0.0208567  0.00397779  -0.0039695  -0.0109173  0.0087449  -0.0131317  -0.0105862  0.0253731  -0.0313625  -0.10266  0.0210979  0.0856638 
1704464707.975743000  0  0  11.3001  0.0690129  -0.144812  0.0264371  nan  nan  nan  nan  nan  nan  -2.50004  -0.299816  0.999817  0.00246171  -0.0255582  0.00023099  -0.0005211  0.005081  -0.0049603  0  0  0  -0  0.105125  -0.0941772  0.0209105  0.00387206  -0.00387784  -0.0110176  0.00818096  -0.0078929  -0.00902692  0.0253625  -0.0324297  -0.0443277  0.000243846  -0.0239438 
1704464707.980705000  0  0  11.3149  0.073929  -0.161136  0.0236242  nan  nan  nan  nan  nan  nan  -2.50005  -0.299789  0.999791  0.000792544  -0.0272613  0.000314397  -0.0005211  0.005625  -0.0054408  0  0  0  -0  0.1125  -0.0979934  0.0209995  0.00374982  -0.00382101  -0.00906742  0.00730041  -0.00949618  -0.00794424  0.0272748  -0.0321613  -0.0724181  0.0139497  0.0147683 
1704464707.984706000  0  0  11.3612  0.0756233  -0.160175  0.0219517  nan  nan  nan  nan  nan  nan  -2.50005  -0.299759  0.999762  0.000366978  -0.0262933  0.000372552  -0.0005211  0.0062065  -0.0059398  0  0  0  -0  0.120125  -0.10156  0.0209511  0.00377735  -0.00388509  -0.0100247  0.00766873  -0.0132465  -0.00785104  0.0264828  -0.0318778  -0.0780548  0.0229579  0.0363793 
1704464707.990746000  0  0  11.1723  0.0448559  -0.128426  0.0276283  nan  nan  nan  nan  nan  nan  -2.50005  -0.299727  0.999731  -0.00167939  -0.0251944  0.000474907  -0.0005211  0.0068267  -0.006456  0  0  0  -0  0.128  -0.104876  0.0209936  0.00366281  -0.00372502  -0.0119795  0.00639124  0.000716545  -0.00561458  0.0248558  -0.0327557  -0.0324608  -0.0339281  -0.037925 
1704464707.995742000  0  0  11.2699  0.0458583  -0.151103  0.0262652  nan  nan  nan  nan  nan  nan  -2.50006  -0.299691  0.999698  -0.00309599  -0.0280017  0.000574082  -0.0005211  0.0074869  -0.0069882  0  0  0  -0  0.136125  -0.107942  0.021091  0.00353866  -0.00370544  -0.00847947  0.00590382  -0.0071256  -0.00461405  0.0276597  -0.0328096  -0.0494546  -0.0170165  -0.0170734 
1704464708.000712000  0  0  11.2984  0.0567709  -0.158513  0.02301  nan  nan  nan  nan  nan  nan  -2.50006  -0.299652  0.999661  -0.00355302  -0.0264688  0.000640734  -0.0005211  0.0081883  -0.007535  0  0  0  -0  0.1445  -0.110758  0.0210263  0.00357305  -0.003759  -0.0101386  0.00630151  -0.00946505  -0.00468361  0.0264878  -0.032422  -0.0760816  0.0186766  0.0268525 
1704464708.005693000  0  0  11.129  0.0349211  -0.120018  0.0251027  nan  nan  nan  nan  nan  nan  -2.50006  -0.299609  0.999622  -0.0059191  -0.0254603  0.000761487  -0.0005211  0.0089323  -0.0080953  0  0  0  -0  0.153125  -0.113325  0.0210823  0.00343394  -0.00358414  -0.0119532  0.00486373  0.0030366  -0.00238639  0.0247426  -0.0327112  -0.0539454  -0.0535821  -0.000932155 
1704464708.010742000  0  0  11.2347  0.0334552  -0.145812  0.0279857  nan  nan  nan  nan  nan  nan  -2.50006  -0.299563  0.999581  -0.00670346  -0.0280762  0.000867785  -0.0005211  0.00972  -0.0086678  0  0  0  -0  0.162  -0.115641  0.0210525  0.00346408  -0.0036662  -0.00841409  0.00488281  -0.00513896  -0.001972  0.0273894  -0.0333091  -0.0562208  -0.0265106  -0.0369417 
1704464708.015727000  0  0  11.3356  0.0608127  -0.16936  0.0227334  nan  nan  nan  nan  nan  nan  -2.50007  -0.299512  0.999536  -0.00723676  -0.0270136  0.000948771  -0.0005211  0.0105527  -0.0092513  0  0  0  -0  0.171125  -0.117707  0.0211114  0.00334716  -0.00366052  -0.00953011  0.00552077  -0.0131444  -0.00247793  0.0270584  -0.0326633  -0.118183  0.0378995  0.033701 
1704464708.020702000  0  0  11.2271  0.0474267  -0.153138  0.0228407  nan  nan  nan  nan  nan  nan  -2.50007  -0.299457  0.999488  -0.00942504  -0.0262873  0.00107984  -0.0005211  0.0114317  -0.0098445  0  0  0  -0  0.1805  -0.119523  0.0211742  0.00320576  -0.00352818  -0.0108554  0.00439172  -0.00520232  -0.000754415  0.0262129  -0.0326067  -0.10919  0.00903766  0.0314639 
1704464708.025697000  0  0  11.2869  0.0422217  -0.161105  0.0274773  nan  nan  nan  nan  nan  nan  -2.50007  -0.299398  0.999437  -0.010253  -0.0274149  0.00119706  -0.0005211  0.0123581  -0.0104461  0  0  0  -0  0.190125  -0.12109  0.021134  0.00322939  -0.00359473  -0.00922185  0.00446505  -0.00980338  -0.000387264  0.0274096  -0.0333145  -0.101315  0.011921  -0.0293318 
1704464708.030874000  0  0  11.365  0.0708094  -0.176892  0.0223661  nan  nan  nan  nan  nan  nan  -2.50007  -0.299333  0.999384  -0.0112495  -0.0275018  0.00131446  -0.0005211  0.0133333  -0.011055  0  0  0  -0  0.2  -0.122406  0.0211961  0.00310422  -0.00360119  -0.00900483  0.00462903  -0.0159442  -0.000752886  0.0280138  -0.0327031  -0.168419  0.0431687  0.0396059 
1704464708.035740000  0  0  11.2964  0.0625805  -0.163059  0.0234872  nan  nan  nan  nan  nan  nan  -2.50008  -0.299264  0.999327  -0.0123468  -0.0263386  0.00142468  -0.0005211  0.0143585  -0.0116698  0  0  0  -0  0.210125  -0.123472  0.0211458  0.00312461  -0.00361561  -0.0105292  0.00458156  -0.0106921  -0.000288921  0.0268793  -0.0327811  -0.154286  0.0245326  0.023847 
1704464708.040693000  0  0  11.2574  0.0536637  -0.154836  0.0265714  nan  nan  nan  nan  nan  nan  -2.50008  -0.29919  0.999267  -0.0141931  -0.0264958  0.00157534  -0.0005211  0.015435  -0.0122893  0  0  0  -0  0.2205  -0.124288  0.0212213  0.00298844  -0.00354637  -0.0105967  0.00394454  -0.0078815  0.00088392  0.0269437  -0.0333043  -0.148653  0.00277941  -0.0159976 
1704464708.044767000  0  0  11.3814  0.0674888  -0.168179  0.0248447  nan  nan  nan  nan  nan  nan  -2.50008  -0.29911  0.999204  -0.0149769  -0.0280059  0.00172382  -0.0005211  0.016564  -0.0129122  0  0  0  -0  0.231125  -0.124855  0.0211968  0.00299216  -0.00365344  -0.00832368  0.00410066  -0.0172636  0.00063166  0.0285857  -0.0331855  -0.180015  0.0128417  0.00828832 
1704464708.050741000  0  0  11.3612  0.0800703  -0.175698  0.0220141  nan  nan  nan  nan  nan  nan  -2.50008  -0.299024  0.999138  -0.0160594  -0.0267721  0.00184493  -0.0005211  0.0177467  -0.0135374  0  0  0  -0  0.242  -0.125171  0.0212407  0.00288099  -0.00364585  -0.0099887  0.00437154  -0.01575  0.000327369  0.0278869  -0.0327271  -0.207476  0.041977  0.045104 
1704464708.055744000  0  0  11.2727  0.0611288  -0.143788  0.0251389  nan  nan  nan  nan  nan  nan  -2.50009  -0.298932  0.999068  -0.0185286  -0.0263963  0.00202009  -0.0005211  0.0189844  -0.0141635  0  0  0  -0  0.253125  -0.125237  0.0213166  0.00274567  -0.00357076  -0.0108508  0.00316329  -0.00903709  0.00205538  0.0269824  -0.0331462  -0.184481  -0.0257528  0.00347433 
1704464708.060739000  0  0  11.4834  0.065389  -0.172739  0.0271365  nan  nan  nan  nan  nan  nan  -2.50009  -0.298834  0.998996  -0.0188142  -0.0291904  0.00220178  -0.0005211  0.0202783  -0.0147894  0  0  0  -0  0.2645  -0.125053  0.0212986  0.00277081  -0.00376734  -0.00672802  0.00375297  -0.0248533  0.0013136  0.0299617  -0.0336134  -0.184551  0.00450749  -0.020875 
1704464708.065679000  0  0  11.4769  0.0888005  -0.19174  0.0225525  nan  nan  nan  nan  nan  nan  -2.50009  -0.298729  0.998921  -0.0200801  -0.0279353  0.00234065  -0.0005211  0.0216298  -0.0154137  0  0  0  -0  0.276125  -0.12462  0.0213343  0.00265396  -0.00377485  -0.0083755  0.00386689  -0.0242971  0.000982887  0.0295191  -0.0330342  -0.239053  0.059015  0.0406018 
1704464708.070741000  0  0  11.3129  0.0592972  -0.132879  0.0246427  nan  nan  nan  nan  nan  nan  -2.50009  -0.298618  0.998842  -0.0231501  -0.0261164  0.00251694  -0.0005211  0.02304  -0.0160352  0  0  0  -0  0.288  -0.123936  0.0213743  0.00252688  -0.00368301  -0.0111732  0.00218702  -0.0116933  0.00336458  0.0267226  -0.0333031  -0.198758  -0.0496224  0.0126251 
1704464708.075745000  0  0  11.4797  0.0605966  -0.171496  0.0287423  nan  nan  nan  nan  nan  nan  -2.5001  -0.298499  0.99876  -0.0231411  -0.0292867  0.00272825  -0.0005211  0.0245102  -0.0166526  0  0  0  -0  0.300125  -0.123002  0.0213674  0.00255482  -0.00387087  -0.00673511  0.00323813  -0.0240785  0.00238952  0.0301428  -0.0341108  -0.187961  -0.00125599  -0.0390637 
1704464708.080713000  0  0  11.4896  0.0946109  -0.193844  0.0200709  nan  nan  nan  nan  nan  nan  -2.5001  -0.298372  0.998675  -0.0246393  -0.0272463  0.00286558  -0.0005211  0.0260417  -0.0172648  0  0  0  -0  0.3125  -0.121819  0.0213879  0.00243764  -0.00389581  -0.00927732  0.0031136  -0.0246771  0.00201083  0.0290886  -0.0330219  -0.268617  0.0705635  0.0773065 
1704464708.085701000  0  0  11.3546  0.0579233  -0.141113  0.0236798  nan  nan  nan  nan  nan  nan  -2.5001  -0.298238  0.998588  -0.0269298  -0.0261511  0.00304764  -0.0005211  0.0276356  -0.0178704  0  0  0  -0  0.325125  -0.120385  0.0213193  0.0024503  -0.00391119  -0.0108743  0.00219386  -0.0140163  0.00374339  0.0271326  -0.0333598  -0.200753  -0.0346985  0.0275651 
1704464708.090745000  0  0  11.4665  0.0462554  -0.190925  0.0289237  nan  nan  nan  nan  nan  nan  -2.5001  -0.298096  0.998497  -0.0296314  -0.030115  0.00339038  -0.0005211  0.0292933  -0.0184682  0  0  0  -0  0.338  -0.118701  0.0216716  0.00202703  -0.00389944  -0.00632164  0.000982698  -0.022505  0.00556738  0.0318367  -0.0343996  -0.197561  0.0234668  -0.0384738 
1704464708.095747000  0  0  11.4725  0.0815703  -0.205214  0.0189653  nan  nan  nan  nan  nan  nan  -2.50011  -0.297945  0.998403  -0.0322639  -0.0294231  0.0036074  -0.0005211  0.031016  -0.019057  0  0  0  -0  0.351125  -0.116767  0.0217816  0.0017435  -0.00391063  -0.00736709  -0.000107419  -0.0227222  0.00619652  0.0319411  -0.0331166  -0.296072  0.0581406  0.0947971 
1704464708.100705000  0  0  11.3968  0.0634126  -0.175629  0.0211238  nan  nan  nan  nan  nan  nan  -2.50011  -0.297786  0.998306  -0.034209  -0.0283573  0.00379362  -0.0005211  0.032805  -0.0196354  0  0  0  -0  0.3645  -0.114584  0.0217289  0.00174127  -0.00395765  -0.00880517  -0.000583795  -0.0165133  0.00708742  0.0305065  -0.0331807  -0.262966  0.00395659  0.0634788 
1704464708.105745000  0  0  11.4342  0.055233  -0.201601  0.0262479  nan  nan  nan  nan  nan  nan  -2.50011  -0.297617  0.998207  -0.0363487  -0.0303756  0.00409833  -0.0005211  0.0346612  -0.0202024  0  0  0  -0  0.377934  -0.11215  0.0219181  0.00150586  -0.0039264  -0.00654971  -0.00121837  -0.0192201  0.0080942  0.0330861  -0.0339578  -0.2568  0.0324496  -0.00376727 
1704464708.110752000  0  0  11.4712  0.0831257  -0.202309  0.0185798  nan  nan  nan  nan  nan  nan  -2.50012  -0.297439  0.998104  -0.0374911  -0.0301108  0.00429904  -0.0005211  0.0365839  -0.0207565  0  0  0  -0  0.391123  -0.109466  0.0218902  0.0015017  -0.00403919  -0.00668657  -0.00113775  -0.0215472  0.00725869  0.0330467  -0.0328839  -0.315356  0.0348115  0.0978771 
1704464708.115701000  0  0  11.4363  0.0674875  -0.188825  0.0227165  nan  nan  nan  nan  nan  nan  -2.50012  -0.297251  0.997999  -0.0393532  -0.0290621  0.00449481  -0.0005211  0.038572  -0.0212966  0  0  0  -0  0.404061  -0.106532  0.0219076  0.00139059  -0.00403055  -0.00811884  -0.00147618  -0.018555  0.00794772  0.0319728  -0.0332464  -0.285714  0.0161842  0.0405785 
1704464708.120717000  0  0  11.371  0.05125  -0.184197  0.0278194  nan  nan  nan  nan  nan  nan  -2.50012  -0.297053  0.997891  -0.0430656  -0.0307837  0.00486303  -0.0005211  0.0406241  -0.0218214  0  0  0  -0  0.416749  -0.103349  0.0222726  0.000936359  -0.00365809  -0.00690801  -0.00326289  -0.0139465  0.0102198  0.033341  -0.0341611  -0.277425  -0.0153026  -0.0247894 
1704464708.125705000  0  0  11.4564  0.0655253  -0.197828  0.0245194  nan  nan  nan  nan  nan  nan  -2.50012  -0.296845  0.997781  -0.0439175  -0.0320426  0.00513559  -0.0005211  0.0427391  -0.0223297  0  0  0  -0  0.429187  -0.0999148  0.022254  0.000921692  -0.00378671  -0.00500294  -0.00313317  -0.01991  0.00935396  0.0347095  -0.0338922  -0.301063  -0.000560739  0.0211507 
1704464708.130750000  0  0  11.4352  0.0691689  -0.188519  0.0235378  nan  nan  nan  nan  nan  nan  -2.50013  -0.296626  0.997668  -0.0460048  -0.0302245  0.00531464  -0.0005211  0.0449156  -0.0228202  0  0  0  -0  0.441376  -0.096231  0.0223966  0.000655651  -0.00363152  -0.00759869  -0.00357335  -0.0182037  0.00967657  0.032671  -0.0338983  -0.31495  0.00532178  0.035793 
1704464708.135752000  0  0  11.3527  0.0569887  -0.15553  0.0260832  nan  nan  nan  nan  nan  nan  -2.50013  -0.296395  0.997553  -0.0479068  -0.0293623  0.00553143  -0.0005211  0.0471524  -0.0232916  0  0  0  -0  0.453314  -0.0922973  0.0223481  0.000633786  -0.00365575  -0.00881169  -0.0039768  -0.0113411  0.0102937  0.0311176  -0.0343472  -0.293024  -0.0557673  0.00310402 
1704464708.140764000  0  0  11.4336  0.0690581  -0.172695  0.0259321  nan  nan  nan  nan  nan  nan  -2.50013  -0.296154  0.997435  -0.0484639  -0.0309548  0.00583002  -0.0005211  0.0494483  -0.0237427  0  0  0  -0  0.465002  -0.0881135  0.0223457  0.000601919  -0.00376009  -0.00655479  -0.00355555  -0.0169498  0.00914494  0.0326341  -0.0345085  -0.306988  -0.0342126  0.00718011 
1704464708.144733000  0  0  11.4473  0.0801874  -0.170066  0.0236287  nan  nan  nan  nan  nan  nan  -2.50013  -0.295901  0.997315  -0.0499527  -0.029697  0.00602276  -0.0005211  0.051802  -0.0241723  0  0  0  -0  0.476441  -0.0836798  0.0223038  0.000536121  -0.00380405  -0.00796295  -0.0039252  -0.0174576  0.00912588  0.0314346  -0.0342982  -0.334893  -0.0235389  0.0389883 
1704464708.150751000  0  0  11.3783  0.0698343  -0.130724  0.026103  nan  nan  nan  nan  nan  nan  -2.50014  -0.295636  0.997193  -0.0512023  -0.0288735  0.00623138  -0.0005211  0.0542123  -0.0245791  0  0  0  -0  0.487629  -0.078996  0.0222714  0.000543314  -0.00385837  -0.00911744  -0.00371852  -0.0115083  0.00871929  0.0295565  -0.0346488  -0.302804  -0.0960243  0.00623714 
1704464708.155750000  0  0  11.4596  0.0879148  -0.149186  0.027064  nan  nan  nan  nan  nan  nan  -2.50014  -0.295359  0.99707  -0.0515682  -0.0300172  0.00651877  -0.0005211  0.0566779  -0.0249619  0  0  0  -0  0.498567  -0.0740623  0.0222618  0.000507385  -0.00395958  -0.0074023  -0.00317829  -0.0170868  0.00721529  0.0305923  -0.0350057  -0.326856  -0.0642407  -0.00397397 
1704464708.160784000  0  0  11.4974  0.111221  -0.14233  0.0222532  nan  nan  nan  nan  nan  nan  -2.50014  -0.295069  0.996944  -0.0525228  -0.0286636  0.00669797  -0.0005211  0.0591975  -0.0253193  0  0  0  -0  0.509256  -0.0688785  0.0222062  0.000492451  -0.00406118  -0.00883354  -0.00322616  -0.0192608  0.00601713  0.0290413  -0.0343772  -0.368559  -0.0591924  0.0603083 
1704464708.165753000  0  0  11.4779  0.107843  -0.127059  0.0245032  nan  nan  nan  nan  nan  nan  -2.50014  -0.294767  0.996816  -0.0533024  -0.0276942  0.00689408  -0.0005211  0.06177  -0.0256502  0  0  0  -0  0.519694  -0.0634448  0.022166  0.000456125  -0.00411901  -0.0100008  -0.00271881  -0.0170988  0.00518875  0.0275525  -0.0346188  -0.348037  -0.0763504  0.0296487 
1704464708.169754000  0  0  11.4733  0.108851  -0.123288  0.0250375  nan  nan  nan  nan  nan  nan  -2.50015  -0.294451  0.996687  -0.0549819  -0.0276673  0.00716814  -0.0005211  0.0643941  -0.0259536  0  0  0  -0  0.529882  -0.0579427  0.0221372  0.00037899  -0.00415327  -0.00996043  -0.00335202  -0.0160904  0.00540871  0.0272351  -0.0348074  -0.353767  -0.0813133  0.023859 
1704464708.175752000  0  0  11.5896  0.121222  -0.134011  0.021761  nan  nan  nan  nan  nan  nan  -2.50015  -0.294123  0.996557  -0.0557247  -0.0287255  0.00748006  -0.0005211  0.0670684  -0.0262301  0  0  0  -0  0.53982  -0.0526852  0.0221882  0.000299377  -0.00429783  -0.00835643  -0.00356401  -0.0242212  0.00376362  0.0278406  -0.0342817  -0.361323  -0.0629093  0.0665312 
1704464708.180707000  0  0  11.6083  0.131411  -0.128783  0.022003  nan  nan  nan  nan  nan  nan  -2.50015  -0.29378  0.996425  -0.0560107  -0.0267818  0.00761466  -0.0005211  0.0697919  -0.0264809  0  0  0  -0  0.549509  -0.0476777  0.0221425  0.000256228  -0.00439315  -0.0106359  -0.00276026  -0.024989  0.00224463  0.0257756  -0.0342225  -0.365176  -0.0463109  0.0622654 
1704464708.185705000  0  0  11.4861  0.118561  -0.101598  0.0234805  nan  nan  nan  nan  nan  nan  -2.50015  -0.293425  0.996292  -0.0579693  -0.0262582  0.0078752  -0.0005211  0.0725631  -0.0267073  0  0  0  -0  0.558947  -0.0429202  0.0220789  0.000239777  -0.00441273  -0.0114848  -0.00325  -0.0149894  0.00269343  0.0244592  -0.034399  -0.339123  -0.096128  0.0423351 
1704464708.190747000  0  0  11.6775  0.110264  -0.134189  0.0246604  nan  nan  nan  nan  nan  nan  -2.50016  -0.293055  0.996158  -0.0588085  -0.0287994  0.00828777  -0.0005211  0.0753809  -0.0269105  0  0  0  -0  0.568135  -0.0384127  0.0221727  7.74113e-05  -0.00457747  -0.00787326  -0.00400707  -0.0289286  0.00216302  0.0270335  -0.034662  -0.310451  -0.0507979  0.0278056 
1704464708.195748000  0  0  11.6355  0.130743  -0.142018  0.021022  nan  nan  nan  nan  nan  nan  -2.50016  -0.292671  0.996023  -0.0599638  -0.0258877  0.00838981  -0.0005211  0.078244  -0.0270918  0  0  0  -0  0.577074  -0.0341552  0.0221963  -8.95094e-05  -0.00457859  -0.0117021  -0.00377454  -0.0252686  0.00136869  0.0245463  -0.0341893  -0.35083  0.00496232  0.076453 
1704464708.200745000  0  0  11.5158  0.0937037  -0.0989535  0.0237597  nan  nan  nan  nan  nan  nan  -2.50016  -0.292272  0.995887  -0.0624185  -0.0251881  0.00865548  -0.0005211  0.0811512  -0.0272525  0  0  0  -0  0.585762  -0.0301477  0.0221265  -0.000117857  -0.0046051  -0.0127337  -0.00492164  -0.0154687  0.00292281  0.0228617  -0.0344939  -0.279496  -0.0797432  0.0392688 
1704464708.205747000  0  0  11.7016  0.0853366  -0.14383  0.028504  nan  nan  nan  nan  nan  nan  -2.50016  -0.291859  0.995751  -0.0621875  -0.0277127  0.00905429  -0.0005211  0.0841012  -0.0273937  0  0  0  -0  0.5942  -0.0263902  0.0220965  -0.000134856  -0.00482392  -0.00893038  -0.00476742  -0.0289923  0.00170937  0.0257729  -0.0353879  -0.240778  -0.008172  -0.0210114 
1704464708.210747000  0  0  11.6825  0.113141  -0.156989  0.0206639  nan  nan  nan  nan  nan  nan  -2.50017  -0.291431  0.995613  -0.0634799  -0.0246155  0.00914293  -0.0005211  0.0870928  -0.0275168  0  0  0  -0  0.602388  -0.0228827  0.0221205  -0.000282687  -0.00483986  -0.0129319  -0.00498871  -0.0271203  0.00111151  0.0234921  -0.034459  -0.302545  0.0581  0.0848348 
1704464708.215762000  0  0  11.5697  0.0609293  -0.115819  0.0250983  nan  nan  nan  nan  nan  nan  -2.50017  -0.290988  0.995475  -0.0665448  -0.0247029  0.00947551  -0.0005211  0.0901247  -0.0276229  0  0  0  -0  0.610327  -0.0196252  0.0221651  -0.000476288  -0.00478453  -0.0131639  -0.00666508  -0.0180731  0.00379801  0.0226771  -0.0350031  -0.209153  -0.0343701  0.025181 
1704464708.220708000  0  0  11.7237  0.0604297  -0.174351  0.0303545  nan  nan  nan  nan  nan  nan  -2.50017  -0.29053  0.995337  -0.0662397  -0.0275999  0.00991255  -0.0005211  0.0931957  -0.0277134  0  0  0  -0  0.618015  -0.0166177  0.0221341  -0.000505203  -0.00498257  -0.00897191  -0.00633214  -0.0292624  0.00262414  0.0264655  -0.036076  -0.190928  0.0591027  -0.040665 
1704464708.225813000  0  0  11.6815  0.0884832  -0.165201  0.019093  nan  nan  nan  nan  nan  nan  -2.50017  -0.290056  0.995198  -0.0675456  -0.0241649  0.00997026  -0.0005211  0.0963044  -0.0277895  0  0  0  -0  0.625453  -0.0138602  0.0220644  -0.000567977  -0.00506322  -0.0132807  -0.00666862  -0.0255208  0.00217425  0.02368  -0.0346414  -0.255462  0.0761799  0.110231 
1704464708.230811000  0  0  11.6134  0.0379911  -0.147643  0.0269226  nan  nan  nan  nan  nan  nan  -2.50018  -0.289567  0.995059  -0.0693156  -0.0252576  0.010344  -0.0005211  0.0994498  -0.0278525  0  0  0  -0  0.632642  -0.0113527  0.0220781  -0.000679488  -0.00509692  -0.0120683  -0.00725646  -0.0198639  0.00383121  0.0244239  -0.0355609  -0.151551  0.0209717  0.00443473 
1704464708.235668000  0  0  11.6835  0.0522785  -0.185036  0.0282817  nan  nan  nan  nan  nan  nan  -2.50018  -0.289062  0.99492  -0.0698682  -0.0264356  0.0106963  -0.0005211  0.10263  -0.0279035  0  0  0  -0  0.63958  -0.0090952  0.0220316  -0.000727112  -0.0052437  -0.0102516  -0.00750136  -0.0247194  0.00327527  0.0264967  -0.0360383  -0.179696  0.0857093  -0.0103187 
1704464708.240763000  0  0  11.7218  0.0811317  -0.185108  0.0182866  nan  nan  nan  nan  nan  nan  -2.50018  -0.28854  0.99478  -0.07009  -0.024806  0.0108446  -0.0005211  0.105845  -0.0279438  0  0  0  -0  0.646268  -0.0070877  0.0219547  -0.0007487  -0.00539129  -0.0120325  -0.00721591  -0.0271667  0.00193839  0.0255358  -0.034658  -0.23344  0.0997732  0.122393 
1704464708.244717000  0  0  11.6381  0.0560905  -0.170299  0.0226482  nan  nan  nan  nan  nan  nan  -2.50019  -0.288003  0.99464  -0.0722727  -0.0244682  0.011132  -0.0005211  0.109093  -0.0279748  0  0  0  -0  0.652707  -0.0053301  0.0219419  -0.000958004  -0.00538868  -0.0126121  -0.00810457  -0.0204308  0.00368047  0.0252606  -0.035102  -0.195203  0.0662529  0.062681 
1704464708.250748000  0  0  11.6554  0.0566395  -0.18217  0.026202  nan  nan  nan  nan  nan  nan  -2.50019  -0.287449  0.9945  -0.0731393  -0.0259541  0.0115202  -0.0005211  0.112372  -0.0279975  0  0  0  -0  0.658895  -0.0038226  0.0219829  -0.0010332  -0.0055452  -0.010729  -0.00838469  -0.0212351  0.00357619  0.0272936  -0.035694  -0.195086  0.0669369  0.0166462 
1704464708.255747000  0  0  11.7426  0.0808133  -0.193377  0.0185784  nan  nan  nan  nan  nan  nan  -2.50019  -0.286879  0.99436  -0.0731748  -0.0258995  0.0117759  -0.0005211  0.115681  -0.0280134  0  0  0  -0  0.664833  -0.0025651  0.0219272  -0.00107385  -0.00571193  -0.0104084  -0.00829492  -0.0274831  0.00214138  0.0278466  -0.0345289  -0.235566  0.0873238  0.116593 
1704464708.259741000  0  0  11.6799  0.0643446  -0.189715  0.0205862  nan  nan  nan  nan  nan  nan  -2.50019  -0.286293  0.99422  -0.0761532  -0.0254188  0.0120758  -0.0005211  0.11902  -0.0280236  0  0  0  -0  0.670521  -0.0015576  0.0220548  -0.00149685  -0.00556286  -0.0113883  -0.00999808  -0.0227114  0.00443081  0.0276867  -0.0346669  -0.226944  0.0803618  0.0883509 
1704464708.265746000  0  0  11.5887  0.0578268  -0.172179  0.0254746  nan  nan  nan  nan  nan  nan  -2.5002  -0.285689  0.99408  -0.076944  -0.0260217  0.0124017  -0.0005211  0.122386  -0.0280294  0  0  0  -0  0.67596  -0.0008001  0.0220905  -0.00154688  -0.00566159  -0.0109239  -0.00944641  -0.0153356  0.00432094  0.0281698  -0.0353226  -0.208852  0.0289805  0.0232247 
1704464708.270745000  0  0  11.7174  0.0849448  -0.19859  0.0212467  nan  nan  nan  nan  nan  nan  -2.5002  -0.285069  0.99394  -0.076766  -0.0269518  0.0127282  -0.0005211  0.125779  -0.028032  0  0  0  -0  0.681148  -0.0002926  0.0220759  -0.00163856  -0.00581255  -0.00931154  -0.00943965  -0.024892  0.00254532  0.0297566  -0.0347287  -0.251864  0.0729293  0.0792471 
1704464708.275747000  0  0  11.6404  0.0900756  -0.171078  0.0209203  nan  nan  nan  nan  nan  nan  -2.5002  -0.284431  0.9938  -0.0770394  -0.0243011  0.0127909  -0.0005211  0.129197  -0.0280327  0  0  0  -0  0.686086  -3.51e-05  0.021991  -0.00167786  -0.00587217  -0.0126975  -0.0084897  -0.0187793  0.00161374  0.0271029  -0.034504  -0.251396  0.041606  0.0815389 
1704464708.280753000  0  0  11.5509  0.0882331  -0.147611  0.0255969  nan  nan  nan  nan  nan  nan  -2.5002  -0.283777  0.99366  -0.0776756  -0.0245777  0.0130878  -0.0005211  0.132639  -0.0280328  0  0  0  -0  0.690775  0  0.0219299  -0.00171515  -0.00590579  -0.0124362  -0.00787092  -0.0117527  0.00112966  0.0268641  -0.0351553  -0.239737  -0.0143647  0.0195075 
1704464708.285753000  0  0  11.6508  0.112041  -0.172897  0.0238285  nan  nan  nan  nan  nan  nan  -2.50021  -0.283105  0.99352  -0.0776792  -0.0258101  0.0134438  -0.0005211  0.136104  -0.0280328  0  0  0  -0  0.695213  0  0.0219626  -0.00183829  -0.0060204  -0.0106389  -0.00788652  -0.0192044  -0.000512185  0.0285301  -0.0350126  -0.2763  0.0255923  0.044142 
1704464708.290747000  0  0  11.6112  0.116069  -0.152823  0.0212392  nan  nan  nan  nan  nan  nan  -2.50021  -0.282416  0.993379  -0.0790427  -0.0246443  0.013647  -0.0005211  0.139591  -0.0280328  0  0  0  -0  0.699401  0  0.0220177  -0.0020716  -0.00600687  -0.0122889  -0.00828472  -0.0160785  -0.000452082  0.0272555  -0.0345901  -0.287368  -0.00682178  0.0777839 
1704464708.295739000  0  0  11.5198  0.113551  -0.134708  0.0248874  nan  nan  nan  nan  nan  nan  -2.50021  -0.281709  0.993239  -0.0795587  -0.0244868  0.0139073  -0.0005211  0.143098  -0.0280328  0  0  0  -0  0.703339  0  0.0219915  -0.00215013  -0.00599459  -0.012653  -0.00749534  -0.00902089  -0.00116917  0.026586  -0.0350612  -0.270631  -0.043019  0.0289727 
1704464708.300752000  0  0  11.586  0.12844  -0.144125  0.0229979  nan  nan  nan  nan  nan  nan  -2.50021  -0.280985  0.993099  -0.0794229  -0.0249761  0.0142029  -0.0005211  0.146624  -0.0280328  0  0  0  -0  0.707028  0  0.0219377  -0.00218882  -0.00610244  -0.0117213  -0.00734176  -0.0138868  -0.00283464  0.027092  -0.0348612  -0.284269  -0.0264842  0.0547528 
1704464708.305746000  0  0  11.6083  0.131125  -0.142398  0.0203463  nan  nan  nan  nan  nan  nan  -2.50022  -0.280243  0.992959  -0.0798976  -0.0247771  0.0144591  -0.0005211  0.150168  -0.0280328  0  0  0  -0  0.710466  0  0.0219658  -0.00233505  -0.00611788  -0.0119318  -0.00740236  -0.015541  -0.00369723  0.0267613  -0.0343729  -0.278605  -0.02608  0.0885719 
1704464708.310744000  0  0  11.5415  0.136405  -0.128617  0.0222139  nan  nan  nan  nan  nan  nan  -2.50022  -0.279483  0.992819  -0.07969  -0.0228327  0.0145586  -0.0005211  0.153728  -0.0280328  0  0  0  -0  0.713654  0  0.0218824  -0.002364  -0.00614511  -0.0143685  -0.00614252  -0.0103436  -0.00513442  0.0246514  -0.0345039  -0.27121  -0.0304906  0.0623316 
1704464708.315748000  0  0  11.5442  0.126199  -0.121961  0.0229737  nan  nan  nan  nan  nan  nan  -2.50022  -0.278705  0.992679  -0.0804366  -0.0241513  0.0149422  -0.0005211  0.157304  -0.0280328  0  0  0  -0  0.716593  0  0.0218688  -0.00244864  -0.0061773  -0.0126393  -0.00652844  -0.0104198  -0.00541577  0.0254789  -0.0345713  -0.241303  -0.0592994  0.0518166 
1704464708.320777000  0  0  11.6741  0.12764  -0.151133  0.0222973  nan  nan  nan  nan  nan  nan  -2.50022  -0.27791  0.992538  -0.0805075  -0.0249358  0.0152672  -0.0005211  0.160894  -0.0280328  0  0  0  -0  0.719281  0  0.0219048  -0.0026311  -0.00630712  -0.0113323  -0.00702065  -0.020144  -0.00624054  0.0267148  -0.0344848  -0.233035  -0.00328847  0.0608765 
1704464708.325738000  0  0  11.5476  0.133036  -0.133702  0.019993  nan  nan  nan  nan  nan  nan  -2.50023  -0.277096  0.992398  -0.0806878  -0.0216022  0.0152621  -0.0005211  0.164496  -0.0280328  0  0  0  -0  0.721719  0  0.0218127  -0.0026626  -0.00630139  -0.0156599  -0.00583883  -0.0104001  -0.00714761  0.0234635  -0.0340537  -0.233593  -0.000450051  0.0901898 
1704464708.330741000  0  0  11.5669  0.0980338  -0.111601  0.0241202  nan  nan  nan  nan  nan  nan  -2.50023  -0.276265  0.992258  -0.0818612  -0.0229907  0.0156614  -0.0005211  0.168111  -0.0280328  0  0  0  -0  0.723908  0  0.0217911  -0.0027462  -0.00634935  -0.013774  -0.00699483  -0.0116718  -0.00627987  0.0240179  -0.0345333  -0.157501  -0.0644235  0.0343634 
1704464708.335792000  0  0  11.695  0.113374  -0.156945  0.0233519  nan  nan  nan  nan  nan  nan  -2.50023  -0.275415  0.992118  -0.0803936  -0.0235644  0.0159332  -0.0005211  0.171735  -0.0280328  0  0  0  -0  0.725846  0  0.0217297  -0.00276108  -0.00650338  -0.0125856  -0.00598772  -0.0213387  -0.00860034  0.0253828  -0.0345416  -0.162817  0.0306713  0.0458655 
1704464708.340775000  0  0  11.5668  0.12184  -0.137285  0.0174416  nan  nan  nan  nan  nan  nan  -2.50023  -0.274547  0.991978  -0.0815047  -0.0202721  0.0159502  -0.0005211  0.175369  -0.0280328  0  0  0  -0  0.727534  0  0.0216759  -0.00286578  -0.00645569  -0.0169134  -0.0059019  -0.0114864  -0.00853147  0.0222832  -0.0335822  -0.185249  0.0256742  0.122712 
1704464708.345748000  0  0  11.5659  0.0766417  -0.123496  0.0230011  nan  nan  nan  nan  nan  nan  -2.50024  -0.273661  0.991838  -0.0824636  -0.021792  0.0163545  -0.0005211  0.17901  -0.0280328  0  0  0  -0  0.728972  0  0.0216862  -0.00297517  -0.00647098  -0.0149795  -0.00665223  -0.011299  -0.00734022  0.0232566  -0.034134  -0.0880139  -0.0233036  0.0464401 
1704464708.350740000  0  0  11.6573  0.097695  -0.172964  0.0221219  nan  nan  nan  nan  nan  nan  -2.50024  -0.272757  0.991697  -0.0807894  -0.0227693  0.0166556  -0.0005211  0.182658  -0.0280328  0  0  0  -0  0.730161  0  0.0216234  -0.0029933  -0.00659418  -0.013392  -0.00515091  -0.0182246  -0.00968297  0.0252645  -0.0341068  -0.107475  0.0729443  0.0591843 
1704464708.355737000  0  0  11.5668  0.10652  -0.147344  0.0160583  nan  nan  nan  nan  nan  nan  -2.50024  -0.271835  0.991557  -0.0822261  -0.0203923  0.0167509  -0.0005211  0.186311  -0.0280328  0  0  0  -0  0.731099  0  0.0215927  -0.00313147  -0.00655951  -0.0164995  -0.00580263  -0.0112164  -0.00910764  0.0229863  -0.0329965  -0.138134  0.0409862  0.136593 
1704464708.360773000  0  0  11.5832  0.060709  -0.134056  0.0239526  nan  nan  nan  nan  nan  nan  -2.50025  -0.270894  0.991417  -0.0822086  -0.0209674  0.0170557  -0.0005211  0.189968  -0.0280328  0  0  0  -0  0.731787  0  0.0215272  -0.00315379  -0.0066333  -0.0155781  -0.00577572  -0.0123079  -0.00848536  0.0232283  -0.0339035  -0.0311258  0.00384374  0.0296942 
1704464708.365750000  0  0  11.6055  0.0772526  -0.166088  0.0227932  nan  nan  nan  nan  nan  nan  -2.50025  -0.269935  0.991277  -0.0816059  -0.0222884  0.017408  -0.0005211  0.193629  -0.0280328  0  0  0  -0  0.732226  0  0.0215385  -0.00326291  -0.00666585  -0.0138659  -0.00490998  -0.0140223  -0.00956522  0.025231  -0.0338778  -0.0574139  0.0560171  0.0466166 
1704464708.370747000  0  0  11.6045  0.0847067  -0.155764  0.0171252  nan  nan  nan  nan  nan  nan  -2.50025  -0.268958  0.991137  -0.0825103  -0.0214149  0.0176122  -0.0005211  0.19729  -0.0280328  0  0  0  -0  0.732414  0  0.0215371  -0.00340623  -0.00668077  -0.0149219  -0.0057322  -0.0138421  -0.00922209  0.0245164  -0.0329149  -0.0812461  0.0401993  0.119825 
1704464708.375751000  0  0  11.5867  0.0614254  -0.143408  0.0238121  nan  nan  nan  nan  nan  nan  -2.50025  -0.267962  0.990997  -0.0819764  -0.0203923  0.0177719  -0.0005211  0.200952  -0.0280328  0  0  0  -0  0.732352  0  0.0214497  -0.00342826  -0.00673521  -0.0160631  -0.00488496  -0.0123884  -0.00936795  0.023467  -0.0336941  -0.0201881  0.0240741  0.0294002 
1704464708.380773000  0  0  11.5551  0.0692931  -0.153725  0.0231418  nan  nan  nan  nan  nan  nan  -2.50026  -0.266948  0.990856  -0.0821825  -0.022037  0.0181658  -0.0005211  0.204613  -0.0280328  0  0  0  -0  0.73204  0  0.0214791  -0.00354371  -0.00673172  -0.0140998  -0.00462393  -0.0099512  -0.00947778  0.025247  -0.0337273  -0.0385232  0.0244806  0.0397286 
1704464708.385706000  0  0  11.6438  0.0894282  -0.167285  0.0174413  nan  nan  nan  nan  nan  nan  -2.50026  -0.265916  0.990716  -0.0816445  -0.0217374  0.0183823  -0.0005211  0.208272  -0.0280328  0  0  0  -0  0.731479  0  0.0214038  -0.00358489  -0.0068462  -0.014087  -0.00472149  -0.0165908  -0.0106244  0.0254527  -0.0328123  -0.0729416  0.0558444  0.113966 
1704464708.390748000  0  0  11.5719  0.0733117  -0.14438  0.0210131  nan  nan  nan  nan  nan  nan  -2.50026  -0.264866  0.990576  -0.0819012  -0.0198654  0.0184857  -0.0005211  0.211928  -0.0280328  0  0  0  -0  0.730667  0  0.0214268  -0.00375853  -0.0067971  -0.0166384  -0.00419383  -0.0111331  -0.0101998  0.0235368  -0.0330867  -0.038267  0.0255277  0.0640549 
1704464708.395748000  0  0  11.5167  0.0681209  -0.14796  0.0233513  nan  nan  nan  nan  nan  nan  -2.50026  -0.263797  0.990436  -0.0824407  -0.0220041  0.0189231  -0.0005211  0.215579  -0.0280328  0  0  0  -0  0.729605  0  0.0214539  -0.00389412  -0.00676833  -0.0141043  -0.00417699  -0.0069051  -0.00977251  0.0255102  -0.0334294  -0.0312967  0.00607983  0.0332333 
1704464708.400772000  0  0  11.6678  0.094736  -0.174941  0.0196793  nan  nan  nan  nan  nan  nan  -2.50027  -0.26271  0.990296  -0.0811724  -0.0220601  0.0191478  -0.0005211  0.219223  -0.0280328  0  0  0  -0  0.728294  0  0.0213894  -0.00391207  -0.0069213  -0.0135217  -0.00404241  -0.0183286  -0.0116853  0.0262744  -0.0328973  -0.0710531  0.0633576  0.0817033 
1704464708.405755000  0  0  11.5417  0.0822848  -0.138795  0.0194251  nan  nan  nan  nan  nan  nan  -2.50027  -0.261605  0.990156  -0.0814856  -0.0196949  0.0192078  -0.0005211  0.222861  -0.0280328  0  0  0  -0  0.726732  0  0.0214004  -0.00407865  -0.00684468  -0.0168023  -0.00323422  -0.00874631  -0.0112736  0.0236504  -0.032676  -0.0454741  0.00974561  0.0829634 
1704464708.410749000  0  0  11.4912  0.0703744  -0.129137  0.0240483  nan  nan  nan  nan  nan  nan  -2.50027  -0.260481  0.990015  -0.0812567  -0.021106  0.0195623  -0.0005211  0.22649  -0.0280328  0  0  0  -0  0.72492  0  0.02133  -0.00409409  -0.00685835  -0.0149937  -0.00265806  -0.00483593  -0.0113887  0.0245461  -0.0332939  -0.0136528  -0.0276528  0.0213452 
1704464708.415756000  0  0  11.6365  0.0984362  -0.163384  0.0204049  nan  nan  nan  nan  nan  nan  -2.50027  -0.25934  0.989875  -0.0803458  -0.0215845  0.0198231  -0.0005211  0.23011  -0.0280328  0  0  0  -0  0.722859  0  0.0213642  -0.00423941  -0.0069402  -0.0140984  -0.00273074  -0.0159414  -0.0129354  0.0257347  -0.0328261  -0.0623613  0.0418933  0.070121 
1704464708.420767000  0  0  11.524  0.0954012  -0.132266  0.0188104  nan  nan  nan  nan  nan  nan  -2.50028  -0.25818  0.989735  -0.0804646  -0.0198044  0.0199213  -0.0005211  0.233719  -0.0280328  0  0  0  -0  0.720547  0  0.0213791  -0.00437332  -0.0068824  -0.0166142  -0.0019569  -0.00738889  -0.0129704  0.0236375  -0.0324233  -0.0541702  -0.00660199  0.0892182 
1704464708.425743000  0  0  11.4694  0.0789774  -0.122278  0.0240268  nan  nan  nan  nan  nan  nan  -2.50028  -0.257003  0.989595  -0.0800588  -0.0206058  0.0202138  -0.0005211  0.237315  -0.0280328  0  0  0  -0  0.717985  0  0.0213036  -0.00438473  -0.00688669  -0.0155751  -0.00124775  -0.00319668  -0.0131206  0.0239531  -0.0330944  -0.0104134  -0.0364523  0.0193967 
1704464708.430754000  0  0  11.602  0.103032  -0.145024  0.0211993  nan  nan  nan  nan  nan  nan  -2.50028  -0.255807  0.989455  -0.0793429  -0.0211898  0.0204786  -0.0005211  0.240898  -0.0280328  0  0  0  -0  0.715173  0  0.0213321  -0.00452419  -0.00696249  -0.0145722  -0.00154017  -0.0133113  -0.0143792  0.024907  -0.0327872  -0.0531365  0.00736024  0.0578851 
1704464708.435738000  0  0  11.5513  0.105367  -0.120907  0.0196889  nan  nan  nan  nan  nan  nan  -2.50028  -0.254594  0.989315  -0.0782901  -0.0195524  0.0205577  -0.0005211  0.244466  -0.0280328  0  0  0  -0  0.712112  0  0.0212356  -0.00452632  -0.00698142  -0.0165623  -0.000205131  -0.00944754  -0.0155482  0.0229083  -0.0324428  -0.0421611  -0.0248273  0.0763956 
1704464708.440766000  0  0  11.4677  0.0962155  -0.114407  0.0228301  nan  nan  nan  nan  nan  nan  -2.50029  -0.253362  0.989174  -0.0784541  -0.0199258  0.0208166  -0.0005211  0.248019  -0.0280328  0  0  0  -0  0.7088  0  0.0213083  -0.00468869  -0.00691421  -0.0164094  0.000233168  -0.00313148  -0.0152881  0.022952  -0.0328102  -0.0227458  -0.0419186  0.0339334 
1704464708.444743000  0  0  11.537  0.104106  -0.117849  0.0213606  nan  nan  nan  nan  nan  nan  -2.50029  -0.252113  0.989034  -0.0787544  -0.0205312  0.021093  -0.0005211  0.251554  -0.0280328  0  0  0  -0  0.705238  0  0.021252  -0.00495104  -0.00695383  -0.015345  -0.000613988  -0.00836176  -0.015332  0.0234311  -0.0326636  -0.0420914  -0.0401267  0.0540868 
1704464708.450730000  0  0  11.59  0.118915  -0.121262  0.0188227  nan  nan  nan  nan  nan  nan  -2.50029  -0.250847  0.988894  -0.0767938  -0.0202745  0.0212514  -0.0005211  0.255071  -0.0280328  0  0  0  -0  0.701427  0  0.0212819  -0.00486894  -0.00700814  -0.0156317  0.000748939  -0.0124902  -0.0175521  0.0230859  -0.0320723  -0.0475125  -0.0264957  0.0850453 
1704464708.455748000  0  0  11.4385  0.109633  -0.0955122  0.0205965  nan  nan  nan  nan  nan  nan  -2.50029  -0.249563  0.988754  -0.0765817  -0.0187007  0.0213408  -0.0005211  0.258568  -0.0280328  0  0  0  -0  0.697365  0  0.0212919  -0.00498604  -0.00691437  -0.0179529  0.00196327  -0.00103164  -0.0176018  0.0209643  -0.0321746  -0.0232927  -0.0610433  0.0598724 
1704464708.460719000  0  0  11.5487  0.104711  -0.100988  0.0220198  nan  nan  nan  nan  nan  nan  -2.5003  -0.248261  0.988614  -0.0759326  -0.0203121  0.0216611  -0.0005211  0.262044  -0.0280328  0  0  0  -0  0.693053  0  0.0212359  -0.00499436  -0.0070106  -0.0155724  0.00139678  -0.00935174  -0.0181787  0.0221582  -0.032332  -0.00249425  -0.0644281  0.0405292 
1704464708.465750000  0  0  11.6146  0.117974  -0.127531  0.0193368  nan  nan  nan  nan  nan  nan  -2.5003  -0.246942  0.988474  -0.074623  -0.0200119  0.0218173  -0.0005211  0.265498  -0.0280328  0  0  0  -0  0.688491  0  0.0212751  -0.00514044  -0.00704652  -0.0158895  0.00222653  -0.0144715  -0.0195658  0.0223362  -0.031909  -0.0160373  0.000209639  0.0755561 
1704464708.470744000  0  0  11.446  0.109057  -0.0878705  0.0185297  nan  nan  nan  nan  nan  nan  -2.5003  -0.245606  0.988333  -0.0748389  -0.017617  0.0218428  -0.0005211  0.268928  -0.0280328  0  0  0  -0  0.68368  0  0.0212883  -0.00527878  -0.00693735  -0.0192659  0.00294178  -0.00168257  -0.0191323  0.0192987  -0.0315999  0.000277403  -0.0563297  0.0840265 
1704464708.475747000  0  0  11.6027  0.0858481  -0.101765  0.02348  nan  nan  nan  nan  nan  nan  -2.50031  -0.244253  0.988193  -0.0739991  -0.0206222  0.0222464  -0.0005211  0.272334  -0.0280328  0  0  0  -0  0.678618  0  0.0212419  -0.00527103  -0.00707028  -0.0150621  0.00217853  -0.013515  -0.0193358  0.021862  -0.0322085  0.0619854  -0.0581815  0.0174471 
1704464708.480754000  0  0  11.6866  0.112591  -0.142473  0.0190775  nan  nan  nan  nan  nan  nan  -2.50031  -0.242883  0.988053  -0.0722359  -0.0201149  0.0223639  -0.0005211  0.275714  -0.0280328  0  0  0  -0  0.673306  0  0.0212785  -0.0054211  -0.00713525  -0.015609  0.00336923  -0.0200016  -0.021187  0.0222599  -0.0316632  0.0210173  0.039146  0.0766146 
1704464708.485756000  0  0  11.5001  0.10566  -0.0915679  0.0160976  nan  nan  nan  nan  nan  nan  -2.50031  -0.241496  0.987913  -0.0721961  -0.0169414  0.022319  -0.0005211  0.279067  -0.0280328  0  0  0  -0  0.667745  0  0.0211515  -0.00539541  -0.00708176  -0.0197406  0.00404693  -0.00572836  -0.020927  0.0184071  -0.0309741  0.034811  -0.0340848  0.113024 
1704464708.490746000  0  0  11.6378  0.0620654  -0.112082  0.023101  nan  nan  nan  nan  nan  nan  -2.50031  -0.240092  0.987773  -0.0721842  -0.0203319  0.0227439  -0.0005211  0.282391  -0.0280328  0  0  0  -0  0.661933  0  0.0212295  -0.00554441  -0.00717289  -0.0153199  0.00267783  -0.0161159  -0.0196841  0.0216017  -0.0317825  0.127239  -0.028296  0.0182326 
1704464708.495747000  0  0  11.6828  0.0936525  -0.154778  0.0169012  nan  nan  nan  nan  nan  nan  -2.50032  -0.238672  0.987633  -0.070714  -0.0201229  0.0228736  -0.0005211  0.285686  -0.0280328  0  0  0  -0  0.655871  0  0.0213087  -0.00572652  -0.0072061  -0.0156637  0.00379741  -0.0196496  -0.0211188  0.022479  -0.0309466  0.0679855  0.0671393  0.10078 
1704464708.500749000  0  0  11.5228  0.0892411  -0.115873  0.0142018  nan  nan  nan  nan  nan  nan  -2.50032  -0.237236  0.987492  -0.0706168  -0.0176899  0.0228685  -0.0005211  0.288949  -0.0280328  0  0  0  -0  0.64956  0  0.0211946  -0.0057008  -0.0071747  -0.0188431  0.00423928  -0.00737905  -0.0208174  0.0197078  -0.0301627  0.0748011  0.00866505  0.13195 
