    ts      x      y      z   roll  pitch    yaw     vx     vy     vz     wx     wy     wz     ax     ay     az    dwx    dwy    dwz
 0.0050000  -2.5000000  -0.3000000   1.0000000   0.0000000   0.0000000   0.0000000  -0.0000002   0.0000002  -0.0000002   0.0000000   0.0000000   0.0000000  -0.0001250   0.0001250  -0.0001250   0.0000000   0.0000000   0.0000000
 0.0100000  -2.5000000  -0.3000000   1.0000000   0.0000000   0.0000000   0.0000000  -0.0000017   0.0000017  -0.0000017   0.0000000   0.0000000   0.0000000  -0.0005000   0.0005000  -0.0005000   0.0000000   0.0000000   0.0000000
 0.0150000  -2.5000000  -0.3000000   1.0000000   0.0000000   0.0000000   0.0000000  -0.0000056   0.0000056  -0.0000056   0.0000000   0.0000000   0.0000000  -0.0011250   0.0011250  -0.0011250   0.0000000   0.0000000   0.0000000
 0.0200000  -2.5000000  -0.3000000   1.0000000   0.0000000   0.0000000   0.0000001  -0.0000133   0.0000133  -0.0000133   0.0000000   0.0000000   0.0000000  -0.0020000   0.0020000  -0.0020000   0.0000000   0.0000000   0.0000000
 0.0250000  -2.5000000  -0.3000000   1.0000000   0.0000000   0.0000000   0.0000003  -0.0000260   0.0000260  -0.0000260   0.0000000   0.0000000   0.0000000  -0.0031250   0.0031250  -0.0031250   0.0000000   0.0000000   0.0000000
 0.0300000  -2.5000000  -0.3000000   1.0000000   0.0000000   0.0000000   0.0000005  -0.0000450   0.0000450  -0.0000450   0.0000000   0.0000000   0.0000000  -0.0044988   0.0045000  -0.0045000   0.0000000   0.0000000   0.0000000
 0.0350000  -2.5000000  -0.2999990   0.9999990   0.0000000   0.0000000   0.0000010  -0.0000709   0.0000715  -0.0000715   0.0000000   0.0000000   0.0000000  -0.0058384   0.0061250  -0.0061250   0.0000000   0.0000000   0.0000000
 0.0400000  -2.5000000  -0.2999990   0.9999990   0.0000000   0.0000000   0.0000017  -0.0001030   0.0001067  -0.0001067   0.0000000   0.0000000   0.0000000  -0.0069280   0.0080000  -0.0080000   0.0000000   0.0000000   0.0000000
 0.0450000  -2.5000000  -0.2999980   0.9999980   0.0000000   0.0000000   0.0000027  -0.0001398   0.0001519  -0.0001519   0.0000000   0.0000000   0.0000000  -0.0077677   0.0101250  -0.0101250   0.0000000   0.0000000   0.0000000
 0.0500000  -2.5000000  -0.2999970   0.9999970   0.0000000   0.0000000   0.0000042  -0.0001802   0.0002083  -0.0002083   0.0000000   0.0000000   0.0000000  -0.0083573   0.0125000  -0.0125000   0.0000000   0.0000000   0.0000000
 0.0550000  -2.5000000  -0.2999960   0.9999960   0.0000000   0.0000000   0.0000061  -0.0002230   0.0002773  -0.0002773   0.0000000   0.0000000   0.0000000  -0.0086969   0.0151250  -0.0151250   0.0000000   0.0000000   0.0000000
 0.0600000  -2.5000000  -0.2999950   0.9999950   0.0000000   0.0000000   0.0000086  -0.0002668   0.0003600  -0.0003600   0.0000000   0.0000000   0.0000000  -0.0087866   0.0180000  -0.0180000   0.0000000   0.0000000   0.0000000
 0.0650000  -2.5000100  -0.2999930   0.9999930   0.0000000   0.0000000   0.0000119  -0.0003104   0.0004577  -0.0004577   0.0000000   0.0000000   0.0000000  -0.0086262   0.0211250  -0.0211250   0.0000000   0.0000000   0.0000000
 0.0700000  -2.5000100  -0.2999900   0.9999900   0.0000000   0.0000000   0.0000160  -0.0003526   0.0005717  -0.0005717   0.0000000   0.0000000   0.0000000  -0.0082158   0.0245000  -0.0245000   0.0000000   0.0000000   0.0000000
 0.0750000  -2.5000100  -0.2999870   0.9999870   0.0000000   0.0000000   0.0000211  -0.0003922   0.0007031  -0.0007031   0.0000000   0.0000000   0.0000000  -0.0075555   0.0281250  -0.0281250   0.0000000   0.0000000   0.0000000
 0.0800000  -2.5000100  -0.2999830   0.9999830   0.0000000   0.0000000   0.0000273  -0.0004278   0.0008533  -0.0008533   0.0000000   0.0000000   0.0000000  -0.0066451   0.0320000  -0.0320000   0.0000000   0.0000000   0.0000000
 0.0850000  -2.5000100  -0.2999780   0.9999780   0.0000000   0.0000000   0.0000348  -0.0004582   0.0010235  -0.0010235   0.0000000   0.0000000   0.0000000  -0.0054847   0.0361250  -0.0361250   0.0000000   0.0000000   0.0000000
 0.0900000  -2.5000200  -0.2999730   0.9999730   0.0000000   0.0000000   0.0000437  -0.0004822   0.0012150  -0.0012150   0.0000000   0.0000000   0.0000000  -0.0040856   0.0405000  -0.0405000   0.0000000   0.0000000   0.0000000
 0.0950000  -2.5000200  -0.2999660   0.9999660   0.0000000   0.0000000   0.0000543  -0.0004993   0.0014290  -0.0014290   0.0000000   0.0000000   0.0000000  -0.0027814   0.0451250  -0.0451250   0.0000000   0.0000000   0.0000000
 0.1000000  -2.5000200  -0.2999580   0.9999580   0.0000000   0.0000000   0.0000667  -0.0005104   0.0016667  -0.0016667   0.0000000   0.0000000   0.0000000  -0.0017271   0.0500000  -0.0500000   0.0000000   0.0000000   0.0000000
 0.1050000  -2.5000200  -0.2999490   0.9999490   0.0000000   0.0000000   0.0000810  -0.0005169   0.0019294  -0.0019294   0.0000000   0.0000000   0.0000000  -0.0009228   0.0551250  -0.0551250   0.0000000   0.0000000   0.0000000
 0.1100000  -2.5000300  -0.2999390   0.9999390   0.0000000   0.0000000   0.0000976  -0.0005201   0.0022183  -0.0022183   0.0000000   0.0000000   0.0000000  -0.0003685   0.0605000  -0.0605000   0.0000000   0.0000000   0.0000000
 0.1150000  -2.5000300  -0.2999270   0.9999270   0.0000000   0.0000000   0.0001166  -0.0005211   0.0025348  -0.0025347   0.0000000   0.0000000   0.0000000  -0.0000643   0.0661250  -0.0660297   0.0000000   0.0000000   0.0000000
 0.1200000  -2.5000300  -0.2999140   0.9999140   0.0000000   0.0000000   0.0001382  -0.0005211   0.0028800  -0.0028782   0.0000000   0.0000000   0.0000000  -0.0000000   0.0720000  -0.0713459   0.0000000   0.0000000   0.0000000
 0.1250000  -2.5000300  -0.2998980   0.9998980   0.0000000   0.0000000   0.0001628  -0.0005211   0.0032552  -0.0032477   0.0000000   0.0000000   0.0000000  -0.0000000   0.0781250  -0.0764122   0.0000000   0.0000000   0.0000000
 0.1300000  -2.5000400  -0.2998810   0.9998810   0.0000000   0.0000000   0.0001904  -0.0005211   0.0036617  -0.0036419   0.0000000   0.0000000   0.0000000  -0.0000000   0.0845000  -0.0812284   0.0000000   0.0000000   0.0000000
 0.1350000  -2.5000400  -0.2998620   0.9998620   0.0000000   0.0000000   0.0002213  -0.0005211   0.0041006  -0.0040596   0.0000000   0.0000000   0.0000000  -0.0000000   0.0911250  -0.0857947   0.0000000   0.0000000   0.0000000
 0.1400000  -2.5000400  -0.2998400   0.9998400   0.0000000   0.0000000   0.0002558  -0.0005211   0.0045733  -0.0044995   0.0000000   0.0000000   0.0000000  -0.0000000   0.0980000  -0.0901109   0.0000000   0.0000000   0.0000000
 0.1450000  -2.5000400  -0.2998160   0.9998170   0.0000000   0.0000000   0.0002939  -0.0005211   0.0050810  -0.0049603   0.0000000   0.0000000   0.0000000  -0.0000000   0.1051250  -0.0941772   0.0000000   0.0000000   0.0000000
 0.1500000  -2.5000500  -0.2997890   0.9997910   0.0000000   0.0000000   0.0003360  -0.0005211   0.0056250  -0.0054408   0.0000000   0.0000000   0.0000000  -0.0000000   0.1125000  -0.0979934   0.0000000   0.0000000   0.0000000
 0.1550000  -2.5000500  -0.2997590   0.9997620   0.0000000   0.0000000   0.0003822  -0.0005211   0.0062065  -0.0059398   0.0000000   0.0000000   0.0000000  -0.0000000   0.1201250  -0.1015600   0.0000000   0.0000000   0.0000000
 0.1600000  -2.5000500  -0.2997270   0.9997310   0.0000000   0.0000000   0.0004326  -0.0005211   0.0068267  -0.0064560   0.0000000   0.0000000   0.0000000  -0.0000000   0.1280000  -0.1048760   0.0000000   0.0000000   0.0000000
 0.1650000  -2.5000600  -0.2996910   0.9996980   0.0000000   0.0000000   0.0004874  -0.0005211   0.0074869  -0.0069882   0.0000000   0.0000000   0.0000000  -0.0000000   0.1361250  -0.1079420   0.0000000   0.0000000   0.0000000
 0.1700000  -2.5000600  -0.2996520   0.9996610   0.0000000   0.0000000   0.0005467  -0.0005211   0.0081883  -0.0075350   0.0000000   0.0000000   0.0000000  -0.0000000   0.1445000  -0.1107580   0.0000000   0.0000000   0.0000000
 0.1750000  -2.5000600  -0.2996090   0.9996220   0.0000000   0.0000000   0.0006108  -0.0005211   0.0089323  -0.0080953   0.0000000   0.0000000   0.0000000  -0.0000000   0.1531250  -0.1133250   0.0000000   0.0000000   0.0000000
 0.1800000  -2.5000600  -0.2995630   0.9995810   0.0000000   0.0000000   0.0006796  -0.0005211   0.0097200  -0.0086678   0.0000000   0.0000000   0.0000000  -0.0000000   0.1620000  -0.1156410   0.0000000   0.0000000   0.0000000
 0.1850000  -2.5000700  -0.2995120   0.9995360   0.0000000   0.0000000   0.0007533  -0.0005211   0.0105527  -0.0092513   0.0000000   0.0000000   0.0000000  -0.0000000   0.1711250  -0.1177070   0.0000000   0.0000000   0.0000000
 0.1900000  -2.5000700  -0.2994570   0.9994880   0.0000000   0.0000000   0.0008321  -0.0005211   0.0114317  -0.0098445   0.0000000   0.0000000   0.0000000  -0.0000000   0.1805000  -0.1195230   0.0000000   0.0000000   0.0000000
 0.1950000  -2.5000700  -0.2993980   0.9994370   0.0000000   0.0000000   0.0009160  -0.0005211   0.0123581  -0.0104461   0.0000000   0.0000000   0.0000000  -0.0000000   0.1901250  -0.1210900   0.0000000   0.0000000   0.0000000
 0.2000000  -2.5000700  -0.2993330   0.9993840   0.0000000   0.0000000   0.0010051  -0.0005211   0.0133333  -0.0110550   0.0000000   0.0000000   0.0000000  -0.0000000   0.2000000  -0.1224060   0.0000000   0.0000000   0.0000000
 0.2050000  -2.5000800  -0.2992640   0.9993270   0.0000000   0.0000000   0.0010995  -0.0005211   0.0143585  -0.0116698   0.0000000   0.0000000   0.0000000  -0.0000000   0.2101250  -0.1234720   0.0000000   0.0000000   0.0000000
 0.2100000  -2.5000800  -0.2991900   0.9992670   0.0000000   0.0000000   0.0011993  -0.0005211   0.0154350  -0.0122893   0.0000000   0.0000000   0.0000000  -0.0000000   0.2205000  -0.1242880   0.0000000   0.0000000   0.0000000
 0.2150000  -2.5000800  -0.2991100   0.9992040   0.0000000   0.0000000   0.0013044  -0.0005211   0.0165640  -0.0129122   0.0000000   0.0000000   0.0000000  -0.0000000   0.2311250  -0.1248550   0.0000000   0.0000000   0.0000000
 0.2200000  -2.5000800  -0.2990240   0.9991380   0.0000000   0.0000000   0.0014150  -0.0005211   0.0177467  -0.0135374   0.0000000   0.0000000   0.0000000  -0.0000000   0.2420000  -0.1251710   0.0000000   0.0000000   0.0000000
 0.2250000  -2.5000900  -0.2989320   0.9990680   0.0000000   0.0000000   0.0015310  -0.0005211   0.0189844  -0.0141635   0.0000000   0.0000000   0.0000000  -0.0000000   0.2531250  -0.1252370   0.0000000   0.0000000   0.0000000
 0.2300000  -2.5000900  -0.2988340   0.9989960   0.0000000   0.0000000   0.0016526  -0.0005211   0.0202783  -0.0147894   0.0000000   0.0000000   0.0000000  -0.0000000   0.2645000  -0.1250530   0.0000000   0.0000000   0.0000000
 0.2350000  -2.5000900  -0.2987290   0.9989210   0.0000000   0.0000000   0.0017797  -0.0005211   0.0216298  -0.0154137   0.0000000   0.0000000   0.0000000  -0.0000000   0.2761250  -0.1246200   0.0000000   0.0000000   0.0000000
 0.2400000  -2.5000900  -0.2986180   0.9988420   0.0000000   0.0000000   0.0019123  -0.0005211   0.0230400  -0.0160352   0.0000000   0.0000000   0.0000000  -0.0000000   0.2880000  -0.1239360   0.0000000   0.0000000   0.0000000
 0.2450000  -2.5001000  -0.2984990   0.9987600   0.0000000   0.0000000   0.0020505  -0.0005211   0.0245102  -0.0166526   0.0000000   0.0000000   0.0000000  -0.0000000   0.3001250  -0.1230020   0.0000000   0.0000000   0.0000000
 0.2500000  -2.5001000  -0.2983720   0.9986750   0.0000000   0.0000000   0.0021942  -0.0005211   0.0260417  -0.0172648   0.0000000   0.0000000   0.0000000  -0.0000000   0.3125000  -0.1218190   0.0000000   0.0000000   0.0000000
 0.2550000  -2.5001000  -0.2982380   0.9985880   0.0000000   0.0000000   0.0023433  -0.0005211   0.0276356  -0.0178704   0.0000000   0.0000000   0.0000000  -0.0000000   0.3251250  -0.1203850   0.0000000   0.0000000   0.0000000
 0.2600000  -2.5001000  -0.2980960   0.9984970   0.0000000   0.0000000   0.0024979  -0.0005211   0.0292933  -0.0184682   0.0000000   0.0000000   0.0000000  -0.0000000   0.3380000  -0.1187010   0.0000000   0.0000000   0.0000000
 0.2650000  -2.5001100  -0.2979450   0.9984030   0.0000000   0.0000000   0.0026579  -0.0005211   0.0310160  -0.0190570   0.0000000   0.0000000   0.0000000  -0.0000000   0.3511250  -0.1167670   0.0000000   0.0000000   0.0000000
 0.2700000  -2.5001100  -0.2977860   0.9983060   0.0000000   0.0000000   0.0028233  -0.0005211   0.0328050  -0.0196354   0.0000000   0.0000000   0.0000000  -0.0000000   0.3645000  -0.1145840   0.0000000   0.0000000   0.0000000
 0.2750000  -2.5001100  -0.2976170   0.9982070   0.0000000   0.0000000   0.0029939  -0.0005211   0.0346612  -0.0202024   0.0000000   0.0000000   0.0000000  -0.0000000   0.3779340  -0.1121500   0.0000000   0.0000000   0.0000000
 0.2800000  -2.5001200  -0.2974390   0.9981040   0.0000000   0.0000000   0.0031698  -0.0005211   0.0365839  -0.0207565   0.0000000   0.0000000   0.0000000  -0.0000000   0.3911230  -0.1094660   0.0000000   0.0000000   0.0000000
 0.2850000  -2.5001200  -0.2972510   0.9979990   0.0000000   0.0000000   0.0033507  -0.0005211   0.0385720  -0.0212966   0.0000000   0.0000000   0.0000000  -0.0000000   0.4040610  -0.1065320   0.0000000   0.0000000   0.0000000
 0.2900000  -2.5001200  -0.2970530   0.9978910   0.0000000   0.0000000   0.0035367  -0.0005211   0.0406241  -0.0218214   0.0000000   0.0000000   0.0000000  -0.0000000   0.4167490  -0.1033490   0.0000000   0.0000000   0.0000000
 0.2950000  -2.5001200  -0.2968450   0.9977810   0.0000000   0.0000000   0.0037277  -0.0005211   0.0427391  -0.0223297   0.0000000   0.0000000   0.0000000  -0.0000000   0.4291870  -0.0999148   0.0000000   0.0000000   0.0000000
 0.3000000  -2.5001300  -0.2966260   0.9976680   0.0000000   0.0000000   0.0039234  -0.0005211   0.0449156  -0.0228202   0.0000000   0.0000000   0.0000000  -0.0000000   0.4413760  -0.0962310   0.0000000   0.0000000   0.0000000
 0.3050000  -2.5001300  -0.2963950   0.9975530   0.0000000   0.0000000   0.0041239  -0.0005211   0.0471524  -0.0232916   0.0000000   0.0000000   0.0000000  -0.0000000   0.4533140  -0.0922973   0.0000000   0.0000000   0.0000000
 0.3100000  -2.5001300  -0.2961540   0.9974350   0.0000000   0.0000000   0.0043289  -0.0005211   0.0494483  -0.0237427   0.0000000   0.0000000   0.0000000  -0.0000000   0.4650020  -0.0881135   0.0000000   0.0000000   0.0000000
 0.3150000  -2.5001300  -0.2959010   0.9973150   0.0000000   0.0000000   0.0045383  -0.0005211   0.0518020  -0.0241723   0.0000000   0.0000000   0.0000000  -0.0000000   0.4764410  -0.0836798   0.0000000   0.0000000   0.0000000
 0.3200000  -2.5001400  -0.2956360   0.9971930   0.0000000   0.0000000   0.0047519  -0.0005211   0.0542123  -0.0245791   0.0000000   0.0000000   0.0000000  -0.0000000   0.4876290  -0.0789960   0.0000000   0.0000000   0.0000000
 0.3250000  -2.5001400  -0.2953590   0.9970700   0.0000000   0.0000000   0.0049697  -0.0005211   0.0566779  -0.0249619   0.0000000   0.0000000   0.0000000  -0.0000000   0.4985670  -0.0740623   0.0000000   0.0000000   0.0000000
 0.3300000  -2.5001400  -0.2950690   0.9969440   0.0000000   0.0000000   0.0051913  -0.0005211   0.0591975  -0.0253193   0.0000000   0.0000000   0.0000000  -0.0000000   0.5092560  -0.0688785   0.0000000   0.0000000   0.0000000
 0.3350000  -2.5001400  -0.2947670   0.9968160   0.0000000   0.0000000   0.0054167  -0.0005211   0.0617700  -0.0256502   0.0000000   0.0000000   0.0000000  -0.0000000   0.5196940  -0.0634448   0.0000000   0.0000000   0.0000000
 0.3400000  -2.5001500  -0.2944510   0.9966870   0.0000000   0.0000000   0.0056456  -0.0005211   0.0643941  -0.0259536   0.0000000   0.0000000   0.0000000  -0.0000000   0.5298820  -0.0579427   0.0000000   0.0000000   0.0000000
 0.3450000  -2.5001500  -0.2941230   0.9965570   0.0000000   0.0000000   0.0058779  -0.0005211   0.0670684  -0.0262301   0.0000000   0.0000000   0.0000000  -0.0000000   0.5398200  -0.0526852   0.0000000   0.0000000   0.0000000
 0.3500000  -2.5001500  -0.2937800   0.9964250   0.0000000   0.0000000   0.0061132  -0.0005211   0.0697919  -0.0264809   0.0000000   0.0000000   0.0000000  -0.0000000   0.5495090  -0.0476777   0.0000000   0.0000000   0.0000000
 0.3550000  -2.5001500  -0.2934250   0.9962920   0.0000000   0.0000000   0.0063515  -0.0005211   0.0725631  -0.0267073   0.0000000   0.0000000   0.0000000  -0.0000000   0.5589470  -0.0429202   0.0000000   0.0000000   0.0000000
 0.3600000  -2.5001600  -0.2930550   0.9961580   0.0000000   0.0000000   0.0065924  -0.0005211   0.0753809  -0.0269105   0.0000000   0.0000000   0.0000000  -0.0000000   0.5681350  -0.0384127   0.0000000   0.0000000   0.0000000
 0.3650000  -2.5001600  -0.2926710   0.9960230   0.0000000   0.0000000   0.0068358  -0.0005211   0.0782440  -0.0270918   0.0000000   0.0000000   0.0000000  -0.0000000   0.5770740  -0.0341552   0.0000000   0.0000000   0.0000000
 0.3700000  -2.5001600  -0.2922720   0.9958870   0.0000000   0.0000000   0.0070814  -0.0005211   0.0811512  -0.0272525   0.0000000   0.0000000   0.0000000  -0.0000000   0.5857620  -0.0301477   0.0000000   0.0000000   0.0000000
 0.3750000  -2.5001600  -0.2918590   0.9957510   0.0000000   0.0000000   0.0073289  -0.0005211   0.0841012  -0.0273937   0.0000000   0.0000000   0.0000000  -0.0000000   0.5942000  -0.0263902   0.0000000   0.0000000   0.0000000
 0.3800000  -2.5001700  -0.2914310   0.9956130   0.0000000   0.0000000   0.0075784  -0.0005211   0.0870928  -0.0275168   0.0000000   0.0000000   0.0000000  -0.0000000   0.6023880  -0.0228827   0.0000000   0.0000000   0.0000000
 0.3850000  -2.5001700  -0.2909880   0.9954750   0.0000000   0.0000000   0.0078294  -0.0005211   0.0901247  -0.0276229   0.0000000   0.0000000   0.0000000  -0.0000000   0.6103270  -0.0196252   0.0000000   0.0000000   0.0000000
 0.3900000  -2.5001700  -0.2905300   0.9953370   0.0000000   0.0000000   0.0080819  -0.0005211   0.0931957  -0.0277134   0.0000000   0.0000000   0.0000000  -0.0000000   0.6180150  -0.0166177   0.0000000   0.0000000   0.0000000
 0.3950000  -2.5001700  -0.2900560   0.9951980   0.0000000   0.0000000   0.0083357  -0.0005211   0.0963044  -0.0277895   0.0000000   0.0000000   0.0000000  -0.0000000   0.6254530  -0.0138602   0.0000000   0.0000000   0.0000000
 0.4000000  -2.5001800  -0.2895670   0.9950590   0.0000000   0.0000000   0.0085906  -0.0005211   0.0994498  -0.0278525   0.0000000   0.0000000   0.0000000  -0.0000000   0.6326420  -0.0113527   0.0000000   0.0000000   0.0000000
 0.4050000  -2.5001800  -0.2890620   0.9949200   0.0000000   0.0000000   0.0088465  -0.0005211   0.1026300  -0.0279035   0.0000000   0.0000000   0.0000000  -0.0000000   0.6395800  -0.0090952   0.0000000   0.0000000   0.0000000
 0.4100000  -2.5001800  -0.2885400   0.9947800   0.0000000   0.0000000   0.0091033  -0.0005211   0.1058450  -0.0279438   0.0000000   0.0000000   0.0000000  -0.0000000   0.6462680  -0.0070877   0.0000000   0.0000000   0.0000000
 0.4150000  -2.5001900  -0.2880030   0.9946400   0.0000000   0.0000000   0.0093607  -0.0005211   0.1090930  -0.0279748   0.0000000   0.0000000   0.0000000  -0.0000000   0.6527070  -0.0053301   0.0000000   0.0000000   0.0000000
 0.4200000  -2.5001900  -0.2874490   0.9945000   0.0000000   0.0000000   0.0096188  -0.0005211   0.1123720  -0.0279975   0.0000000   0.0000000   0.0000000  -0.0000000   0.6588950  -0.0038226   0.0000000   0.0000000   0.0000000
 0.4250000  -2.5001900  -0.2868790   0.9943600   0.0000000   0.0000000   0.0098775  -0.0005211   0.1156810  -0.0280134   0.0000000   0.0000000   0.0000000  -0.0000000   0.6648330  -0.0025651   0.0000000   0.0000000   0.0000000
 0.4300000  -2.5001900  -0.2862930   0.9942200   0.0000000   0.0000000   0.0101365  -0.0005211   0.1190200  -0.0280236   0.0000000   0.0000000   0.0000000  -0.0000000   0.6705210  -0.0015576   0.0000000   0.0000000   0.0000000
 0.4350000  -2.5002000  -0.2856890   0.9940800   0.0000000   0.0000000   0.0103958  -0.0005211   0.1223860  -0.0280294   0.0000000   0.0000000   0.0000000  -0.0000000   0.6759600  -0.0008001   0.0000000   0.0000000   0.0000000
 0.4400000  -2.5002000  -0.2850690   0.9939400   0.0000000   0.0000000   0.0106554  -0.0005211   0.1257790  -0.0280320   0.0000000   0.0000000   0.0000000  -0.0000000   0.6811480  -0.0002926   0.0000000   0.0000000   0.0000000
 0.4450000  -2.5002000  -0.2844310   0.9938000   0.0000000   0.0000000   0.0109152  -0.0005211   0.1291970  -0.0280327   0.0000000   0.0000000   0.0000000  -0.0000000   0.6860860  -0.0000351   0.0000000   0.0000000   0.0000000
 0.4500000  -2.5002000  -0.2837770   0.9936600   0.0000000   0.0000000   0.0111751  -0.0005211   0.1326390  -0.0280328   0.0000000   0.0000000   0.0000000  -0.0000000   0.6907750   0.0000000   0.0000000   0.0000000   0.0000000
 0.4550000  -2.5002100  -0.2831050   0.9935200   0.0000000   0.0000000   0.0114351  -0.0005211   0.1361040  -0.0280328   0.0000000   0.0000000   0.0000000  -0.0000000   0.6952130   0.0000000   0.0000000   0.0000000   0.0000000
 0.4600000  -2.5002100  -0.2824160   0.9933790   0.0000000   0.0000000   0.0116952  -0.0005211   0.1395910  -0.0280328   0.0000000   0.0000000   0.0000000  -0.0000000   0.6994010   0.0000000   0.0000000   0.0000000   0.0000000
 0.4650000  -2.5002100  -0.2817090   0.9932390   0.0000000   0.0000000   0.0119552  -0.0005211   0.1430980  -0.0280328   0.0000000   0.0000000   0.0000000  -0.0000000   0.7033390   0.0000000   0.0000000   0.0000000   0.0000000
 0.4700000  -2.5002100  -0.2809850   0.9930990   0.0000000   0.0000000   0.0122153  -0.0005211   0.1466240  -0.0280328   0.0000000   0.0000000   0.0000000  -0.0000000   0.7070280   0.0000000   0.0000000   0.0000000   0.0000000
 0.4750000  -2.5002200  -0.2802430   0.9929590   0.0000000   0.0000000   0.0124754  -0.0005211   0.1501680  -0.0280328   0.0000000   0.0000000   0.0000000  -0.0000000   0.7104660   0.0000000   0.0000000   0.0000000   0.0000000
 0.4800000  -2.5002200  -0.2794830   0.9928190   0.0000000   0.0000000   0.0127354  -0.0005211   0.1537280  -0.0280328   0.0000000   0.0000000   0.0000000  -0.0000000   0.7136540   0.0000000   0.0000000   0.0000000   0.0000000
 0.4850000  -2.5002200  -0.2787050   0.9926790   0.0000000   0.0000000   0.0129955  -0.0005211   0.1573040  -0.0280328   0.0000000   0.0000000   0.0000000  -0.0000000   0.7165930   0.0000000   0.0000000   0.0000000   0.0000000
 0.4900000  -2.5002200  -0.2779100   0.9925380   0.0000000   0.0000000   0.0132555  -0.0005211   0.1608940  -0.0280328   0.0000000   0.0000000   0.0000000  -0.0000000   0.7192810   0.0000000   0.0000000   0.0000000   0.0000000
 0.4950000  -2.5002300  -0.2770960   0.9923980   0.0000000   0.0000000   0.0135154  -0.0005211   0.1644960  -0.0280328   0.0000000   0.0000000   0.0000000  -0.0000000   0.7217190   0.0000000   0.0000000   0.0000000   0.0000000
 0.5000000  -2.5002300  -0.2762650   0.9922580   0.0000000   0.0000000   0.0137753  -0.0005211   0.1681110  -0.0280328   0.0000000   0.0000000   0.0000000  -0.0000000   0.7239080   0.0000000   0.0000000   0.0000000   0.0000000
 0.5050000  -2.5002300  -0.2754150   0.9921180   0.0000000   0.0000000   0.0140349  -0.0005211   0.1717350  -0.0280328   0.0000000   0.0000000   0.0000000  -0.0000000   0.7258460   0.0000000   0.0000000   0.0000000   0.0000000
 0.5100000  -2.5002300  -0.2745470   0.9919780   0.0000000   0.0000000   0.0142944  -0.0005211   0.1753690  -0.0280328   0.0000000   0.0000000   0.0000000  -0.0000000   0.7275340   0.0000000   0.0000000   0.0000000   0.0000000
 0.5150000  -2.5002400  -0.2736610   0.9918380   0.0000000   0.0000000   0.0145535  -0.0005211   0.1790100  -0.0280328   0.0000000   0.0000000   0.0000000  -0.0000000   0.7289720   0.0000000   0.0000000   0.0000000   0.0000000
 0.5200000  -2.5002400  -0.2727570   0.9916970   0.0000000   0.0000000   0.0148122  -0.0005211   0.1826580  -0.0280328   0.0000000   0.0000000   0.0000000  -0.0000000   0.7301610   0.0000000   0.0000000   0.0000000   0.0000000
 0.5250000  -2.5002400  -0.2718350   0.9915570   0.0000000   0.0000000   0.0150705  -0.0005211   0.1863110  -0.0280328   0.0000000   0.0000000   0.0000000  -0.0000000   0.7310990   0.0000000   0.0000000   0.0000000   0.0000000
 0.5300000  -2.5002500  -0.2708940   0.9914170   0.0000000   0.0000000   0.0153282  -0.0005211   0.1899680  -0.0280328   0.0000000   0.0000000   0.0000000  -0.0000000   0.7317870   0.0000000   0.0000000   0.0000000   0.0000000
 0.5350000  -2.5002500  -0.2699350   0.9912770   0.0000000   0.0000000   0.0155852  -0.0005211   0.1936290  -0.0280328   0.0000000   0.0000000   0.0000000  -0.0000000   0.7322260   0.0000000   0.0000000   0.0000000   0.0000000
 0.5400000  -2.5002500  -0.2689580   0.9911370   0.0000000   0.0000000   0.0158414  -0.0005211   0.1972900  -0.0280328   0.0000000   0.0000000   0.0000000  -0.0000000   0.7324140   0.0000000   0.0000000   0.0000000   0.0000000
 0.5450000  -2.5002500  -0.2679620   0.9909970   0.0000000   0.0000000   0.0160966  -0.0005211   0.2009520  -0.0280328   0.0000000   0.0000000   0.0000000  -0.0000000   0.7323520   0.0000000   0.0000000   0.0000000   0.0000000
 0.5500000  -2.5002600  -0.2669480   0.9908560   0.0000000   0.0000000   0.0163508  -0.0005211   0.2046130  -0.0280328   0.0000000   0.0000000   0.0000000  -0.0000000   0.7320400   0.0000000   0.0000000   0.0000000   0.0000000
 0.5550000  -2.5002600  -0.2659160   0.9907160   0.0000000   0.0000000   0.0166037  -0.0005211   0.2082720  -0.0280328   0.0000000   0.0000000   0.0000000  -0.0000000   0.7314790   0.0000000   0.0000000   0.0000000   0.0000000
 0.5600000  -2.5002600  -0.2648660   0.9905760   0.0000000   0.0000000   0.0168552  -0.0005211   0.2119280  -0.0280328   0.0000000   0.0000000   0.0000000  -0.0000000   0.7306670   0.0000000   0.0000000   0.0000000   0.0000000
 0.5650000  -2.5002600  -0.2637970   0.9904360   0.0000000   0.0000000   0.0171051  -0.0005211   0.2155790  -0.0280328   0.0000000   0.0000000   0.0000000  -0.0000000   0.7296050   0.0000000   0.0000000   0.0000000   0.0000000
 0.5700000  -2.5002700  -0.2627100   0.9902960   0.0000000   0.0000000   0.0173533  -0.0005211   0.2192230  -0.0280328   0.0000000   0.0000000   0.0000000  -0.0000000   0.7282940   0.0000000   0.0000000   0.0000000   0.0000000
 0.5750000  -2.5002700  -0.2616050   0.9901560   0.0000000   0.0000000   0.0175995  -0.0005211   0.2228610  -0.0280328   0.0000000   0.0000000   0.0000000  -0.0000000   0.7267320   0.0000000   0.0000000   0.0000000   0.0000000
 0.5800000  -2.5002700  -0.2604810   0.9900150   0.0000000   0.0000000   0.0178436  -0.0005211   0.2264900  -0.0280328   0.0000000   0.0000000   0.0000000  -0.0000000   0.7249200   0.0000000   0.0000000   0.0000000   0.0000000
 0.5850000  -2.5002700  -0.2593400   0.9898750   0.0000000   0.0000000   0.0180853  -0.0005211   0.2301100  -0.0280328   0.0000000   0.0000000   0.0000000  -0.0000000   0.7228590   0.0000000   0.0000000   0.0000000   0.0000000
 0.5900000  -2.5002800  -0.2581800   0.9897350   0.0000000   0.0000000   0.0183244  -0.0005211   0.2337190  -0.0280328   0.0000000   0.0000000   0.0000000  -0.0000000   0.7205470   0.0000000   0.0000000   0.0000000   0.0000000
 0.5950000  -2.5002800  -0.2570030   0.9895950   0.0000000   0.0000000   0.0185607  -0.0005211   0.2373150  -0.0280328   0.0000000   0.0000000   0.0000000  -0.0000000   0.7179850   0.0000000   0.0000000   0.0000000   0.0000000
 0.6000000  -2.5002800  -0.2558070   0.9894550   0.0000000   0.0000000   0.0187939  -0.0005211   0.2408980  -0.0280328   0.0000000   0.0000000   0.0000000  -0.0000000   0.7151730   0.0000000   0.0000000   0.0000000   0.0000000
 0.6050000  -2.5002800  -0.2545940   0.9893150   0.0000000   0.0000000   0.0190239  -0.0005211   0.2444660  -0.0280328   0.0000000   0.0000000   0.0000000  -0.0000000   0.7121120   0.0000000   0.0000000   0.0000000   0.0000000
 0.6100000  -2.5002900  -0.2533620   0.9891740   0.0000000   0.0000000   0.0192502  -0.0005211   0.2480190  -0.0280328   0.0000000   0.0000000   0.0000000  -0.0000000   0.7088000   0.0000000   0.0000000   0.0000000   0.0000000
 0.6150000  -2.5002900  -0.2521130   0.9890340   0.0000000   0.0000000   0.0194728  -0.0005211   0.2515540  -0.0280328   0.0000000   0.0000000   0.0000000  -0.0000000   0.7052380   0.0000000   0.0000000   0.0000000   0.0000000
 0.6200000  -2.5002900  -0.2508470   0.9888940   0.0000000   0.0000000   0.0196915  -0.0005211   0.2550710  -0.0280328   0.0000000   0.0000000   0.0000000  -0.0000000   0.7014270   0.0000000   0.0000000   0.0000000   0.0000000
 0.6250000  -2.5002900  -0.2495630   0.9887540   0.0000000   0.0000000   0.0199059  -0.0005211   0.2585680  -0.0280328   0.0000000   0.0000000   0.0000000  -0.0000000   0.6973650   0.0000000   0.0000000   0.0000000   0.0000000
 0.6300000  -2.5003000  -0.2482610   0.9886140   0.0000000   0.0000000   0.0201159  -0.0005211   0.2620440  -0.0280328   0.0000000   0.0000000   0.0000000  -0.0000000   0.6930530   0.0000000   0.0000000   0.0000000   0.0000000
 0.6350000  -2.5003000  -0.2469420   0.9884740   0.0000000   0.0000000   0.0203213  -0.0005211   0.2654980  -0.0280328   0.0000000   0.0000000   0.0000000  -0.0000000   0.6884910   0.0000000   0.0000000   0.0000000   0.0000000
 0.6400000  -2.5003000  -0.2456060   0.9883330   0.0000000   0.0000000   0.0205220  -0.0005211   0.2689280  -0.0280328   0.0000000   0.0000000   0.0000000  -0.0000000   0.6836800   0.0000000   0.0000000   0.0000000   0.0000000
 0.6450000  -2.5003100  -0.2442530   0.9881930   0.0000000   0.0000000   0.0207177  -0.0005211   0.2723340  -0.0280328   0.0000000   0.0000000   0.0000000  -0.0000000   0.6786180   0.0000000   0.0000000   0.0000000   0.0000000
 0.6500000  -2.5003100  -0.2428830   0.9880530   0.0000000   0.0000000   0.0209084  -0.0005211   0.2757140  -0.0280328   0.0000000   0.0000000   0.0000000  -0.0000000   0.6733060   0.0000000   0.0000000   0.0000000   0.0000000
 0.6550000  -2.5003100  -0.2414960   0.9879130   0.0000000   0.0000000   0.0210938  -0.0005211   0.2790670  -0.0280328   0.0000000   0.0000000   0.0000000  -0.0000000   0.6677450   0.0000000   0.0000000   0.0000000   0.0000000
 0.6600000  -2.5003100  -0.2400920   0.9877730   0.0000000   0.0000000   0.0212738  -0.0005211   0.2823910  -0.0280328   0.0000000   0.0000000   0.0000000  -0.0000000   0.6619330   0.0000000   0.0000000   0.0000000   0.0000000
 0.6650000  -2.5003200  -0.2386720   0.9876330   0.0000000   0.0000000   0.0214484  -0.0005211   0.2856860  -0.0280328   0.0000000   0.0000000   0.0000000  -0.0000000   0.6558710   0.0000000   0.0000000   0.0000000   0.0000000
 0.6700000  -2.5003200  -0.2372360   0.9874920   0.0000000   0.0000000   0.0216173  -0.0005211   0.2889490  -0.0280328   0.0000000   0.0000000   0.0000000  -0.0000000   0.6495600   0.0000000   0.0000000   0.0000000   0.0000000
 0.6750000  -2.5003200  -0.2357830   0.9873520   0.0000000   0.0000000   0.0217805  -0.0005211   0.2921810  -0.0280328   0.0000000   0.0000000   0.0000000  -0.0000000   0.6429980   0.0000000   0.0000000   0.0000000   0.0000000
 0.6800000  -2.5003200  -0.2343140   0.9872120   0.0000000   0.0000000   0.0219379  -0.0005211   0.2953790  -0.0280328   0.0000000   0.0000000   0.0000000  -0.0000000   0.6361860   0.0000000   0.0000000   0.0000000   0.0000000
 0.6850000  -2.5003300  -0.2328290   0.9870720   0.0000000   0.0000000   0.0220894  -0.0005211   0.2985420  -0.0280328   0.0000000   0.0000000   0.0000000  -0.0000000   0.6291240   0.0000000   0.0000000   0.0000000   0.0000000
 0.6900000  -2.5003300  -0.2313290   0.9869320   0.0000000   0.0000000   0.0222349  -0.0005211   0.3016700  -0.0280328   0.0000000   0.0000000   0.0000000  -0.0000000   0.6218130   0.0000000   0.0000000   0.0000000   0.0000000
 0.6950000  -2.5003300  -0.2298120   0.9867920   0.0000000   0.0000000   0.0223743  -0.0005211   0.3047600  -0.0280328   0.0000000   0.0000000   0.0000000  -0.0000000   0.6142510   0.0000000   0.0000000   0.0000000   0.0000000
 0.7000000  -2.5003300  -0.2282810   0.9866510   0.0000000   0.0000000   0.0225076  -0.0005211   0.3078120  -0.0280328   0.0000000   0.0000000   0.0000000  -0.0000000   0.6064390   0.0000000   0.0000000   0.0000000   0.0000000
 0.7050000  -2.5003400  -0.2267340   0.9865110   0.0000000   0.0000000   0.0226348  -0.0005211   0.3108240  -0.0280328   0.0000000   0.0000000   0.0000000  -0.0000000   0.5983780   0.0000000   0.0000000   0.0000000   0.0000000
 0.7100000  -2.5003400  -0.2251730   0.9863710   0.0000000   0.0000000   0.0227558  -0.0005211   0.3137950  -0.0280328   0.0000000   0.0000000   0.0000000  -0.0000000   0.5900660   0.0000000   0.0000000   0.0000000   0.0000000
 0.7150000  -2.5003400  -0.2235960   0.9862310   0.0000000   0.0000000   0.0228705  -0.0005211   0.3167240  -0.0280328   0.0000000   0.0000000   0.0000000  -0.0000000   0.5815040   0.0000000   0.0000000   0.0000000   0.0000000
 0.7200000  -2.5003400  -0.2220060   0.9860910   0.0000000   0.0000000   0.0229790  -0.0005211   0.3196100  -0.0280328   0.0000000   0.0000000   0.0000000  -0.0000000   0.5726920   0.0000000   0.0000000   0.0000000   0.0000000
 0.7250000  -2.5003500  -0.2204000   0.9859510   0.0000000   0.0000000   0.0230813  -0.0005211   0.3224510  -0.0280328   0.0000000   0.0000000   0.0000000  -0.0000000   0.5636310   0.0000000   0.0000000   0.0000000   0.0000000
 0.7300000  -2.5003500  -0.2187810   0.9858110   0.0000000   0.0000000   0.0231773  -0.0005211   0.3252460  -0.0280328   0.0000000   0.0000000   0.0000000  -0.0000000   0.5543190   0.0000000   0.0000000   0.0000000   0.0000000
 0.7350000  -2.5003500  -0.2171480   0.9856700   0.0000000   0.0000000   0.0232671  -0.0005211   0.3279940  -0.0280328   0.0000000   0.0000000   0.0000000  -0.0000000   0.5447570   0.0000000   0.0000000   0.0000000   0.0000000
 0.7400000  -2.5003500  -0.2155010   0.9855300   0.0000000   0.0000000   0.0233506  -0.0005211   0.3306930  -0.0280328   0.0000000   0.0000000   0.0000000  -0.0000000   0.5349460   0.0000000   0.0000000   0.0000000   0.0000000
 0.7450000  -2.5003600  -0.2138410   0.9853900   0.0000000   0.0000000   0.0234278  -0.0005211   0.3333430  -0.0280328   0.0000000   0.0000000   0.0000000  -0.0000000   0.5248840   0.0000000   0.0000000   0.0000000   0.0000000
 0.7500000  -2.5003600  -0.2121680   0.9852500   0.0000000   0.0000000   0.0234988  -0.0005211   0.3359410  -0.0280328   0.0000000   0.0000000   0.0000000  -0.0000000   0.5145720   0.0000000   0.0000000   0.0000000   0.0000000
 0.7550000  -2.5003600  -0.2104820   0.9851100   0.0000000   0.0000000   0.0235636  -0.0005211   0.3384880  -0.0280328   0.0000000   0.0000000   0.0000000  -0.0000000   0.5040100   0.0000000   0.0000000   0.0000000   0.0000000
 0.7600000  -2.5003700  -0.2087830   0.9849700   0.0000000   0.0000000   0.0236221  -0.0005211   0.3409810  -0.0280328   0.0000000   0.0000000   0.0000000  -0.0000000   0.4931990   0.0000000   0.0000000   0.0000000   0.0000000
 0.7650000  -2.5003700  -0.2070720   0.9848290   0.0000000   0.0000000   0.0236743  -0.0005211   0.3434200  -0.0280328   0.0000000   0.0000000   0.0000000  -0.0000000   0.4821370   0.0000000   0.0000000   0.0000000   0.0000000
 0.7700000  -2.5003700  -0.2053490   0.9846890   0.0000000   0.0000000   0.0237204  -0.0005211   0.3458020  -0.0280328   0.0000000   0.0000000   0.0000000  -0.0000000   0.4708250   0.0000000   0.0000000   0.0000000   0.0000000
 0.7750000  -2.5003700  -0.2036140   0.9845490   0.0000000   0.0000000   0.0237601  -0.0005211   0.3481270  -0.0280328   0.0000000   0.0000000   0.0000000  -0.0000000   0.4592640   0.0000000   0.0000000   0.0000000   0.0000000
 0.7800000  -2.5003800  -0.2018680   0.9844090   0.0000000   0.0000000   0.0237936  -0.0005211   0.3503940  -0.0280328   0.0000000   0.0000000   0.0000000  -0.0000000   0.4474520   0.0000000   0.0000000   0.0000000   0.0000000
 0.7850000  -2.5003800  -0.2001100   0.9842690   0.0000000   0.0000000   0.0238209  -0.0005211   0.3526010  -0.0280328   0.0000000   0.0000000   0.0000000  -0.0000000   0.4353900   0.0000000   0.0000000   0.0000000   0.0000000
 0.7900000  -2.5003800  -0.1983420   0.9841290   0.0000000   0.0000000   0.0238419  -0.0005211   0.3547480  -0.0280328   0.0000000   0.0000000   0.0000000  -0.0000000   0.4230790   0.0000000   0.0000000   0.0000000   0.0000000
 0.7950000  -2.5003800  -0.1965630   0.9839880   0.0000000   0.0000000   0.0238566  -0.0005211   0.3568320  -0.0280328   0.0000000   0.0000000   0.0000000  -0.0000000   0.4105170   0.0000000   0.0000000   0.0000000   0.0000000
 0.8000000  -2.5003900  -0.1947740   0.9838480   0.0000000   0.0000000   0.0238651  -0.0005211   0.3588520  -0.0280328   0.0000000   0.0000000   0.0000000  -0.0000000   0.3977050   0.0000000   0.0000000   0.0000000   0.0000000
 0.8050000  -2.5003900  -0.1929750   0.9837080   0.0000000   0.0000000   0.0238674  -0.0005211   0.3608080  -0.0280328   0.0000000   0.0000000   0.0000000  -0.0000000   0.3846430   0.0000000   0.0000000   0.0000000   0.0000000
 0.8100000  -2.5003900  -0.1911660   0.9835680   0.0000000   0.0000000   0.0238634  -0.0005211   0.3626980  -0.0280328   0.0000000   0.0000000   0.0000000  -0.0000000   0.3713320   0.0000000   0.0000000   0.0000000   0.0000000
 0.8150000  -2.5003900  -0.1893480   0.9834280   0.0000000   0.0000000   0.0238532  -0.0005211   0.3645210  -0.0280328   0.0000000   0.0000000   0.0000000  -0.0000000   0.3578660   0.0000000   0.0000000   0.0000000   0.0000000
 0.8200000  -2.5004000  -0.1875210   0.9832880   0.0000000   0.0000000   0.0238367  -0.0005211   0.3662780  -0.0280328   0.0000000   0.0000000   0.0000000  -0.0000000   0.3446150   0.0000000   0.0000000   0.0000000   0.0000000
 0.8250000  -2.5004000  -0.1856850   0.9831470   0.0000000   0.0000000   0.0238139  -0.0005211   0.3679680  -0.0280328   0.0000000   0.0000000   0.0000000  -0.0000000   0.3316130   0.0000000   0.0000000   0.0000000   0.0000000
 0.8300000  -2.5004000  -0.1838410   0.9830070   0.0000000   0.0000000   0.0237849  -0.0005211   0.3695940  -0.0280328   0.0000000   0.0000000   0.0000000  -0.0000000   0.3188610   0.0000000   0.0000000   0.0000000   0.0000000
 0.8350000  -2.5004000  -0.1819890   0.9828670   0.0000000   0.0000000   0.0237497  -0.0005211   0.3711570  -0.0280328   0.0000000   0.0000000   0.0000000  -0.0000000   0.3063600   0.0000000   0.0000000   0.0000000   0.0000000
 0.8400000  -2.5004100  -0.1801300   0.9827270   0.0000000   0.0000000   0.0237082  -0.0005211   0.3726580  -0.0280328   0.0000000   0.0000000   0.0000000  -0.0000000   0.2941080   0.0000000   0.0000000   0.0000000   0.0000000
 0.8450000  -2.5004100  -0.1782630   0.9825870   0.0000000   0.0000000   0.0236605  -0.0005211   0.3740990  -0.0280328   0.0000000   0.0000000   0.0000000  -0.0000000   0.2821070   0.0000000   0.0000000   0.0000000   0.0000000
 0.8500000  -2.5004100  -0.1763890   0.9824470   0.0000000   0.0000000   0.0236065  -0.0005211   0.3754800  -0.0280328   0.0000000   0.0000000   0.0000000  -0.0000000   0.2703550   0.0000000   0.0000000   0.0000000   0.0000000
 0.8550000  -2.5004100  -0.1745080   0.9823060   0.0000000   0.0000000   0.0235462  -0.0005211   0.3768030  -0.0280328   0.0000000   0.0000000   0.0000000  -0.0000000   0.2588530   0.0000000   0.0000000   0.0000000   0.0000000
 0.8600000  -2.5004200  -0.1726210   0.9821660   0.0000000   0.0000000   0.0234797  -0.0005211   0.3780690  -0.0280328   0.0000000   0.0000000   0.0000000  -0.0000000   0.2476020   0.0000000   0.0000000   0.0000000   0.0000000
 0.8650000  -2.5004200  -0.1707270   0.9820260   0.0000000   0.0000000   0.0234070  -0.0005211   0.3792790  -0.0280328   0.0000000   0.0000000   0.0000000  -0.0000000   0.2366000   0.0000000   0.0000000   0.0000000   0.0000000
 0.8700000  -2.5004200  -0.1688280   0.9818860   0.0000000   0.0000000   0.0233280  -0.0005211   0.3804350  -0.0280328   0.0000000   0.0000000   0.0000000  -0.0000000   0.2258490   0.0000000   0.0000000   0.0000000   0.0000000
 0.8750000  -2.5004300  -0.1669230   0.9817460   0.0000000   0.0000000   0.0232427  -0.0005211   0.3815380  -0.0280328   0.0000000   0.0000000   0.0000000  -0.0000000   0.2153470   0.0000000   0.0000000   0.0000000   0.0000000
 0.8800000  -2.5004300  -0.1650130   0.9816060   0.0000000   0.0000000   0.0231513  -0.0005211   0.3825890  -0.0280328   0.0000000   0.0000000   0.0000000  -0.0000000   0.2050960   0.0000000   0.0000000   0.0000000   0.0000000
 0.8850000  -2.5004300  -0.1630970   0.9814650   0.0000000   0.0000000   0.0230535  -0.0005211   0.3835890  -0.0280328   0.0000000   0.0000000   0.0000000  -0.0000000   0.1950940   0.0000000   0.0000000   0.0000000   0.0000000
 0.8900000  -2.5004300  -0.1611770   0.9813250   0.0000000   0.0000000   0.0229495  -0.0005211   0.3845400  -0.0280328   0.0000000   0.0000000   0.0000000  -0.0000000   0.1853420   0.0000000   0.0000000   0.0000000   0.0000000
 0.8950000  -2.5004400  -0.1592520   0.9811850   0.0000000   0.0000000   0.0228393  -0.0005211   0.3854430  -0.0280328   0.0000000   0.0000000   0.0000000  -0.0000000   0.1758410   0.0000000   0.0000000   0.0000000   0.0000000
 0.9000000  -2.5004400  -0.1573230   0.9810450   0.0000000   0.0000000   0.0227228  -0.0005211   0.3862990  -0.0280328   0.0000000   0.0000000   0.0000000  -0.0000000   0.1665890   0.0000000   0.0000000   0.0000000   0.0000000
 0.9050000  -2.5004400  -0.1553890   0.9809050   0.0000000   0.0000000   0.0226000  -0.0005211   0.3871090  -0.0280328   0.0000000   0.0000000   0.0000000  -0.0000000   0.1575880   0.0000000   0.0000000   0.0000000   0.0000000
 0.9100000  -2.5004400  -0.1534520   0.9807650   0.0000000   0.0000000   0.0224710  -0.0005211   0.3878750  -0.0280328   0.0000000   0.0000000   0.0000000  -0.0000000   0.1488360   0.0000000   0.0000000   0.0000000   0.0000000
 0.9150000  -2.5004500  -0.1515100   0.9806240   0.0000000   0.0000000   0.0223358  -0.0005211   0.3885980  -0.0280328   0.0000000   0.0000000   0.0000000  -0.0000000   0.1403340   0.0000000   0.0000000   0.0000000   0.0000000
 0.9200000  -2.5004500  -0.1495660   0.9804840   0.0000000   0.0000000   0.0221943  -0.0005211   0.3892790  -0.0280328   0.0000000   0.0000000   0.0000000  -0.0000000   0.1320830   0.0000000   0.0000000   0.0000000   0.0000000
 0.9250000  -2.5004500  -0.1476180   0.9803440   0.0000000   0.0000000   0.0220466  -0.0005211   0.3899190  -0.0280328   0.0000000   0.0000000   0.0000000  -0.0000000   0.1240810   0.0000000   0.0000000   0.0000000   0.0000000
 0.9300000  -2.5004500  -0.1456670   0.9802040   0.0000000   0.0000000   0.0218926  -0.0005211   0.3905200  -0.0280328   0.0000000   0.0000000   0.0000000  -0.0000000   0.1163300   0.0000000   0.0000000   0.0000000   0.0000000
 0.9350000  -2.5004600  -0.1437130   0.9800640   0.0000000   0.0000000   0.0217323  -0.0005211   0.3910830  -0.0280328   0.0000000   0.0000000   0.0000000  -0.0000000   0.1088280   0.0000000   0.0000000   0.0000000   0.0000000
 0.9400000  -2.5004600  -0.1417560   0.9799240   0.0000000   0.0000000   0.0215658  -0.0005211   0.3916090  -0.0280328   0.0000000   0.0000000   0.0000000  -0.0000000   0.1015770   0.0000000   0.0000000   0.0000000   0.0000000
 0.9450000  -2.5004600  -0.1397970   0.9797830   0.0000000   0.0000000   0.0213931  -0.0005211   0.3920990  -0.0280328   0.0000000   0.0000000   0.0000000  -0.0000000   0.0945749   0.0000000   0.0000000   0.0000000   0.0000000
 0.9500000  -2.5004600  -0.1378350   0.9796430   0.0000000   0.0000000   0.0212141  -0.0005211   0.3925550  -0.0280328   0.0000000   0.0000000   0.0000000  -0.0000000   0.0878233   0.0000000   0.0000000   0.0000000   0.0000000
 0.9550000  -2.5004700  -0.1358710   0.9795030   0.0000000   0.0000000   0.0210289  -0.0005211   0.3929780  -0.0280328   0.0000000   0.0000000   0.0000000  -0.0000000   0.0813217   0.0000000   0.0000000   0.0000000   0.0000000
 0.9600000  -2.5004700  -0.1339050   0.9793630   0.0000000   0.0000000   0.0208374  -0.0005211   0.3933690  -0.0280328   0.0000000   0.0000000   0.0000000  -0.0000000   0.0750702   0.0000000   0.0000000   0.0000000   0.0000000
 0.9650000  -2.5004700  -0.1319370   0.9792230   0.0000000   0.0000000   0.0206396  -0.0005211   0.3937290  -0.0280328   0.0000000   0.0000000   0.0000000  -0.0000000   0.0690686   0.0000000   0.0000000   0.0000000   0.0000000
 0.9700000  -2.5004700  -0.1299680   0.9790830   0.0000000   0.0000000   0.0204356  -0.0005211   0.3940600  -0.0280328   0.0000000   0.0000000   0.0000000  -0.0000000   0.0633170   0.0000000   0.0000000   0.0000000   0.0000000
 0.9750000  -2.5004800  -0.1279970   0.9789420   0.0000000   0.0000000   0.0202254  -0.0005211   0.3943630  -0.0280328   0.0000000   0.0000000   0.0000000  -0.0000000   0.0578154   0.0000000   0.0000000   0.0000000   0.0000000
 0.9800000  -2.5004800  -0.1260240   0.9788020   0.0000000   0.0000000   0.0200089  -0.0005211   0.3946380  -0.0280328   0.0000000   0.0000000   0.0000000  -0.0000000   0.0525638   0.0000000   0.0000000   0.0000000   0.0000000
 0.9850000  -2.5004800  -0.1240510   0.9786620   0.0000000   0.0000000   0.0197862  -0.0005211   0.3948890  -0.0280328   0.0000000   0.0000000   0.0000000  -0.0000000   0.0475622   0.0000000   0.0000000   0.0000000   0.0000000
 0.9900000  -2.5004900  -0.1220760   0.9785220   0.0000000   0.0000000   0.0195572  -0.0005211   0.3951150  -0.0280328   0.0000000   0.0000000   0.0000000  -0.0000000   0.0428106   0.0000000   0.0000000   0.0000000   0.0000000
 0.9950000  -2.5004900  -0.1200990   0.9783820   0.0000000   0.0000000   0.0193219  -0.0005211   0.3953170  -0.0280328   0.0000000   0.0000000   0.0000000  -0.0000000   0.0383090   0.0000000   0.0000000   0.0000000   0.0000000
 1.0000000  -2.5004900  -0.1181220   0.9782420   0.0000000   0.0000000   0.0190804  -0.0005211   0.3954980  -0.0280328   0.0000000   0.0000000   0.0000000  -0.0000000   0.0340575   0.0000000   0.0000000   0.0000000   0.0000000
 1.0050000  -2.5004900  -0.1161450   0.9781010   0.0000000   0.0000000   0.0188327  -0.0005211   0.3956580  -0.0280328   0.0000000   0.0000000   0.0000000  -0.0000000   0.0300559   0.0000000   0.0000000   0.0000000   0.0000000
 1.0100000  -2.5005000  -0.1141660   0.9779610   0.0000000   0.0000000   0.0185787  -0.0005211   0.3957990  -0.0280328   0.0000000   0.0000000   0.0000000  -0.0000000   0.0263043   0.0000000   0.0000000   0.0000000   0.0000000
 1.0150000  -2.5005000  -0.1121870   0.9778210   0.0000000   0.0000000   0.0183184  -0.0005211   0.3959220  -0.0280328   0.0000000   0.0000000   0.0000000  -0.0000000   0.0228027   0.0000000   0.0000000   0.0000000   0.0000000
 1.0200000  -2.5005000  -0.1102070   0.9776810   0.0000000   0.0000000   0.0180520  -0.0005211   0.3960270  -0.0280328   0.0000000   0.0000000   0.0000000  -0.0000000   0.0195511   0.0000000   0.0000000   0.0000000   0.0000000
 1.0250000  -2.5005000  -0.1082260   0.9775410   0.0000000   0.0000000   0.0177792  -0.0005211   0.3961180  -0.0280328   0.0000000   0.0000000   0.0000000  -0.0000000   0.0165495   0.0000000   0.0000000   0.0000000   0.0000000
 1.0300000  -2.5005100  -0.1062460   0.9774010   0.0000000   0.0000000   0.0175002  -0.0005211   0.3961930  -0.0280328   0.0000000   0.0000000   0.0000000  -0.0000000   0.0137979   0.0000000   0.0000000   0.0000000   0.0000000
 1.0350000  -2.5005100  -0.1042640   0.9772610   0.0000000   0.0000000   0.0172150  -0.0005211   0.3962560  -0.0280328   0.0000000   0.0000000   0.0000000  -0.0000000   0.0112963   0.0000000   0.0000000   0.0000000   0.0000000
 1.0400000  -2.5005100  -0.1022830   0.9771200   0.0000000   0.0000000   0.0169235  -0.0005211   0.3963070  -0.0280328   0.0000000   0.0000000   0.0000000  -0.0000000   0.0090448   0.0000000   0.0000000   0.0000000   0.0000000
 1.0450000  -2.5005100  -0.1003010   0.9769800   0.0000000   0.0000000   0.0166257  -0.0005211   0.3963470  -0.0280328   0.0000000   0.0000000   0.0000000  -0.0000000   0.0070432   0.0000000   0.0000000   0.0000000   0.0000000
 1.0500000  -2.5005200  -0.0983195   0.9768400   0.0000000   0.0000000   0.0163217  -0.0005211   0.3963780  -0.0280328   0.0000000   0.0000000   0.0000000  -0.0000000   0.0052916   0.0000000   0.0000000   0.0000000   0.0000000
 1.0550000  -2.5005200  -0.0963376   0.9767000   0.0000000   0.0000000   0.0160115  -0.0005211   0.3964000  -0.0280328   0.0000000   0.0000000   0.0000000  -0.0000000   0.0037900   0.0000000   0.0000000   0.0000000   0.0000000
 1.0600000  -2.5005200  -0.0943555   0.9765600   0.0000000   0.0000000   0.0156950  -0.0005211   0.3964160  -0.0280328   0.0000000   0.0000000   0.0000000  -0.0000000   0.0025384   0.0000000   0.0000000   0.0000000   0.0000000
 1.0650000  -2.5005200  -0.0923734   0.9764200   0.0000000   0.0000000   0.0153723  -0.0005211   0.3964260  -0.0280328   0.0000000   0.0000000   0.0000000  -0.0000000   0.0015368   0.0000000   0.0000000   0.0000000   0.0000000
 1.0700000  -2.5005300  -0.0903913   0.9762790   0.0000000   0.0000000   0.0150433  -0.0005211   0.3964320  -0.0280328   0.0000000   0.0000000   0.0000000  -0.0000000   0.0007852   0.0000000   0.0000000   0.0000000   0.0000000
 1.0750000  -2.5005300  -0.0884091   0.9761390   0.0000000   0.0000000   0.0147080  -0.0005211   0.3964340  -0.0280328   0.0000000   0.0000000   0.0000000  -0.0000000   0.0002836   0.0000000   0.0000000   0.0000000   0.0000000
 1.0800000  -2.5005300  -0.0864270   0.9759990   0.0000000   0.0000000   0.0143665  -0.0005211   0.3964350  -0.0280328   0.0000000   0.0000000   0.0000000  -0.0000000   0.0000320   0.0000000   0.0000000   0.0000000   0.0000000
 1.0850000  -2.5005300  -0.0844448   0.9758590   0.0000000   0.0000000   0.0140188  -0.0005211   0.3964350  -0.0280328   0.0000000   0.0000000   0.0000000  -0.0000000   0.0000000   0.0000000   0.0000000   0.0000000   0.0000000
 1.0900000  -2.5005400  -0.0824626   0.9757190   0.0000000   0.0000000   0.0136648  -0.0005211   0.3964350  -0.0280328   0.0000000   0.0000000   0.0000000  -0.0000000   0.0000000   0.0000000   0.0000000   0.0000000   0.0000000
 1.0950000  -2.5005400  -0.0804804   0.9755790   0.0000000   0.0000000   0.0133046  -0.0005211   0.3964350  -0.0280328   0.0000000   0.0000000   0.0000000  -0.0000000   0.0000000   0.0000000   0.0000000   0.0000000   0.0000000
 1.1000000  -2.5005400  -0.0784983   0.9754380   0.0000000   0.0000000   0.0129381  -0.0005211   0.3964350  -0.0280328   0.0000000   0.0000000   0.0000000  -0.0000000   0.0000000   0.0000000   0.0000000   0.0000000   0.0000000
 1.1050000  -2.5005400  -0.0765161   0.9752980   0.0000000   0.0000000   0.0125653  -0.0005211   0.3964350  -0.0280328   0.0000000   0.0000000   0.0000000  -0.0000000   0.0000000   0.0000000   0.0000000   0.0000000   0.0000000
 1.1100000  -2.5005500  -0.0745339   0.9751580   0.0000000   0.0000000   0.0121863  -0.0005211   0.3964350  -0.0280328   0.0000000   0.0000000   0.0000000  -0.0000000   0.0000000   0.0000000   0.0000000   0.0000000   0.0000000
 1.1150000  -2.5005500  -0.0725517   0.9750180   0.0000000   0.0000000   0.0118011  -0.0005211   0.3964350  -0.0280328   0.0000000   0.0000000   0.0000000  -0.0000000   0.0000000   0.0000000   0.0000000   0.0000000   0.0000000
 1.1200000  -2.5005500  -0.0705696   0.9748780   0.0000000   0.0000000   0.0114096  -0.0005211   0.3964350  -0.0280328   0.0000000   0.0000000   0.0000000  -0.0000000   0.0000000   0.0000000   0.0000000   0.0000000   0.0000000
 1.1250000  -2.5005600  -0.0685874   0.9747380   0.0000000   0.0000000   0.0110118  -0.0005211   0.3964350  -0.0280328   0.0000000   0.0000000   0.0000000  -0.0000000   0.0000000   0.0000000   0.0000000   0.0000000   0.0000000
 1.1300000  -2.5005600  -0.0666052   0.9745970   0.0000000   0.0000000   0.0106079  -0.0005211   0.3964350  -0.0280328   0.0000000   0.0000000   0.0000000  -0.0000000   0.0000000   0.0000000   0.0000000   0.0000000   0.0000000
 1.1350000  -2.5005600  -0.0646230   0.9744570   0.0000000   0.0000000   0.0101976  -0.0005211   0.3964350  -0.0280328   0.0000000   0.0000000   0.0000000  -0.0000000   0.0000000   0.0000000   0.0000000   0.0000000   0.0000000
 1.1400000  -2.5005600  -0.0626409   0.9743170   0.0000000   0.0000000   0.0097811  -0.0005211   0.3964350  -0.0280328   0.0000000   0.0000000   0.0000000  -0.0000000   0.0000000   0.0000000   0.0000000   0.0000000   0.0000000
 1.1450000  -2.5005700  -0.0606587   0.9741770   0.0000000   0.0000000   0.0093584  -0.0005211   0.3964350  -0.0280328   0.0000000   0.0000000   0.0000000  -0.0000000   0.0000000   0.0000000   0.0000000   0.0000000   0.0000000
 1.1500000  -2.5005700  -0.0586765   0.9740370   0.0000000   0.0000000   0.0089294  -0.0005211   0.3964350  -0.0280328   0.0000000   0.0000000   0.0000000  -0.0000000   0.0000000   0.0000000   0.0000000   0.0000000   0.0000000
 1.1550000  -2.5005700  -0.0566943   0.9738970   0.0000000   0.0000000   0.0084941  -0.0005211   0.3964350  -0.0280328   0.0000000   0.0000000   0.0000000  -0.0000000   0.0000000   0.0000000   0.0000000   0.0000000   0.0000000
 1.1600000  -2.5005700  -0.0547122   0.9737560   0.0000000   0.0000000   0.0080526  -0.0005211   0.3964350  -0.0280328   0.0000000   0.0000000   0.0000000  -0.0000000   0.0000000   0.0000000   0.0000000   0.0000000   0.0000000
 1.1650000  -2.5005800  -0.0527300   0.9736160   0.0000000   0.0000000   0.0076049  -0.0005211   0.3964350  -0.0280328   0.0000000   0.0000000   0.0000000  -0.0000000   0.0000000   0.0000000   0.0000000   0.0000000   0.0000000
 1.1700000  -2.5005800  -0.0507478   0.9734760   0.0000000   0.0000000   0.0071509  -0.0005211   0.3964350  -0.0280328   0.0000000   0.0000000   0.0000000  -0.0000000   0.0000000   0.0000000   0.0000000   0.0000000   0.0000000
 1.1750000  -2.5005800  -0.0487656   0.9733360   0.0000000   0.0000000   0.0066907  -0.0005211   0.3964350  -0.0280328   0.0000000   0.0000000   0.0000000  -0.0000000   0.0000000   0.0000000   0.0000000   0.0000000   0.0000000
 1.1800000  -2.5005800  -0.0467835   0.9731960   0.0000000   0.0000000   0.0062242  -0.0005211   0.3964350  -0.0280328   0.0000000   0.0000000   0.0000000  -0.0000000   0.0000000   0.0000000   0.0000000   0.0000000   0.0000000
 1.1850000  -2.5005900  -0.0448013   0.9730560   0.0000000   0.0000000   0.0057514  -0.0005211   0.3964350  -0.0280328   0.0000000   0.0000000   0.0000000  -0.0000000   0.0000000   0.0000000   0.0000000   0.0000000   0.0000000
 1.1900000  -2.5005900  -0.0428191   0.9729150   0.0000000   0.0000000   0.0052724  -0.0005211   0.3964350  -0.0280328   0.0000000   0.0000000   0.0000000   0.0000295   0.0000000   0.0000000   0.0000000   0.0000000   0.0000000
 1.1950000  -2.5005900  -0.0408369   0.9727750   0.0000000   0.0000000   0.0047872  -0.0005204   0.3964350  -0.0280328   0.0000000   0.0000000   0.0000000   0.0002759   0.0000000   0.0000000   0.0000000   0.0000000   0.0000000
 1.2000000  -2.5005900  -0.0388548   0.9726350   0.0000000   0.0000000   0.0042957  -0.0005179   0.3964350  -0.0280328   0.0000000   0.0000000   0.0000000   0.0007723   0.0000000   0.0000000   0.0000000   0.0000000   0.0000000
 1.2050000  -2.5006000  -0.0368726   0.9724950   0.0000000   0.0000000   0.0037980  -0.0005123   0.3964350  -0.0280328   0.0000000   0.0000000   0.0000000   0.0015187   0.0000000   0.0000000   0.0000000   0.0000000   0.0000000
 1.2100000  -2.5006000  -0.0348904   0.9723550   0.0000000   0.0000000   0.0032940  -0.0005023   0.3964350  -0.0280328   0.0000000   0.0000000   0.0000000   0.0025151   0.0000000   0.0000000   0.0000000   0.0000000   0.0000000
 1.2150000  -2.5006000  -0.0329082   0.9722150   0.0000000   0.0000000   0.0027837  -0.0004867   0.3964350  -0.0280328   0.0000000   0.0000000   0.0000000   0.0037615   0.0000000   0.0000000   0.0000000   0.0000000   0.0000000
 1.2200000  -2.5006000  -0.0309261   0.9720740   0.0000000   0.0000000   0.0022672  -0.0004643   0.3964350  -0.0280328   0.0000000   0.0000000   0.0000000   0.0052579   0.0000000   0.0000000   0.0000000   0.0000000   0.0000000
 1.2250000  -2.5006100  -0.0289439   0.9719340   0.0000000   0.0000000   0.0017445  -0.0004337   0.3964350  -0.0280328   0.0000000   0.0000000   0.0000000   0.0070043   0.0000000   0.0000000   0.0000000   0.0000000   0.0000000
 1.2300000  -2.5006100  -0.0269617   0.9717940   0.0000000   0.0000000   0.0012155  -0.0003938   0.3964350  -0.0280328   0.0000000   0.0000000   0.0000000   0.0090007   0.0000000   0.0000000   0.0000000   0.0000000   0.0000000
 1.2350000  -2.5006100  -0.0249795   0.9716540   0.0000000   0.0000000   0.0006803  -0.0003433   0.3964350  -0.0280328   0.0000000   0.0000000   0.0000000   0.0112471   0.0000000   0.0000000   0.0000000   0.0000000   0.0000000
 1.2400000  -2.5006100  -0.0229974   0.9715140   0.0000000   0.0000000   0.0001388  -0.0002809   0.3964350  -0.0280328   0.0000000   0.0000000   0.0000000   0.0137435   0.0000000   0.0000000   0.0000000   0.0000000   0.0000000
 1.2450000  -2.5006100  -0.0210152   0.9713740   0.0000000   0.0000000  -0.0004090  -0.0002055   0.3964350  -0.0280328   0.0000000   0.0000000   0.0000000   0.0164898   0.0000000   0.0000000   0.0000000   0.0000000   0.0000000
 1.2500000  -2.5006100  -0.0190330   0.9712330   0.0000000   0.0000000  -0.0009630  -0.0001156   0.3964350  -0.0280328   0.0000000   0.0000000   0.0000000   0.0194862   0.0000000   0.0000000   0.0000000   0.0000000   0.0000000
 1.2550000  -2.5006100  -0.0170508   0.9710930   0.0000000   0.0000000  -0.0015232  -0.0000102   0.3964350  -0.0280328   0.0000000   0.0000000   0.0000000   0.0227326   0.0000000   0.0000000   0.0000000   0.0000000   0.0000000
 1.2600000  -2.5006100  -0.0150687   0.9709530   0.0000000   0.0000000  -0.0020897   0.0001121   0.3964350  -0.0280328   0.0000000   0.0000000   0.0000000   0.0262290   0.0000000   0.0000000   0.0000000   0.0000000   0.0000000
 1.2650000  -2.5006100  -0.0130865   0.9708130   0.0000000   0.0000000  -0.0026625   0.0002525   0.3964350  -0.0280328   0.0000000   0.0000000   0.0000000   0.0299754   0.0000000   0.0000000   0.0000000   0.0000000   0.0000000
 1.2700000  -2.5006100  -0.0111043   0.9706730   0.0000000   0.0000000  -0.0032414   0.0004123   0.3964350  -0.0280328   0.0000000   0.0000000   0.0000000   0.0339718   0.0000000   0.0000000   0.0000000   0.0000000   0.0000000
 1.2750000  -2.5006100  -0.0091221   0.9705330   0.0000000   0.0000000  -0.0038267   0.0005927   0.3964350  -0.0280328   0.0000000   0.0000000   0.0000000   0.0382182   0.0000000   0.0000000   0.0000000   0.0000000   0.0000000
 1.2800000  -2.5006100  -0.0071400   0.9703920   0.0000000   0.0000000  -0.0044182   0.0007949   0.3964350  -0.0280328   0.0000000   0.0000000   0.0000000   0.0427146   0.0000000   0.0000000   0.0000000   0.0000000   0.0000000
 1.2850000  -2.5006000  -0.0051578   0.9702520   0.0000000   0.0000000  -0.0050159   0.0010202   0.3964350  -0.0280328   0.0000000   0.0000000   0.0000000   0.0474610   0.0000000   0.0000000   0.0000000   0.0000000   0.0000000
 1.2900000  -2.5006000  -0.0031756   0.9701120   0.0000000   0.0000000  -0.0056199   0.0012699   0.3964350  -0.0280328   0.0000000   0.0000000   0.0000000   0.0524574   0.0000000   0.0000000   0.0000000   0.0000000   0.0000000
 1.2950000  -2.5005900  -0.0011934   0.9699720   0.0000000   0.0000000  -0.0062302   0.0015452   0.3964350  -0.0280328   0.0000000   0.0000000   0.0000000   0.0577038   0.0000000   0.0000000   0.0000000   0.0000000   0.0000000
 1.3000000  -2.5005800   0.0007887   0.9698320   0.0000000   0.0000000  -0.0068467   0.0018474   0.3964350  -0.0280328   0.0000000   0.0000000   0.0000000   0.0632002   0.0000000   0.0000000   0.0000000   0.0000000   0.0000000
 1.3050000  -2.5005700   0.0027709   0.9696920   0.0000000   0.0000000  -0.0074694   0.0021776   0.3964350  -0.0280328   0.0000000   0.0000000   0.0000000   0.0689466   0.0000000   0.0000000   0.0000000   0.0000000   0.0000000
 1.3100000  -2.5005600   0.0047531   0.9695520   0.0000000   0.0000000  -0.0080984   0.0025373   0.3964350  -0.0280328   0.0000000   0.0000000   0.0000000   0.0749430   0.0000000   0.0000000   0.0000000   0.0000000   0.0000000
 1.3150000  -2.5005400   0.0067353   0.9694110   0.0000000   0.0000000  -0.0087336   0.0029275   0.3964350  -0.0280328   0.0000000   0.0000000   0.0000000   0.0811894   0.0000000   0.0000000   0.0000000   0.0000000   0.0000000
