ts fx fy fz tx ty tz exfx exfy exfz extx exty extz xd yd zd rolld pitchd yawd vxd vyd vzd wxd wyd wzd axd ayd azd e_x e_y e_z e_vx e_vy e_vz e_rx e_ry e_rz e_wx e_wy e_wz
1701448161.634768000  0  0  11.9744  -0.0365363  -0.0552293  0.00852609  nan  nan  nan  nan  nan  nan  -2  -1  1.5  -0.0153728  -0.0147614  0.000226933  0  0  0  0  0  0  0  0  0  0.00830348  -0.0118611  -0.0258885  0.00119264  0.00590648  0.00687662  0.0134618  0.0126788  -0.0115964  -0.0507758  -0.00618637  0.0093882 
1701448161.638693000  0  0  11.964  -0.0511665  -0.0379997  0.00920411  nan  nan  nan  nan  nan  nan  -2  -1  1.5  -0.0154454  -0.0146475  0.000226246  0  0  0  0  0  0  0  0  0  0.00829026  -0.0118932  -0.0259172  0.00105335  0.00589908  0.00780935  0.0136246  0.0121892  -0.0116657  -0.0230133  -0.0361417  0.00160589 
1701448161.643751000  0  0  11.9916  -0.0545916  -0.0434048  0.00898808  nan  nan  nan  nan  nan  nan  -2  -1  1.5  -0.0150764  -0.0145236  0.000218972  0  0  0  0  0  0  0  0  0  0.00829467  -0.0118619  -0.0259005  0.00092318  0.00627371  0.00547308  0.0132922  0.0119875  -0.0116309  -0.0131054  -0.0234757  0.00395801 
1701448161.648745000  0  0  11.988  -0.0495097  -0.0492882  0.0090187  nan  nan  nan  nan  nan  nan  -2  -1  1.5  -0.015367  -0.0143705  0.000220842  0  0  0  0  0  0  0  0  0  0.00827621  -0.0118922  -0.0259228  0.000754684  0.00595989  0.00581809  0.0133657  0.0118974  -0.0116229  -0.0239452  -0.0108793  0.00349479 
1701448161.653749000  0  0  11.9597  -0.0728334  -0.0269458  0.00975316  nan  nan  nan  nan  nan  nan  -2  -1  1.5  -0.0151382  -0.0141951  0.000214897  0  0  0  0  0  0  0  0  0  0.00827802  -0.0118612  -0.0258741  0.000472047  0.00624345  0.0080753  0.013552  0.0111902  -0.0117159  0.0209881  -0.0490581  -0.00475586 
1701448161.658744000  0  0  11.9894  -0.0725756  -0.0399072  0.00968491  nan  nan  nan  nan  nan  nan  -2  -1  1.5  -0.0153608  -0.0140374  0.000215636  0  0  0  0  0  0  0  0  0  0.00825945  -0.0118939  -0.025912  0.000350236  0.00596955  0.00567843  0.0138384  0.0110974  -0.0117399  0.0178383  -0.0222813  -0.00366218 
1701448161.664755000  0  0  11.9939  -0.0810689  -0.0363508  0.0100163  nan  nan  nan  nan  nan  nan  -2  -1  1.5  -0.0155688  -0.0140369  0.000218548  0  0  0  0  0  0  0  0  0  0.00824149  -0.0119231  -0.0259354  0.000396663  0.00574955  0.00534832  0.0142733  0.0109078  -0.0118212  0.0308231  -0.0276502  -0.00699267 
1701448161.668687000  0  0  11.9683  -0.0922969  -0.0346397  0.0095849  nan  nan  nan  nan  nan  nan  -2  -1  1.5  -0.0154793  -0.013995  0.000216642  0  0  0  0  0  0  0  0  0  0.00824236  -0.0119001  -0.0258964  0.000298921  0.00586182  0.00740224  0.0145417  0.0107309  -0.0117904  0.0508104  -0.029445  -0.0019071 
1701448161.673731000  0  0  11.9951  -0.0906013  -0.0494481  0.00878657  nan  nan  nan  nan  nan  nan  -2  -1  1.5  -0.0159878  -0.0139413  0.000222903  0  0  0  0  0  0  0  0  0  0.00822173  -0.011938  -0.0259339  0.000315368  0.0052218  0.00523916  0.0151645  0.0109124  -0.0116923  0.0416895  -0.00149805  0.00709085 
1701448161.678681000  0  0  12.0052  -0.103181  -0.0433781  0.00873312  nan  nan  nan  nan  nan  nan  -2  -1  1.5  -0.016077  -0.0137225  0.000220628  0  0  0  0  0  0  0  0  0  0.008198  -0.0119749  -0.0259613  9.18587e-05  0.00516668  0.00444774  0.0156972  0.0105796  -0.0116588  0.0619479  -0.0105758  0.00742378 
1701448161.683742000  0  0  11.9806  -0.10406  -0.0440105  0.00851595  nan  nan  nan  nan  nan  nan  -2  -1  1.5  -0.0160959  -0.0137831  0.000221864  0  0  0  0  0  0  0  0  0  0.00819898  -0.0119496  -0.0259184  0.000133108  0.00512908  0.00640184  0.016043  0.0105711  -0.0115995  0.0605251  -0.00923268  0.0095454 
1701448161.688736000  0  0  11.9984  -0.103334  -0.0558723  0.00762464  nan  nan  nan  nan  nan  nan  -2  -1  1.5  -0.0166143  -0.0136611  0.000226983  0  0  0  0  0  0  0  0  0  0.00817606  -0.0119959  -0.0259463  4.88485e-05  0.00450904  0.00497655  0.01674  0.0107102  -0.0114429  0.0526597  0.0132104  0.019121 
1701448161.693674000  0  0  11.9942  -0.107788  -0.0498835  0.00829834  nan  nan  nan  nan  nan  nan  -2  -1  1.5  -0.0165405  -0.0138104  0.000228445  6e-07  6e-07  -6e-07  0  0  0  0.000375  0.000375  -0.000375  0.00817848  -0.0119721  -0.0259209  0.000284814  0.0046105  0.00522654  0.0170246  0.0107775  -0.0114492  0.0589498  0.000614142  0.0107632 
1701448161.698747000  0  0  11.9816  -0.0975248  -0.0638193  0.00836326  nan  nan  nan  nan  nan  nan  -2  -1  1.5  -0.0167092  -0.0136418  0.000227957  5e-06  5e-06  -5e-06  0  0  0  0.0015  0.0015  -0.0015  0.00815956  -0.0120167  -0.0259288  0.000228339  0.00465341  0.00618428  0.0172079  0.0109439  -0.0114154  0.0367366  0.0269544  0.00961349 
1701448161.703694000  0  0  11.9913  -0.0986444  -0.0708541  0.0086222  nan  nan  nan  nan  nan  nan  -2  -1  1.5  -0.0172862  -0.0134966  0.000233322  1.69e-05  1.69e-05  -1.69e-05  0  0  0  0.003375  0.003375  -0.003375  0.0081425  -0.0120664  -0.0259541  0.000330317  0.004219  0.00523884  0.0178966  0.0111335  -0.0114128  0.0326402  0.0392798  0.00635047 
1701448161.708737000  0  0  11.9774  -0.100494  -0.0573914  0.00976982  nan  nan  nan  nan  nan  nan  -2  -1  1.5  -0.0173373  -0.0133891  0.000232247  4e-05  4e-05  -4e-05  0  0  0  0.006  0.006  -0.006  0.00814527  -0.012043  -0.0259218  0.000499444  0.00446486  0.00607107  0.018143  0.0109088  -0.0115549  0.0340731  0.0144215  -0.00657409 
1701448161.713724000  0  0  11.9766  -0.0871336  -0.0708628  0.00947141  nan  nan  nan  nan  nan  nan  -2  -1  1.5  -0.0176842  -0.0131096  0.000232149  7.81e-05  7.81e-05  -7.81e-05  0  0  0  0.009375  0.009375  -0.009375  0.00812993  -0.0120923  -0.0259393  0.000596473  0.00455016  0.00584866  0.0182904  0.0110342  -0.011542  0.00599579  0.040211  -0.00297252 
1701448161.718724000  0  0  11.9758  -0.0862488  -0.0683343  0.00899171  nan  nan  nan  nan  nan  nan  -2  -0.999999  1.5  -0.0178487  -0.0126763  0.000226774  0.000135  0.000135  -0.000135  0  0  0  0.0135  0.0135  -0.0135  0.00813221  -0.012069  -0.0259159  0.000546665  0.00481381  0.00546344  0.0184214  0.010822  -0.0114755  0.00302074  0.0371066  0.002359 
1701448161.723723000  0  0  11.9344  -0.077842  -0.0590736  0.00891371  nan  nan  nan  nan  nan  nan  -2  -0.999998  1.5  -0.0185731  -0.0122613  0.000228751  0.0002144  0.0002144  -0.0002144  0  0  0  0.018375  0.018375  -0.018375  0.00812729  -0.0121213  -0.025903  0.000579054  0.00468152  0.00841876  0.0189447  0.0104085  -0.0114616  -0.0186074  0.022389  0.00319445 
1701448161.728739000  0  0  11.9473  -0.061383  -0.0732432  0.00850706  nan  nan  nan  nan  nan  nan  -2  -0.999997  1.5  -0.0188337  -0.0118403  0.000224718  0.00032  0.00032  -0.00032  0  0  0  0.024  0.024  -0.024  0.00813289  -0.0120961  -0.025884  0.000752072  0.00497948  0.00675901  0.0187177  0.0104557  -0.0113793  -0.0494367  0.0502938  0.00745461 
1701448161.733724000  0  0  11.9561  -0.0708148  -0.0675359  0.00847643  nan  nan  nan  nan  nan  nan  -1.99999  -0.999995  1.49999  -0.019623  -0.0108687  0.000216  0.0004556  0.0004556  -0.0004556  0  0  0  0.030375  0.030375  -0.030375  0.00811074  -0.0121463  -0.0258939  0.000345761  0.00484729  0.00542976  0.0194271  0.00971095  -0.0113373  -0.0370999  0.0457311  0.0074179 
1701448161.738724000  0  0  11.8933  -0.057973  -0.0491091  0.00843405  nan  nan  nan  nan  nan  nan  -1.99999  -0.999992  1.49999  -0.0207132  -0.0102339  0.000216204  0.000625  0.000625  -0.000625  0  0  0  0.0375  0.0375  -0.0375  0.00810151  -0.0121892  -0.0258704  0.000372502  0.00455923  0.00992919  0.0199971  0.0089626  -0.0113109  -0.0680276  0.0157623  0.00768329 
1701448161.743723000  0  0  11.9156  -0.0525269  -0.0598495  0.00827881  nan  nan  nan  nan  nan  nan  -1.99999  -0.999989  1.49999  -0.0211343  -0.00941827  0.000205176  0.0008319  0.0008319  -0.0008319  0  0  0  0.045375  0.045375  -0.045375  0.00810697  -0.0121633  -0.0258582  0.000323064  0.00491013  0.00728983  0.0199414  0.00855206  -0.0112413  -0.0784067  0.0410202  0.00892748 
1701448161.748736000  0  0  11.9227  -0.0667536  -0.0490886  0.008757  nan  nan  nan  nan  nan  nan  -1.99998  -0.999984  1.49998  -0.0221607  -0.00829225  0.00019239  0.00108  0.00108  -0.00108  0  0  0  0.054  0.054  -0.054  0.00808978  -0.0122079  -0.0258689  -8.61212e-06  0.00474663  0.005885  0.0208463  0.00750095  -0.0112697  -0.0582787  0.0291684  0.00323422 
1701448161.754152000  0  0  11.8604  -0.0608138  -0.0373027  0.00909411  nan  nan  nan  nan  nan  nan  -1.99998  -0.999978  1.49998  -0.0234968  -0.00736449  0.000184972  0.0013731  0.0013731  -0.0013731  0  0  0  0.063375  0.063375  -0.063375  0.00808562  -0.0122465  -0.025834  -6.80641e-05  0.00443611  0.0101125  0.021635  0.00653771  -0.0113114  -0.0774142  0.0144586  -0.000561936 
1701448161.758725000  0  0  11.8984  -0.0718369  -0.0348687  0.00963588  nan  nan  nan  nan  nan  nan  -1.99997  -0.99997  1.49997  -0.0243274  -0.0060774  0.000163876  0.001715  0.001715  -0.001715  0  0  0  0.0735  0.0735  -0.0735  0.00808068  -0.0122264  -0.0258274  -0.000419697  0.0045018  0.00595379  0.0222913  0.00540495  -0.0113772  -0.0614061  0.0200118  -0.00667651 
1701448161.763725000  0  0  11.8934  -0.08183  -0.0201767  0.0102191  nan  nan  nan  nan  nan  nan  -1.99996  -0.99996  1.49996  -0.025658  -0.0047022  0.000141775  0.0021094  0.0021094  -0.0021094  0  0  0  0.084375  0.084375  -0.084375  0.00806305  -0.0122654  -0.0258338  -0.000796397  0.00424797  0.00534034  0.0234399  0.00393704  -0.0114942  -0.0519866  0.00413268  -0.0127966 
1701448161.768736000  0  0  11.8024  -0.0733743  -0.0174484  0.00985566  nan  nan  nan  nan  nan  nan  -1.99995  -0.999949  1.49995  -0.0270768  -0.0034902  0.000121826  0.00256  0.00256  -0.00256  0  0  0  0.096  0.096  -0.096  0.00806187  -0.0122444  -0.0257455  -0.000928939  0.0041014  0.0116207  0.0242892  0.00281033  -0.0114917  -0.0767117  0.00904172  -0.00827858 
1701448161.773724000  0  0  11.8554  -0.0875039  -0.020019  0.00955305  nan  nan  nan  nan  nan  nan  -1.99993  -0.999935  1.49993  -0.0285166  -0.00171664  8.37662e-05  0.0030706  0.0030706  -0.0030706  0  0  0  0.108375  0.108375  -0.108375  0.00803284  -0.0122846  -0.0257816  -0.00158205  0.00373244  0.00608795  0.0255457  0.00135014  -0.011475  -0.0600131  0.0276167  -0.00466351 
1701448161.779108000  0  0  11.8224  -0.0990345  -0.00591281  0.00929836  nan  nan  nan  nan  nan  nan  -1.99992  -0.999918  1.49992  -0.0302933  -1.34971e-05  4.4109e-05  0.003645  0.003645  -0.003645  0  0  0  0.1215  0.1215  -0.1215  0.00801628  -0.0123245  -0.0257765  -0.00209397  0.00328668  0.00757181  0.0271238  -0.000346473  -0.0114642  -0.05147  0.0150132  -0.0015873 
1701448161.783724000  0  0  11.7892  -0.100205  -0.0102525  0.00863509  nan  nan  nan  nan  nan  nan  -1.9999  -0.999898  1.4999  -0.0320089  0.00153527  5.14099e-06  0.0042869  0.0042869  -0.0042869  0  0  0  0.135375  0.135375  -0.135375  0.00800643  -0.0123124  -0.0257276  -0.00230926  0.00291562  0.00889988  0.0284938  -0.00157011  -0.0113693  -0.0617328  0.0349501  0.00575453 
1701448161.788735000  0  0  11.8282  -0.119408  -0.0158796  0.00834228  nan  nan  nan  nan  nan  nan  -1.99988  -0.999875  1.49988  -0.0334966  0.00345142  -4.89536e-05  0.005  0.005  -0.005  0  0  0  0.15  0.15  -0.15  0.0079957  -0.0122974  -0.0257318  -0.00292255  0.00267692  0.00425421  0.0300112  -0.00296254  -0.0112728  -0.037287  0.0590146  0.00844989 
1701448161.793726000  0  0  11.7723  -0.125698  -0.00510432  0.00871142  nan  nan  nan  nan  nan  nan  -1.99985  -0.999848  1.49985  -0.0359724  0.0054993  -0.000116907  0.0057881  0.0057881  -0.0057881  0  0  0  0.165375  0.165375  -0.165375  0.00796112  -0.0123503  -0.0257142  -0.00351917  0.0017479  0.00739659  0.0322227  -0.00477359  -0.0112828  -0.0450533  0.0541256  0.0039347 
1701448161.798724000  0  0  11.7576  -0.128774  -0.00896026  0.00853439  nan  nan  nan  nan  nan  nan  -1.99982  -0.999817  1.49982  -0.0384901  0.00739279  -0.000187087  0.006655  0.006655  -0.006655  0  0  0  0.1815  0.1815  -0.1815  0.0079318  -0.012408  -0.0257217  -0.00383839  0.000727338  0.00710503  0.0343323  -0.00610744  -0.0112181  -0.0583082  0.074109  0.00550066 
1701448161.804104000  0  0  11.7649  -0.143036  -0.00774861  0.00847258  nan  nan  nan  nan  nan  nan  -1.99978  -0.999781  1.49978  -0.0406306  0.00964711  -0.000275578  0.0076044  0.0076044  -0.0076044  0  0  0  0.198375  0.198375  -0.198375  0.00789329  -0.0124634  -0.0257394  -0.00452969  0.000199591  0.00492289  0.0363149  -0.00776694  -0.0111526  -0.0480251  0.0869531  0.0056188 
1701448161.808684000  0  0  11.6772  -0.141512  -0.00517624  0.00807262  nan  nan  nan  nan  nan  nan  -1.99974  -0.999741  1.49974  -0.0432319  0.0118603  -0.00037485  0.00864  0.00864  -0.00864  0  0  0  0.216  0.216  -0.216  0.00787044  -0.012467  -0.0256651  -0.0049845  -0.000496084  0.0104045  0.0384238  -0.00942713  -0.0110383  -0.0704747  0.097082  0.00947517 
1701448161.813722000  0  0  11.6866  -0.147373  -0.00976087  0.00767181  nan  nan  nan  nan  nan  nan  -1.99969  -0.999695  1.49969  -0.0458007  0.0139698  -0.000477454  0.0097656  0.0097656  -0.0097656  0  0  0  0.234375  0.234375  -0.234375  0.00783283  -0.0125351  -0.0256689  -0.00528456  -0.00135356  0.0078899  0.0405277  -0.0107529  -0.0109023  -0.0781085  0.118448  0.0131249 
1701448161.818725000  0  0  11.7024  -0.149483  -0.0144385  0.00814987  nan  nan  nan  nan  nan  nan  -1.99964  -0.999643  1.49964  -0.0478071  0.0165227  -0.000600067  0.010985  0.010985  -0.0109839  0  0  0  0.2535  0.2535  -0.252793  0.00780485  -0.0125385  -0.0256634  -0.00610255  -0.00156387  0.00482995  0.0420516  -0.0123634  -0.0108668  -0.0879085  0.14262  0.00679462 
1701448161.823724000  0  0  11.5996  -0.144965  -0.00921224  0.00830825  nan  nan  nan  nan  nan  nan  -1.99958  -0.999585  1.49958  -0.0511209  0.0190144  -0.00075142  0.0123019  0.0123019  -0.0122923  0  0  0  0.273375  0.273375  -0.270462  0.00776543  -0.0126077  -0.0256078  -0.00647965  -0.00256822  0.011642  0.0445149  -0.014044  -0.0108011  -0.119608  0.14763  0.00415789 
1701448161.828735000  0  0  11.623  -0.147009  -0.0137815  0.00909486  nan  nan  nan  nan  nan  nan  -1.99952  -0.99952  1.49952  -0.0534761  0.0213551  -0.000886988  0.01372  0.01372  -0.0136872  0  0  0  0.294  0.294  -0.287381  0.00773962  -0.0126197  -0.0255998  -0.00683907  -0.00305061  0.00811062  0.0461449  -0.0153536  -0.0108314  -0.130516  0.168817  -0.00537222 
1701448161.833722000  0  0  11.6278  -0.140642  -0.0233312  0.0096022  nan  nan  nan  nan  nan  nan  -1.99945  -0.999447  1.49945  -0.0561459  0.0241582  -0.00106318  0.0152431  0.0152431  -0.0151649  0  0  0  0.315375  0.315375  -0.30355  0.00769547  -0.0126891  -0.0256157  -0.0076245  -0.00360981  0.0062813  0.0478005  -0.0168498  -0.0108659  -0.15848  0.20168  -0.0113681 
1701448161.838724000  0  0  11.5489  -0.136913  -0.022312  0.00954094  nan  nan  nan  nan  nan  nan  -1.99937  -0.999367  1.49937  -0.0596213  0.0269151  -0.00126942  0.016875  0.016875  -0.0167215  0  0  0  0.3375  0.3375  -0.318969  0.00765765  -0.012765  -0.025576  -0.00802301  -0.00454747  0.0114025  0.0500863  -0.0184021  -0.01083  -0.186967  0.213923  -0.0109616 
1701448161.843723000  0  0  11.5818  -0.136415  -0.0255751  0.00983434  nan  nan  nan  nan  nan  nan  -1.99928  -0.999278  1.49928  -0.0622185  0.0296241  -0.00146158  0.0186194  0.0186194  -0.0183533  0  0  0  0.360375  0.360375  -0.333638  0.00761627  -0.0127877  -0.0255629  -0.00857482  -0.0050964  0.00734124  0.0515963  -0.0197793  -0.0108424  -0.201857  0.23312  -0.0145052 
1701448161.848736000  0  0  11.5677  -0.123108  -0.0355223  0.0102358  nan  nan  nan  nan  nan  nan  -1.99918  -0.999181  1.49918  -0.0651828  0.0326658  -0.00169699  0.02048  0.02048  -0.0200566  0  0  0  0.384  0.384  -0.347557  0.00757209  -0.0128649  -0.0255631  -0.00930496  -0.00557578  0.00733903  0.053009  -0.0211832  -0.0108727  -0.241467  0.26593  -0.0192205 
1701448161.854153000  0  0  11.5186  -0.120686  -0.036578  0.0101433  nan  nan  nan  nan  nan  nan  -1.99907  -0.999073  1.49908  -0.06874  0.0356746  -0.00196491  0.0224606  0.0224606  -0.0218276  0  0  0  0.408375  0.408375  -0.360726  0.00753765  -0.0129459  -0.0255409  -0.00977309  -0.00643317  0.0103032  0.0549322  -0.0225121  -0.0108417  -0.264005  0.280268  -0.0183744 
1701448161.858723000  0  0  11.5331  -0.11786  -0.0318031  0.0101499  nan  nan  nan  nan  nan  nan  -1.99896  -0.998956  1.49897  -0.071844  0.0390446  -0.00225794  0.024565  0.024565  -0.0236626  0  0  0  0.4335  0.4335  -0.373145  0.00748795  -0.0129851  -0.0255137  -0.0108173  -0.00717417  0.00803492  0.0566096  -0.0244686  -0.0107986  -0.285088  0.288718  -0.0188879 
1701448161.863724000  0  0  11.4945  -0.105017  -0.034918  0.00949119  nan  nan  nan  nan  nan  nan  -1.99883  -0.998828  1.49884  -0.0754894  0.0423476  -0.00258501  0.0267969  0.0267969  -0.0255578  0  0  0  0.459375  0.459375  -0.384814  0.00745018  -0.0130772  -0.0254671  -0.0114687  -0.00795585  0.0102736  0.0582825  -0.0260303  -0.0106489  -0.326164  0.309314  -0.0121507 
1701448161.868736000  0  0  11.4728  -0.106574  -0.0341755  0.00862735  nan  nan  nan  nan  nan  nan  -1.99869  -0.998688  1.49871  -0.0790174  0.0459368  -0.00294849  0.02916  0.02916  -0.0275095  0  0  0  0.486  0.486  -0.395732  0.00739139  -0.0131177  -0.0254133  -0.012403  -0.00871799  0.0111823  0.0599963  -0.027849  -0.0104268  -0.338818  0.324562  -0.00357365 
1701448161.873721000  0  0  11.4887  -0.103682  -0.0262358  0.00824285  nan  nan  nan  nan  nan  nan  -1.99854  -0.998536  1.49857  -0.0825671  0.0494541  -0.00332729  0.0316581  0.0316581  -0.0295139  0  0  0  0.513375  0.513375  -0.405901  0.00735217  -0.0132141  -0.025405  -0.0133852  -0.00961101  0.0091467  0.0616101  -0.0297051  -0.0102365  -0.359449  0.325758  -0.000670894 
1701448161.878673000  0  0  11.4446  -0.0948555  -0.0199123  0.00781653  nan  nan  nan  nan  nan  nan  -1.99837  -0.998371  1.49842  -0.08628  0.0532546  -0.00375904  0.034295  0.034295  -0.0315673  0  0  0  0.5415  0.5415  -0.41532  0.00728036  -0.013261  -0.0253339  -0.0142219  -0.010156  0.0120846  0.0631243  -0.0317963  -0.0100081  -0.391032  0.332351  0.00237394 
1701448161.883724000  0  0  11.4691  -0.0976916  -0.02546  0.00827159  nan  nan  nan  nan  nan  nan  -1.99819  -0.998193  1.49825  -0.090166  0.0568899  -0.00420877  0.0370744  0.0370744  -0.0336659  0  0  0  0.570375  0.570375  -0.423989  0.00722413  -0.0133578  -0.0253339  -0.0151882  -0.0113579  0.00957287  0.0648469  -0.033391  -0.00986997  -0.401208  0.358117  -0.0046952 
1701448161.888735000  0  0  11.4802  -0.0984577  -0.0184418  0.00892833  nan  nan  nan  nan  nan  nan  -1.998  -0.998  1.49808  -0.0939105  0.0607906  -0.00469763  0.04  0.04  -0.0358059  0  0  0  0.6  0.6  -0.431908  0.00716969  -0.013446  -0.025345  -0.0163352  -0.0121759  0.00828486  0.0664059  -0.0354071  -0.00978621  -0.414019  0.362629  -0.013742 
1701448161.893724000  0  0  11.4159  -0.0910256  -0.0148692  0.00912818  nan  nan  nan  nan  nan  nan  -1.99779  -0.997792  1.49789  -0.0984159  0.0650237  -0.00529269  0.0430756  0.0430756  -0.0379837  0  0  0  0.630375  0.630306  -0.439077  0.00708735  -0.0135081  -0.0252504  -0.0172233  -0.0131084  0.0131984  0.0683983  -0.0376484  -0.00964234  -0.447213  0.376104  -0.0176789 
1701448161.898724000  0  0  11.474  -0.102925  -0.0109364  0.00919026  nan  nan  nan  nan  nan  nan  -1.99757  -0.997569  1.4977  -0.102128  0.0689573  -0.00583444  0.0463048  0.0463022  -0.0401954  0  0  0  0.661272  0.660227  -0.445496  0.00701538  -0.0135954  -0.0253014  -0.0185663  -0.0143544  0.00829303  0.0699258  -0.0395521  -0.0095127  -0.437467  0.385752  -0.0197512 
1701448161.904155000  0  0  11.4728  -0.100983  -0.000984715  0.00965248  nan  nan  nan  nan  nan  nan  -1.99733  -0.997329  1.49749  -0.105923  0.0729365  -0.00641068  0.0496872  0.0496766  -0.0424374  0  0  0  0.691571  0.689397  -0.451165  0.00695924  -0.0136776  -0.0253157  -0.0196509  -0.0151555  0.00836274  0.071136  -0.0414322  -0.00944561  -0.452486  0.383146  -0.0261999 
1701448161.908736000  0  0  11.4283  -0.098074  0.00275328  0.0100452  nan  nan  nan  nan  nan  nan  -1.99707  -0.997072  1.49727  -0.110417  0.0773791  -0.00711696  0.0532192  0.053195  -0.0447058  0  0  0  0.721119  0.717818  -0.456084  0.00684572  -0.013769  -0.0252254  -0.0209428  -0.0163788  0.0119269  0.0732215  -0.0439266  -0.00933747  -0.47749  0.398618  -0.0321909 
1701448161.913723000  0  0  11.5029  -0.110937  0.00012647  0.0104601  nan  nan  nan  nan  nan  nan  -1.9968  -0.996797  1.49704  -0.113641  0.081085  -0.00766875  0.0568972  0.0568535  -0.046997  0  0  0  0.749918  0.745488  -0.460253  0.00676359  -0.0138711  -0.0252823  -0.022481  -0.0175283  0.00594929  0.0742223  -0.0453658  -0.00933589  -0.460972  0.417112  -0.037392 
1701448161.918725000  0  0  11.4762  -0.106138  0.00586479  0.0100825  nan  nan  nan  nan  nan  nan  -1.9965  -0.996503  1.4968  -0.117722  0.0852785  -0.00836974  0.0607172  0.0606486  -0.0493071  0  0  0  0.777966  0.772409  -0.463672  0.00664521  -0.0139591  -0.0252246  -0.0237817  -0.018621  0.00829376  0.0756985  -0.0473894  -0.00918573  -0.48415  0.424253  -0.0341739 
1701448161.923724000  0  0  11.4638  -0.102173  -0.00259141  0.00974192  nan  nan  nan  nan  nan  nan  -1.99619  -0.99619  1.49655  -0.121785  0.0890869  -0.00905055  0.0646756  0.0645764  -0.0516324  0  0  0  0.805265  0.79858  -0.466341  0.00654828  -0.0140627  -0.0252254  -0.0248492  -0.019912  0.00969576  0.076993  -0.048719  -0.0090275  -0.50399  0.453397  -0.0314989 
1701448161.928736000  0  0  11.5369  -0.109989  -0.0099808  0.0093397  nan  nan  nan  nan  nan  nan  -1.99586  -0.995857  1.49629  -0.124885  0.0926141  -0.00963092  0.0687686  0.0686331  -0.0539693  0  0  0  0.831813  0.824  -0.46826  0.00644827  -0.01418  -0.0252807  -0.0265087  -0.0212183  0.00415145  0.0776352  -0.0496528  -0.00888389  -0.494266  0.476767  -0.0279073 
1701448161.933723000  0  0  11.4871  -0.0989846  -0.00929444  0.0085949  nan  nan  nan  nan  nan  nan  -1.9955  -0.995504  1.49601  -0.12899  0.0966812  -0.0103948  0.0729924  0.0728151  -0.0563138  0  0  0  0.857612  0.848671  -0.469428  0.00631105  -0.0142846  -0.0252074  -0.0276348  -0.022213  0.0087052  0.0788513  -0.0512216  -0.00861522  -0.527463  0.489827  -0.0212841 
1701448161.938720000  0  0  11.5129  -0.0983354  -0.0189537  0.00776285  nan  nan  nan  nan  nan  nan  -1.99513  -0.995129  1.49572  -0.132687  0.0999407  -0.0110376  0.0773434  0.0771186  -0.0586623  0  0  0  0.88266  0.872591  -0.469847  0.00621286  -0.0144249  -0.0251964  -0.0287001  -0.0237786  0.00718838  0.0797153  -0.0517665  -0.00834041  -0.53671  0.514159  -0.0136315 
1701448161.943725000  0  0  11.5823  -0.100315  -0.0310991  0.00817524  nan  nan  nan  nan  nan  nan  -1.99473  -0.994732  1.49543  -0.135434  0.10333  -0.0116166  0.0818178  0.0815398  -0.061011  0  0  0  0.906958  0.895762  -0.469516  0.00606233  -0.014544  -0.0252173  -0.0304179  -0.0249357  0.00218538  0.0798071  -0.0522021  -0.00825067  -0.533596  0.542458  -0.0196838 
1701448161.948734000  0  0  11.531  -0.0926879  -0.0328212  0.00801055  nan  nan  nan  nan  nan  nan  -1.99431  -0.994313  1.49511  -0.139293  0.106935  -0.012359  0.0864118  0.086075  -0.0633562  0  0  0  0.930507  0.918183  -0.468435  0.00594993  -0.0146822  -0.0251936  -0.0312323  -0.0257466  0.00724945  0.0805768  -0.0529772  -0.00801838  -0.55593  0.553032  -0.019948 
1701448161.953723000  0  0  11.5713  -0.0861237  -0.0404683  0.00796187  nan  nan  nan  nan  nan  nan  -1.99386  -0.993871  1.49479  -0.142452  0.109851  -0.0129467  0.0911216  0.0907204  -0.0656941  0  0  0  0.953305  0.939853  -0.466604  0.0058237  -0.0148402  -0.0252227  -0.0322926  -0.0271267  0.00488643  0.0806807  -0.0529713  -0.00788155  -0.570015  0.568272  -0.0207079 
1701448161.958724000  0  0  11.6127  -0.0802463  -0.0516639  0.00868448  nan  nan  nan  nan  nan  nan  -1.9934  -0.993406  1.49446  -0.145165  0.113268  -0.0135686  0.0959436  0.0954722  -0.068021  0  0  0  0.975354  0.960774  -0.464023  0.0056642  -0.0149744  -0.0252237  -0.0340581  -0.0281063  0.00247842  0.080406  -0.0532308  -0.00786753  -0.579243  0.593051  -0.0298807 
1701448161.963725000  0  0  11.578  -0.0763027  -0.057664  0.00889549  nan  nan  nan  nan  nan  nan  -1.9929  -0.992916  1.49411  -0.148878  0.116351  -0.0142721  0.100874  0.100327  -0.0703331  0  0  0  0.996652  0.980944  -0.460692  0.00553879  -0.0151405  -0.0252113  -0.0346247  -0.0291726  0.00645474  0.0809482  -0.0532051  -0.00774645  -0.592118  0.604815  -0.0337291 
1701448161.968737000  0  0  11.6304  -0.07521  -0.0655412  0.00928421  nan  nan  nan  nan  nan  nan  -1.99239  -0.992402  1.49375  -0.151529  0.118997  -0.0147973  0.105909  0.10528  -0.0726267  0  0  0  1.0172  1.00036  -0.456611  0.0053728  -0.0152885  -0.0252084  -0.0357393  -0.0304568  0.00326692  0.0805951  -0.0527041  -0.00776436  -0.591055  0.61596  -0.038409 
1701448161.973722000  0  0  11.6558  -0.0649113  -0.0735991  0.00879713  nan  nan  nan  nan  nan  nan  -1.99184  -0.991864  1.49339  -0.154165  0.122007  -0.0153849  0.111045  0.110329  -0.074898  0  0  0  1.037  1.01904  -0.45178  0.00523004  -0.0154636  -0.0252384  -0.0371395  -0.0313048  0.00250345  0.0799943  -0.0524703  -0.00766498  -0.606125  0.629925  -0.0333143 
1701448161.978725000  0  0  11.5927  -0.062573  -0.0795244  0.00887625  nan  nan  nan  nan  nan  nan  -1.99128  -0.991299  1.49301  -0.157986  0.125068  -0.0161417  0.116278  0.11547  -0.0771432  0  0  0  1.05605  1.03696  -0.446199  0.0050873  -0.0156288  -0.025192  -0.0375157  -0.0322618  0.0090364  0.0805213  -0.0522711  -0.00749968  -0.61565  0.639943  -0.0359564 
1701448161.983724000  0  0  11.6576  -0.0691543  -0.0828939  0.00953919  nan  nan  nan  nan  nan  nan  -1.99068  -0.990709  1.49261  -0.160227  0.127502  -0.0166093  0.121604  0.120698  -0.0793587  0  0  0  1.07435  1.05413  -0.439868  0.00489122  -0.0157932  -0.0251867  -0.0387983  -0.0335383  0.00503454  0.079902  -0.0515284  -0.00760408  -0.59679  0.639849  -0.0431991 
1701448161.988736000  0  0  11.6861  -0.0559741  -0.0884874  0.00977799  nan  nan  nan  nan  nan  nan  -1.99006  -0.990092  1.49221  -0.162383  0.130147  -0.0171044  0.12702  0.12601  -0.0815406  0  0  0  1.09189  1.07055  -0.432787  0.00471572  -0.0159392  -0.0252137  -0.0399967  -0.0342027  0.00422182  0.0787557  -0.0509058  -0.00766503  -0.612604  0.645308  -0.0455746 
1701448161.993723000  0  0  11.6341  -0.0553703  -0.0846216  0.00904959  nan  nan  nan  nan  nan  nan  -1.98941  -0.989448  1.4918  -0.165744  0.133239  -0.017843  0.132522  0.131402  -0.0836853  0  0  0  1.10869  1.08622  -0.424955  0.00451732  -0.0161101  -0.0251379  -0.0406897  -0.0349852  0.0099921  0.0789263  -0.0509185  -0.00750148  -0.615381  0.637694  -0.038105 
1701448161.998726000  0  0  11.6864  -0.0587222  -0.0824775  0.00850824  nan  nan  nan  nan  nan  nan  -1.98873  -0.988778  1.49138  -0.16788  0.135509  -0.0182877  0.138105  0.13687  -0.0857889  0  0  0  1.12474  1.10114  -0.416374  0.00432908  -0.0162925  -0.0251533  -0.0419362  -0.0361969  0.00731107  0.0780777  -0.0501773  -0.00744354  -0.60087  0.626587  -0.0319176 
1701448162.004101000  0  0  11.6918  -0.0427772  -0.0866015  0.00806468  nan  nan  nan  nan  nan  nan  -1.98803  -0.98808  1.49094  -0.169775  0.137788  -0.0187032  0.143768  0.142412  -0.0878478  0  0  0  1.14004  1.11531  -0.407043  0.00418419  -0.0164329  -0.025161  -0.0426676  -0.036423  0.00856932  0.0764311  -0.0491344  -0.00740898  -0.617612  0.62524  -0.0267187 
1701448162.008736000  0  0  11.6676  -0.0554484  -0.0775594  0.00789147  nan  nan  nan  nan  nan  nan  -1.9873  -0.987354  1.4905  -0.172797  0.140661  -0.0193862  0.149505  0.148022  -0.0898581  0  0  0  1.15459  1.12873  -0.396962  0.00393865  -0.016654  -0.0250637  -0.0436534  -0.037439  0.0121706  0.0767936  -0.0493695  -0.00726527  -0.595604  0.609318  -0.0259907 
1701448162.013725000  0  0  11.7297  -0.0570109  -0.0732799  0.00816721  nan  nan  nan  nan  nan  nan  -1.98653  -0.986599  1.49004  -0.174332  0.142708  -0.0197178  0.155312  0.153698  -0.0918162  0  0  0  1.16839  1.1414  -0.386131  0.00372193  -0.016855  -0.0250573  -0.0450187  -0.0383642  0.0088041  0.0754966  -0.0486143  -0.00735938  -0.580547  0.593812  -0.0284964 
1701448162.018723000  0  0  11.7414  -0.0449415  -0.0756976  0.00859237  nan  nan  nan  nan  nan  nan  -1.98574  -0.985816  1.48958  -0.176359  0.144882  -0.0201449  0.161187  0.159435  -0.0937182  0  0  0  1.18144  1.15332  -0.37455  0.0034991  -0.0170465  -0.0250085  -0.0458582  -0.0390747  0.00962604  0.0743977  -0.0478477  -0.00744289  -0.594576  0.591594  -0.0329758 
1701448162.023725000  0  0  11.7528  -0.0566528  -0.0660015  0.0086345  nan  nan  nan  nan  nan  nan  -1.98492  -0.985005  1.48911  -0.178277  0.146877  -0.0205267  0.167125  0.16523  -0.0955604  0  0  0  1.19373  1.16449  -0.362219  0.00328786  -0.0172487  -0.0249917  -0.0465886  -0.0397322  0.01055  0.0736501  -0.0472477  -0.00750393  -0.564275  0.566682  -0.032892 
1701448162.028737000  0  0  11.7996  -0.0473371  -0.0641361  0.00872429  nan  nan  nan  nan  nan  nan  -1.98407  -0.984164  1.48862  -0.179846  0.148873  -0.0208565  0.173123  0.171079  -0.0973391  0  0  0  1.20528  1.17491  -0.349138  0.00306079  -0.0174723  -0.0249757  -0.0479548  -0.0406823  0.00866119  0.0722866  -0.0465749  -0.0076188  -0.570363  0.556761  -0.0328655 
1701448162.033723000  0  0  11.7919  -0.0375882  -0.0595728  0.00920612  nan  nan  nan  nan  nan  nan  -1.98319  -0.983294  1.48813  -0.181713  0.151048  -0.0212656  0.179177  0.176978  -0.0990506  0  0  0  1.21608  1.18458  -0.335307  0.00282131  -0.0176747  -0.0249064  -0.0487411  -0.041086  0.0112209  0.0711376  -0.0461437  -0.00777011  -0.57929  0.543667  -0.0373754 
1701448162.038725000  0  0  11.8414  -0.054652  -0.0523403  0.00951559  nan  nan  nan  nan  nan  nan  -1.98228  -0.982394  1.48763  -0.182962  0.152633  -0.0214714  0.185283  0.182923  -0.100691  0  0  0  1.22613  1.1935  -0.320726  0.00258736  -0.0179037  -0.024902  -0.0498081  -0.0419135  0.00917081  0.0700203  -0.0453427  -0.00798883  -0.534883  0.521833  -0.0390567 
1701448162.043725000  0  0  11.8736  -0.0446868  -0.0593224  0.00868964  nan  nan  nan  nan  nan  nan  -1.98134  -0.981465  1.48713  -0.184375  0.15447  -0.0217474  0.191437  0.188912  -0.102257  0  0  0  1.23543  1.20167  -0.305395  0.00233714  -0.0181147  -0.0248671  -0.0509892  -0.0427313  0.00862181  0.068666  -0.0444941  -0.0080545  -0.542353  0.527991  -0.0280754 
1701448162.048735000  0  0  11.8813  -0.0440266  -0.0570296  0.00840315  nan  nan  nan  nan  nan  nan  -1.98037  -0.980505  1.48661  -0.185812  0.156126  -0.0219927  0.197636  0.194939  -0.103744  0  0  0  1.24398  1.20909  -0.289314  0.00208083  -0.0183461  -0.0248364  -0.051598  -0.0431574  0.010118  0.0673893  -0.0436839  -0.00811238  -0.531928  0.515951  -0.0239157 
1701448162.053742000  0  0  11.9339  -0.0596628  -0.0537742  0.00794372  nan  nan  nan  nan  nan  nan  -1.97936  -0.979515  1.48609  -0.186453  0.157228  -0.022004  0.203876  0.201001  -0.105148  0  0  0  1.25177  1.21576  -0.272482  0.00181767  -0.0185608  -0.0248091  -0.0523131  -0.0436503  0.00785379  0.0659662  -0.0424413  -0.00827507  -0.487563  0.498009  -0.0165458 
1701448162.058745000  0  0  11.9473  -0.0390347  -0.0709359  0.00760189  nan  nan  nan  nan  nan  nan  -1.97833  -0.978495  1.48556  -0.187689  0.15867  -0.0221713  0.210152  0.207095  -0.106467  0  0  0  1.25882  1.22169  -0.254901  0.00154206  -0.0188105  -0.0247768  -0.0528831  -0.0441042  0.00900193  0.0643641  -0.0411455  -0.00830948  -0.514081  0.52041  -0.0119288 
1701448162.063697000  0  0  11.965  -0.0492154  -0.0661319  0.00868641  nan  nan  nan  nan  nan  nan  -1.97726  -0.977444  1.48502  -0.188588  0.159961  -0.0222521  0.216463  0.213217  -0.107696  0  0  0  1.26512  1.22686  -0.23657  0.00126721  -0.0190378  -0.024716  -0.0534254  -0.0443859  0.00970614  0.0630893  -0.0400514  -0.00860651  -0.481991  0.500736  -0.022515 
1701448162.068836000  0  0  12.0271  -0.0536234  -0.0709464  0.00984436  nan  nan  nan  nan  nan  nan  -1.97616  -0.976363  1.48448  -0.188561  0.160628  -0.0220576  0.222802  0.219362  -0.108833  0  0  0  1.27067  1.23128  -0.218113  0.000994289  -0.0192701  -0.0247322  -0.053989  -0.0445084  0.00679217  0.0609925  -0.0382776  -0.00907286  -0.453884  0.494047  -0.0323259 
1701448162.073728000  0  0  12.0117  -0.0304299  -0.0870306  0.00994888  nan  nan  nan  nan  nan  nan  -1.97503  -0.975251  1.48394  -0.190007  0.161884  -0.0222134  0.229168  0.225528  -0.109879  0  0  0  1.27547  1.23495  -0.2004  0.000699716  -0.0195694  -0.0246742  -0.0540585  -0.0448515  0.0102345  0.0597234  -0.0368815  -0.00923713  -0.488595  0.513371  -0.0319897 
1701448162.078739000  0  0  12.0252  -0.0412568  -0.0808397  0.0107648  nan  nan  nan  nan  nan  nan  -1.97387  -0.974107  1.48338  -0.190927  0.162919  -0.0222362  0.235556  0.231711  -0.110838  0  0  0  1.27952  1.23787  -0.183438  0.000387031  -0.0198679  -0.0246254  -0.0544  -0.0452381  0.0111259  0.0585564  -0.0357076  -0.00957259  -0.456205  0.49019  -0.0388343 
1701448162.083738000  0  0  12.074  -0.0392301  -0.0941605  0.0111699  nan  nan  nan  nan  nan  nan  -1.97268  -0.972933  1.48283  -0.190687  0.163432  -0.0219591  0.241962  0.237906  -0.111714  0  0  0  1.28282  1.24004  -0.167225  0.000116864  -0.0200922  -0.0245991  -0.0548187  -0.0451503  0.00892717  0.0563247  -0.0336356  -0.0100891  -0.439727  0.497769  -0.0387327 
1701448162.088738000  0  0  12.0657  -0.0215003  -0.101723  0.0106971  nan  nan  nan  nan  nan  nan  -1.97145  -0.971728  1.48227  -0.191485  0.164213  -0.0219023  0.248383  0.24411  -0.112511  0  0  0  1.28536  1.24146  -0.151762  -0.000189141  -0.0203769  -0.0245393  -0.0546185  -0.0451692  0.0113913  0.0546458  -0.0319334  -0.0103005  -0.45974  0.497234  -0.030709 
1701448162.093803000  0  0  12.0497  -0.0323234  -0.0930713  0.0106228  nan  nan  nan  nan  nan  nan  -1.97019  -0.970492  1.4817  -0.191643  0.164635  -0.0216628  0.254814  0.250319  -0.113233  0  0  0  1.28716  1.24213  -0.137049  -0.000445347  -0.0205838  -0.0244601  -0.0539773  -0.0445034  0.0141831  0.0529964  -0.0302194  -0.010675  -0.42292  0.464161  -0.0260358 
1701448162.098726000  0  0  12.1072  -0.027496  -0.104327  0.00950437  nan  nan  nan  nan  nan  nan  -1.9689  -0.969225  1.48113  -0.191721  0.165231  -0.0214371  0.261253  0.25653  -0.113883  0  0  0  1.28821  1.24205  -0.123086  -0.000788315  -0.0208911  -0.0244321  -0.0548223  -0.0451268  0.0110888  0.0511173  -0.028493  -0.0108466  -0.415288  0.470789  -0.0103384 
1701448162.104214000  0  0  12.116  -0.0186764  -0.104033  0.00997738  nan  nan  nan  nan  nan  nan  -1.96758  -0.967927  1.48056  -0.191401  0.165021  -0.020983  0.267695  0.262738  -0.114465  0  0  0  1.28851  1.24122  -0.109873  -0.000995461  -0.0210872  -0.0244239  -0.0540586  -0.0446169  0.0117316  0.0486242  -0.0260023  -0.0112611  -0.409989  0.447288  -0.0121063 
1701448162.108736000  0  0  12.111  -0.0303361  -0.0913117  0.0100645  nan  nan  nan  nan  nan  nan  -1.96623  -0.966598  1.47999  -0.191769  0.165914  -0.0208509  0.274137  0.268941  -0.114983  0  0  0  1.28806  1.23964  -0.0974106  -0.00136336  -0.0214109  -0.0243039  -0.0543173  -0.0444714  0.0133816  0.0476175  -0.0252668  -0.0115581  -0.377408  0.415078  -0.0102251 
1701448162.113738000  0  0  12.1314  -0.0195038  -0.0984474  0.00991483  nan  nan  nan  nan  nan  nan  -1.96484  -0.965238  1.47941  -0.191711  0.166244  -0.020532  0.280575  0.275134  -0.115441  0  0  0  1.28686  1.23731  -0.0856977  -0.00168933  -0.0217136  -0.0242428  -0.0544459  -0.0444762  0.0129143  0.0456692  -0.0235478  -0.0118464  -0.381149  0.413534  -0.00547183 
1701448162.118738000  0  0  12.1238  -0.0209424  -0.0846518  0.0105096  nan  nan  nan  nan  nan  nan  -1.96342  -0.963847  1.47884  -0.191249  0.166131  -0.0200531  0.287004  0.281313  -0.115841  0  0  0  1.2849  1.23423  -0.0747349  -0.00195694  -0.0219311  -0.0241725  -0.0536742  -0.0436989  0.0144626  0.0436464  -0.021835  -0.012337  -0.359662  0.370185  -0.00800066 
1701448162.123737000  0  0  12.1559  -0.0178432  -0.0876313  0.0106197  nan  nan  nan  nan  nan  nan  -1.96197  -0.962425  1.47826  -0.190687  0.166361  -0.0196161  0.293422  0.287475  -0.116189  0  0  0  1.2822  1.2304  -0.0645221  -0.00230207  -0.0222354  -0.0241287  -0.0540225  -0.0435004  0.012816  0.0415437  -0.0203512  -0.012739  -0.346516  0.362493  -0.00535567 
1701448162.129192000  0  0  12.1476  -0.00992513  -0.0885656  0.010528  nan  nan  nan  nan  nan  nan  -1.96049  -0.960972  1.47767  -0.190025  0.166078  -0.0190585  0.299825  0.293615  -0.116488  0  0  0  1.27875  1.22582  -0.0550592  -0.00253554  -0.0224465  -0.0240856  -0.0532665  -0.042671  0.0142768  0.0391624  -0.0183231  -0.0131284  -0.340444  0.345703  -0.000316475 
1701448162.133736000  0  0  12.1182  -0.0191014  -0.0643012  0.0115532  nan  nan  nan  nan  nan  nan  -1.95897  -0.959488  1.47709  -0.189786  0.166345  -0.0186711  0.306209  0.299732  -0.116741  0  0  0  1.27455  1.22049  -0.0463464  -0.00291414  -0.0227685  -0.0239453  -0.0526664  -0.0417829  0.0172672  0.037842  -0.0176638  -0.0136413  -0.309944  0.29111  -0.0080019 
1701448162.138739000  0  0  12.1659  -0.0117985  -0.0792546  0.0120671  nan  nan  nan  nan  nan  nan  -1.95742  -0.957975  1.47651  -0.18892  0.166362  -0.0181228  0.312569  0.305819  -0.116953  0  0  0  1.2696  1.21441  -0.0383835  -0.00328625  -0.0230863  -0.0238968  -0.0532362  -0.0417919  0.0140307  0.0356084  -0.0160855  -0.0141703  -0.304  0.306495  -0.00913592 
1701448162.143687000  0  0  12.1551  -0.0115981  -0.0796584  0.0129191  nan  nan  nan  nan  nan  nan  -1.95585  -0.95643  1.47592  -0.187956  0.165941  -0.0174692  0.318903  0.311874  -0.117126  0  0  0  1.2639  1.20759  -0.0311707  -0.00355361  -0.0233064  -0.0238035  -0.0524601  -0.040814  0.015255  0.0334784  -0.0142353  -0.0148071  -0.284805  0.290281  -0.0134181 
1701448162.148736000  0  0  12.1289  -0.0229183  -0.0588879  0.0134681  nan  nan  nan  nan  nan  nan  -1.95424  -0.954856  1.47534  -0.187141  0.165784  -0.0168849  0.325207  0.317894  -0.117265  0  0  0  1.25745  1.20001  -0.0247079  -0.00387548  -0.0235856  -0.0237085  -0.0517473  -0.0396739  0.0176872  0.0318304  -0.0132929  -0.0153956  -0.247003  0.240071  -0.014395 
1701448162.153737000  0  0  12.1603  -0.01621  -0.0792286  0.0132707  nan  nan  nan  nan  nan  nan  -1.95259  -0.953251  1.47475  -0.185664  0.164749  -0.0160193  0.331477  0.323873  -0.117374  0  0  0  1.25024  1.19168  -0.018995  -0.00414198  -0.0237877  -0.0236454  -0.0510997  -0.039167  0.0152322  0.0293575  -0.0107107  -0.0159959  -0.237669  0.256995  -0.00592542 
1701448162.158738000  0  0  12.1624  -0.0299877  -0.0759953  0.0132545  nan  nan  nan  nan  nan  nan  -1.95092  -0.951617  1.47416  -0.18483  0.164315  -0.0153698  0.337708  0.329809  -0.117457  0  0  0  1.24229  1.1826  -0.0140322  -0.00449477  -0.0241015  -0.0235596  -0.0506563  -0.038716  0.015196  0.0279728  -0.00927862  -0.0164535  -0.197375  0.237354  -0.00114674 
1701448162.163737000  0  0  12.1327  -0.0297957  -0.0706873  0.0125348  nan  nan  nan  nan  nan  nan  -1.94922  -0.949953  1.47357  -0.184107  0.164193  -0.0147907  0.343898  0.335698  -0.117516  0  0  0  1.23359  1.17277  -0.0098193  -0.0048745  -0.0244239  -0.0234464  -0.0500998  -0.0378308  0.0176656  0.0265779  -0.00833082  -0.0167825  -0.184925  0.218018  0.0111406 
1701448162.168741000  0  0  12.1444  -0.0246377  -0.0852096  0.0124057  nan  nan  nan  nan  nan  nan  -1.94748  -0.94826  1.47299  -0.182373  0.162939  -0.0138293  0.350043  0.341536  -0.117556  0  0  0  1.22414  1.16219  -0.0063565  -0.0051273  -0.024612  -0.023381  -0.0491154  -0.0369275  0.0164798  0.0241765  -0.00576797  -0.0173328  -0.173148  0.223484  0.0182567 
1701448162.173737000  0  0  12.1441  -0.0449874  -0.0755761  0.0130232  nan  nan  nan  nan  nan  nan  -1.94572  -0.946538  1.4724  -0.180943  0.162038  -0.0129802  0.356138  0.347319  -0.117581  0  0  0  1.21394  1.15086  -0.0036437  -0.0054581  -0.0248966  -0.0232927  -0.0483289  -0.0360456  0.0162206  0.022724  -0.00419137  -0.017885  -0.119086  0.189713  0.0160608 
1701448162.179213000  0  0  12.1142  -0.0347963  -0.0882179  0.0121132  nan  nan  nan  nan  nan  nan  -1.94392  -0.944787  1.47181  -0.179443  0.160794  -0.0120547  0.362181  0.353043  -0.117594  0  0  0  1.20299  1.13878  -0.0016808  -0.00569062  -0.0250656  -0.0232186  -0.0468686  -0.0348613  0.0182543  0.0207339  -0.00191686  -0.0182214  -0.121159  0.194071  0.0307985 
1701448162.183738000  0  0  12.1315  -0.0467855  -0.0957803  0.0119828  nan  nan  nan  nan  nan  nan  -1.94209  -0.943008  1.47122  -0.178092  0.159908  -0.0112149  0.368167  0.358705  -0.117599  0  0  0  1.19128  1.12595  -0.000468  -0.00608174  -0.0253936  -0.023099  -0.046485  -0.0345231  0.0163713  0.0193936  -3.91267e-05  -0.0186637  -0.0848497  0.191921  0.0368512 
1701448162.188736000  0  0  12.1156  -0.0582498  -0.088906  0.0118567  nan  nan  nan  nan  nan  nan  -1.94024  -0.9412  1.47063  -0.176734  0.158846  -0.0103393  0.374093  0.364301  -0.1176  0  0  0  1.17883  1.11237  -5.1e-06  -0.00643296  -0.0257097  -0.0230036  -0.045465  -0.0336621  0.01712  0.0182286  0.00155388  -0.0190292  -0.0512039  0.163516  0.0420835 
1701448162.193736000  0  0  12.0807  -0.04414  -0.106611  0.0117215  nan  nan  nan  nan  nan  nan  -1.93835  -0.939365  1.47005  -0.174621  0.156975  -0.00919718  0.379954  0.369828  -0.1176  0  0  0  1.16563  1.09804  -0  -0.00665639  -0.0258717  -0.0229072  -0.0433995  -0.0319416  0.0191178  0.0158992  0.00446586  -0.0195281  -0.0579931  0.172136  0.048762 
1701448162.198745000  0  0  12.1051  -0.0615608  -0.108845  0.0120734  nan  nan  nan  nan  nan  nan  -1.93644  -0.937502  1.46946  -0.172895  0.155643  -0.00821143  0.385748  0.37528  -0.1176  0  0  0  1.15168  1.08296  -0  -0.00701203  -0.0261845  -0.022824  -0.0429038  -0.0315942  0.0164682  0.0146792  0.0064545  -0.0199808  -0.0119268  0.15831  0.0488903 
1701448162.204216000  0  0  12.0735  -0.0529272  -0.110158  0.0126993  nan  nan  nan  nan  nan  nan  -1.9345  -0.935612  1.46887  -0.17028  0.153544  -0.00695347  0.39147  0.380656  -0.1176  0  0  0  1.13698  1.06713  -0  -0.00718592  -0.0263109  -0.0227522  -0.0409111  -0.0295774  0.0181313  0.0122846  0.00910882  -0.0205798  -0.00716407  0.136516  0.0470574 
1701448162.208743000  0  0  12.0635  -0.0471399  -0.115349  0.0129651  nan  nan  nan  nan  nan  nan  -1.93252  -0.933696  1.46828  -0.168324  0.151968  -0.00589065  0.397116  0.385951  -0.1176  0  0  0  1.12153  1.05055  -0  -0.00756256  -0.0266232  -0.0226129  -0.0396551  -0.0284824  0.0180884  0.0104605  0.0112882  -0.0211243  -0.00195675  0.126847  0.0491798 
1701448162.213744000  0  0  12.0717  -0.0619515  -0.111374  0.0139754  nan  nan  nan  nan  nan  nan  -1.93053  -0.931753  1.46769  -0.166321  0.15049  -0.00483708  0.402684  0.39116  -0.1176  0  0  0  1.10533  1.03322  -0  -0.00790811  -0.0269324  -0.022521  -0.0390075  -0.0277618  0.0166641  0.0091973  0.0130361  -0.0217165  0.0392878  0.102815  0.0424721 
1701448162.218747000  0  0  12.02  -0.0472966  -0.118151  0.0146027  nan  nan  nan  nan  nan  nan  -1.9285  -0.929784  1.46711  -0.163543  0.148012  -0.00350192  0.408168  0.396282  -0.1176  0  0  0  1.08837  1.01514  -0  -0.00809513  -0.0270621  -0.0224155  -0.036487  -0.0254821  0.0198114  0.00668767  0.015974  -0.0224363  0.0330666  0.0893413  0.0418289 
1701448162.223744000  0  0  12.0321  -0.0451581  -0.117192  0.0151213  nan  nan  nan  nan  nan  nan  -1.92644  -0.92779  1.46652  -0.161274  0.146355  -0.00238269  0.413566  0.40131  -0.1176  0  0  0  1.07067  0.996314  -0  -0.00848216  -0.0273797  -0.0223162  -0.0357741  -0.0246612  0.0179963  0.00490738  0.0177605  -0.0230287  0.0451683  0.0709876  0.0412703 
1701448162.229242000  0  0  12.0391  -0.0438103  -0.116544  0.0152499  nan  nan  nan  nan  nan  nan  -1.92436  -0.925771  1.46593  -0.157885  0.143924  -0.000977564  0.418874  0.406243  -0.1176  0  0  0  1.05222  0.976735  -0  -0.00864434  -0.0274756  -0.0222632  -0.0345375  -0.0229084  0.0163977  0.00229398  0.0201943  -0.0237151  0.0665159  0.0472998  0.0465273 
1701448162.233742000  0  0  11.9542  -0.0280057  -0.108494  0.0152587  nan  nan  nan  nan  nan  nan  -1.92225  -0.923728  1.46534  -0.15579  0.141786  0.000184365  0.424087  0.411077  -0.1176  0  0  0  1.03302  0.956405  -0  -0.0089988  -0.0277739  -0.0220714  -0.0319435  -0.020867  0.0222546  0.000425551  0.0222139  -0.0242591  0.0520963  0.0126193  0.0518575 
1701448162.238745000  0  0  11.9942  -0.035563  -0.100299  0.0159921  nan  nan  nan  nan  nan  nan  -1.92012  -0.921661  1.46475  -0.152638  0.139343  0.00154033  0.429203  0.415806  -0.1176  0  0  0  1.01307  0.935326  -0  -0.00928315  -0.028036  -0.0219954  -0.0311498  -0.0198054  0.0179648  -0.0018378  0.0242089  -0.024995  0.0880336  -0.0221234  0.050048 
1701448162.243732000  0  0  12.0141  -0.0180208  -0.104727  0.0157723  nan  nan  nan  nan  nan  nan  -1.91796  -0.91957  1.46417  -0.148834  0.136299  0.00306698  0.434217  0.420429  -0.1176  0  0  0  0.992366  0.913497  -0  -0.00944701  -0.02814  -0.021936  -0.0296071  -0.0179925  0.0151608  -0.00510235  0.0270323  -0.0257064  0.0829833  -0.0392444  0.059911 
1701448162.248742000  0  0  11.9375  -0.0131187  -0.0880897  0.0154987  nan  nan  nan  nan  nan  nan  -1.91578  -0.917457  1.46358  -0.146357  0.13409  0.00427402  0.439125  0.42494  -0.1176  0  0  0  0.970915  0.890917  -0  -0.00977523  -0.028408  -0.0217793  -0.0274874  -0.01601  0.0203847  -0.00690318  0.0283606  -0.0261542  0.0897468  -0.0847381  0.0678076 
1701448162.254217000  0  0  11.9976  -0.0189241  -0.0847543  0.0151242  nan  nan  nan  nan  nan  nan  -1.91357  -0.915321  1.46299  -0.142101  0.131139  0.00582006  0.443924  0.429336  -0.1176  0  0  0  0.948713  0.867588  -0  -0.00993728  -0.0284726  -0.0217662  -0.0268672  -0.0145069  0.0143726  -0.00994182  0.0303426  -0.0267494  0.129313  -0.109643  0.0784425 
1701448162.258745000  0  0  11.9876  -0.00139339  -0.0911879  0.0142519  nan  nan  nan  nan  nan  nan  -1.91134  -0.913163  1.4624  -0.139006  0.128611  0.00713629  0.448611  0.433615  -0.1176  0  0  0  0.925762  0.843508  -0  -0.0102673  -0.0287419  -0.0216391  -0.0255198  -0.0129984  0.0140808  -0.0124783  0.0323939  -0.0271679  0.117587  -0.115648  0.0935302 
1701448162.263746000  0  0  11.9208  -0.00879653  -0.0705954  0.0143469  nan  nan  nan  nan  nan  nan  -1.90909  -0.910985  1.46181  -0.135775  0.12599  0.00847297  0.453181  0.43777  -0.1176  0  0  0  0.90206  0.818679  -0  -0.0105885  -0.0289698  -0.0215186  -0.0233938  -0.0106308  0.0184682  -0.0145406  0.0336494  -0.0276061  0.151366  -0.168383  0.0967241 
1701448162.269153000  0  0  11.9877  -0.000310063  -0.0782816  0.0144178  nan  nan  nan  nan  nan  nan  -1.90681  -0.908786  1.46123  -0.131192  0.122601  0.0100683  0.45763  0.4418  -0.1176  0  0  0  0.877609  0.793099  -0  -0.0107004  -0.0289909  -0.0215327  -0.0226733  -0.00909156  0.0118607  -0.0179176  0.0359289  -0.0281669  0.165462  -0.173983  0.101447 
1701448162.273744000  0  0  11.9537  0.0109986  -0.0804555  0.0147966  nan  nan  nan  nan  nan  nan  -1.90451  -0.906567  1.46064  -0.127579  0.119406  0.0114961  0.461956  0.4457  -0.1176  0  0  0  0.852407  0.76677  -0  -0.0109868  -0.0292094  -0.0214045  -0.0205595  -0.00695028  0.013411  -0.0206637  0.0382084  -0.0287193  0.168109  -0.190607  0.102236 
1701448162.279218000  0  0  11.8978  -0.00371155  -0.0635445  0.0155248  nan  nan  nan  nan  nan  nan  -1.90219  -0.904329  1.46005  -0.123115  0.11545  0.0131004  0.466153  0.449467  -0.1176  0  0  0  0.826455  0.739691  -0  -0.0110767  -0.0291928  -0.0213424  -0.0177408  -0.00403165  0.0167277  -0.0233299  0.0402615  -0.029298  0.222059  -0.243317  0.0989194 
1701448162.283744000  0  0  11.96  0.00291648  -0.0797316  0.0157468  nan  nan  nan  nan  nan  nan  -1.89985  -0.902073  1.45946  -0.119138  0.112172  0.0145394  0.470219  0.453096  -0.1176  0  0  0  0.799754  0.711861  -0  -0.0113862  -0.0294304  -0.021271  -0.0169188  -0.0028887  0.0104531  -0.0260568  0.0426081  -0.0298871  0.233889  -0.232531  0.102036 
1701448162.288744000  0  0  11.9253  0.00249419  -0.0732091  0.0164219  nan  nan  nan  nan  nan  nan  -1.89749  -0.899798  1.45887  -0.115305  0.108884  0.0159434  0.474149  0.456584  -0.1176  0  0  0  0.772302  0.683282  -0  -0.0116491  -0.0296113  -0.021181  -0.0150939  -0.000821258  0.0121914  -0.0283251  0.0442522  -0.0304359  0.255603  -0.260702  0.0990856 
1701448162.293730000  0  0  11.8988  -0.00365966  -0.0712736  0.0167336  nan  nan  nan  nan  nan  nan  -1.89511  -0.897507  1.45829  -0.110448  0.104262  0.0175843  0.477941  0.459927  -0.1176  0  0  0  0.744101  0.653952  -0  -0.0117227  -0.0296154  -0.021115  -0.0121832  0.00197144  0.0129927  -0.0313165  0.0471776  -0.0310716  0.295431  -0.291487  0.101546 
1701448162.298746000  0  0  11.9475  0.00689286  -0.0860371  0.0160239  nan  nan  nan  nan  nan  nan  -1.89271  -0.895199  1.4577  -0.106445  0.101011  0.0189545  0.481589  0.463122  -0.1176  0  0  0  0.715149  0.623873  -0  -0.0120164  -0.0297797  -0.0210916  -0.0115233  0.00300523  0.00800862  -0.0336892  0.0489686  -0.0314124  0.296155  -0.278437  0.113825 
1701448162.304213000  0  0  11.9171  -0.00326677  -0.0786244  0.0164786  nan  nan  nan  nan  nan  nan  -1.89029  -0.892876  1.45711  -0.10144  0.0962673  0.0205544  0.485091  0.466166  -0.1176  0  0  0  0.685448  0.593663  -0  -0.0120123  -0.0296819  -0.0210784  -0.00881367  0.00573887  0.00929311  -0.0363992  0.0515428  -0.0319079  0.341407  -0.316945  0.113097 
1701448162.308736000  0  0  11.9004  -0.00656848  -0.088678  0.0164152  nan  nan  nan  nan  nan  nan  -1.88786  -0.890538  1.45652  -0.0973117  0.0920722  0.0219784  0.488442  0.46906  -0.1176  0  0  0  0.654996  0.564197  -0  -0.0122756  -0.0298756  -0.0209715  -0.00648747  0.00790892  0.00943331  -0.0385849  0.0542334  -0.032383  0.368118  -0.321591  0.11864 
1701448162.313739000  0  0  11.9295  -0.00682276  -0.0979494  0.0157748  nan  nan  nan  nan  nan  nan  -1.88541  -0.888186  1.45593  -0.0935213  0.0883947  0.0232955  0.49164  0.471809  -0.1176  0  0  0  0.624115  0.535481  -0  -0.0125466  -0.0300253  -0.0209465  -0.0053286  0.009155  0.00612129  -0.0402187  0.0561298  -0.032621  0.383657  -0.320496  0.129025 
1701448162.318742000  0  0  11.9088  -0.0226087  -0.0964539  0.0160164  nan  nan  nan  nan  nan  nan  -1.88294  -0.88582  1.45535  -0.0887089  0.083171  0.0248148  0.494685  0.474416  -0.1176  0  0  0  0.593893  0.507515  -0  -0.012568  -0.0299724  -0.0209113  -0.00216148  0.0119614  0.00660963  -0.0424391  0.0593171  -0.0330564  0.435657  -0.35281  0.130359 
1701448162.323739000  0  0  11.8947  -0.0263426  -0.11059  0.0153808  nan  nan  nan  nan  nan  nan  -1.88046  -0.883442  1.45476  -0.0848937  0.0790854  0.0261151  0.49758  0.476885  -0.1176  0  0  0  0.564421  0.480298  -0  -0.0127589  -0.0300791  -0.020872  -7.55885e-05  0.0138374  0.00685193  -0.0437405  0.0615614  -0.0332502  0.455098  -0.345184  0.140243 
1701448162.329239000  0  0  11.9372  -0.0358455  -0.115221  0.0146535  nan  nan  nan  nan  nan  nan  -1.87797  -0.881052  1.45417  -0.0807861  0.0747181  0.0274349  0.50033  0.47922  -0.1176  0  0  0  0.535699  0.453832  -0  -0.0127797  -0.0299794  -0.02092  0.00161756  0.0152305  0.00256789  -0.0448501  0.0636736  -0.0333234  0.484312  -0.355354  0.150065 
1701448162.333738000  0  0  11.8851  -0.0486745  -0.106112  0.0148047  nan  nan  nan  nan  nan  nan  -1.87546  -0.87865  1.45358  -0.0769078  0.0704595  0.0287004  0.502938  0.481425  -0.1176  0  0  0  0.507727  0.428116  -0  -0.0130177  -0.0301437  -0.0208073  0.00450257  0.0178913  0.00586751  -0.0460709  0.0658239  -0.0336237  0.521201  -0.393356  0.151178 
1701448162.338741000  0  0  11.8757  -0.0531906  -0.116062  0.0141011  nan  nan  nan  nan  nan  nan  -1.87294  -0.876237  1.45299  -0.0736276  0.0662253  0.0298974  0.505409  0.483503  -0.1176  0  0  0  0.480505  0.40315  -0  -0.0131616  -0.0302139  -0.0207769  0.00690852  0.0192734  0.00588789  -0.0465058  0.067944  -0.0336495  0.534234  -0.392961  0.16023 
1701448162.343748000  0  0  11.913  -0.0700274  -0.116496  0.0142288  nan  nan  nan  nan  nan  nan  -1.8704  -0.873815  1.45241  -0.0691141  0.0613398  0.0311945  0.507745  0.485458  -0.1176  0  0  0  0.454033  0.378934  -0  -0.0131305  -0.0301108  -0.0207925  0.00950706  0.0216458  0.00194908  -0.047796  0.0705395  -0.0338818  0.579778  -0.415972  0.160959 
1701448162.348736000  0  0  11.87  -0.0753964  -0.105499  0.0144367  nan  nan  nan  nan  nan  nan  -1.86786  -0.871383  1.45182  -0.0658569  0.0578734  0.0322889  0.50995  0.487293  -0.1176  0  0  0  0.428311  0.355468  -0  -0.013323  -0.0302026  -0.0207552  0.0114038  0.0235137  0.00497386  -0.0478975  0.0713338  -0.0340001  0.591449  -0.445272  0.159542 
1701448162.354215000  0  0  11.8476  -0.0814607  -0.105252  0.0142559  nan  nan  nan  nan  nan  nan  -1.8653  -0.868942  1.45123  -0.0620307  0.053105  0.0334787  0.512029  0.489014  -0.1176  0  0  0  0.403339  0.332751  -0  -0.0132394  -0.0300318  -0.0207698  0.0143134  0.0255188  0.00621352  -0.0482297  0.0732186  -0.034021  0.606634  -0.463107  0.162011 
1701448162.358739000  0  0  11.8856  -0.0931397  -0.0966097  0.0140785  nan  nan  nan  nan  nan  nan  -1.86274  -0.866493  1.45064  -0.058476  0.0493893  0.0345634  0.513985  0.490622  -0.1176  0  0  0  0.379117  0.310785  -0  -0.013418  -0.0301488  -0.0207219  0.0161799  0.0274588  0.00243506  -0.0486888  0.0744376  -0.0341972  0.634216  -0.491606  0.16599 
1701448162.363740000  0  0  11.8398  -0.0897882  -0.0868703  0.0134635  nan  nan  nan  nan  nan  nan  -1.86017  -0.864036  1.45005  -0.0555186  0.0459886  0.0355831  0.515821  0.492123  -0.1176  0  0  0  0.355645  0.289569  -0  -0.0135513  -0.0302038  -0.0206703  0.0180906  0.0291369  0.00579238  -0.0484824  0.0748935  -0.0341455  0.625615  -0.515279  0.173161 
1701448162.368737000  0  0  11.8239  -0.0968278  -0.0766105  0.0135473  nan  nan  nan  nan  nan  nan  -1.85758  -0.861572  1.44947  -0.0513012  0.0410569  0.0367211  0.517543  0.493519  -0.1176  0  0  0  0.332923  0.269103  -0  -0.0134612  -0.0300528  -0.0206449  0.0213767  0.0319684  0.00645276  -0.0493655  0.0767289  -0.0342519  0.647818  -0.552685  0.173178 
1701448162.373738000  0  0  11.8794  -0.0930519  -0.0661471  0.0132919  nan  nan  nan  nan  nan  nan  -1.85499  -0.859101  1.44888  -0.0483441  0.038145  0.0376804  0.519152  0.494815  -0.1176  0  0  0  0.310951  0.249387  -0  -0.0135781  -0.0300864  -0.0206675  0.0223179  0.0331779  0.00163904  -0.0490842  0.0764407  -0.0342128  0.637678  -0.57096  0.17598 
1701448162.378741000  0  0  11.8094  -0.0819245  -0.0598229  0.0128335  nan  nan  nan  nan  nan  nan  -1.85239  -0.856624  1.44829  -0.0444883  0.0333969  0.0387421  0.520653  0.496014  -0.1176  0  0  0  0.28973  0.230421  -0  -0.013456  -0.0299121  -0.0206012  0.0256858  0.0359803  0.00684196  -0.0499984  0.0779578  -0.0341769  0.623835  -0.597566  0.18135 
1701448162.383740000  0  0  11.8434  -0.0992781  -0.0317892  0.0129431  nan  nan  nan  nan  nan  nan  -1.84978  -0.854141  1.4477  -0.0414767  0.0303266  0.0396796  0.522051  0.49712  -0.1176  0  0  0  0.269258  0.212205  -0  -0.013556  -0.0299162  -0.0206126  0.0270883  0.0375619  0.00388915  -0.0494406  0.0772154  -0.0341553  0.65341  -0.646803  0.179765 
1701448162.388738000  0  0  11.8694  -0.0846522  -0.0262685  0.0124678  nan  nan  nan  nan  nan  nan  -1.84717  -0.851653  1.44711  -0.0386781  0.0280554  0.0405681  0.523347  0.498137  -0.1176  0  0  0  0.249536  0.194738  -0  -0.0136745  -0.0299334  -0.0206207  0.0276211  0.0390131  0.00165731  -0.0492282  0.0760242  -0.0340367  0.622204  -0.646886  0.18452 
1701448162.393738000  0  0  11.8142  -0.0836748  -0.0138228  0.0125192  nan  nan  nan  nan  nan  nan  -1.84455  -0.84916  1.44653  -0.0351803  0.0234802  0.0415492  0.524547  0.499069  -0.1176  0  0  0  0.230564  0.178022  -0  -0.0135263  -0.029735  -0.020575  0.0308751  0.0414719  0.00584284  -0.0496734  0.0769239  -0.0339946  0.624345  -0.680055  0.183456 
1701448162.398740000  0  0  11.876  -0.101005  0.00601472  0.0128101  nan  nan  nan  nan  nan  nan  -1.84192  -0.846662  1.44594  -0.0326931  0.021217  0.0424098  0.525654  0.499919  -0.1176  0  0  0  0.212342  0.162056  -0  -0.0136676  -0.0297636  -0.0206151  0.0315804  0.042624  0.000804226  -0.0485821  0.0752195  -0.0339654  0.648965  -0.704048  0.179528 
1701448162.403740000  0  0  11.9055  -0.0805067  -0.00939232  0.0124088  nan  nan  nan  nan  nan  nan  -1.83929  -0.844161  1.44535  -0.0300601  0.0184565  0.0432831  0.526672  0.500691  -0.1176  0  0  0  0.19487  0.14684  -0  -0.0136793  -0.0297068  -0.0206394  0.0328303  0.0440505  -0.00170705  -0.0484481  0.0747589  -0.0338493  0.606736  -0.668997  0.183383 
1701448162.408739000  0  0  11.8562  -0.0877266  0.00305789  0.0130456  nan  nan  nan  nan  nan  nan  -1.83666  -0.841656  1.44476  -0.0268197  0.0140275  0.0442023  0.527604  0.501389  -0.1176  0  0  0  0.178148  0.132374  -0  -0.0134987  -0.0294833  -0.0205986  0.0360565  0.0463695  0.00210969  -0.0485646  0.0754165  -0.033876  0.622247  -0.699947  0.17569 
1701448162.413746000  0  0  11.9002  -0.0964077  0.00532792  0.0127104  nan  nan  nan  nan  nan  nan  -1.83402  -0.839147  1.44417  -0.0242378  0.0114753  0.0450473  0.528455  0.502016  -0.1176  0  0  0  0.162176  0.118658  -0  -0.013532  -0.0294069  -0.02066  0.0372642  0.0478582  -0.00141569  -0.0477899  0.0743281  -0.0337996  0.632483  -0.694474  0.179116 
1701448162.418747000  0  0  11.9245  -0.0761604  -0.0248238  0.0117311  nan  nan  nan  nan  nan  nan  -1.83137  -0.836636  1.44359  -0.021226  0.00791922  0.0459105  0.529227  0.502576  -0.1176  0  0  0  0.146954  0.105691  -0  -0.0133502  -0.0291661  -0.0206894  0.0394318  0.0497843  -0.00356162  -0.0481647  0.0750695  -0.0336147  0.595436  -0.640991  0.189508 
1701448162.423744000  0  0  11.8915  -0.0970739  0.00191296  0.012121  nan  nan  nan  nan  nan  nan  -1.82873  -0.834122  1.443  -0.0189893  0.00497911  0.0467434  0.529925  0.503074  -0.1176  0  0  0  0.132482  0.0934753  -0  -0.0133438  -0.029083  -0.0206968  0.0413536  0.0512415  -0.000722168  -0.0470107  0.0740771  -0.033552  0.626646  -0.685335  0.184008 
1701448162.429248000  0  0  11.9241  -0.0924601  -0.00839987  0.0120793  nan  nan  nan  nan  nan  nan  -1.82607  -0.831605  1.44241  -0.016246  0.00212358  0.0475691  0.530553  0.503512  -0.1176  0  0  0  0.11876  0.0820091  -0  -0.0130913  -0.0287295  -0.0208204  0.0426449  0.052726  -0.00316929  -0.0463963  0.0733032  -0.0334006  0.611766  -0.65759  0.183014 
1701448162.433745000  0  0  11.9204  -0.0810666  -0.0362153  0.012177  nan  nan  nan  nan  nan  nan  -1.82342  -0.829086  1.44182  -0.0143725  -0.000773704  0.0483866  0.531114  0.503895  -0.1176  0  0  0  0.105788  0.071293  -0  -0.0131588  -0.0287487  -0.0207686  0.0448635  0.0540628  -0.00301979  -0.0459409  0.0738924  -0.0333984  0.58479  -0.607379  0.181772 
1701448162.438747000  0  0  11.9082  -0.104993  -0.0247275  0.0125451  nan  nan  nan  nan  nan  nan  -1.82076  -0.826566  1.44123  -0.011521  -0.0046084  0.0492067  0.531612  0.504227  -0.1176  0  0  0  0.0935664  0.0613268  -0  -0.0129286  -0.0284718  -0.0207696  0.0476865  0.0562136  -0.00202225  -0.0453839  0.074289  -0.0333947  0.627519  -0.634004  0.177134 
1701448162.443758000  0  0  11.9276  -0.0913976  -0.0446713  0.0117909  nan  nan  nan  nan  nan  nan  -1.8181  -0.824044  1.44065  -0.0097152  -0.00680636  0.0500041  0.532051  0.50451  -0.1176  0  0  0  0.0820945  0.0521107  -0  -0.0128631  -0.0283233  -0.0208378  0.0488813  0.0572201  -0.00343052  -0.0444142  0.0737326  -0.0332394  0.591406  -0.588997  0.185007 
