ts fx fy fz tx ty tz exfx exfy exfz extx exty extz xd yd zd rolld pitchd yawd vxd vyd vzd wxd wyd wzd axd ayd azd e_x e_y e_z e_vx e_vy e_vz e_rx e_ry e_rz e_wx e_wy e_wz
1699890178.885409000  0  0  11.2107  0.0639267  -0.0247952  0.00297802  nan  nan  nan  nan  nan  nan  -1  0  1  -0.00102886  -0.0168084  1.72927e-05  0  0  0  0  0  0  0  0  0  0.0141723  -0.0085397  -0.00480808  -0.0105553  0.0176957  0.00448431  -0.0141797  0.00767515  -0.0040815  0.00259954  -0.0210211  0.00358973 
1699890178.889432000  0  0  11.1739  0.0552303  -0.0290125  0.00349822  nan  nan  nan  nan  nan  nan  -1  0  1  -0.00146254  -0.0166865  2.44035e-05  0  0  0  0  0  0  0  0  0  0.0142095  -0.0086107  -0.00476827  -0.0108582  0.0173194  0.00747612  -0.0135551  0.00753532  -0.00412003  0.0142461  -0.0112998  -0.00252741 
1699890178.893454000  0  0  11.2588  0.0394203  -0.0379536  0.00449152  nan  nan  nan  nan  nan  nan  -1  0  1  -0.000599513  -0.0162821  9.76093e-06  0  0  0  0  0  0  0  0  0  0.0141665  -0.00853701  -0.00480586  -0.011111  0.0182213  0.00047029  -0.0139542  0.00731342  -0.00424749  0.0495382  0.00862379  -0.0136691 
1699890178.899435000  0  0  11.2087  0.0468706  -0.0368379  0.00402643  nan  nan  nan  nan  nan  nan  -1  0  1  -0.00155433  -0.0169351  2.63216e-05  0  0  0  0  0  0  0  0  0  0.0141864  -0.00858873  -0.00476048  -0.0104327  0.0171506  0.00457001  -0.0129319  0.00792235  -0.0042702  0.0252319  0.000790276  -0.00762843 
1699890178.903438000  0  0  11.1528  0.0507456  -0.0384133  0.0039588  nan  nan  nan  nan  nan  nan  -1  0  1  -0.000833798  -0.016388  1.36636e-05  0  0  0  0  0  0  0  0  0  0.0141402  -0.00851635  -0.00470707  -0.0111131  0.0178921  0.00910083  -0.013594  0.00745317  -0.00428584  0.0235733  0.00825751  -0.0066267 
1699890178.909436000  0  0  11.2613  0.0249319  -0.0510565  0.00452078  nan  nan  nan  nan  nan  nan  -1  0  1  -0.00134456  -0.0165433  2.22425e-05  0  0  0  0  0  0  0  0  0  0.0141686  -0.00858395  -0.00474418  -0.0107846  0.0173933  0.000146546  -0.0123795  0.00791497  -0.00439892  0.0640273  0.0292953  -0.0125205 
1699890178.914427000  0  0  11.2075  0.0402218  -0.0475565  0.00431418  nan  nan  nan  nan  nan  nan  -1  0  1  -0.00206901  -0.0174009  3.6001e-05  0  0  0  0  0  0  0  0  0  0.0142097  -0.00863609  -0.00470524  -0.00990683  0.0166153  0.00456654  -0.0116746  0.00874033  -0.00440659  0.0269625  0.0147019  -0.00986136 
1699890178.919391000  0  0  11.1964  0.0425793  -0.0508942  0.00430058  nan  nan  nan  nan  nan  nan  -1  0  1  -0.00126339  -0.0168725  2.13156e-05  0  0  0  0  0  0  0  0  0  0.0141563  -0.00854963  -0.00467754  -0.0104671  0.0174277  0.00542286  -0.0123383  0.00839067  -0.00444656  0.0283534  0.0245943  -0.00929165 
1699890178.924460000  0  0  11.303  0.0263261  -0.0636345  0.00452182  nan  nan  nan  nan  nan  nan  -1  0  1  -0.00195152  -0.0171341  3.34361e-05  0  0  0  0  0  0  0  0  0  0.0141997  -0.00863644  -0.00471805  -0.0100351  0.0167417  -0.00336467  -0.0112074  0.00904428  -0.00451314  0.0504555  0.0440616  -0.0113913 
1699890178.928443000  0  0  11.258  0.0422828  -0.0535078  0.00424044  nan  nan  nan  nan  nan  nan  -1  0  1  -0.00170839  -0.0171199  2.92462e-05  0  0  0  0  0  0  0  0  0  0.0141608  -0.00857127  -0.00468746  -0.0100521  0.0169107  0.000319366  -0.0115734  0.00897677  -0.00451307  0.0219099  0.0244293  -0.00787486 
1699890178.934452000  0  0  11.1933  0.0544709  -0.0548265  0.00326138  nan  nan  nan  nan  nan  nan  -1  0  1  -0.00139459  -0.0170925  2.38359e-05  0  0  0  0  0  0  0  0  0  0.0141895  -0.00862058  -0.00463823  -0.010273  0.0174227  0.00560073  -0.0120362  0.00908353  -0.00440924  0.00179106  0.0260846  0.00332525 
1699890178.939533000  0  0  11.2673  0.0518482  -0.0583544  0.00319806  nan  nan  nan  nan  nan  nan  -1  0  1  -0.00195594  -0.0172984  3.38331e-05  0  0  0  0  0  0  0  0  0  0.014229  -0.00867407  -0.00468092  -0.00996223  0.0168275  -0.000472044  -0.0114171  0.00949018  -0.00437708  0.00134129  0.0293991  0.0037951 
1699890178.943561000  0  0  11.1739  0.0770215  -0.0435701  0.00353302  nan  nan  nan  nan  nan  nan  -1  -0  1  -0.00156992  -0.0175367  2.75298e-05  6e-07  -6e-07  6e-07  0  0  0  0  0  0  0.0141925  -0.00860681  -0.00461244  -0.00976475  0.0171775  0.00715962  -0.0122459  0.00952176  -0.00439137  -0.0413812  -0.000459868  -0.000249073 
1699890178.949503000  0  0  11.1829  0.0769562  -0.0556194  0.00345209  nan  nan  nan  nan  nan  nan  -1  -0  1  -0.0012069  -0.0175303  2.11562e-05  5e-06  -5e-06  5e-06  0  0  0  0  0  0  0.0142492  -0.0086636  -0.00460854  -0.00988116  0.0177531  0.00639775  -0.0127641  0.00975167  -0.00434666  -0.0364826  0.0215234  0.000315464 
1699890178.953422000  0  0  11.2401  0.0773555  -0.0554656  0.00339616  nan  nan  nan  nan  nan  nan  -1  -1e-07  1  -0.000697619  -0.0170063  1.18633e-05  1.69e-05  -1.69e-05  1.69e-05  0  0  0  0  0  0  0.0142091  -0.00859532  -0.0046282  -0.0103348  0.0182296  0.00165543  -0.0133611  0.00935195  -0.00433866  -0.0317888  0.0248932  0.000934684 
1699890178.959442000  0  0  11.1517  0.0923994  -0.0354545  0.0035897  nan  nan  nan  nan  nan  nan  -1  -2e-07  1  -0.00110603  -0.0176853  1.96596e-05  4e-05  -4e-05  4e-05  0  0  0  0  0  0  0.0142437  -0.00862154  -0.00455322  -0.00973746  0.0177888  0.00887923  -0.0134512  0.00964236  -0.00433487  -0.0610478  -0.0178006  -0.00152254 
1699890178.964428000  0  0  11.1746  0.0924087  -0.0425124  0.00332875  nan  nan  nan  nan  nan  nan  -1  -5e-07  1  -0.000753776  -0.017435  1.33414e-05  7.81e-05  -7.81e-05  7.81e-05  0  0  0  0  0  0  0.0142748  -0.00865696  -0.00455203  -0.0100722  0.018302  0.00695697  -0.0140435  0.00948871  -0.00429379  -0.0556177  -0.0022714  0.00132843 
1699890178.969424000  0  0  11.2376  0.0910422  -0.0357255  0.00360902  nan  nan  nan  nan  nan  nan  -0.999999  -1e-06  1  -3.03901e-05  -0.0168548  9.12194e-07  0.000135  -0.000135  0.000135  0  0  0  0  0  0  0.0142233  -0.00856588  -0.00456704  -0.0105599  0.0189974  0.001724  -0.0149217  0.00882889  -0.00432406  -0.0448044  -0.0097749  -0.00187215 
1699890178.974417000  0  0  11.157  0.0937444  -0.0185435  0.00381372  nan  nan  nan  nan  nan  nan  -0.999998  -1.9e-06  1  -0.000821152  -0.0176285  1.50749e-05  0.0002141  -0.0002144  0.0002134  0  0  0  0  0  0  0.0142913  -0.00865384  -0.00449881  -0.00990291  0.018213  0.00831275  -0.0144729  0.00913677  -0.00434209  -0.0543378  -0.0469713  -0.00425056 
1699890178.978420000  0  0  11.1695  0.0920118  -0.0218532  0.003613  nan  nan  nan  nan  nan  nan  -0.999997  -3.2e-06  1  0.000155452  -0.0170191  -1.84554e-06  0.0003149  -0.00032  0.0003113  0  0  0  0  0  0  0.0142488  -0.00857625  -0.0044804  -0.0105401  0.0192513  0.00721203  -0.0155202  0.0084675  -0.00432163  -0.0412382  -0.0341946  -0.00194625 
1699890178.984443000  0  0  11.22  0.0736281  -0.0174676  0.00368661  nan  nan  nan  nan  nan  nan  -0.999995  -5.1e-06  1.00001  0.000158754  -0.0167135  -1.65321e-06  0.0004338  -0.0004556  0.0004249  0  0  0  0  0  0  0.0142589  -0.00858063  -0.00450465  -0.0108481  0.019266  0.00305245  -0.0153715  0.00795563  -0.00433991  -0.00583809  -0.0382567  -0.00268345 
1699890178.989445000  0  0  11.1594  0.0800346  -0.00148848  0.00365321  nan  nan  nan  nan  nan  nan  -0.999992  -7.8e-06  1.00001  -0.000261127  -0.0171802  5.68601e-06  0.0005669  -0.000625  0.0005504  0  0  0  0  0  0  0.0143128  -0.00863782  -0.00447872  -0.0105019  0.0188714  0.00806291  -0.0151757  0.00785492  -0.00436613  -0.0204526  -0.0692883  -0.00200384 
1699890178.994436000  0  0  11.2161  0.0814758  -0.0213715  0.00376827  nan  nan  nan  nan  nan  nan  -0.999989  -1.14e-05  1.00001  0.00104656  -0.0163211  -1.56801e-05  0.0007105  -0.0008319  0.0006841  0  0  0  0  0  0  0.014257  -0.00853687  -0.0044835  -0.0113398  0.020275  0.00331762  -0.0164801  0.00718633  -0.00437437  -0.0113346  -0.0233712  -0.0033597 
1699890178.999441000  0  0  11.2739  0.0598646  -0.0180598  0.00397589  nan  nan  nan  nan  nan  nan  -0.999985  -1.62e-05  1.00001  0.000723967  -0.0162462  -1.01612e-05  0.000861  -0.00108  0.0008222  0  0  0  0  0  0  0.0142968  -0.00858262  -0.00453763  -0.0114177  0.0199793  -0.00137343  -0.0157785  0.0069682  -0.00438498  0.0254334  -0.0279877  -0.00584882 
1699890179.003452000  0  0  11.2152  0.0684682  -0.00112487  0.00459789  nan  nan  nan  nan  nan  nan  -0.999981  -2.23e-05  1.00002  0.00133068  -0.0161362  -1.97712e-05  0.0010145  -0.0013731  0.000961  0  0  0  0  0  0  0.0142535  -0.00850227  -0.00449643  -0.0115644  0.020552  0.00342484  -0.0164018  0.00640821  -0.00447914  0.0139604  -0.0567058  -0.0126823 
1699890179.009445000  0  0  11.2826  0.0656889  -0.0278822  0.00406896  nan  nan  nan  nan  nan  nan  -0.999975  -3e-05  1.00002  0.00181605  -0.015829  -2.69451e-05  0.0011672  -0.001715  0.0010968  0  0  0  0  0  0  0.0142681  -0.00850041  -0.00455044  -0.011861  0.0211663  -0.00208963  -0.016672  0.00639586  -0.00444963  0.0220047  -0.0030774  -0.00636579 
1699890179.014440000  0  0  11.3172  0.0372215  -0.0207145  0.00387086  nan  nan  nan  nan  nan  nan  -0.999969  -3.96e-05  1.00003  0.00140568  -0.0159054  -2.0657e-05  0.0013155  -0.0021094  0.0012257  0  0  0  0  0  0  0.0143081  -0.00854826  -0.00461565  -0.0117934  0.0207636  -0.0048175  -0.0156389  0.00631663  -0.00444828  0.0694346  -0.0166841  -0.00390295 
1699890179.019445000  0  0  11.2926  0.0480473  -0.0145878  0.00340311  nan  nan  nan  nan  nan  nan  -0.999962  -5.12e-05  1.00004  0.00235244  -0.0155789  -3.52469e-05  0.0014556  -0.0025587  0.0013441  0  0  0  0  0  0  0.0142502  -0.00844293  -0.00461277  -0.0121176  0.0217135  -0.0027869  -0.0163832  0.00577161  -0.00440712  0.054631  -0.0239231  0.00153227 
1699890179.024441000  0  0  11.3606  0.0574626  -0.0427926  0.0035686  nan  nan  nan  nan  nan  nan  -0.999954  -6.52e-05  1.00004  0.0024676  -0.0153218  -3.69067e-05  0.0015837  -0.0030604  0.0014482  0  0  0  0  0  0  0.014256  -0.00845823  -0.00468211  -0.0123372  0.0219106  -0.00831166  -0.0164323  0.0060375  -0.00441572  0.0362519  0.0300402  -0.000450225 
1699890179.028450000  0  0  11.3859  0.0392427  -0.0366414  0.00446119  nan  nan  nan  nan  nan  nan  -0.999946  -8.19e-05  1.00005  0.00342161  -0.0149217  -5.10547e-05  0.0016961  -0.0036108  0.0015342  0  0  0  0  0  0  0.0142052  -0.00836509  -0.00472568  -0.0126872  0.0229175  -0.0103405  -0.0167929  0.00567351  -0.00451416  0.0760093  0.0210864  -0.0106232 
1699890179.034442000  0  0  11.3114  0.0514311  -0.0280854  0.00450258  nan  nan  nan  nan  nan  nan  -0.999938  -0.0001014  1.00006  0.00321799  -0.0153794  -5.07889e-05  0.001789  -0.0042061  0.0015988  0  0  0  0  0  0  0.0142189  -0.00839267  -0.00472058  -0.0122662  0.0226944  -0.00412876  -0.0163962  0.00593912  -0.00457639  0.0479827  0.00153102  -0.0105183 
1699890179.039444000  0  0  11.3617  0.064716  -0.0504582  0.00377188  nan  nan  nan  nan  nan  nan  -0.999928  -0.000124  1.00007  0.00330235  -0.0152523  -5.34668e-05  0.0018593  -0.0048425  0.0016434  0  0  0  0  0  0  0.0142336  -0.00843079  -0.00478153  -0.0123732  0.0229036  -0.00819644  -0.0165122  0.00631319  -0.00451657  0.0224807  0.042835  -0.00198275 
1699890179.044448000  0  0  11.3312  0.0507004  -0.0387227  0.00411082  nan  nan  nan  nan  nan  nan  -0.999919  -0.0001499  1.00007  0.00451972  -0.0150895  -7.36981e-05  0.0019086  -0.0055164  0.0016716  0  0  0  0  0  0  0.0141738  -0.00831265  -0.00478762  -0.0124967  0.0241625  -0.00565416  -0.0172044  0.00613733  -0.00454749  0.0568794  0.0209819  -0.00591037 
1699890179.049451000  0  0  11.299  0.0709688  -0.0441287  0.00339017  nan  nan  nan  nan  nan  nan  -0.999909  -0.0001792  1.00008  0.00483131  -0.0154977  -8.3572e-05  0.0019405  -0.0062239  0.0016872  0  0  0  0  0  0  0.0141854  -0.00831636  -0.00479728  -0.0120636  0.0245457  -0.00295503  -0.017634  0.00668452  -0.00446172  0.0202953  0.0267597  0.00224006 
1699890179.053451000  0  0  11.3211  0.0910648  -0.0585587  0.00291468  nan  nan  nan  nan  nan  nan  -0.9999  -0.0002122  1.00009  0.00615083  -0.0149221  -0.000104481  0.0019589  -0.0069612  0.0016939  0  0  0  0  0  0  0.0141324  -0.00820717  -0.00483333  -0.0126313  0.0259748  -0.00474329  -0.0191698  0.0065574  -0.00438686  -0.00576715  0.0567894  0.00743516 
1699890179.059442000  0  0  11.2792  0.0685017  -0.0459403  0.00368006  nan  nan  nan  nan  nan  nan  -0.99989  -0.0002489  1.0001  0.0063778  -0.0155619  -0.000117048  0.0019674  -0.0077248  0.0016954  0  0  0  0  0  0  0.0141703  -0.00819924  -0.00484779  -0.0119829  0.0262128  -0.00121164  -0.0188204  0.00716264  -0.00439624  0.0361441  0.0259842  -0.00203838 
1699890179.064451000  0  0  11.2749  0.0878063  -0.0572791  0.00264704  nan  nan  nan  nan  nan  nan  -0.99988  -0.0002895  1.00011  0.00677073  -0.016042  -0.000132613  0.0019699  -0.0085107  0.0016955  0  0  0  0  0  0  0.0142164  -0.00821846  -0.00486244  -0.011491  0.0267445  -0.000825448  -0.0193497  0.00788762  -0.00422513  0.00240498  0.0419922  0.00916334 
1699890179.069457000  0  0  11.2954  0.100507  -0.063481  0.00229958  nan  nan  nan  nan  nan  nan  -0.99987  -0.000334  1.00012  0.00816443  -0.0152952  -0.000156374  0.0019701  -0.0093153  0.0016955  0  0  0  0  0  0  0.0141536  -0.00808128  -0.0048894  -0.0122513  0.0282045  -0.00250706  -0.0208959  0.0075638  -0.00412932  -0.00877143  0.057375  0.0125485 
1699890179.074442000  0  0  11.2357  0.0785782  -0.0439686  0.00345451  nan  nan  nan  nan  nan  nan  -0.99986  -0.0003826  1.00013  0.00845355  -0.0159634  -0.000175445  0.0019701  -0.0101348  0.0016955  0  0  0  0  0  0  0.0141892  -0.00807782  -0.00486156  -0.0115975  0.0285032  0.0024226  -0.0207018  0.00800552  -0.00419113  0.0333006  0.0142864  -0.0012701 
1699890179.078439000  0  0  11.262  0.102074  -0.055576  0.00313444  nan  nan  nan  nan  nan  nan  -0.99985  -0.0004354  1.00013  0.00991123  -0.0158668  -0.000208358  0.0019701  -0.0109655  0.0016955  0  0  0  0  0  0  0.0141424  -0.00794848  -0.00487338  -0.0115665  0.0300647  0.000233301  -0.022366  0.00817642  -0.00413071  0.00161873  0.0359289  0.00212668 
1699890179.084447000  0  0  11.2625  0.103068  -0.0566484  0.0028594  nan  nan  nan  nan  nan  nan  -0.999841  -0.0004923  1.00014  0.00997923  -0.0157453  -0.000220625  0.0019701  -0.0118035  0.0016955  0  0  0  0  0  0  0.0141725  -0.00795761  -0.00485136  -0.0117844  0.0301705  0.000141817  -0.0224765  0.0083246  -0.00405769  0.00064849  0.0367104  0.00483443 
1699890179.089449000  0  0  11.2276  0.0777612  -0.0338886  0.00378935  nan  nan  nan  nan  nan  nan  -0.999831  -0.0005534  1.00015  0.0102319  -0.0162359  -0.000244124  0.0019701  -0.0126452  0.0016955  0  0  0  0  0  0  0.014202  -0.00793517  -0.00482153  -0.0112987  0.0303966  0.0030011  -0.0221728  0.00848078  -0.00412144  0.0484678  -0.0102459  -0.00615247 
1699890179.094425000  0  0  11.2918  0.103957  -0.0513973  0.00304985  nan  nan  nan  nan  nan  nan  -0.999821  -0.0006188  1.00016  0.0116034  -0.0159197  -0.000279523  0.0019701  -0.0134869  0.0016955  0  0  0  0  0  0  0.0141463  -0.00777899  -0.00486017  -0.0114544  0.0318435  -0.00229552  -0.0237268  0.00849377  -0.00402874  0.0103722  0.024652  0.00216427 
1699890179.099452000  0  0  11.279  0.0848125  -0.0387049  0.00349546  nan  nan  nan  nan  nan  nan  -0.999811  -0.0006883  1.00017  0.0117928  -0.0157498  -0.000299736  0.0019701  -0.0143246  0.0016955  0  0  0  0  0  0  0.0141747  -0.00776208  -0.00484293  -0.011753  0.0320264  -0.00125632  -0.0234537  0.00819464  -0.00403051  0.0461494  0.00201924  -0.00338818 
1699890179.103452000  0  0  11.2481  0.0626443  -0.016226  0.004544  nan  nan  nan  nan  nan  nan  -0.999801  -0.000762  1.00018  0.0130066  -0.0154443  -0.000336681  0.0019701  -0.0151548  0.0016955  0  0  0  0  0  0  0.0141254  -0.00761723  -0.00482658  -0.0120784  0.0331809  0.00128679  -0.0239259  0.00745291  -0.00415208  0.0948297  -0.0361148  -0.0152793 
1699890179.109442000  0  0  11.3252  0.0811281  -0.0343135  0.0037383  nan  nan  nan  nan  nan  nan  -0.999791  -0.0008398  1.00018  0.0128784  -0.015662  -0.000362304  0.0019701  -0.0159736  0.0016955  0  0  0  0  0  0  0.0141537  -0.00758378  -0.00485061  -0.0117347  0.0330559  -0.00508112  -0.0236511  0.00781266  -0.00409064  0.0553342  -0.00324946  -0.00582235 
1699890179.114383000  0  0  11.3001  0.059679  -0.0249005  0.00399249  nan  nan  nan  nan  nan  nan  -0.999781  -0.0009217  1.00019  0.0128331  -0.0158956  -0.000392593  0.0019701  -0.0167773  0.0016955  0  0  0  0  0  0  0.0142141  -0.00759333  -0.00482237  -0.0116193  0.0329833  -0.00302525  -0.0228517  0.00775722  -0.00409535  0.0908778  -0.0215654  -0.00895259 
1699890179.119444000  0  0  11.2943  0.0401569  -0.0121338  0.00351491  nan  nan  nan  nan  nan  nan  -0.999772  -0.0010076  1.0002  0.0137466  -0.0153962  -0.000431549  0.0019701  -0.0175622  0.0016955  0  0  0  0  0  0  0.0141549  -0.00742752  -0.00482777  -0.0121241  0.0337525  -0.00251978  -0.02281  0.006907  -0.00406142  0.129538  -0.0392768  -0.00332222 
1699890179.124440000  0  0  11.3469  0.0581712  -0.0301055  0.00208614  nan  nan  nan  nan  nan  nan  -0.999762  -0.0010973  1.00021  0.0132223  -0.0156217  -0.000461458  0.0019701  -0.0183245  0.0016955  0  0  0  0  0  0  0.0141936  -0.00743854  -0.00483982  -0.0118356  0.0331953  -0.00687249  -0.0220866  0.00728158  -0.0038473  0.0868544  -0.00677956  0.0123963 
1699890179.128441000  0  0  11.2989  0.0445577  -0.0192402  0.00293009  nan  nan  nan  nan  nan  nan  -0.999752  -0.0011908  1.00022  0.0144869  -0.0154607  -0.000517785  0.0019701  -0.0190604  0.0016955  0  0  0  0  0  0  0.0141451  -0.00728241  -0.00482787  -0.0120115  0.034365  -0.00289294  -0.0226559  0.00689115  -0.00385344  0.119319  -0.0249181  0.00190828 
1699890179.134435000  0  0  11.2802  0.028467  -0.025934  0.00359909  nan  nan  nan  nan  nan  nan  -0.999742  -0.0012879  1.00023  0.0142029  -0.0153612  -0.000554981  0.0019701  -0.0197662  0.0016955  0  0  0  0  0  0  0.0141774  -0.00728728  -0.00478854  -0.0122402  0.0339885  -0.00139219  -0.0213065  0.00673067  -0.00389199  0.139086  -0.0100541  -0.0060687 
1699890179.139444000  0  0  11.3079  0.0462473  -0.03088  0.0040398  nan  nan  nan  nan  nan  nan  -0.999732  -0.0013884  1.00024  0.0135533  -0.0157433  -0.000597378  0.0019701  -0.0204382  0.0016955  0  0  0  0  0  0  0.0142116  -0.00729199  -0.004783  -0.0117887  0.033225  -0.00370079  -0.0204391  0.00710394  -0.00392725  0.0955448  -0.00359624  -0.011225 
1699890179.144443000  0  0  11.216  0.0329977  -0.017868  0.00504901  nan  nan  nan  nan  nan  nan  -0.999722  -0.0014922  1.00024  0.0148541  -0.0154784  -0.000665625  0.0019701  -0.0210726  0.0016955  0  0  0  0  0  0  0.0141521  -0.00712064  -0.00472333  -0.0121456  0.034326  0.00384624  -0.0209207  0.00656398  -0.00404889  0.126475  -0.0246526  -0.0226238 
1699890179.149442000  0  0  11.2634  0.0327201  -0.0361187  0.00412495  nan  nan  nan  nan  nan  nan  -0.999712  -0.001599  1.00025  0.0143607  -0.0154648  -0.000714191  0.0019701  -0.0216656  0.0016955  0  0  0  0  0  0  0.0141705  -0.0071355  -0.00470584  -0.0121218  0.0338183  -0.00012766  -0.0198543  0.0067949  -0.00396851  0.117219  0.00972432  -0.0118767 
1699890179.153443000  0  0  11.3077  0.0503507  -0.0314669  0.00332477  nan  nan  nan  nan  nan  nan  -0.999703  -0.0017087  1.00026  0.0148185  -0.0150741  -0.000776583  0.0019701  -0.0222136  0.0016955  0  0  0  0  0  0  0.0141206  -0.00698031  -0.00473988  -0.0124241  0.0341186  -0.00375068  -0.0202041  0.00640188  -0.00386008  0.0851761  0.00403657  -0.00295876 
1699890179.159443000  0  0  11.206  0.0384358  -0.0173199  0.00387153  nan  nan  nan  nan  nan  nan  -0.999693  -0.0018211  1.00027  0.0149196  -0.0151015  -0.000844716  0.0019701  -0.0227126  0.0016955  0  0  0  0  0  0  0.0141223  -0.00695384  -0.00464198  -0.0125631  0.0340169  0.00453174  -0.0195878  0.00611993  -0.00386076  0.103336  -0.0216636  -0.00978649 
1699890179.164442000  0  0  11.2962  0.046249  -0.0516285  0.00351812  nan  nan  nan  nan  nan  nan  -0.999683  -0.0019358  1.00028  0.0144725  -0.0151458  -0.000910005  0.0019701  -0.0231591  0.0016955  0  0  0  0  0  0  0.0141383  -0.00695048  -0.00465349  -0.0123907  0.0335961  -0.00295609  -0.0188593  0.00676824  -0.0037826  0.0810071  0.0409893  -0.00615045 
1699890179.169447000  0  0  11.2994  0.0555521  -0.0315252  0.00296584  nan  nan  nan  nan  nan  nan  -0.999673  -0.0020526  1.00029  0.0148602  -0.0148205  -0.000987644  0.0019701  -0.0235507  0.0016955  0  0  0  0  0  0  0.0140765  -0.00678543  -0.00466427  -0.0126545  0.0337203  -0.00320536  -0.0190632  0.00626436  -0.00366623  0.0642769  0.00541839  -0.000410605 
1699890179.174433000  0  0  11.204  0.0490847  -0.024777  0.00349492  nan  nan  nan  nan  nan  nan  -0.999663  -0.0021712  1.0003  0.0149421  -0.0150722  -0.00107462  0.0019701  -0.0238899  0.0016955  0  0  0  0  0  0  0.0141001  -0.00676368  -0.00457831  -0.0125493  0.0336145  0.00457647  -0.0186996  0.00632488  -0.00365479  0.0738669  -0.00863486  -0.00713851 
1699890179.178439000  0  0  11.2931  0.0592606  -0.0493798  0.00306468  nan  nan  nan  nan  nan  nan  -0.999653  -0.0022914  1.0003  0.015737  -0.0147163  -0.0011686  0.0019701  -0.0241806  0.0016955  0  0  0  0  0  0  0.0140484  -0.00660169  -0.0046262  -0.0127288  0.0343988  -0.00275394  -0.0193465  0.00646419  -0.00354222  0.0594667  0.039289  -0.00288636 
1699890179.184441000  0  0  11.2837  0.0592893  -0.0270669  0.00284765  nan  nan  nan  nan  nan  nan  -0.999643  -0.0024129  1.00031  0.0149602  -0.0149721  -0.00125429  0.0019701  -0.0244265  0.0016955  0  0  0  0  0  0  0.0140623  -0.00658406  -0.00459507  -0.012454  0.0333669  -0.00202665  -0.0183516  0.00645618  -0.00342858  0.0502562  -0.00526315  -0.00130983 
1699890179.189444000  0  0  11.1923  0.0569607  -0.0256115  0.00315582  nan  nan  nan  nan  nan  nan  -0.999634  -0.0025356  1.00032  0.0149598  -0.0151258  -0.00135559  0.0019701  -0.0246313  0.0016955  0  0  0  0  0  0  0.0140853  -0.00657167  -0.00449545  -0.0124644  0.0331849  0.00538901  -0.0180932  0.00650353  -0.00338785  0.0525362  -0.00860944  -0.00556925 
1699890179.194442000  0  0  11.3252  0.0692626  -0.0556766  0.00265312  nan  nan  nan  nan  nan  nan  -0.999624  -0.0026592  1.00033  0.0154752  -0.0145372  -0.00145918  0.0019701  -0.0247989  0.0016955  0  0  0  0  0  0  0.0140224  -0.00640459  -0.00457885  -0.0128387  0.0336819  -0.00551465  -0.0185723  0.00658661  -0.00325616  0.03234  0.0507564  -0.000602474 
1699890179.199443000  0  0  11.2621  0.0626759  -0.0243319  0.00297683  nan  nan  nan  nan  nan  nan  -0.999614  -0.0027835  1.00034  0.0149086  -0.0149914  -0.00156851  0.0019701  -0.0249328  0.0016955  0  0  0  0  0  0  0.014043  -0.00637931  -0.00451108  -0.0124175  0.0328053  -0.000390798  -0.0178056  0.00658793  -0.00317906  0.0384598  -0.0119452  -0.00541976 
1699890179.203446000  0  0  11.189  0.0675248  -0.0189535  0.00300399  nan  nan  nan  nan  nan  nan  -0.999604  -0.0029085  1.00035  0.015617  -0.0146254  -0.00169032  0.0019701  -0.025037  0.0016955  0  0  0  0  0  0  0.013989  -0.00622124  -0.00446571  -0.0128707  0.0332125  0.00560526  -0.018403  0.00608425  -0.0030977  0.0342577  -0.0180681  -0.00657292 
1699890179.209442000  0  0  11.3467  0.0745519  -0.0550306  0.00199405  nan  nan  nan  nan  nan  nan  -0.999594  -0.0030339  1.00035  0.0150869  -0.0143841  -0.00180182  0.0019701  -0.0251151  0.0016955  0  0  0  0  0  0  0.014004  -0.006207  -0.00449787  -0.0129504  0.032784  -0.00747154  -0.0179363  0.00660344  -0.00287173  0.0159106  0.0493096  0.00379166 
1699890179.214435000  0  0  11.2381  0.0596243  -0.0205151  0.00295731  nan  nan  nan  nan  nan  nan  -0.999584  -0.0031596  1.00036  0.0145635  -0.0152384  -0.00193583  0.0019701  -0.0251709  0.0016955  0  0  0  0  0  0  0.0140373  -0.00618604  -0.00440644  -0.0121304  0.0318974  0.0013992  -0.0170961  0.00688029  -0.00284037  0.0380352  -0.0222684  -0.00856266 
1699890179.219444000  0  0  11.2075  0.0724582  -0.0413657  0.00207247  nan  nan  nan  nan  nan  nan  -0.999575  -0.0032855  1.00037  0.0153476  -0.0144452  -0.00207081  0.0019701  -0.0252082  0.0016955  0  0  0  0  0  0  0.0139714  -0.0060234  -0.00438443  -0.0130192  0.0324627  0.0038964  -0.0178792  0.00644547  -0.00265055  0.0195718  0.0234331  0.000599641 
1699890179.224442000  0  0  11.3346  0.0701729  -0.0549627  0.00249249  nan  nan  nan  nan  nan  nan  -0.999565  -0.0034116  1.00038  0.0144923  -0.014552  -0.0022014  0.0019701  -0.0252306  0.0016955  0  0  0  0  0  0  0.0140092  -0.00602836  -0.0044168  -0.012764  0.03161  -0.006629  -0.0170273  0.00696063  -0.00257785  0.0163048  0.0458877  -0.00537758 
1699890179.228444000  0  0  11.2514  0.0594728  -0.0230851  0.00324356  nan  nan  nan  nan  nan  nan  -0.999555  -0.0035378  1.00039  0.0148501  -0.0147327  -0.00235699  0.0019701  -0.025242  0.0016955  0  0  0  0  0  0  0.0139602  -0.00587857  -0.00437356  -0.0125605  0.0315874  0.000222902  -0.0170632  0.00664634  -0.00254961  0.0380356  -0.0149762  -0.0150484 
1699890179.234434000  0  0  11.1768  0.0697459  -0.0354729  0.00247046  nan  nan  nan  nan  nan  nan  -0.999545  -0.003664  1.0004  0.0147336  -0.0146783  -0.00250837  0.0019701  -0.0252461  0.0016955  0  0  0  0  0  0  0.0139792  -0.0058467  -0.00427163  -0.0127901  0.0312464  0.00622818  -0.0169823  0.00669602  -0.00238899  0.0167456  0.0093425  -0.00699085 
1699890179.239445000  0  0  11.2859  0.0631497  -0.0411973  0.00241499  nan  nan  nan  nan  nan  nan  -0.999535  -0.0037903  1.00041  0.0142051  -0.014464  -0.00265777  0.0019701  -0.0252466  0.0016955  0  0  0  0  0  0  0.0139811  -0.00579045  -0.00429202  -0.0128838  0.0306347  -0.00282712  -0.0163507  0.00668376  -0.00227687  0.0241273  0.020904  -0.00741866 
1699890179.244442000  0  0  11.1667  0.0528578  -0.00730157  0.00324735  nan  nan  nan  nan  nan  nan  -0.999525  -0.0039165  1.00041  0.0145646  -0.0145468  -0.00283058  0.0019701  -0.0252462  0.0016955  0  0  0  0  0  0  0.0139201  -0.00563941  -0.00419975  -0.0128334  0.030554  0.00692564  -0.0163216  0.00612898  -0.00225439  0.0444433  -0.0417835  -0.0180479 
1699890179.249443000  0  0  11.1543  0.0674804  -0.0354945  0.00222079  nan  nan  nan  nan  nan  nan  -0.999515  -0.0040427  1.00042  0.0143806  -0.0144087  -0.00299861  0.0019701  -0.0252424  0.0016955  0  0  0  0  0  0  0.0139233  -0.00559322  -0.00412428  -0.0130294  0.0302006  0.00779903  -0.0162988  0.0063515  -0.00205104  0.0149878  0.0125552  -0.00724947 
1699890179.253446000  0  0  11.2669  0.0589118  -0.0398794  0.00250614  nan  nan  nan  nan  nan  nan  -0.999506  -0.0041689  1.00043  0.0145813  -0.013622  -0.00316893  0.0019701  -0.0252316  0.0016955  0  0  0  0  0  0  0.0138666  -0.00544726  -0.00418322  -0.0137035  0.030307  -0.001468  -0.0162703  0.00580344  -0.00195837  0.0318629  0.0263671  -0.0117431 
1699890179.259446000  0  0  11.1769  0.0484534  -0.00898837  0.00348397  nan  nan  nan  nan  nan  nan  -0.999496  -0.004295  1.00044  0.0140707  -0.0140238  -0.00335283  0.0019701  -0.02521  0.0016955  0  0  0  0  0  0  0.0138657  -0.00540323  -0.00407761  -0.0133382  0.0294246  0.00582334  -0.0154011  0.00560855  -0.00199345  0.0447834  -0.0336219  -0.0236151 
1699890179.264442000  0  0  11.1876  0.0644076  -0.0450552  0.00228075  nan  nan  nan  nan  nan  nan  -0.999486  -0.004421  1.00045  0.0137595  -0.0139873  -0.00353936  0.0019701  -0.0251737  0.0016955  0  0  0  0  0  0  0.0138724  -0.00537637  -0.00401179  -0.0133798  0.0289916  0.00478815  -0.0152714  0.00614931  -0.0017717  0.0116814  0.0335367  -0.0107924 
1699890179.269445000  0  0  11.2958  0.0368201  -0.0346816  0.00257776  nan  nan  nan  nan  nan  nan  -0.999476  -0.0045467  1.00046  0.0138091  -0.0133586  -0.00372908  0.0019701  -0.0251192  0.0016955  0  0  0  0  0  0  0.0138037  -0.00523314  -0.00406989  -0.0138442  0.0288998  -0.00410067  -0.0147066  0.0055759  -0.0016832  0.0616602  0.0180649  -0.01539 
1699890179.274434000  0  0  11.1959  0.0351739  -0.0156123  0.00311942  nan  nan  nan  nan  nan  nan  -0.999466  -0.0046722  1.00046  0.0131226  -0.0141148  -0.00393373  0.0019701  -0.0250426  0.0016955  0  0  0  0  0  0  0.0138229  -0.00520836  -0.00394935  -0.0130951  0.0278306  0.00398739  -0.0137748  0.0058976  -0.00165774  0.0563801  -0.0230332  -0.0224153 
1699890179.278436000  0  0  11.2119  0.0571657  -0.050124  0.00203042  nan  nan  nan  nan  nan  nan  -0.999456  -0.0047971  1.00047  0.0135344  -0.0137523  -0.00414473  0.0019701  -0.0249402  0.0016955  0  0  0  0  0  0  0.0137671  -0.00506946  -0.00395171  -0.0133918  0.0280565  0.00264709  -0.0143556  0.00614142  -0.00141627  0.0177404  0.043747  -0.0112175 
1699890179.284449000  0  0  11.2987  0.026136  -0.0432283  0.00290816  nan  nan  nan  nan  nan  nan  -0.999446  -0.0049215  1.00048  0.0124988  -0.0137426  -0.00434677  0.0019701  -0.0248082  0.0016955  0  0  0  0  0  0  0.0137878  -0.00508023  -0.00394932  -0.0133189  0.0269066  -0.00458659  -0.0127614  0.00627217  -0.0014178  0.0651327  0.0287526  -0.022174 
1699890179.289448000  0  0  11.1978  0.032191  -0.0297102  0.00296409  nan  nan  nan  nan  nan  nan  -0.999437  -0.0050451  1.00049  0.0118478  -0.0144294  -0.00456866  0.0019701  -0.0246429  0.0016955  0  0  0  0  0  0  0.0138184  -0.00506932  -0.00384881  -0.0126875  0.0259252  0.00361891  -0.0120006  0.0066741  -0.00134968  0.0460237  -0.00198131  -0.0235543 
1699890179.294438000  0  0  11.2404  0.0623536  -0.0641031  0.00196663  nan  nan  nan  nan  nan  nan  -0.999427  -0.0051679  1.0005  0.0120008  -0.0137989  -0.0047922  0.0019701  -0.0244405  0.0016955  0  0  0  0  0  0  0.0137515  -0.00493883  -0.00386964  -0.0132534  0.0258819  9.96194e-05  -0.0125718  0.00684307  -0.0011107  -0.00904627  0.0652499  -0.0134758 
1699890179.299446000  0  0  11.271  0.0299746  -0.0400986  0.00273788  nan  nan  nan  nan  nan  nan  -0.999417  -0.0052895  1.00051  0.0121404  -0.0134709  -0.00502534  0.0019701  -0.0241973  0.0016955  0  0  0  0  0  0  0.0136851  -0.00480904  -0.00389213  -0.0134653  0.0258067  -0.00239488  -0.012088  0.00637171  -0.00105326  0.0512608  0.0215774  -0.023691 
1699890179.303445000  0  0  11.1925  0.032742  -0.0341635  0.00247161  nan  nan  nan  nan  nan  nan  -0.999407  -0.0054098  1.00052  0.011221  -0.0142012  -0.00526255  0.0019701  -0.0239095  0.0016955  0  0  0  0  0  0  0.0137358  -0.00481935  -0.0038063  -0.0127903  0.024572  0.00397492  -0.0111132  0.00692988  -0.000906374  0.0367571  0.00457214  -0.0218314 
1699890179.309530000  0  0  11.2488  0.0642338  -0.06832  0.0014245  nan  nan  nan  nan  nan  nan  -0.999397  -0.0055285  1.00052  0.0103884  -0.0140989  -0.00549736  0.0019701  -0.0235734  0.0016955  0  0  0  0  0  0  0.0137654  -0.00484522  -0.00377833  -0.0128969  0.0236551  -0.000790105  -0.0109404  0.0076479  -0.000670855  -0.027816  0.0662793  -0.0110977 
1699890179.314373000  0  0  11.2345  0.0329703  -0.0496372  0.00212731  nan  nan  nan  nan  nan  nan  -0.999387  -0.0056454  1.00053  0.00963542  -0.0147319  -0.00574675  0.0019701  -0.0231852  0.0016955  0  0  0  0  0  0  0.0138157  -0.00486272  -0.0037341  -0.0122432  0.0227286  0.000324299  -0.00979905  0.0081076  -0.000601379  0.0242106  0.0246844  -0.0205776 
1699890179.318580000  0  0  11.1881  0.0578924  -0.0502334  0.0010629  nan  nan  nan  nan  nan  nan  -0.999378  -0.0057603  1.00054  0.00951139  -0.0146849  -0.00600467  0.0019701  -0.0227412  0.0016955  0  0  0  0  0  0  0.0137652  -0.00475122  -0.00369886  -0.0122635  0.022273  0.00411313  -0.00999226  0.00808349  -0.000334504  -0.023856  0.0260987  -0.0099412 
1699890179.324437000  0  0  11.2137  0.0764605  -0.0724789  0.000335845  nan  nan  nan  nan  nan  nan  -0.999368  -0.0058727  1.00055  0.00832363  -0.0147967  -0.00625456  0.0019701  -0.0222377  0.0016955  0  0  0  0  0  0  0.0138178  -0.00481971  -0.00364207  -0.0122053  0.0209667  0.0018465  -0.00952726  0.00881105  -8.01764e-05  -0.0652702  0.0638961  -0.0033963 
1699890179.328438000  0  0  11.1879  0.0377851  -0.0331348  0.00183084  nan  nan  nan  nan  nan  nan  -0.999358  -0.0059825  1.00056  0.00841983  -0.0147377  -0.00652809  0.0019701  -0.0216708  0.0016955  0  0  0  0  0  0  0.0137686  -0.00471259  -0.00362026  -0.0122084  0.02082  0.00395858  -0.00909355  0.00821805  -2.44309e-05  0.00809051  -0.00933642  -0.0226411 
1699890179.334439000  0  0  11.1344  0.0582418  -0.0417395  0.00159584  nan  nan  nan  nan  nan  nan  -0.999348  -0.0060893  1.00057  0.00751233  -0.0152711  -0.00679772  0.0019701  -0.0210368  0.0016955  0  0  0  0  0  0  0.0138002  -0.00474249  -0.00351795  -0.0117116  0.0197047  0.00820972  -0.00865578  0.0087083  0.000106702  -0.0368505  0.00336258  -0.021015 
1699890179.339521000  0  0  11.1963  0.0565166  -0.0402622  0.00120446  nan  nan  nan  nan  nan  nan  -0.999338  -0.0061928  1.00057  0.00606123  -0.014958  -0.00705876  0.0019701  -0.0203326  0.0016955  0  0  0  0  0  0  0.0138341  -0.0047926  -0.00346792  -0.0120812  0.0180595  0.00293997  -0.00756882  0.00846947  0.000328016  -0.0434001  0.00260524  -0.018336 
1699890179.344388000  0  0  11.1308  0.0223413  -0.00553947  0.0028365  nan  nan  nan  nan  nan  nan  -0.999328  -0.0062925  1.00058  0.00609877  -0.0147522  -0.00734947  0.0019701  -0.0195595  0.0016955  0  0  0  0  0  0  0.013776  -0.00470024  -0.0034032  -0.0123135  0.0178537  0.00827183  -0.00708282  0.00758417  0.000302918  0.0204794  -0.0586954  -0.0384854 
1699890179.349525000  0  0  11.1539  0.0631348  -0.0414527  0.000957103  nan  nan  nan  nan  nan  nan  -0.999318  -0.0063883  1.00059  0.0049053  -0.0151791  -0.00763166  0.0019701  -0.0187213  0.0016955  0  0  0  0  0  0  0.0138178  -0.00474309  -0.00335416  -0.0118485  0.016476  0.00623878  -0.00673504  0.0083452  0.000625612  -0.0643073  0.00612959  -0.0182199 
1699890179.353445000  0  0  11.1901  0.0681507  -0.045289  0.000306134  nan  nan  nan  nan  nan  nan  -0.999309  -0.0064796  1.0006  0.00428058  -0.014482  -0.00792309  0.0019701  -0.0178216  0.0016955  0  0  0  0  0  0  0.0137659  -0.00466254  -0.00335702  -0.0125432  0.0155409  0.00322257  -0.00650394  0.0078271  0.000906764  -0.076465  0.0185687  -0.0128943 
1699890179.359568000  0  0  11.151  0.0186293  -0.000150939  0.00194481  nan  nan  nan  nan  nan  nan  -0.999299  -0.0065664  1.00061  0.00286299  -0.0152407  -0.00821493  0.0019701  -0.0168643  0.0016955  0  0  0  0  0  0  0.0138437  -0.0047617  -0.00328173  -0.0118521  0.0139737  0.00633935  -0.00447937  0.00760481  0.000905703  0.00395165  -0.0696623  -0.0333671 
1699890179.364582000  0  0  11.2032  0.06101  -0.0439225  0.000546967  nan  nan  nan  nan  nan  nan  -0.999289  -0.0066482  1.00062  0.00122367  -0.0157623  -0.00850699  0.0019701  -0.0158531  0.0016955  0  0  0  0  0  0  0.0139094  -0.00485608  -0.00326853  -0.0112767  0.0121476  0.00196515  -0.0037692  0.00856957  0.00122724  -0.0873433  0.00900488  -0.0191095 
1699890179.369444000  0  0  11.2236  0.0507276  -0.0326745  0.000931268  nan  nan  nan  nan  nan  nan  -0.999279  -0.0067248  1.00063  0.000660397  -0.0150697  -0.00882035  0.0019701  -0.0147918  0.0016955  0  0  0  0  0  0  0.0138502  -0.00479736  -0.00326674  -0.0119788  0.0113186  0.00026165  -0.00350506  0.00779648  0.00138822  -0.0692086  -0.00637863  -0.0255231 
1699890179.374436000  0  0  11.1527  0.00667483  -0.00624137  0.00263471  nan  nan  nan  nan  nan  nan  -0.999269  -0.006796  1.00063  -0.000923224  -0.015833  -0.00912468  0.0019701  -0.0136841  0.0016955  0  0  0  0  0  0  0.0139078  -0.00489663  -0.00318763  -0.0112976  0.00955833  0.00601352  -0.00146985  0.00790443  0.00134319  0.000172989  -0.060238  -0.0463657 
1699890179.378441000  0  0  11.2098  0.0464884  -0.0383815  0.000871147  nan  nan  nan  nan  nan  nan  -0.999259  -0.0068616  1.00064  -0.00134958  -0.0155567  -0.00945351  0.0019701  -0.0125337  0.0016955  0  0  0  0  0  0  0.0138609  -0.004845  -0.00321072  -0.0114425  0.00890255  0.00129722  -0.00183347  0.00803615  0.00169036  -0.0761089  0.0028304  -0.027793 
1699890179.384389000  0  0  11.2172  0.0466249  -0.031271  0.00085082  nan  nan  nan  nan  nan  nan  -0.999249  -0.0069213  1.00065  -0.00263154  -0.0154084  -0.00977535  0.0019701  -0.0113444  0.0016955  0  0  0  0  0  0  0.0138462  -0.00491581  -0.00317775  -0.0115982  0.00745651  0.00061448  -0.00117271  0.00791393  0.00189787  -0.082461  -0.010266  -0.0296139 
1699890179.389527000  0  0  11.1518  0.0140116  -0.0232694  0.00250426  nan  nan  nan  nan  nan  nan  -0.99924  -0.006975  1.00066  -0.00421587  -0.0159744  -0.0100962  0.0019701  -0.01012  0.0016955  0  0  0  0  0  0  0.0138747  -0.00500007  -0.00312158  -0.0110931  0.00568769  0.00596145  0.000629576  0.00815988  0.00183529  -0.0338153  -0.0285321  -0.0496561 
1699890179.394441000  0  0  11.2002  0.0431614  -0.0497394  0.00172325  nan  nan  nan  nan  nan  nan  -0.99923  -0.0070225  1.00067  -0.00474496  -0.0156448  -0.0104433  0.0019701  -0.0088642  0.0016955  0  0  0  0  0  0  0.0138196  -0.00497189  -0.00313686  -0.0113039  0.00494055  0.00196011  0.000337496  0.00829952  0.00203239  -0.0894277  0.0231232  -0.0418645 
1699890179.399523000  0  0  11.1333  0.0103543  -0.0105641  0.00152756  nan  nan  nan  nan  nan  nan  -0.99922  -0.0070636  1.00068  -0.00638296  -0.0158155  -0.0107767  0.0019701  -0.0075807  0.0016955  0  0  0  0  0  0  0.013837  -0.00508431  -0.00308485  -0.0112714  0.00319195  0.00743576  0.00201449  0.00781269  0.00220008  -0.0392419  -0.0507486  -0.0410953 
1699890179.404461000  0  0  11.1031  0.0105711  -0.0086394  0.000613039  nan  nan  nan  nan  nan  nan  -0.99921  -0.0070982  1.00069  -0.00724605  -0.0157018  -0.0110182  0.0019701  -0.0062733  0.0016955  0  0  0  0  0  0  0.0137822  -0.00507218  -0.00303987  -0.0113565  0.00211917  0.00986605  0.00265882  0.00741668  0.00233956  -0.0456034  -0.0509547  -0.0310586 
1699890179.409456000  0  0  11.209  0.0567374  -0.0614232  -0.000954179  nan  nan  nan  nan  nan  nan  -0.9992  -0.0071263  1.00069  -0.00881143  -0.0159441  -0.0109915  0.0019701  -0.0049458  0.0016954  0  0  0  0  0  0  0.0138153  -0.00519899  -0.00306868  -0.0109659  0.000361257  0.00110514  0.00282298  0.00858395  0.00242693  -0.139446  0.043874  -0.0123421 
1699890179.414435000  0  0  11.1433  0.0307038  -0.0290326  -4.74586e-05  nan  nan  nan  nan  nan  nan  -0.99919  -0.0071477  1.0007  -0.0104042  -0.0159985  -0.0109655  0.0019701  -0.0036019  0.0016932  0  0  0  0  0  0  0.0138302  -0.00530692  -0.0030103  -0.0110687  -0.00130547  0.00646998  0.00415009  0.00821058  0.00226633  -0.0995884  -0.0174721  -0.02207 
1699890179.419439000  0  0  11.1129  0.0197072  -0.0158748  0.000324614  nan  nan  nan  nan  nan  nan  -0.999181  -0.0071623  1.00071  -0.010961  -0.0158814  -0.0109579  0.0019701  -0.0022454  0.0016853  0  0  0  0  0  0  0.0137772  -0.00531334  -0.00296137  -0.0111569  -0.00194121  0.00890932  0.0045184  0.00768931  0.00208969  -0.0809836  -0.0389921  -0.0249546 
1699890179.424460000  0  0  11.2133  0.0645757  -0.0612093  0.000268499  nan  nan  nan  nan  nan  nan  -0.999171  -0.0071701  1.00072  -0.0126356  -0.0162947  -0.0109261  0.0019701  -0.0008799  0.001668  0  0  0  0  0  0  0.0138162  -0.00545526  -0.00301137  -0.0105756  -0.00384136  0.000665309  0.0047098  0.00882296  0.00199714  -0.172482  0.0412474  -0.0233276 
1699890179.428426000  0  0  11.1591  0.0436947  -0.033006  0.00140979  nan  nan  nan  nan  nan  nan  -0.999161  -0.0071711  1.00073  -0.0133963  -0.015922  -0.0109187  0.0019701  0.0004907  0.0016374  0  0  0  0  0  0  0.0137692  -0.00547096  -0.00296402  -0.0110407  -0.00466722  0.00508832  0.00516775  0.00808404  0.00177396  -0.134933  -0.00836127  -0.0353619 
1699890179.434442000  0  0  11.1204  0.0112488  -0.0243884  0.00292334  nan  nan  nan  nan  nan  nan  -0.999151  -0.0071652  1.00074  -0.014823  -0.0164411  -0.0108883  0.0019701  0.0018626  0.0015898  0  0  0  0  0  0  0.0138148  -0.00564366  -0.00293125  -0.0105876  -0.00599435  0.00825992  0.00645125  0.00828674  0.0013471  -0.081849  -0.0274612  -0.0500128 
1699890179.439445000  0  0  11.2329  0.0703973  -0.0690567  0.00247556  nan  nan  nan  nan  nan  nan  -0.999141  -0.0071525  1.00074  -0.0161845  -0.0163141  -0.010868  0.0019701  0.0032323  0.0015215  0  0  0  0  0  0  0.0138154  -0.00577474  -0.00296458  -0.0105624  -0.00758744  -0.0010246  0.00609053  0.00902001  0.00118001  -0.196827  0.0551294  -0.0427446 
1699890179.444433000  0  0  11.1283  0.036379  -0.028211  0.00443749  nan  nan  nan  nan  nan  nan  -0.999131  -0.0071329  1.00075  -0.0164577  -0.0159983  -0.0108687  0.0019701  0.0045958  0.0014287  0  0  0  0  0  0  0.0137607  -0.00580873  -0.00288446  -0.0110226  -0.00765523  0.00752785  0.00613602  0.00814158  0.000746479  -0.129209  -0.0184805  -0.0629335 
1699890179.449456000  0  0  11.1526  0.0430264  -0.0431106  0.00386855  nan  nan  nan  nan  nan  nan  -0.999121  -0.0071065  1.00076  -0.0176395  -0.0163632  -0.0108433  0.0019701  0.0059495  0.0013081  0  0  0  0  0  0  0.0137737  -0.00594747  -0.00286175  -0.0105723  -0.00886063  0.00547207  0.00653631  0.0087115  0.000533807  -0.146187  0.00607538  -0.0536949 
1699890179.453437000  0  0  11.2381  0.0875249  -0.0752484  0.00234792  nan  nan  nan  nan  nan  nan  -0.999112  -0.0070734  1.00076  -0.0182423  -0.0157897  -0.0108439  0.0019701  0.0072895  0.0011611  0  0  0  0  0  0  0.013728  -0.00599208  -0.00289389  -0.0110416  -0.00967537  -0.00157493  0.00565025  0.00887245  0.000528934  -0.227032  0.0688702  -0.0346384 
1699890179.459435000  0  0  11.1229  0.0493501  -0.0254022  0.00299266  nan  nan  nan  nan  nan  nan  -0.999102  -0.0070336  1.00077  -0.0191865  -0.016142  -0.0108223  0.0019701  0.0086123  0.0009912  0  0  0  0  0  0  0.0137429  -0.0061482  -0.00282778  -0.0108516  -0.0102638  0.00790186  0.00601313  0.00850332  0.000244383  -0.154021  -0.0274262  -0.0398521 
1699890179.464433000  0  0  11.1643  0.0661254  -0.0549558  0.00154813  nan  nan  nan  nan  nan  nan  -0.999092  -0.0069873  1.00077  -0.0203341  -0.0165449  -0.0107955  0.0019701  0.0099139  0.0008024  0  0  0  0  0  0  0.0137613  -0.00630365  -0.00281712  -0.0103346  -0.0114357  0.00445623  0.00606196  0.00938766  0.000287827  -0.188021  0.0235451  -0.0222299 
1699890179.469438000  0  0  11.1951  0.0949233  -0.0662494  0.000675786  nan  nan  nan  nan  nan  nan  -0.999082  -0.0069346  1.00078  -0.0209883  -0.0159834  -0.0107965  0.0019701  0.0111906  0.0005983  0  0  0  0  0  0  0.0137063  -0.00636515  -0.00282467  -0.0108638  -0.0121752  0.00190946  0.00517874  0.00926924  0.000306425  -0.237491  0.0472218  -0.0115116 
1699890179.474391000  0  0  11.0913  0.0677591  -0.0217952  0.00208997  nan  nan  nan  nan  nan  nan  -0.999072  -0.0068755  1.00078  -0.0218662  -0.016349  -0.0107745  0.0019701  0.0124388  0.0003827  0  0  0  0  0  0  0.0137217  -0.00651701  -0.00274129  -0.0106408  -0.0126796  0.010413  0.00554092  0.00889354  8.27536e-05  -0.186495  -0.0382302  -0.0269521 
1699890179.478441000  0  0  11.122  0.0802106  -0.0417221  0.00141543  nan  nan  nan  nan  nan  nan  -0.999062  -0.0068102  1.00078  -0.0220163  -0.0161115  -0.0107772  0.0019701  0.0136546  0.0001593  0  0  0  0  0  0  0.013677  -0.00657954  -0.00273023  -0.0107821  -0.0127982  0.00783417  0.00479213  0.00889512  6.97305e-05  -0.204509  0.00160902  -0.0183902 
1699890179.484398000  0  0  11.1912  0.104433  -0.0539495  0.000633788  nan  nan  nan  nan  nan  nan  -0.999052  -0.006739  1.00078  -0.023188  -0.0160093  -0.0107607  0.0019701  0.0148343  -6.81e-05  0  0  0  0  0  0  0.0136737  -0.00673521  -0.00275716  -0.0107955  -0.0140777  0.00214782  0.0041926  0.00920347  0.000116668  -0.247439  0.0232271  -0.00908903 
1699890179.489454000  0  0  11.0931  0.0464308  -0.000392007  0.00367184  nan  nan  nan  nan  nan  nan  -0.999043  -0.0066619  1.00078  -0.0240049  -0.0162539  -0.0107418  0.0019701  0.0159741  -0.0002958  0  0  0  0  0  0  0.0137285  -0.00692423  -0.00271381  -0.0107984  -0.0144123  0.0102553  0.00497915  0.00840988  -0.000326964  -0.13867  -0.0765869  -0.0426284 
1699890179.494441000  0  0  11.1648  0.0731706  -0.0261604  0.00344851  nan  nan  nan  nan  nan  nan  -0.999033  -0.0065793  1.00078  -0.0240372  -0.0160338  -0.0107465  0.0019701  0.0170704  -0.00052  0  0  0  0  0  0  0.0136774  -0.00699743  -0.0027297  -0.0108311  -0.0144794  0.00431661  0.0038293  0.00841853  -0.000478453  -0.181571  -0.0251297  -0.0383218 
1699890179.499447000  0  0  11.1802  0.078614  -0.0139145  0.00370656  nan  nan  nan  nan  nan  nan  -0.999023  -0.0064913  1.00077  -0.0245443  -0.0154187  -0.0107535  0.0019701  0.0181193  -0.000737  0  0  0  0  0  0  0.01362  -0.00707463  -0.00271151  -0.0114476  -0.0149707  0.00300538  0.00330245  0.00754978  -0.000681694  -0.187611  -0.0416289  -0.039515 
1699890179.503521000  0  0  11.1093  0.0417263  0.0137812  0.00489897  nan  nan  nan  nan  nan  nan  -0.999013  -0.0063982  1.00077  -0.0254263  -0.0154184  -0.0107399  0.0019701  0.019117  -0.000943  0  0  0  0  0  0  0.0136383  -0.00726731  -0.00266295  -0.0116198  -0.0154359  0.00883347  0.00425251  0.0068325  -0.000973722  -0.122576  -0.0904215  -0.0514999 
1699890179.509451000  0  0  11.2132  0.0604814  -0.0228906  0.00380259  nan  nan  nan  nan  nan  nan  -0.999003  -0.0063002  1.00077  -0.0262416  -0.0157397  -0.0107189  0.0019701  0.02006  -0.0011342  0  0  0  0  0  0  0.0136808  -0.00747538  -0.00274361  -0.0111499  -0.0162884  0.000366798  0.0040504  0.00743152  -0.00112129  -0.158227  -0.0225888  -0.0363194 
1699890179.514442000  0  0  11.2202  0.0584717  -0.0205935  0.00299618  nan  nan  nan  nan  nan  nan  -0.998993  -0.0061977  1.00076  -0.0273934  -0.0160194  -0.0106931  0.0019701  0.0209443  -0.001307  0  0  0  0  0  0  0.0137155  -0.00767738  -0.00276969  -0.0108816  -0.0172986  -0.00012945  0.00440023  0.00754881  -0.00119921  -0.157425  -0.0282621  -0.0254602 
1699890179.519452000  0  0  11.1917  0.0266415  -0.0167995  0.00261184  nan  nan  nan  nan  nan  nan  -0.998984  -0.0060909  1.00075  -0.0271118  -0.0153539  -0.0107156  0.0019701  0.0217663  -0.0014575  0  0  0  0  0  0  0.013658  -0.00775935  -0.00273799  -0.0116279  -0.0166705  0.00216959  0.00409154  0.00668028  -0.00127981  -0.0909251  -0.0278595  -0.0198499 
1699890179.524451000  0  0  11.333  0.0536285  -0.0601995  0.000798258  nan  nan  nan  nan  nan  nan  -0.998974  -0.0059802  1.00074  -0.0286647  -0.0165785  -0.0106567  0.0019703  0.0225221  -0.0015821  0  0  0  0  0  0  0.0137815  -0.00806663  -0.00290551  -0.0101439  -0.0183862  -0.00920618  0.00448544  0.00853557  -0.00117201  -0.148523  0.0418718  0.00174192 
1699890179.528453000  0  0  11.3195  0.062196  -0.0524426  0.000776487  nan  nan  nan  nan  nan  nan  -0.998964  -0.0058658  1.00074  -0.0287779  -0.0164875  -0.0106574  0.0019731  0.0232082  -0.0016769  0  0  0  0  0  0  0.0137397  -0.00816249  -0.00291818  -0.0101915  -0.0182713  -0.00805738  0.00385087  0.00845312  -0.00115667  -0.15982  0.0271166  0.00186063 
1699890179.534400000  0  0  11.229  0.0257713  -0.0405155  0.00351669  nan  nan  nan  nan  nan  nan  -0.998954  -0.0057482  1.00073  -0.0290553  -0.016531  -0.0106516  0.0019823  0.0238206  -0.0017383  0  0  0  0  0  0  0.0137951  -0.00840879  -0.00292776  -0.0104265  -0.0177791  -0.000487704  0.00407199  0.00826451  -0.00156285  -0.0890049  0.00499748  -0.0283301 
1699890179.539594000  0  0  11.3313  0.062918  -0.0653661  0.00441672  nan  nan  nan  nan  nan  nan  -0.998944  -0.0056277  1.00072  -0.0303554  -0.0173085  -0.0106065  0.0020015  0.0243556  -0.0017624  0  0  0  0  0  0  0.01387  -0.00870725  -0.00304523  -0.00944674  -0.019094  -0.00872415  0.00408988  0.00949223  -0.00181894  -0.163463  0.0434037  -0.0370196 
1699890179.544414000  0  0  11.2428  0.0595733  -0.0440241  0.00555784  nan  nan  nan  nan  nan  nan  -0.998934  -0.0055048  1.00071  -0.0298056  -0.0171839  -0.0106197  0.0020346  0.0248096  -0.0017455  0  0  0  0  0  0  0.0138242  -0.00879731  -0.00301133  -0.00966049  -0.0179056  -0.00143583  0.00292479  0.00914742  -0.00210713  -0.146055  0.0038919  -0.0484017 
1699890179.549457000  0  0  11.2194  0.0472673  -0.0557936  0.00538652  nan  nan  nan  nan  nan  nan  -0.998924  -0.0053798  1.0007  -0.0300791  -0.0175064  -0.0106053  0.0020853  0.0251787  -0.0016839  0  0  0  0  0  0  0.0139061  -0.00905349  -0.00304107  -0.00948765  -0.0176032  0.000584541  0.00279505  0.00957543  -0.00233914  -0.120249  0.0234933  -0.0439401 
1699890179.553457000  0  0  11.33  0.0799206  -0.0746635  0.00473363  nan  nan  nan  nan  nan  nan  -0.998913  -0.0052531  1.00069  -0.0298057  -0.0171533  -0.0106206  0.0021573  0.0254592  -0.0015738  0  0  0  0  0  0  0.013867  -0.00915357  -0.00311751  -0.00963075  -0.0174041  -0.00847943  0.0014521  0.00974591  -0.00241101  -0.173201  0.0596646  -0.0350603 
1699890179.559593000  0  0  11.1927  0.0668031  -0.0281134  0.00527712  nan  nan  nan  nan  nan  nan  -0.998902  -0.0051253  1.00069  -0.0298272  -0.0174617  -0.010611  0.0022544  0.0256473  -0.0014115  0  0  0  0  0  0  0.0139101  -0.00937697  -0.00308855  -0.00960008  -0.0164806  0.00290968  0.000729835  0.00933222  -0.00268536  -0.140321  -0.0296297  -0.0391104 
1699890179.564459000  0  0  11.2257  0.0731749  -0.0487964  0.00420926  nan  nan  nan  nan  nan  nan  -0.99889  -0.0049968  1.00068  -0.0296955  -0.0175848  -0.0106097  0.0023803  0.0257393  -0.0011932  0  0  0  0  0  0  0.0139709  -0.00961902  -0.0031445  -0.00951674  -0.0158905  0.000267693  -0.000149111  0.00967653  -0.00275179  -0.144978  0.0085687  -0.0250978 
1699890179.568457000  0  0  11.336  0.0977459  -0.0543414  0.00346109  nan  nan  nan  nan  nan  nan  -0.998878  -0.0048681  1.00067  -0.0291528  -0.0170426  -0.010635  0.0025388  0.0257315  -0.0009152  0  0  0  0  0  0  0.0139311  -0.00971274  -0.00321973  -0.00989269  -0.0153583  -0.00878343  -0.00167166  0.00935748  -0.00273697  -0.180112  0.0225939  -0.0158939 
1699890179.574399000  0  0  11.2539  0.0901047  -0.0144633  0.00369421  nan  nan  nan  nan  nan  nan  -0.998865  -0.0047397  1.00067  -0.0289627  -0.0173118  -0.0106305  0.0027337  0.0256201  -0.0005737  0  0  0  0  0  0  0.0139738  -0.00992448  -0.00321663  -0.00980117  -0.014386  -0.00195116  -0.00264825  0.0087824  -0.00286356  -0.155846  -0.0518715  -0.0175421 
1699890179.578452000  0  0  11.2964  0.0906268  -0.0253936  0.00334513  nan  nan  nan  nan  nan  nan  -0.998851  -0.0046121  1.00067  -0.0273755  -0.0163516  -0.0106843  0.0029687  0.0254013  -0.0001649  0  0  0  0  0  0  0.0139268  -0.00999919  -0.00325689  -0.0108005  -0.0123546  -0.00546599  -0.00464436  0.00788715  -0.00287128  -0.138526  -0.0217745  -0.0131014 
1699890179.584407000  0  0  11.415  0.109479  -0.0223305  0.00391981  nan  nan  nan  nan  nan  nan  -0.998835  -0.0044858  1.00067  -0.0273629  -0.0162514  -0.0106872  0.0032475  0.0250714  0.0003148  0  0  0  0  0  0  0.0139534  -0.0102055  -0.00337321  -0.010775  -0.0122417  -0.0151033  -0.00584422  0.00763741  -0.00302448  -0.165191  -0.0256032  -0.0187527 
1699890179.589592000  0  0  11.2699  0.0927361  0.0104543  0.00549926  nan  nan  nan  nan  nan  nan  -0.998818  -0.0043615  1.00067  -0.0267938  -0.0162384  -0.0106968  0.0035738  0.0246267  0.0008692  0  0  0  0  0  0  0.0139883  -0.0104094  -0.00332394  -0.0111186  -0.0106325  -0.00313279  -0.00682706  0.00671646  -0.00335263  -0.122663  -0.0827  -0.0352145 
1699890179.594399000  0  0  11.3309  0.106261  -0.00805368  0.00515156  nan  nan  nan  nan  nan  nan  -0.998799  -0.0042398  1.00068  -0.0249604  -0.0152383  -0.0107516  0.0039516  0.0240634  0.0015022  0  0  0  0  0  0  0.013931  -0.0104592  -0.00339513  -0.0121174  -0.00838506  -0.00813941  -0.00928321  0.00581652  -0.00344323  -0.127116  -0.0374047  -0.0299622 
1699890179.599592000  0  0  11.3425  0.10472  0.0148436  0.00495536  nan  nan  nan  nan  nan  nan  -0.998779  -0.0041211  1.00069  -0.024661  -0.015343  -0.0107536  0.0043844  0.0233777  0.0022173  0  0  0  0  0  0  0.0139587  -0.0106629  -0.00344754  -0.0120237  -0.00758947  -0.00901124  -0.0101679  0.00529365  -0.00357602  -0.115896  -0.0783887  -0.0261819 
1699890179.604412000  0  0  11.2182  0.10467  0.0186108  0.00464127  nan  nan  nan  nan  nan  nan  -0.998755  -0.0040062  1.0007  -0.0238324  -0.015151  -0.0107709  0.004876  0.0225659  0.0030185  0  0  0  0  0  0  0.0139768  -0.0108284  -0.00341397  -0.0125  -0.00584423  0.0012457  -0.0114495  0.00461135  -0.00366348  -0.104003  -0.079646  -0.0213811 
1699890179.609589000  0  0  11.3491  0.118858  -0.0274069  0.00441385  nan  nan  nan  nan  nan  nan  -0.99873  -0.0038957  1.00072  -0.0214698  -0.0138135  -0.0108354  0.0054303  0.0216242  0.0039094  0  0  0  0  0  0  0.0139086  -0.0108478  -0.00352429  -0.0137859  -0.00315559  -0.00953615  -0.0143456  0.00402712  -0.0037085  -0.105737  0.0177643  -0.0180882 
1699890179.614403000  0  0  11.3853  0.119564  -0.0136835  0.00448263  nan  nan  nan  nan  nan  nan  -0.998701  -0.0037902  1.00074  -0.0209818  -0.0136867  -0.0108448  0.0060509  0.020549  0.0048937  0  0  0  0  0  0  0.0139174  -0.0110136  -0.00357568  -0.0139046  -0.00225537  -0.0124619  -0.0152779  0.00365003  -0.00381001  -0.0985721  -0.00621328  -0.0179328 
1699890179.618449000  0  0  11.2836  0.117273  0.0111528  0.00461523  nan  nan  nan  nan  nan  nan  -0.998669  -0.0036904  1.00077  -0.0188213  -0.0128938  -0.0108893  0.0067415  0.0193364  0.0059753  0  0  0  0  0  0  0.0138536  -0.0110317  -0.00354646  -0.0148791  0.000740973  -0.00413517  -0.017539  0.00235069  -0.00387955  -0.0731874  -0.043932  -0.018895 
1699890179.624407000  0  0  11.38  0.126319  -0.0361833  0.00383022  nan  nan  nan  nan  nan  nan  -0.998633  -0.0035971  1.0008  -0.0172701  -0.0120583  -0.0109237  0.0075047  0.0179827  0.0071579  0  0  0  0  0  0  0.0138491  -0.0111522  -0.00364454  -0.015768  0.00277735  -0.0120304  -0.0195092  0.00236458  -0.00387121  -0.0731524  0.0506124  -0.00916573 
1699890179.628459000  0  0  11.428  0.121647  -0.0180673  0.00428807  nan  nan  nan  nan  nan  nan  -0.998594  -0.0035108  1.00084  -0.0153909  -0.0110857  -0.0109614  0.0083378  0.0164841  0.0084452  0  0  0  0  0  0  0.0137777  -0.011156  -0.00372202  -0.0167546  0.00509143  -0.015944  -0.0213751  0.00128968  -0.0039518  -0.0466421  0.0242696  -0.0140829 
1699890179.634400000  0  0  11.3293  0.116646  -0.00122803  0.00484544  nan  nan  nan  nan  nan  nan  -0.99855  -0.0034325  1.00088  -0.0135284  -0.0107169  -0.010987  0.009237  0.0148369  0.009841  0  0  0  0  0  0  0.0137577  -0.0112419  -0.00370104  -0.017268  0.00780102  -0.00782701  -0.0231591  0.000637043  -0.0041176  -0.020228  -0.00340474  -0.019392 
1699890179.639591000  0  0  11.4705  0.118312  -0.0408573  0.00526915  nan  nan  nan  nan  nan  nan  -0.998501  -0.0033627  1.00094  -0.0123998  -0.00983811  -0.01101  0.0101986  0.0130374  0.011349  0  0  0  0  0  0  0.0137464  -0.0113752  -0.0038371  -0.0181811  0.00933318  -0.0193655  -0.0243495  0.000658929  -0.00427815  -0.012609  0.0756525  -0.023083 
1699890179.644408000  0  0  11.45  0.101866  -0.0107817  0.00658329  nan  nan  nan  nan  nan  nan  -0.998448  -0.0033023  1.001  -0.00991273  -0.00912178  -0.0110416  0.0112189  0.0110818  0.012973  0  0  0  0  0  0  0.0136598  -0.0113262  -0.00389289  -0.0188868  0.0124265  -0.0176204  -0.0263119  -0.000279127  -0.00452466  0.038337  0.0241313  -0.0370445 
1699890179.649591000  0  0  11.4707  0.111216  -0.040529  0.00622914  nan  nan  nan  nan  nan  nan  -0.998389  -0.0032522  1.00107  -0.00828978  -0.00851807  -0.0110614  0.012294  0.0089663  0.0147168  0  0  0  0  0  0  0.0136709  -0.0114589  -0.00396902  -0.0196372  0.0147753  -0.0192466  -0.0277566  -0.000267461  -0.0047021  0.0329275  0.0835186  -0.0308432 
1699890179.654452000  0  0  11.5564  0.1143  -0.0575542  0.00593652  nan  nan  nan  nan  nan  nan  -0.998325  -0.003213  1.00115  -0.00684014  -0.00759286  -0.0110801  0.0134203  0.0066872  0.016584  0  0  0  0  0  0  0.0136491  -0.0115324  -0.00411239  -0.020676  0.0167333  -0.0261363  -0.0289559  -0.000416776  -0.00482363  0.0377947  0.118943  -0.0259702 
1699890179.659460000  0  0  11.5482  0.0825541  -0.0102477  0.00624988  nan  nan  nan  nan  nan  nan  -0.998255  -0.0031856  1.00123  -0.0039461  -0.00678101  -0.0111052  0.0145941  0.0042408  0.0185784  0  0  0  0  0  0  0.0135483  -0.0114413  -0.00420805  -0.0214592  0.0202631  -0.025331  -0.0307043  -0.00161625  -0.00495557  0.117372  0.035365  -0.0285678 
1699890179.664408000  0  0  11.5484  0.0925251  -0.0218214  0.00460083  nan  nan  nan  nan  nan  nan  -0.998179  -0.0031708  1.00133  -0.00214338  -0.00623947  -0.0111186  0.0158114  0.0016233  0.0207039  0  0  0  0  0  0  0.0135403  -0.0115066  -0.00430467  -0.0221104  0.0227297  -0.0251942  -0.0319425  -0.00177004  -0.00488343  0.108821  0.0599271  -0.00867601 
1699890179.669446000  0  0  11.6361  0.102872  -0.0308364  0.00387472  nan  nan  nan  nan  nan  nan  -0.998097  -0.0031696  1.00144  0.000979582  -0.00462146  -0.0111365  0.0170687  -0.0011691  0.022964  0  0  0  0  0  0  0.0134236  -0.0113842  -0.00448098  -0.0238378  0.0264988  -0.0322297  -0.03452  -0.00274492  -0.00483535  0.11184  0.0869261  -8.05909e-05 
1699890179.674399000  0  0  11.5861  0.0735928  -0.00128064  0.00485629  nan  nan  nan  nan  nan  nan  -0.998008  -0.0031828  1.00156  0.00300222  -0.00408922  -0.0111443  0.0183621  -0.0041401  0.0253627  0  0  0  0  0  0  0.0133989  -0.0114224  -0.00456333  -0.0244652  0.0291914  -0.0279133  -0.0351178  -0.0035131  -0.00497181  0.175898  0.0348818  -0.0109855 
1699890179.678451000  0  0  11.6081  0.101925  -0.0157702  0.00453938  nan  nan  nan  nan  nan  nan  -0.997913  -0.0032113  1.00169  0.00618077  -0.00273031  -0.0111489  0.0196879  -0.0072916  0.0279036  0  0  0  0  0  0  0.0132793  -0.0112923  -0.0047028  -0.0258969  0.0330319  -0.0295429  -0.0379024  -0.00436665  -0.00498776  0.144852  0.0717136  -0.00686466 
1699890179.684408000  0  0  11.6839  0.104982  -0.0237914  0.00505403  nan  nan  nan  nan  nan  nan  -0.997811  -0.003256  1.00184  0.00874962  -0.00141741  -0.0111444  0.0210424  -0.0106205  0.0305904  0  0  0  0  0  0  0.0132252  -0.0112573  -0.00488881  -0.0274213  0.0363628  -0.0355284  -0.03948  -0.00499067  -0.00511658  0.153252  0.093497  -0.0120095 
1699890179.689541000  0  0  11.6276  0.0933182  0.00806635  0.00633765  nan  nan  nan  nan  nan  nan  -0.997703  -0.0033178  1.002  0.0115931  -0.000833813  -0.0111417  0.0224217  -0.0141232  0.033427  0  0  0  0  0  0  0.0131604  -0.0111992  -0.00498423  -0.0280002  0.0398645  -0.0306714  -0.0409565  -0.00582626  -0.00533359  0.190164  0.0374689  -0.0258847 
1699890179.694398000  0  0  11.6719  0.124642  -0.00936987  0.00575656  nan  nan  nan  nan  nan  nan  -0.997587  -0.0033976  1.00217  0.0155729  0.000701905  -0.0111211  0.0238222  -0.0177958  0.0364171  0  0  0  0  0  0  0.0130164  -0.0109912  -0.00515978  -0.0296115  0.0446494  -0.0340903  -0.0443735  -0.00669904  -0.00539911  0.158953  0.0803709  -0.0179659 
1699890179.699589000  0  0  11.6893  0.111055  0.00621211  0.00602631  nan  nan  nan  nan  nan  nan  -0.997464  -0.0034961  1.00236  0.0179365  0.00152892  -0.0111046  0.0252401  -0.0216346  0.0395644  0  0  0  0  0  0  0.0129585  -0.0109638  -0.00529685  -0.0305252  0.0477045  -0.0352722  -0.0455111  -0.00737963  -0.00552515  0.196592  0.0554684  -0.0200773 
1699890179.703461000  0  0  11.6853  0.111986  0.0207737  0.00669921  nan  nan  nan  nan  nan  nan  -0.997335  -0.0036142  1.00257  0.0221125  0.00305006  -0.0110645  0.0266717  -0.0256359  0.0428717  0  0  0  0  0  0  0.0128086  -0.0107419  -0.00546592  -0.0321092  0.0526558  -0.0346544  -0.0486076  -0.00889334  -0.00570692  0.223218  0.0402713  -0.0266708 
