    ts      x      y      z   roll  pitch    yaw     vx     vy     vz     wx     wy     wz     ax     ay     az    dwx    dwy    dwz
 0.0050000  -1.5000000   0.0000000   1.0000000   0.0000000   0.0000000   0.0000000   0.0000006   0.0000006   0.0000006   0.0000000   0.0000000   0.0000000   0.0003750   0.0003750   0.0003750   0.0000000   0.0000000   0.0000000
 0.0100000  -1.5000000   0.0000000   1.0000000   0.0000000   0.0000000   0.0000000   0.0000050   0.0000050   0.0000050   0.0000000   0.0000000   0.0000000   0.0014996   0.0014996   0.0014996   0.0000000   0.0000000   0.0000000
 0.0150000  -1.5000000   0.0000001   1.0000000   0.0000000   0.0000000   0.0000000   0.0000155   0.0000155   0.0000155   0.0000000   0.0000000   0.0000000   0.0025892   0.0025892   0.0025892   0.0000000   0.0000000   0.0000000
 0.0200000  -1.5000000   0.0000002   1.0000000   0.0000000   0.0000000   0.0000001   0.0000296   0.0000296   0.0000296   0.0000000   0.0000000   0.0000000   0.0029289   0.0029289   0.0029289   0.0000000   0.0000000   0.0000000
 0.0250000  -1.5000000   0.0000004   1.0000000   0.0000000   0.0000000   0.0000002   0.0000436   0.0000436   0.0000436   0.0000000   0.0000000   0.0000000   0.0025185   0.0025185   0.0025185   0.0000000   0.0000000   0.0000000
 0.0300000  -1.5000000   0.0000006   1.0000000   0.0000000   0.0000000   0.0000004   0.0000536   0.0000536   0.0000536   0.0000000   0.0000000   0.0000000   0.0013619   0.0013619   0.0013619   0.0000000   0.0000000   0.0000000
 0.0350000  -1.5000000   0.0000009   1.0000000   0.0000000   0.0000000   0.0000006   0.0000574   0.0000574   0.0000574   0.0000000   0.0000000   0.0000000   0.0003076   0.0003076   0.0003076   0.0000000   0.0000000   0.0000000
 0.0400000  -1.5000000   0.0000012   1.0000000   0.0000000   0.0000000   0.0000008   0.0000579   0.0000579   0.0000579   0.0000000   0.0000000   0.0000000   0.0000033  -0.0000033   0.0000033   0.0000000   0.0000000   0.0000000
 0.0450000  -1.5000000   0.0000015   1.0000000   0.0000000   0.0000000   0.0000010   0.0000587   0.0000571   0.0000587   0.0000000   0.0000000   0.0000000   0.0004491  -0.0004491   0.0004491   0.0000000   0.0000000   0.0000000
 0.0500000  -1.5000000   0.0000017   1.0000000   0.0000000   0.0000000   0.0000012   0.0000636   0.0000522   0.0000636   0.0000000   0.0000000   0.0000000   0.0016448  -0.0016448   0.0016448   0.0000000   0.0000000   0.0000000
 0.0550000  -1.5000000   0.0000020   1.0000000   0.0000000   0.0000000   0.0000014   0.0000764   0.0000394   0.0000764   0.0000000   0.0000000   0.0000000   0.0035905  -0.0035905   0.0035905   0.0000000   0.0000000   0.0000000
 0.0600000  -1.5000000   0.0000021   1.0000000   0.0000000   0.0000000   0.0000016   0.0001008   0.0000150   0.0001008   0.0000000   0.0000000   0.0000000   0.0062863  -0.0062863   0.0062863   0.0000000   0.0000000   0.0000000
 0.0650000  -1.5000000   0.0000021   1.0000000   0.0000000   0.0000000   0.0000017   0.0001405  -0.0000247   0.0001405   0.0000000   0.0000000   0.0000000   0.0097320  -0.0097320   0.0097320   0.0000000   0.0000000   0.0000000
 0.0700000  -1.5000000   0.0000018   1.0000000   0.0000000   0.0000000   0.0000018   0.0001994  -0.0000836   0.0001994   0.0000000   0.0000000   0.0000000   0.0139277  -0.0139277   0.0139277   0.0000000   0.0000000   0.0000000
 0.0750000  -1.4999900   0.0000012   1.0000100   0.0000000   0.0000000   0.0000017   0.0002811  -0.0001653   0.0002811   0.0000000   0.0000000   0.0000000   0.0188734  -0.0188734   0.0188734   0.0000000   0.0000000   0.0000000
 0.0800000  -1.4999900   0.0000001   1.0000100   0.0000000   0.0000000   0.0000014   0.0003894  -0.0002735   0.0003894   0.0000000   0.0000000   0.0000000   0.0245692  -0.0245692   0.0245692   0.0000000   0.0000000   0.0000000
 0.0850000  -1.4999900  -0.0000016   1.0000100   0.0000000   0.0000000   0.0000009   0.0005280  -0.0004122   0.0005280   0.0000000   0.0000000   0.0000000   0.0310149  -0.0310149   0.0310149   0.0000000   0.0000000   0.0000000
 0.0900000  -1.4999900  -0.0000040   1.0000100   0.0000000   0.0000000  -0.0000000   0.0007008  -0.0005849   0.0007008   0.0000000   0.0000000   0.0000000   0.0382106  -0.0382106   0.0382106   0.0000000   0.0000000   0.0000000
 0.0950000  -1.4999800  -0.0000075   1.0000200   0.0000000   0.0000000  -0.0000013   0.0009114  -0.0007956   0.0009114   0.0000000   0.0000000   0.0000000   0.0461564  -0.0461564   0.0461564   0.0000000   0.0000000   0.0000000
 0.1000000  -1.4999800  -0.0000121   1.0000200   0.0000000   0.0000000  -0.0000031   0.0011636  -0.0010478   0.0011636   0.0000000   0.0000000   0.0000000   0.0548521  -0.0548521   0.0548521   0.0000000   0.0000000   0.0000000
 0.1050000  -1.4999700  -0.0000180   1.0000300   0.0000000   0.0000000  -0.0000055   0.0014611  -0.0013453   0.0014611   0.0000000   0.0000000   0.0000000   0.0642978  -0.0642978   0.0642978   0.0000000   0.0000000   0.0000000
 0.1100000  -1.4999600  -0.0000256   1.0000400   0.0000000   0.0000000  -0.0000087   0.0018078  -0.0016920   0.0018078   0.0000000   0.0000000   0.0000000   0.0744935  -0.0744935   0.0744935   0.0000000   0.0000000   0.0000000
 0.1150000  -1.4999500  -0.0000350   1.0000500   0.0000000   0.0000000  -0.0000127   0.0022073  -0.0020915   0.0022073   0.0000000   0.0000000   0.0000000   0.0854393  -0.0854393   0.0854393   0.0000000   0.0000000   0.0000000
 0.1200000  -1.4999400  -0.0000466   1.0000600   0.0000000   0.0000000  -0.0000178   0.0026634  -0.0025476   0.0026634   0.0000000   0.0000000   0.0000000   0.0971350  -0.0971350   0.0971350   0.0000000   0.0000000   0.0000000
 0.1250000  -1.4999300  -0.0000606   1.0000700   0.0000000   0.0000000  -0.0000240   0.0031799  -0.0030641   0.0031799   0.0000000   0.0000000   0.0000000   0.1095810  -0.1095810   0.1095810   0.0000000   0.0000000   0.0000000
 0.1300000  -1.4999100  -0.0000774   1.0000900   0.0000000   0.0000000  -0.0000315   0.0037605  -0.0036447   0.0037605   0.0000000   0.0000000   0.0000000   0.1227760  -0.1227760   0.1227760   0.0000000   0.0000000   0.0000000
 0.1350000  -1.4998900  -0.0000972   1.0001100   0.0000000   0.0000000  -0.0000405   0.0044089  -0.0042931   0.0044089   0.0000000   0.0000000   0.0000000   0.1367220  -0.1367220   0.1367220   0.0000000   0.0000000   0.0000000
 0.1400000  -1.4998700  -0.0001204   1.0001300   0.0000000   0.0000000  -0.0000511   0.0051290  -0.0050132   0.0051290   0.0000000   0.0000000   0.0000000   0.1514180  -0.1514180   0.1514180   0.0000000   0.0000000   0.0000000
 0.1450000  -1.4998400  -0.0001474   1.0001600   0.0000000   0.0000000  -0.0000635   0.0059244  -0.0058085   0.0059244   0.0000000   0.0000000   0.0000000   0.1668640  -0.1668640   0.1668640   0.0000000   0.0000000   0.0000000
 0.1500000  -1.4998100  -0.0001786   1.0001900   0.0000000   0.0000000  -0.0000780   0.0067989  -0.0066831   0.0067989   0.0000000   0.0000000   0.0000000   0.1830590  -0.1830590   0.1830590   0.0000000   0.0000000   0.0000000
 0.1550000  -1.4997700  -0.0002144   1.0002300   0.0000000   0.0000000  -0.0000948   0.0077562  -0.0076404   0.0077562   0.0000000   0.0000000   0.0000000   0.2000050  -0.2000050   0.2000050   0.0000000   0.0000000   0.0000000
 0.1600000  -1.4997300  -0.0002552   1.0002700   0.0000000   0.0000000  -0.0001140   0.0088001  -0.0086844   0.0088001   0.0000000   0.0000000   0.0000000   0.2177010  -0.2177010   0.2177010   0.0000000   0.0000000   0.0000000
 0.1650000  -1.4996800  -0.0003014   1.0003200   0.0000000   0.0000000  -0.0001358   0.0099345  -0.0098186   0.0099345   0.0000000   0.0000000   0.0000000   0.2361470  -0.2361470   0.2361470   0.0000000   0.0000000   0.0000000
 0.1700000  -1.4996300  -0.0003535   1.0003700   0.0000000   0.0000000  -0.0001606   0.0111629  -0.0110471   0.0111629   0.0000000   0.0000000   0.0000000   0.2553420  -0.2553420   0.2553420   0.0000000   0.0000000   0.0000000
 0.1750000  -1.4995700  -0.0004120   1.0004300   0.0000000   0.0000000  -0.0001886   0.0124891  -0.0123733   0.0124891   0.0000000   0.0000000   0.0000000   0.2752880  -0.2752880   0.2752880   0.0000000   0.0000000   0.0000000
 0.1800000  -1.4995000  -0.0004774   1.0005000   0.0000000   0.0000000  -0.0002199   0.0139170  -0.0138012   0.0139170   0.0000000   0.0000000   0.0000000   0.2959840  -0.2959840   0.2959840   0.0000000   0.0000000   0.0000000
 0.1850000  -1.4994300  -0.0005502   1.0005700   0.0000000   0.0000000  -0.0002549   0.0154502  -0.0153344   0.0154502   0.0000000   0.0000000   0.0000000   0.3174290  -0.3174290   0.3174290   0.0000000   0.0000000   0.0000000
 0.1900000  -1.4993500  -0.0006310   1.0006500   0.0000000   0.0000000  -0.0002938   0.0170925  -0.0169767   0.0170925   0.0000000   0.0000000   0.0000000   0.3396250  -0.3396250   0.3396250   0.0000000   0.0000000   0.0000000
 0.1950000  -1.4992600  -0.0007202   1.0007400   0.0000000   0.0000000  -0.0003368   0.0188477  -0.0187319   0.0188477   0.0000000   0.0000000   0.0000000   0.3625710  -0.3625710   0.3625710   0.0000000   0.0000000   0.0000000
 0.2000000  -1.4991600  -0.0008185   1.0008400   0.0000000   0.0000000  -0.0003840   0.0207195  -0.0206037   0.0207195   0.0000000   0.0000000   0.0000000   0.3862670  -0.3862670   0.3862670   0.0000000   0.0000000   0.0000000
 0.2050000  -1.4990500  -0.0009264   1.0009500   0.0000000   0.0000000  -0.0004357   0.0227116  -0.0225958   0.0227116   0.0000000   0.0000000   0.0000000   0.4107120  -0.4107120   0.4107120   0.0000000   0.0000000   0.0000000
 0.2100000  -1.4989300  -0.0010446   1.0010700   0.0000000   0.0000000  -0.0004921   0.0248279  -0.0247121   0.0248279   0.0000000   0.0000000   0.0000000   0.4359080  -0.4359080   0.4359080   0.0000000   0.0000000   0.0000000
 0.2150000  -1.4988000  -0.0011738   1.0012000   0.0000000   0.0000000  -0.0005532   0.0270720  -0.0269562   0.0270720   0.0000000   0.0000000   0.0000000   0.4618540  -0.4618540   0.4618540   0.0000000   0.0000000   0.0000000
 0.2200000  -1.4986600  -0.0013144   1.0013400   0.0000000   0.0000000  -0.0006194   0.0294477  -0.0293319   0.0294477   0.0000000   0.0000000   0.0000000   0.4885500  -0.4885500   0.4885500   0.0000000   0.0000000   0.0000000
 0.2250000  -1.4985100  -0.0014673   1.0014900   0.0000000   0.0000000  -0.0006908   0.0319587  -0.0318429   0.0319587   0.0000000   0.0000000   0.0000000   0.5159950  -0.5159950   0.5159950   0.0000000   0.0000000   0.0000000
 0.2300000  -1.4983400  -0.0016331   1.0016600   0.0000000   0.0000000  -0.0007674   0.0346089  -0.0344931   0.0346089   0.0000000   0.0000000   0.0000000   0.5441910  -0.5441910   0.5441910   0.0000000   0.0000000   0.0000000
 0.2350000  -1.4981600  -0.0018125   1.0018400   0.0000000   0.0000000  -0.0008494   0.0374019  -0.0372861   0.0374019   0.0000000   0.0000000   0.0000000   0.5731370  -0.5731370   0.5731370   0.0000000   0.0000000   0.0000000
 0.2400000  -1.4979700  -0.0020062   1.0020300   0.0000000   0.0000000  -0.0009370   0.0403415  -0.0402257   0.0403415   0.0000000   0.0000000   0.0000000   0.6028330  -0.6028330   0.6028330   0.0000000   0.0000000   0.0000000
 0.2450000  -1.4977600  -0.0022150   1.0022400   0.0000000   0.0000000  -0.0010303   0.0434315  -0.0433156   0.0434315   0.0000000   0.0000000   0.0000000   0.6332780  -0.6332780   0.6332780   0.0000000   0.0000000   0.0000000
 0.2500000  -1.4975300  -0.0024396   1.0024700   0.0000000   0.0000000  -0.0011293   0.0466755  -0.0465597   0.0466755   0.0000000   0.0000000   0.0000000   0.6644740  -0.6644740   0.6644740   0.0000000   0.0000000   0.0000000
 0.2550000  -1.4972900  -0.0026808   1.0027100   0.0000000   0.0000000  -0.0012342   0.0500774  -0.0499616   0.0500774   0.0000000   0.0000000   0.0000000   0.6964200  -0.6964200   0.6964200   0.0000000   0.0000000   0.0000000
 0.2600000  -1.4970300  -0.0029395   1.0029700   0.0000000   0.0000000  -0.0013450   0.0536410  -0.0535252   0.0536410   0.0000000   0.0000000   0.0000000   0.7291150  -0.7291150   0.7291150   0.0000000   0.0000000   0.0000000
 0.2650000  -1.4967600  -0.0032164   1.0032400   0.0000000   0.0000000  -0.0014619   0.0573698  -0.0572540   0.0573698   0.0000000   0.0000000   0.0000000   0.7624570  -0.7624570   0.7624570   0.0000000   0.0000000   0.0000000
 0.2700000  -1.4964600  -0.0035123   1.0035400   0.0000000   0.0000000  -0.0015848   0.0612646  -0.0611488   0.0612646   0.0000000   0.0000000   0.0000000   0.7953430  -0.7953430   0.7953430   0.0000000   0.0000000   0.0000000
 0.2750000  -1.4961400  -0.0038281   1.0038600   0.0000000   0.0000000  -0.0017139   0.0653220  -0.0652062   0.0653220   0.0000000   0.0000000   0.0000000   0.8274790  -0.8274790   0.8274790   0.0000000   0.0000000   0.0000000
 0.2800000  -1.4958100  -0.0041646   1.0041900   0.0000000   0.0000000  -0.0018491   0.0695381  -0.0694223   0.0695381   0.0000000   0.0000000   0.0000000   0.8588660  -0.8588660   0.8588660   0.0000000   0.0000000   0.0000000
 0.2850000  -1.4954500  -0.0045226   1.0045500   0.0000000   0.0000000  -0.0019905   0.0739094  -0.0737936   0.0739094   0.0000000   0.0000000   0.0000000   0.8895020  -0.8895020   0.8895020   0.0000000   0.0000000   0.0000000
 0.2900000  -1.4950700  -0.0049028   1.0049300   0.0000000   0.0000000  -0.0021382   0.0784319  -0.0783161   0.0784319   0.0000000   0.0000000   0.0000000   0.9193880  -0.9193880   0.9193880   0.0000000   0.0000000   0.0000000
 0.2950000  -1.4946600  -0.0053060   1.0053400   0.0000000   0.0000000  -0.0022921   0.0831020  -0.0829862   0.0831020   0.0000000   0.0000000   0.0000000   0.9485250  -0.9485250   0.9485250   0.0000000   0.0000000   0.0000000
 0.3000000  -1.4942300  -0.0057329   1.0057700   0.0000000   0.0000000  -0.0024523   0.0879159  -0.0878001   0.0879159   0.0000000   0.0000000   0.0000000   0.9769110  -0.9769110   0.9769110   0.0000000   0.0000000   0.0000000
 0.3050000  -1.4937800  -0.0061842   1.0062200   0.0000000   0.0000000  -0.0026187   0.0928699  -0.0927541   0.0928699   0.0000000   0.0000000   0.0000000   1.0045500  -1.0045500   1.0045500   0.0000000   0.0000000   0.0000000
 0.3100000  -1.4933100  -0.0066607   1.0066900   0.0000000   0.0000000  -0.0027914   0.0979601  -0.0978443   0.0979601   0.0000000   0.0000000   0.0000000   1.0314300  -1.0314300   1.0314300   0.0000000   0.0000000   0.0000000
 0.3150000  -1.4928000  -0.0071629   1.0072000   0.0000000   0.0000000  -0.0029703   0.1031830  -0.1030670   0.1031830   0.0000000   0.0000000   0.0000000   1.0575700  -1.0575700   1.0575700   0.0000000   0.0000000   0.0000000
 0.3200000  -1.4922700  -0.0076916   1.0077300   0.0000000   0.0000000  -0.0031555   0.1085350  -0.1084190   0.1085350   0.0000000   0.0000000   0.0000000   1.0829600  -1.0829600   1.0829600   0.0000000   0.0000000   0.0000000
 0.3250000  -1.4917200  -0.0082473   1.0082800   0.0000000   0.0000000  -0.0033469   0.1140110  -0.1138950   0.1140110   0.0000000   0.0000000   0.0000000   1.1075900  -1.1075900   1.1075900   0.0000000   0.0000000   0.0000000
 0.3300000  -1.4911300  -0.0088307   1.0088700   0.0000000   0.0000000  -0.0035446   0.1196090  -0.1194930   0.1196090   0.0000000   0.0000000   0.0000000   1.1314800  -1.1314800   1.1314800   0.0000000   0.0000000   0.0000000
 0.3350000  -1.4905200  -0.0094424   1.0094800   0.0000000   0.0000000  -0.0037485   0.1253250  -0.1252090   0.1253250   0.0000000   0.0000000   0.0000000   1.1546200  -1.1546200   1.1546200   0.0000000   0.0000000   0.0000000
 0.3400000  -1.4898800  -0.0100830   1.0101200   0.0000000   0.0000000  -0.0039586   0.1311540  -0.1310380   0.1311540   0.0000000   0.0000000   0.0000000   1.1770000  -1.1770000   1.1770000   0.0000000   0.0000000   0.0000000
 0.3450000  -1.4892100  -0.0107530   1.0107900   0.0000000   0.0000000  -0.0041750   0.1370940  -0.1369780   0.1370940   0.0000000   0.0000000   0.0000000   1.1986400  -1.1986400   1.1986400   0.0000000   0.0000000   0.0000000
 0.3500000  -1.4885100  -0.0114530   1.0114900   0.0000000   0.0000000  -0.0043977   0.1431390  -0.1430230   0.1431390   0.0000000   0.0000000   0.0000000   1.2195200  -1.2195200   1.2195200   0.0000000   0.0000000   0.0000000
 0.3550000  -1.4877800  -0.0121834   1.0122200   0.0000000   0.0000000  -0.0046266   0.1492880  -0.1491720   0.1492880   0.0000000   0.0000000   0.0000000   1.2396600  -1.2396600   1.2396600   0.0000000   0.0000000   0.0000000
 0.3600000  -1.4870200  -0.0129448   1.0129800   0.0000000   0.0000000  -0.0048618   0.1555350  -0.1554190   0.1555350   0.0000000   0.0000000   0.0000000   1.2590500  -1.2590500   1.2590500   0.0000000   0.0000000   0.0000000
 0.3650000  -1.4862200  -0.0137377   1.0137800   0.0000000   0.0000000  -0.0051032   0.1618770  -0.1617610   0.1618770   0.0000000   0.0000000   0.0000000   1.2776800  -1.2776800   1.2776800   0.0000000   0.0000000   0.0000000
 0.3700000  -1.4854000  -0.0145626   1.0146000   0.0000000   0.0000000  -0.0053509   0.1683100  -0.1681940   0.1683100   0.0000000   0.0000000   0.0000000   1.2955700  -1.2955700   1.2955700   0.0000000   0.0000000   0.0000000
 0.3750000  -1.4845400  -0.0154198   1.0154600   0.0000000   0.0000000  -0.0056048   0.1748310  -0.1747150   0.1748310   0.0000000   0.0000000   0.0000000   1.3127100  -1.3127100   1.3127100   0.0000000   0.0000000   0.0000000
 0.3800000  -1.4836500  -0.0163099   1.0163500   0.0000000   0.0000000  -0.0058650   0.1814360  -0.1813200   0.1814360   0.0000000   0.0000000   0.0000000   1.3290900  -1.3290900   1.3290900   0.0000000   0.0000000   0.0000000
 0.3850000  -1.4827200  -0.0172332   1.0172800   0.0000000   0.0000000  -0.0061314   0.1881210  -0.1880050   0.1881210   0.0000000   0.0000000   0.0000000   1.3447300  -1.3447300   1.3447300   0.0000000   0.0000000   0.0000000
 0.3900000  -1.4817700  -0.0181901   1.0182300   0.0000000   0.0000000  -0.0064040   0.1948820  -0.1947660   0.1948820   0.0000000   0.0000000   0.0000000   1.3596100  -1.3596100   1.3596100   0.0000000   0.0000000   0.0000000
 0.3950000  -1.4807800  -0.0191810   1.0192200   0.0000000   0.0000000  -0.0066830   0.2017160  -0.2016000   0.2017160   0.0000000   0.0000000   0.0000000   1.3737500  -1.3737500   1.3737500   0.0000000   0.0000000   0.0000000
 0.4000000  -1.4797500  -0.0202062   1.0202500   0.0000000   0.0000000  -0.0069681   0.2086180  -0.2085030   0.2086180   0.0000000   0.0000000   0.0000000   1.3871400  -1.3871400   1.3871400   0.0000000   0.0000000   0.0000000
 0.4050000  -1.4786900  -0.0212661   1.0213100   0.0000000   0.0000000  -0.0072595   0.2155860  -0.2154700   0.2155860   0.0000000   0.0000000   0.0000000   1.3997700  -1.3997700   1.3997700   0.0000000   0.0000000   0.0000000
 0.4100000  -1.4775900  -0.0223610   1.0224100   0.0000000   0.0000000  -0.0075572   0.2226150  -0.2224990   0.2226150   0.0000000   0.0000000   0.0000000   1.4116600  -1.4116600   1.4116600   0.0000000   0.0000000   0.0000000
 0.4150000  -1.4764600  -0.0234912   1.0235400   0.0000000   0.0000000  -0.0078611   0.2297010  -0.2295850   0.2297010   0.0000000   0.0000000   0.0000000   1.4228000  -1.4228000   1.4228000   0.0000000   0.0000000   0.0000000
 0.4200000  -1.4753000  -0.0246569   1.0247000   0.0000000   0.0000000  -0.0081713   0.2368420  -0.2367260   0.2368420   0.0000000   0.0000000   0.0000000   1.4331800  -1.4331800   1.4331800   0.0000000   0.0000000   0.0000000
 0.4250000  -1.4740900  -0.0258585   1.0259100   0.0000000   0.0000000  -0.0084877   0.2440320  -0.2439160   0.2440320   0.0000000   0.0000000   0.0000000   1.4428200  -1.4428200   1.4428200   0.0000000   0.0000000   0.0000000
 0.4300000  -1.4728600  -0.0270962   1.0271400   0.0000000   0.0000000  -0.0088104   0.2512680  -0.2511530   0.2512680   0.0000000   0.0000000   0.0000000   1.4517100  -1.4517100   1.4517100   0.0000000   0.0000000   0.0000000
 0.4350000  -1.4715800  -0.0283701   1.0284200   0.0000000   0.0000000  -0.0091393   0.2585480  -0.2584320   0.2585480   0.0000000   0.0000000   0.0000000   1.4598400  -1.4598400   1.4598400   0.0000000   0.0000000   0.0000000
 0.4400000  -1.4702700  -0.0296806   1.0297300   0.0000000   0.0000000  -0.0094745   0.2658660  -0.2657500   0.2658660   0.0000000   0.0000000   0.0000000   1.4672300  -1.4672300   1.4672300   0.0000000   0.0000000   0.0000000
 0.4450000  -1.4689200  -0.0310277   1.0310800   0.0000000   0.0000000  -0.0098159   0.2732190  -0.2731030   0.2732190   0.0000000   0.0000000   0.0000000   1.4738600  -1.4738600   1.4738600   0.0000000   0.0000000   0.0000000
 0.4500000  -1.4675400  -0.0324116   1.0324600   0.0000000   0.0000000  -0.0101635   0.2806030  -0.2804870   0.2806030   0.0000000   0.0000000   0.0000000   1.4797500  -1.4797500   1.4797500   0.0000000   0.0000000   0.0000000
 0.4550000  -1.4661200  -0.0338326   1.0338800   0.0000000   0.0000000  -0.0105175   0.2880150  -0.2878990   0.2880150   0.0000000   0.0000000   0.0000000   1.4848900  -1.4848900   1.4848900   0.0000000   0.0000000   0.0000000
 0.4600000  -1.4646600  -0.0352907   1.0353400   0.0000000   0.0000000  -0.0108776   0.2954510  -0.2953350   0.2954510   0.0000000   0.0000000   0.0000000   1.4892700  -1.4892700   1.4892700   0.0000000   0.0000000   0.0000000
 0.4650000  -1.4631600  -0.0367860   1.0368400   0.0000000   0.0000000  -0.0112440   0.3029060  -0.3027910   0.3029060   0.0000000   0.0000000   0.0000000   1.4929100  -1.4929100   1.4929100   0.0000000   0.0000000   0.0000000
 0.4700000  -1.4616300  -0.0383186   1.0383700   0.0000000   0.0000000  -0.0116167   0.3103780  -0.3102630   0.3103780   0.0000000   0.0000000   0.0000000   1.4958000  -1.4958000   1.4958000   0.0000000   0.0000000   0.0000000
 0.4750000  -1.4600600  -0.0398886   1.0399400   0.0000000   0.0000000  -0.0119956   0.3178630  -0.3177470   0.3178630   0.0000000   0.0000000   0.0000000   1.4979300  -1.4979300   1.4979300   0.0000000   0.0000000   0.0000000
 0.4800000  -1.4584500  -0.0414961   1.0415500   0.0000000   0.0000000  -0.0123808   0.3253570  -0.3252410   0.3253570   0.0000000   0.0000000   0.0000000   1.4993200  -1.4993200   1.4993200   0.0000000   0.0000000   0.0000000
 0.4850000  -1.4568100  -0.0431410   1.0431900   0.0000000   0.0000000  -0.0127722   0.3328550  -0.3327390   0.3328550   0.0000000   0.0000000   0.0000000   1.4999500  -1.4999500   1.4999500   0.0000000   0.0000000   0.0000000
 0.4900000  -1.4551200  -0.0448235   1.0448800   0.0000000   0.0000000  -0.0131699   0.3403550  -0.3402390   0.3403550   0.0000000   0.0000000   0.0000000   1.5000000  -1.5000000   1.5000000   0.0000000   0.0000000   0.0000000
 0.4950000  -1.4534000  -0.0465434   1.0466000   0.0000000   0.0000000  -0.0135738   0.3478550  -0.3477390   0.3478550   0.0000000   0.0000000   0.0000000   1.5000000  -1.5000000   1.5000000   0.0000000   0.0000000   0.0000000
 0.5000000  -1.4516400  -0.0483009   1.0483600   0.0000000   0.0000000  -0.0139840   0.3553550  -0.3552390   0.3553550   0.0000000   0.0000000   0.0000000   1.5000000  -1.5000000   1.5000000   0.0000000   0.0000000   0.0000000
 0.5050000  -1.4498500  -0.0500958   1.0501500   0.0000000   0.0000000  -0.0144004   0.3628550  -0.3627390   0.3628550   0.0000000   0.0000000   0.0000000   1.5000000  -1.5000000   1.5000000   0.0000000   0.0000000   0.0000000
 0.5100000  -1.4480100  -0.0519283   1.0519900   0.0000000   0.0000000  -0.0148230   0.3703550  -0.3702390   0.3703550   0.0000000   0.0000000   0.0000000   1.5000000  -1.5000000   1.5000000   0.0000000   0.0000000   0.0000000
 0.5150000  -1.4461400  -0.0537982   1.0538600   0.0000000   0.0000000  -0.0152520   0.3778550  -0.3777390   0.3778550   0.0000000   0.0000000   0.0000000   1.5000000  -1.5000000   1.5000000   0.0000000   0.0000000   0.0000000
 0.5200000  -1.4442400  -0.0557057   1.0557600   0.0000000   0.0000000  -0.0156871   0.3853550  -0.3852390   0.3853550   0.0000000   0.0000000   0.0000000   1.5000000  -1.5000000   1.5000000   0.0000000   0.0000000   0.0000000
 0.5250000  -1.4422900  -0.0576506   1.0577100   0.0000000   0.0000000  -0.0161285   0.3928550  -0.3927390   0.3928550   0.0000000   0.0000000   0.0000000   1.5000000  -1.5000000   1.5000000   0.0000000   0.0000000   0.0000000
 0.5300000  -1.4403100  -0.0596330   1.0596900   0.0000000   0.0000000  -0.0165762   0.4003550  -0.4002390   0.4003550   0.0000000   0.0000000   0.0000000   1.5000000  -1.5000000   1.5000000   0.0000000   0.0000000   0.0000000
 0.5350000  -1.4382900  -0.0616530   1.0617100   0.0000000   0.0000000  -0.0170301   0.4078550  -0.4077390   0.4078550   0.0000000   0.0000000   0.0000000   1.5000000  -1.5000000   1.5000000   0.0000000   0.0000000   0.0000000
 0.5400000  -1.4362300  -0.0637104   1.0637700   0.0000000   0.0000000  -0.0174903   0.4153550  -0.4152390   0.4153550   0.0000000   0.0000000   0.0000000   1.5000000  -1.5000000   1.5000000   0.0000000   0.0000000   0.0000000
 0.5450000  -1.4341300  -0.0658054   1.0658700   0.0000000   0.0000000  -0.0179567   0.4228550  -0.4227390   0.4228550   0.0000000   0.0000000   0.0000000   1.5000000  -1.5000000   1.5000000   0.0000000   0.0000000   0.0000000
 0.5500000  -1.4320000  -0.0679378   1.0680000   0.0000000   0.0000000  -0.0184294   0.4303550  -0.4302390   0.4303550   0.0000000   0.0000000   0.0000000   1.5000000  -1.5000000   1.5000000   0.0000000   0.0000000   0.0000000
 0.5550000  -1.4298300  -0.0701078   1.0701700   0.0000000   0.0000000  -0.0189083   0.4378550  -0.4377390   0.4378550   0.0000000   0.0000000   0.0000000   1.5000000  -1.5000000   1.5000000   0.0000000   0.0000000   0.0000000
 0.5600000  -1.4276200  -0.0723152   1.0723800   0.0000000   0.0000000  -0.0193935   0.4453550  -0.4452390   0.4453550   0.0000000   0.0000000   0.0000000   1.5000000  -1.5000000   1.5000000   0.0000000   0.0000000   0.0000000
 0.5650000  -1.4253800  -0.0745602   1.0746200   0.0000000   0.0000000  -0.0198849   0.4528550  -0.4527390   0.4528550   0.0000000   0.0000000   0.0000000   1.5000000  -1.5000000   1.5000000   0.0000000   0.0000000   0.0000000
 0.5700000  -1.4241500  -0.0758489   1.0758500   0.0000000   0.0000000  -0.0203825   0.4569430  -0.4569430   0.4569430   0.0000000   0.0000000   0.0000000   1.5000000  -1.5000000   1.5000000   0.0000000   0.0000000   0.0000000
 0.5750000  -1.4241500  -0.0758489   1.0758500   0.0000000   0.0000000  -0.0206504   0.4569430  -0.4569430   0.4569430   0.0000000   0.0000000   0.0000000   1.5000000  -1.5000000   1.5000000   0.0000000   0.0000000   0.0000000
 0.5800000  -1.4218500  -0.0781523   1.0781500   0.0000000   0.0000000  -0.0211575   0.4644420  -0.4644420   0.4644420   0.0000000   0.0000000   0.0000000   1.4996200  -1.4996200   1.4996200   0.0000000   0.0000000   0.0000000
 0.5850000  -1.4195100  -0.0804933   1.0804900   0.0000000   0.0000000  -0.0216709   0.4719380  -0.4719380   0.4719380   0.0000000   0.0000000   0.0000000   1.4985000  -1.4985000   1.4985000   0.0000000   0.0000000   0.0000000
 0.5900000  -1.4171300  -0.0828717   1.0828700   0.0000000   0.0000000  -0.0221906   0.4794260  -0.4794260   0.4794260   0.0000000   0.0000000   0.0000000   1.4966200  -1.4966200   1.4966200   0.0000000   0.0000000   0.0000000
 0.5950000  -1.4147100  -0.0852875   1.0852900   0.0000000   0.0000000  -0.0227164   0.4869030  -0.4869030   0.4869030   0.0000000   0.0000000   0.0000000   1.4940000  -1.4940000   1.4940000   0.0000000   0.0000000   0.0000000
 0.6000000  -1.4122600  -0.0877407   1.0877400   0.0000000   0.0000000  -0.0232484   0.4943650  -0.4943650   0.4943650   0.0000000   0.0000000   0.0000000   1.4906200  -1.4906200   1.4906200   0.0000000   0.0000000   0.0000000
 0.6050000  -1.4097700  -0.0902312   1.0902300   0.0000000   0.0000000  -0.0237866   0.5018080  -0.5018080   0.5018080   0.0000000   0.0000000   0.0000000   1.4865000  -1.4865000   1.4865000   0.0000000   0.0000000   0.0000000
 0.6100000  -1.4072400  -0.0927588   1.0927600   0.0000000   0.0000000  -0.0243308   0.5092280  -0.5092280   0.5092280   0.0000000   0.0000000   0.0000000   1.4816200  -1.4816200   1.4816200   0.0000000   0.0000000   0.0000000
 0.6150000  -1.4046800  -0.0953234   1.0953200   0.0000000   0.0000000  -0.0248810   0.5166230  -0.5166230   0.5166230   0.0000000   0.0000000   0.0000000   1.4760000  -1.4760000   1.4760000   0.0000000   0.0000000   0.0000000
 0.6200000  -1.4020800  -0.0979249   1.0979200   0.0000000   0.0000000  -0.0254371   0.5239870  -0.5239870   0.5239870   0.0000000   0.0000000   0.0000000   1.4696200  -1.4696200   1.4696200   0.0000000   0.0000000   0.0000000
 0.6250000  -1.3994400  -0.1005630   1.1005600   0.0000000   0.0000000  -0.0259991   0.5313180  -0.5313180   0.5313180   0.0000000   0.0000000   0.0000000   1.4625000  -1.4625000   1.4625000   0.0000000   0.0000000   0.0000000
 0.6300000  -1.3967600  -0.1032380   1.1032400   0.0000000   0.0000000  -0.0265669   0.5386110  -0.5386110   0.5386110   0.0000000   0.0000000   0.0000000   1.4546200  -1.4546200   1.4546200   0.0000000   0.0000000   0.0000000
 0.6350000  -1.3940500  -0.1059490   1.1059500   0.0000000   0.0000000  -0.0271402   0.5458630  -0.5458630   0.5458630   0.0000000   0.0000000   0.0000000   1.4460000  -1.4460000   1.4460000   0.0000000   0.0000000   0.0000000
 0.6400000  -1.3913000  -0.1086970   1.1087000   0.0000000   0.0000000  -0.0277192   0.5530700  -0.5530700   0.5530700   0.0000000   0.0000000   0.0000000   1.4366200  -1.4366200   1.4366200   0.0000000   0.0000000   0.0000000
 0.6450000  -1.3885200  -0.1114800   1.1114800   0.0000000   0.0000000  -0.0283035   0.5602280  -0.5602280   0.5602280   0.0000000   0.0000000   0.0000000   1.4265000  -1.4265000   1.4265000   0.0000000   0.0000000   0.0000000
 0.6500000  -1.3857000  -0.1142990   1.1143000   0.0000000   0.0000000  -0.0288930   0.5673330  -0.5673330   0.5673330   0.0000000   0.0000000   0.0000000   1.4156200  -1.4156200   1.4156200   0.0000000   0.0000000   0.0000000
 0.6550000  -1.3828500  -0.1171530   1.1171500   0.0000000   0.0000000  -0.0294878   0.5743830  -0.5743830   0.5743830   0.0000000   0.0000000   0.0000000   1.4040000  -1.4040000   1.4040000   0.0000000   0.0000000   0.0000000
 0.6600000  -1.3799600  -0.1200430   1.1200400   0.0000000   0.0000000  -0.0300874   0.5813720  -0.5813720   0.5813720   0.0000000   0.0000000   0.0000000   1.3916200  -1.3916200   1.3916200   0.0000000   0.0000000   0.0000000
 0.6650000  -1.3770300  -0.1229670   1.1229700   0.0000000   0.0000000  -0.0306919   0.5882980  -0.5882980   0.5882980   0.0000000   0.0000000   0.0000000   1.3785000  -1.3785000   1.3785000   0.0000000   0.0000000   0.0000000
 0.6700000  -1.3740700  -0.1259250   1.1259300   0.0000000   0.0000000  -0.0313010   0.5951560  -0.5951560   0.5951560   0.0000000   0.0000000   0.0000000   1.3646200  -1.3646200   1.3646200   0.0000000   0.0000000   0.0000000
 0.6750000  -1.3710800  -0.1289180   1.1289200   0.0000000   0.0000000  -0.0319146   0.6019430  -0.6019430   0.6019430   0.0000000   0.0000000   0.0000000   1.3500000  -1.3500000   1.3500000   0.0000000   0.0000000   0.0000000
 0.6800000  -1.3680600  -0.1319450   1.1319400   0.0000000   0.0000000  -0.0325324   0.6086550  -0.6086550   0.6086550   0.0000000   0.0000000   0.0000000   1.3346200  -1.3346200   1.3346200   0.0000000   0.0000000   0.0000000
 0.6850000  -1.3650000  -0.1350050   1.1350000   0.0000000   0.0000000  -0.0331542   0.6152880  -0.6152880   0.6152880   0.0000000   0.0000000   0.0000000   1.3185000  -1.3185000   1.3185000   0.0000000   0.0000000   0.0000000
 0.6900000  -1.3619000  -0.1380970   1.1381000   0.0000000   0.0000000  -0.0337799   0.6218380  -0.6218380   0.6218380   0.0000000   0.0000000   0.0000000   1.3016200  -1.3016200   1.3016200   0.0000000   0.0000000   0.0000000
 0.6950000  -1.3587800  -0.1412230   1.1412200   0.0000000   0.0000000  -0.0344092   0.6283030  -0.6283030   0.6283030   0.0000000   0.0000000   0.0000000   1.2840000  -1.2840000   1.2840000   0.0000000   0.0000000   0.0000000
 0.7000000  -1.3556200  -0.1443800   1.1443800   0.0000000   0.0000000  -0.0350418   0.6346770  -0.6346770   0.6346770   0.0000000   0.0000000   0.0000000   1.2656200  -1.2656200   1.2656200   0.0000000   0.0000000   0.0000000
 0.7050000  -1.3524300  -0.1475690   1.1475700   0.0000000   0.0000000  -0.0356776   0.6409580  -0.6409580   0.6409580   0.0000000   0.0000000   0.0000000   1.2465000  -1.2465000   1.2465000   0.0000000   0.0000000   0.0000000
 0.7100000  -1.3492100  -0.1507900   1.1507900   0.0000000   0.0000000  -0.0363162   0.6471410  -0.6471410   0.6471410   0.0000000   0.0000000   0.0000000   1.2266200  -1.2266200   1.2266200   0.0000000   0.0000000   0.0000000
 0.7150000  -1.3459600  -0.1540410   1.1540400   0.0000000   0.0000000  -0.0369575   0.6532230  -0.6532230   0.6532230   0.0000000   0.0000000   0.0000000   1.2060000  -1.2060000   1.2060000   0.0000000   0.0000000   0.0000000
 0.7200000  -1.3426800  -0.1573220   1.1573200   0.0000000   0.0000000  -0.0376011   0.6592000  -0.6592000   0.6592000   0.0000000   0.0000000   0.0000000   1.1846200  -1.1846200   1.1846200   0.0000000   0.0000000   0.0000000
 0.7250000  -1.3393700  -0.1606320   1.1606300   0.0000000   0.0000000  -0.0382467   0.6650680  -0.6650680   0.6650680   0.0000000   0.0000000   0.0000000   1.1625000  -1.1625000   1.1625000   0.0000000   0.0000000   0.0000000
 0.7300000  -1.3360300  -0.1639720   1.1639700   0.0000000   0.0000000  -0.0388940   0.6708230  -0.6708230   0.6708230   0.0000000   0.0000000   0.0000000   1.1396200  -1.1396200   1.1396200   0.0000000   0.0000000   0.0000000
 0.7350000  -1.3326600  -0.1673410   1.1673400   0.0000000   0.0000000  -0.0395429   0.6764630  -0.6764630   0.6764630   0.0000000   0.0000000   0.0000000   1.1160000  -1.1160000   1.1160000   0.0000000   0.0000000   0.0000000
 0.7400000  -1.3292600  -0.1707370   1.1707400   0.0000000   0.0000000  -0.0401928   0.6819820  -0.6819820   0.6819820   0.0000000   0.0000000   0.0000000   1.0916200  -1.0916200   1.0916200   0.0000000   0.0000000   0.0000000
 0.7450000  -1.3258400  -0.1741600   1.1741600   0.0000000   0.0000000  -0.0408435   0.6873780  -0.6873780   0.6873780   0.0000000   0.0000000   0.0000000   1.0665000  -1.0665000   1.0665000   0.0000000   0.0000000   0.0000000
 0.7500000  -1.3223900  -0.1776100   1.1776100   0.0000000   0.0000000  -0.0414948   0.6926460  -0.6926460   0.6926460   0.0000000   0.0000000   0.0000000   1.0406200  -1.0406200   1.0406200   0.0000000   0.0000000   0.0000000
 0.7550000  -1.3189100  -0.1810860   1.1810900   0.0000000   0.0000000  -0.0421461   0.6977830  -0.6977830   0.6977830   0.0000000   0.0000000   0.0000000   1.0140000  -1.0140000   1.0140000   0.0000000   0.0000000   0.0000000
 0.7600000  -1.3154100  -0.1845880   1.1845900   0.0000000   0.0000000  -0.0427972   0.7027850  -0.7027850   0.7027850   0.0000000   0.0000000   0.0000000   0.9866250  -0.9866250   0.9866250   0.0000000   0.0000000   0.0000000
 0.7650000  -1.3118900  -0.1881140   1.1881100   0.0000000   0.0000000  -0.0434478   0.7076480  -0.7076480   0.7076480   0.0000000   0.0000000   0.0000000   0.9585000  -0.9585000   0.9585000   0.0000000   0.0000000   0.0000000
 0.7700000  -1.3083400  -0.1916640   1.1916600   0.0000000   0.0000000  -0.0440974   0.7123680  -0.7123680   0.7123680   0.0000000   0.0000000   0.0000000   0.9296250  -0.9296250   0.9296250   0.0000000   0.0000000   0.0000000
 0.7750000  -1.3047600  -0.1952370   1.1952400   0.0000000   0.0000000  -0.0447458   0.7169430  -0.7169430   0.7169430   0.0000000   0.0000000   0.0000000   0.9000000  -0.9000000   0.9000000   0.0000000   0.0000000   0.0000000
 0.7800000  -1.3011700  -0.1988330   1.1988300   0.0000000   0.0000000  -0.0453927   0.7213670  -0.7213670   0.7213670   0.0000000   0.0000000   0.0000000   0.8696250  -0.8696250   0.8696250   0.0000000   0.0000000   0.0000000
 0.7850000  -1.2975500  -0.2024510   1.2024500   0.0000000   0.0000000  -0.0460378   0.7256380  -0.7256380   0.7256380   0.0000000   0.0000000   0.0000000   0.8385000  -0.8385000   0.8385000   0.0000000   0.0000000   0.0000000
 0.7900000  -1.2939100  -0.2060890   1.2060900   0.0000000   0.0000000  -0.0466807   0.7297510  -0.7297510   0.7297510   0.0000000   0.0000000   0.0000000   0.8066250  -0.8066250   0.8066250   0.0000000   0.0000000   0.0000000
 0.7950000  -1.2902500  -0.2097480   1.2097500   0.0000000   0.0000000  -0.0473212   0.7337030  -0.7337030   0.7337030   0.0000000   0.0000000   0.0000000   0.7740000  -0.7740000   0.7740000   0.0000000   0.0000000   0.0000000
 0.8000000  -1.2865700  -0.2134260   1.2134300   0.0000000   0.0000000  -0.0479591   0.7374900  -0.7374900   0.7374900   0.0000000   0.0000000   0.0000000   0.7406250  -0.7406250   0.7406250   0.0000000   0.0000000   0.0000000
 0.8050000  -1.2828800  -0.2171230   1.2171200   0.0000000   0.0000000  -0.0485940   0.7411080  -0.7411080   0.7411080   0.0000000   0.0000000   0.0000000   0.7065000  -0.7065000   0.7065000   0.0000000   0.0000000   0.0000000
 0.8100000  -1.2791600  -0.2208370   1.2208400   0.0000000   0.0000000  -0.0492257   0.7445530  -0.7445530   0.7445530   0.0000000   0.0000000   0.0000000   0.6716250  -0.6716250   0.6716250   0.0000000   0.0000000   0.0000000
 0.8150000  -1.2754300  -0.2245680   1.2245700   0.0000000   0.0000000  -0.0498539   0.7478230  -0.7478230   0.7478230   0.0000000   0.0000000   0.0000000   0.6360000  -0.6360000   0.6360000   0.0000000   0.0000000   0.0000000
 0.8200000  -1.2716900  -0.2283150   1.2283100   0.0000000   0.0000000  -0.0504785   0.7509120  -0.7509120   0.7509120   0.0000000   0.0000000   0.0000000   0.5996250  -0.5996250   0.5996250   0.0000000   0.0000000   0.0000000
 0.8250000  -1.2679200  -0.2320770   1.2320800   0.0000000   0.0000000  -0.0510992   0.7538180  -0.7538180   0.7538180   0.0000000   0.0000000   0.0000000   0.5625000  -0.5625000   0.5625000   0.0000000   0.0000000   0.0000000
 0.8300000  -1.2641500  -0.2358530   1.2358500   0.0000000   0.0000000  -0.0517158   0.7565360  -0.7565360   0.7565360   0.0000000   0.0000000   0.0000000   0.5246250  -0.5246250   0.5246250   0.0000000   0.0000000   0.0000000
 0.8350000  -1.2603600  -0.2396420   1.2396400   0.0000000   0.0000000  -0.0523281   0.7590630  -0.7590630   0.7590630   0.0000000   0.0000000   0.0000000   0.4860000  -0.4860000   0.4860000   0.0000000   0.0000000   0.0000000
 0.8400000  -1.2565600  -0.2434430   1.2434400   0.0000000   0.0000000  -0.0529359   0.7613950  -0.7613950   0.7613950   0.0000000   0.0000000   0.0000000   0.4466250  -0.4466250   0.4466250   0.0000000   0.0000000   0.0000000
 0.8450000  -1.2527400  -0.2472550   1.2472600   0.0000000   0.0000000  -0.0535390   0.7635280  -0.7635280   0.7635280   0.0000000   0.0000000   0.0000000   0.4065000  -0.4065000   0.4065000   0.0000000   0.0000000   0.0000000
 0.8500000  -1.2489200  -0.2510780   1.2510800   0.0000000   0.0000000  -0.0541373   0.7654580  -0.7654580   0.7654580   0.0000000   0.0000000   0.0000000   0.3656250  -0.3656250   0.3656250   0.0000000   0.0000000   0.0000000
 0.8550000  -1.2450900  -0.2549100   1.2549100   0.0000000   0.0000000  -0.0547305   0.7671830  -0.7671830   0.7671830   0.0000000   0.0000000   0.0000000   0.3240000  -0.3240000   0.3240000   0.0000000   0.0000000   0.0000000
 0.8600000  -1.2412500  -0.2587490   1.2587500   0.0000000   0.0000000  -0.0553186   0.7686970  -0.7686970   0.7686970   0.0000000   0.0000000   0.0000000   0.2816250  -0.2816250   0.2816250   0.0000000   0.0000000   0.0000000
 0.8650000  -1.2374000  -0.2625960   1.2626000   0.0000000   0.0000000  -0.0559013   0.7699980  -0.7699980   0.7699980   0.0000000   0.0000000   0.0000000   0.2385000  -0.2385000   0.2385000   0.0000000   0.0000000   0.0000000
 0.8700000  -1.2335500  -0.2664490   1.2664500   0.0000000   0.0000000  -0.0564786   0.7710810  -0.7710810   0.7710810   0.0000000   0.0000000   0.0000000   0.1946250  -0.1946250   0.1946250   0.0000000   0.0000000   0.0000000
 0.8750000  -1.2296900  -0.2703070   1.2703100   0.0000000   0.0000000  -0.0570504   0.7719430  -0.7719430   0.7719430   0.0000000   0.0000000   0.0000000   0.1500000  -0.1500000   0.1500000   0.0000000   0.0000000   0.0000000
 0.8800000  -1.2258300  -0.2741680   1.2741700   0.0000000   0.0000000  -0.0576165   0.7725800  -0.7725800   0.7725800   0.0000000   0.0000000   0.0000000   0.1046250  -0.1046250   0.1046250   0.0000000   0.0000000   0.0000000
 0.8850000  -1.2219700  -0.2780320   1.2780300   0.0000000   0.0000000  -0.0581768   0.7729880  -0.7729880   0.7729880   0.0000000   0.0000000   0.0000000   0.0585000  -0.0585000   0.0585000   0.0000000   0.0000000   0.0000000
 0.8900000  -1.2181000  -0.2818980   1.2819000   0.0000000   0.0000000  -0.0587312   0.7731630  -0.7731630   0.7731630   0.0000000   0.0000000   0.0000000   0.0116250  -0.0116250   0.0116250   0.0000000   0.0000000   0.0000000
 0.8950000  -1.2142400  -0.2857630   1.2857600   0.0000000   0.0000000  -0.0592797   0.7731030  -0.7731030   0.7731030   0.0000000   0.0000000   0.0000000  -0.0355731   0.0355731  -0.0355731   0.0000000   0.0000000   0.0000000
 0.9000000  -1.2103700  -0.2896280   1.2896300   0.0000000   0.0000000  -0.0598222   0.7728090  -0.7728090   0.7728090   0.0000000   0.0000000   0.0000000  -0.0820664   0.0820664  -0.0820664   0.0000000   0.0000000   0.0000000
 0.9050000  -1.2065100  -0.2934910   1.2934900   0.0000000   0.0000000  -0.0603585   0.7722840  -0.7722840   0.7722840   0.0000000   0.0000000   0.0000000  -0.1278100   0.1278100  -0.1278100   0.0000000   0.0000000   0.0000000
 0.9100000  -1.2026500  -0.2973510   1.2973500   0.0000000   0.0000000  -0.0608888   0.7715320  -0.7715320   0.7715320   0.0000000   0.0000000   0.0000000  -0.1728030   0.1728030  -0.1728030   0.0000000   0.0000000   0.0000000
 0.9150000  -1.1987900  -0.3012060   1.3012100   0.0000000   0.0000000  -0.0614128   0.7705570  -0.7705570   0.7705570   0.0000000   0.0000000   0.0000000  -0.2170460   0.2170460  -0.2170460   0.0000000   0.0000000   0.0000000
 0.9200000  -1.1949400  -0.3050560   1.3050600   0.0000000   0.0000000  -0.0619307   0.7693630  -0.7693630   0.7693630   0.0000000   0.0000000   0.0000000  -0.2605400   0.2605400  -0.2605400   0.0000000   0.0000000   0.0000000
 0.9250000  -1.1911000  -0.3088990   1.3089000   0.0000000   0.0000000  -0.0624423   0.7679530  -0.7679530   0.7679530   0.0000000   0.0000000   0.0000000  -0.3032830   0.3032830  -0.3032830   0.0000000   0.0000000   0.0000000
 0.9300000  -1.1872600  -0.3127350   1.3127400   0.0000000   0.0000000  -0.0629476   0.7663310  -0.7663310   0.7663310   0.0000000   0.0000000   0.0000000  -0.3452760   0.3452760  -0.3452760   0.0000000   0.0000000   0.0000000
 0.9350000  -1.1834400  -0.3165620   1.3165600   0.0000000   0.0000000  -0.0634468   0.7645010  -0.7645010   0.7645010   0.0000000   0.0000000   0.0000000  -0.3865200   0.3865200  -0.3865200   0.0000000   0.0000000   0.0000000
 0.9400000  -1.1796200  -0.3203800   1.3203800   0.0000000   0.0000000  -0.0639396   0.7624670  -0.7624670   0.7624670   0.0000000   0.0000000   0.0000000  -0.4270130   0.4270130  -0.4270130   0.0000000   0.0000000   0.0000000
 0.9450000  -1.1758100  -0.3241870   1.3241900   0.0000000   0.0000000  -0.0644262   0.7602330  -0.7602330   0.7602330   0.0000000   0.0000000   0.0000000  -0.4667560   0.4667560  -0.4667560   0.0000000   0.0000000   0.0000000
 0.9500000  -1.1720200  -0.3279820   1.3279800   0.0000000   0.0000000  -0.0649066   0.7578010  -0.7578010   0.7578010   0.0000000   0.0000000   0.0000000  -0.5057500   0.5057500  -0.5057500   0.0000000   0.0000000   0.0000000
 0.9550000  -1.1682400  -0.3317640   1.3317600   0.0000000   0.0000000  -0.0653807   0.7551760  -0.7551760   0.7551760   0.0000000   0.0000000   0.0000000  -0.5439930   0.5439930  -0.5439930   0.0000000   0.0000000   0.0000000
 0.9600000  -1.1644700  -0.3355330   1.3355300   0.0000000   0.0000000  -0.0658486   0.7523620  -0.7523620   0.7523620   0.0000000   0.0000000   0.0000000  -0.5814860   0.5814860  -0.5814860   0.0000000   0.0000000   0.0000000
 0.9650000  -1.1607100  -0.3392880   1.3392900   0.0000000   0.0000000  -0.0663102   0.7493630  -0.7493630   0.7493630   0.0000000   0.0000000   0.0000000  -0.6182300   0.6182300  -0.6182300   0.0000000   0.0000000   0.0000000
 0.9700000  -1.1569700  -0.3430270   1.3430300   0.0000000   0.0000000  -0.0667655   0.7461810  -0.7461810   0.7461810   0.0000000   0.0000000   0.0000000  -0.6542230   0.6542230  -0.6542230   0.0000000   0.0000000   0.0000000
 0.9750000  -1.1532500  -0.3467490   1.3467500   0.0000000   0.0000000  -0.0672146   0.7428220  -0.7428220   0.7428220   0.0000000   0.0000000   0.0000000  -0.6894660   0.6894660  -0.6894660   0.0000000   0.0000000   0.0000000
 0.9800000  -1.1495500  -0.3504540   1.3504500   0.0000000   0.0000000  -0.0676575   0.7392880  -0.7392880   0.7392880   0.0000000   0.0000000   0.0000000  -0.7239600   0.7239600  -0.7239600   0.0000000   0.0000000   0.0000000
 0.9850000  -1.1458600  -0.3541420   1.3541400   0.0000000   0.0000000  -0.0680941   0.7355830  -0.7355830   0.7355830   0.0000000   0.0000000   0.0000000  -0.7577030   0.7577030  -0.7577030   0.0000000   0.0000000   0.0000000
 0.9900000  -1.1421900  -0.3578100   1.3578100   0.0000000   0.0000000  -0.0685245   0.7317120  -0.7317120   0.7317120   0.0000000   0.0000000   0.0000000  -0.7906960   0.7906960  -0.7906960   0.0000000   0.0000000   0.0000000
 0.9950000  -1.1385400  -0.3614590   1.3614600   0.0000000   0.0000000  -0.0689486   0.7276780  -0.7276780   0.7276780   0.0000000   0.0000000   0.0000000  -0.8229400   0.8229400  -0.8229400   0.0000000   0.0000000   0.0000000
 1.0000000  -1.1349100  -0.3650870   1.3650900   0.0000000   0.0000000  -0.0693664   0.7234840  -0.7234840   0.7234840   0.0000000   0.0000000   0.0000000  -0.8544330   0.8544330  -0.8544330   0.0000000   0.0000000   0.0000000
 1.0050000  -1.1313100  -0.3686930   1.3686900   0.0000000   0.0000000  -0.0697781   0.7191350  -0.7191350   0.7191350   0.0000000   0.0000000   0.0000000  -0.8851760   0.8851760  -0.8851760   0.0000000   0.0000000   0.0000000
 1.0100000  -1.1277200  -0.3722780   1.3722800   0.0000000   0.0000000  -0.0701834   0.7146330  -0.7146330   0.7146330   0.0000000   0.0000000   0.0000000  -0.9151700   0.9151700  -0.9151700   0.0000000   0.0000000   0.0000000
 1.0150000  -1.1241600  -0.3758390   1.3758400   0.0000000   0.0000000  -0.0705825   0.7099840  -0.7099840   0.7099840   0.0000000   0.0000000   0.0000000  -0.9444130   0.9444130  -0.9444130   0.0000000   0.0000000   0.0000000
 1.0200000  -1.1206200  -0.3793770   1.3793800   0.0000000   0.0000000  -0.0709754   0.7051900  -0.7051900   0.7051900   0.0000000   0.0000000   0.0000000  -0.9729060   0.9729060  -0.9729060   0.0000000   0.0000000   0.0000000
 1.0250000  -1.1171100  -0.3828910   1.3828900   0.0000000   0.0000000  -0.0713620   0.7002560  -0.7002560   0.7002560   0.0000000   0.0000000   0.0000000  -1.0006500   1.0006500  -1.0006500   0.0000000   0.0000000   0.0000000
 1.0300000  -1.1136200  -0.3863800   1.3863800   0.0000000   0.0000000  -0.0717424   0.6951850  -0.6951850   0.6951850   0.0000000   0.0000000   0.0000000  -1.0276400   1.0276400  -1.0276400   0.0000000   0.0000000   0.0000000
 1.0350000  -1.1101600  -0.3898420   1.3898400   0.0000000   0.0000000  -0.0721165   0.6899810  -0.6899810   0.6899810   0.0000000   0.0000000   0.0000000  -1.0538900   1.0538900  -1.0538900   0.0000000   0.0000000   0.0000000
 1.0400000  -1.1067200  -0.3932790   1.3932800   0.0000000   0.0000000  -0.0724843   0.6846480  -0.6846480   0.6846480   0.0000000   0.0000000   0.0000000  -1.0793800   1.0793800  -1.0793800   0.0000000   0.0000000   0.0000000
 1.0450000  -1.1033100  -0.3966890   1.3966900   0.0000000   0.0000000  -0.0728459   0.6791890  -0.6791890   0.6791890   0.0000000   0.0000000   0.0000000  -1.1041200   1.1041200  -1.1041200   0.0000000   0.0000000   0.0000000
 1.0500000  -1.0999300  -0.4000710   1.4000700   0.0000000   0.0000000  -0.0732013   0.6736080  -0.6736080   0.6736080   0.0000000   0.0000000   0.0000000  -1.1281200   1.1281200  -1.1281200   0.0000000   0.0000000   0.0000000
 1.0550000  -1.0965800  -0.4034250   1.4034200   0.0000000   0.0000000  -0.0735504   0.6679090  -0.6679090   0.6679090   0.0000000   0.0000000   0.0000000  -1.1513600   1.1513600  -1.1513600   0.0000000   0.0000000   0.0000000
 1.0600000  -1.0932500  -0.4067500   1.4067500   0.0000000   0.0000000  -0.0738933   0.6620950  -0.6620950   0.6620950   0.0000000   0.0000000   0.0000000  -1.1738500   1.1738500  -1.1738500   0.0000000   0.0000000   0.0000000
 1.0650000  -1.0899500  -0.4100450   1.4100500   0.0000000   0.0000000  -0.0742299   0.6561710  -0.6561710   0.6561710   0.0000000   0.0000000   0.0000000  -1.1956000   1.1956000  -1.1956000   0.0000000   0.0000000   0.0000000
 1.0700000  -1.0866900  -0.4133110   1.4133100   0.0000000   0.0000000  -0.0745602   0.6501410  -0.6501410   0.6501410   0.0000000   0.0000000   0.0000000  -1.2165900   1.2165900  -1.2165900   0.0000000   0.0000000   0.0000000
 1.0750000  -1.0834500  -0.4165470   1.4165500   0.0000000   0.0000000  -0.0748844   0.6440070  -0.6440070   0.6440070   0.0000000   0.0000000   0.0000000  -1.2368300   1.2368300  -1.2368300   0.0000000   0.0000000   0.0000000
 1.0800000  -1.0802500  -0.4197510   1.4197500   0.0000000   0.0000000  -0.0752022   0.6377730  -0.6377730   0.6377730   0.0000000   0.0000000   0.0000000  -1.2563300   1.2563300  -1.2563300   0.0000000   0.0000000   0.0000000
 1.0850000  -1.0770800  -0.4229240   1.4229200   0.0000000   0.0000000  -0.0755138   0.6314450  -0.6314450   0.6314450   0.0000000   0.0000000   0.0000000  -1.2750700   1.2750700  -1.2750700   0.0000000   0.0000000   0.0000000
 1.0900000  -1.0739300  -0.4260650   1.4260700   0.0000000   0.0000000  -0.0758192   0.6250240  -0.6250240   0.6250240   0.0000000   0.0000000   0.0000000  -1.2930600   1.2930600  -1.2930600   0.0000000   0.0000000   0.0000000
 1.0950000  -1.0708300  -0.4291740   1.4291700   0.0000000   0.0000000  -0.0761183   0.6185150  -0.6185150   0.6185150   0.0000000   0.0000000   0.0000000  -1.3103100   1.3103100  -1.3103100   0.0000000   0.0000000   0.0000000
 1.1000000  -1.0677500  -0.4322500   1.4322500   0.0000000   0.0000000  -0.0764112   0.6119220  -0.6119220   0.6119220   0.0000000   0.0000000   0.0000000  -1.3268000   1.3268000  -1.3268000   0.0000000   0.0000000   0.0000000
 1.1050000  -1.0647100  -0.4352930   1.4352900   0.0000000   0.0000000  -0.0766978   0.6052490  -0.6052490   0.6052490   0.0000000   0.0000000   0.0000000  -1.3425400   1.3425400  -1.3425400   0.0000000   0.0000000   0.0000000
 1.1100000  -1.0617000  -0.4383030   1.4383000   0.0000000   0.0000000  -0.0769781   0.5984980  -0.5984980   0.5984980   0.0000000   0.0000000   0.0000000  -1.3575400   1.3575400  -1.3575400   0.0000000   0.0000000   0.0000000
 1.1150000  -1.0587200  -0.4412780   1.4412800   0.0000000   0.0000000  -0.0772522   0.5916740  -0.5916740   0.5916740   0.0000000   0.0000000   0.0000000  -1.3717800   1.3717800  -1.3717800   0.0000000   0.0000000   0.0000000
 1.1200000  -1.0557800  -0.4442190   1.4442200   0.0000000   0.0000000  -0.0775201   0.5847820  -0.5847820   0.5847820   0.0000000   0.0000000   0.0000000  -1.3852700   1.3852700  -1.3852700   0.0000000   0.0000000   0.0000000
 1.1250000  -1.0528700  -0.4471260   1.4471300   0.0000000   0.0000000  -0.0777817   0.5778230  -0.5778230   0.5778230   0.0000000   0.0000000   0.0000000  -1.3980200   1.3980200  -1.3980200   0.0000000   0.0000000   0.0000000
 1.1300000  -1.0500000  -0.4499980   1.4500000   0.0000000   0.0000000  -0.0780371   0.5708030  -0.5708030   0.5708030   0.0000000   0.0000000   0.0000000  -1.4100100   1.4100100  -1.4100100   0.0000000   0.0000000   0.0000000
 1.1350000  -1.0471700  -0.4528340   1.4528300   0.0000000   0.0000000  -0.0782862   0.5637240  -0.5637240   0.5637240   0.0000000   0.0000000   0.0000000  -1.4212500   1.4212500  -1.4212500   0.0000000   0.0000000   0.0000000
 1.1400000  -1.0443700  -0.4556350   1.4556300   0.0000000   0.0000000  -0.0785290   0.5565910  -0.5565910   0.5565910   0.0000000   0.0000000   0.0000000  -1.4317500   1.4317500  -1.4317500   0.0000000   0.0000000   0.0000000
 1.1450000  -1.0416000  -0.4584000   1.4584000   0.0000000   0.0000000  -0.0787657   0.5494080  -0.5494080   0.5494080   0.0000000   0.0000000   0.0000000  -1.4414900   1.4414900  -1.4414900   0.0000000   0.0000000   0.0000000
 1.1500000  -1.0388700  -0.4611290   1.4611300   0.0000000   0.0000000  -0.0789960   0.5421780  -0.5421780   0.5421780   0.0000000   0.0000000   0.0000000  -1.4504800   1.4504800  -1.4504800   0.0000000   0.0000000   0.0000000
 1.1550000  -1.0361800  -0.4638210   1.4638200   0.0000000   0.0000000  -0.0792201   0.5349040  -0.5349040   0.5349040   0.0000000   0.0000000   0.0000000  -1.4587300   1.4587300  -1.4587300   0.0000000   0.0000000   0.0000000
 1.1600000  -1.0335200  -0.4664780   1.4664800   0.0000000   0.0000000  -0.0794380   0.5275920  -0.5275920   0.5275920   0.0000000   0.0000000   0.0000000  -1.4662200   1.4662200  -1.4662200   0.0000000   0.0000000   0.0000000
 1.1650000  -1.0309000  -0.4690970   1.4691000   0.0000000   0.0000000  -0.0796496   0.5202430  -0.5202430   0.5202430   0.0000000   0.0000000   0.0000000  -1.4729600   1.4729600  -1.4729600   0.0000000   0.0000000   0.0000000
 1.1700000  -1.0283200  -0.4716800   1.4716800   0.0000000   0.0000000  -0.0798550   0.5128630  -0.5128630   0.5128630   0.0000000   0.0000000   0.0000000  -1.4789600   1.4789600  -1.4789600   0.0000000   0.0000000   0.0000000
 1.1750000  -1.0257700  -0.4742260   1.4742300   0.0000000   0.0000000  -0.0800541   0.5054550  -0.5054550   0.5054550   0.0000000   0.0000000   0.0000000  -1.4842000   1.4842000  -1.4842000   0.0000000   0.0000000   0.0000000
 1.1800000  -1.0232700  -0.4767350   1.4767300   0.0000000   0.0000000  -0.0802469   0.4980230  -0.4980230   0.4980230   0.0000000   0.0000000   0.0000000  -1.4886900   1.4886900  -1.4886900   0.0000000   0.0000000   0.0000000
 1.1850000  -1.0207900  -0.4792060   1.4792100   0.0000000   0.0000000  -0.0804335   0.4905690  -0.4905690   0.4905690   0.0000000   0.0000000   0.0000000  -1.4924400   1.4924400  -1.4924400   0.0000000   0.0000000   0.0000000
 1.1900000  -1.0183600  -0.4816400   1.4816400   0.0000000   0.0000000  -0.0806139   0.4830990  -0.4830990   0.4830990   0.0000000   0.0000000   0.0000000  -1.4954300   1.4954300  -1.4954300   0.0000000   0.0000000   0.0000000
 1.1950000  -1.0159600  -0.4840370   1.4840400   0.0000000   0.0000000  -0.0807880   0.4756160  -0.4756160   0.4756160   0.0000000   0.0000000   0.0000000  -1.4976700   1.4976700  -1.4976700   0.0000000   0.0000000   0.0000000
 1.2000000  -1.0136000  -0.4863960   1.4864000   0.0000000   0.0000000  -0.0809559   0.4681240  -0.4681240   0.4681240   0.0000000   0.0000000   0.0000000  -1.4991700   1.4991700  -1.4991700   0.0000000   0.0000000   0.0000000
 1.2050000  -1.0112800  -0.4887180   1.4887200   0.0000000   0.0000000  -0.0811175   0.4606260  -0.4606260   0.4606260   0.0000000   0.0000000   0.0000000  -1.4999100   1.4999100  -1.4999100   0.0000000   0.0000000   0.0000000
 1.2100000  -1.0090000  -0.4910030   1.4910000   0.0000000   0.0000000  -0.0812728   0.4531260  -0.4531260   0.4531260   0.0000000   0.0000000   0.0000000  -1.5000000   1.5000000  -1.5000000   0.0000000   0.0000000   0.0000000
 1.2150000  -1.0067500  -0.4932500   1.4932500   0.0000000   0.0000000  -0.0814220   0.4456260  -0.4456260   0.4456260   0.0000000   0.0000000   0.0000000  -1.5000000   1.5000000  -1.5000000   0.0000000   0.0000000   0.0000000
 1.2200000  -1.0045400  -0.4954590   1.4954600   0.0000000   0.0000000  -0.0815648   0.4381260  -0.4381260   0.4381260   0.0000000   0.0000000   0.0000000  -1.5000000   1.5000000  -1.5000000   0.0000000   0.0000000   0.0000000
 1.2250000  -1.0023700  -0.4976310   1.4976300   0.0000000   0.0000000  -0.0817014   0.4306260  -0.4306260   0.4306260   0.0000000   0.0000000   0.0000000  -1.5000000   1.5000000  -1.5000000   0.0000000   0.0000000   0.0000000
 1.2300000  -1.0002300  -0.4997650   1.4997700   0.0000000   0.0000000  -0.0818318   0.4231260  -0.4231260   0.4231260   0.0000000   0.0000000   0.0000000  -1.5000000   1.5000000  -1.5000000   0.0000000   0.0000000   0.0000000
 1.2350000  -0.9981380  -0.5018620   1.5018600   0.0000000   0.0000000  -0.0819559   0.4156260  -0.4156260   0.4156260   0.0000000   0.0000000   0.0000000  -1.5000000   1.5000000  -1.5000000   0.0000000   0.0000000   0.0000000
 1.2400000  -0.9960790  -0.5039210   1.5039200   0.0000000   0.0000000  -0.0820738   0.4081260  -0.4081260   0.4081260   0.0000000   0.0000000   0.0000000  -1.5000000   1.5000000  -1.5000000   0.0000000   0.0000000   0.0000000
 1.2450000  -0.9940570  -0.5059430   1.5059400   0.0000000   0.0000000  -0.0821854   0.4006260  -0.4006260   0.4006260   0.0000000   0.0000000   0.0000000  -1.5000000   1.5000000  -1.5000000   0.0000000   0.0000000   0.0000000
 1.2500000  -0.9920720  -0.5079280   1.5079300   0.0000000   0.0000000  -0.0822907   0.3931260  -0.3931260   0.3931260   0.0000000   0.0000000   0.0000000  -1.5000000   1.5000000  -1.5000000   0.0000000   0.0000000   0.0000000
 1.2550000  -0.9901250  -0.5098750   1.5098700   0.0000000   0.0000000  -0.0823898   0.3856260  -0.3856260   0.3856260   0.0000000   0.0000000   0.0000000  -1.5000000   1.5000000  -1.5000000   0.0000000   0.0000000   0.0000000
 1.2600000  -0.9882160  -0.5117840   1.5117800   0.0000000   0.0000000  -0.0824827   0.3781260  -0.3781260   0.3781260   0.0000000   0.0000000   0.0000000  -1.5000000   1.5000000  -1.5000000   0.0000000   0.0000000   0.0000000
 1.2650000  -0.9863440  -0.5136560   1.5136600   0.0000000   0.0000000  -0.0825693   0.3706260  -0.3706260   0.3706260   0.0000000   0.0000000   0.0000000  -1.5000000   1.5000000  -1.5000000   0.0000000   0.0000000   0.0000000
 1.2700000  -0.9845100  -0.5154900   1.5154900   0.0000000   0.0000000  -0.0826497   0.3631260  -0.3631260   0.3631260   0.0000000   0.0000000   0.0000000  -1.5000000   1.5000000  -1.5000000   0.0000000   0.0000000   0.0000000
 1.2750000  -0.9827130  -0.5172870   1.5172900   0.0000000   0.0000000  -0.0827238   0.3556260  -0.3556260   0.3556260   0.0000000   0.0000000   0.0000000  -1.5000000   1.5000000  -1.5000000   0.0000000   0.0000000   0.0000000
 1.2800000  -0.9809540  -0.5190460   1.5190500   0.0000000   0.0000000  -0.0827917   0.3481260  -0.3481260   0.3481260   0.0000000   0.0000000   0.0000000  -1.5000000   1.5000000  -1.5000000   0.0000000   0.0000000   0.0000000
 1.2850000  -0.9792320  -0.5207680   1.5207700   0.0000000   0.0000000  -0.0828533   0.3406260  -0.3406260   0.3406260   0.0000000   0.0000000   0.0000000  -1.5000000   1.5000000  -1.5000000   0.0000000   0.0000000   0.0000000
 1.2900000  -0.9775470  -0.5224530   1.5224500   0.0000000   0.0000000  -0.0829086   0.3331260  -0.3331260   0.3331260   0.0000000   0.0000000   0.0000000  -1.5000000   1.5000000  -1.5000000   0.0000000   0.0000000   0.0000000
 1.2950000  -0.9759000  -0.5241000   1.5241000   0.0000000   0.0000000  -0.0829577   0.3256260  -0.3256260   0.3256260   0.0000000   0.0000000   0.0000000  -1.5000000   1.5000000  -1.5000000   0.0000000   0.0000000   0.0000000
 1.3000000  -0.9742910  -0.5257090   1.5257100   0.0000000   0.0000000  -0.0830006   0.3181260  -0.3181260   0.3181260   0.0000000   0.0000000   0.0000000  -1.5000000   1.5000000  -1.5000000   0.0000000   0.0000000   0.0000000
 1.3050000  -0.9727190  -0.5272810   1.5272800   0.0000000   0.0000000  -0.0830372   0.3106260  -0.3106260   0.3106260   0.0000000   0.0000000   0.0000000  -1.5000000   1.5000000  -1.5000000   0.0000000   0.0000000   0.0000000
 1.3100000  -0.9711850  -0.5288150   1.5288200   0.0000000   0.0000000  -0.0830676   0.3031260  -0.3031260   0.3031260   0.0000000   0.0000000   0.0000000  -1.5000000   1.5000000  -1.5000000   0.0000000   0.0000000   0.0000000
 1.3150000  -0.9696880  -0.5303120   1.5303100   0.0000000   0.0000000  -0.0830917   0.2956260  -0.2956260   0.2956260   0.0000000   0.0000000   0.0000000  -1.5000000   1.5000000  -1.5000000   0.0000000   0.0000000   0.0000000
