ts fx fy fz tx ty tz exfx exfy exfz extx exty extz xd yd zd rolld pitchd yawd vxd vyd vzd wxd wyd wzd axd ayd azd e_x e_y e_z e_vx e_vy e_vz e_rx e_ry e_rz e_wx e_wy e_wz
1702484089.991068000  0  0  11.4674  -0.000463879  -0.00386235  0.00439831  nan  nan  nan  nan  nan  nan  -1.5  -0.5  1  -0.00764074  0.0052136  -3.98364e-05  0  0  0  0  0  0  0  0  0  -0.0105705  -0.00245408  -0.00290232  0.0168467  -0.00428178  0.00202576  0.00490042  -0.00396684  -0.00321443  -0.0441561  0.0442197  -0.0228346 
1702484089.995067000  0  0  11.3854  0.0156755  0.0211459  0.00182027  nan  nan  nan  nan  nan  nan  -1.5  -0.5  1  -0.00448189  0.0111979  -5.01871e-05  0  0  0  0  0  0  0  0  0  -0.0106226  -0.00243346  -0.00285973  0.00943932  -0.000261644  0.00876532  0.00171908  -0.00997214  -0.00313303  -0.0471666  0.0494519  0.0085769 
1702484090.000136000  0  0  11.4111  -0.0190392  0.0151726  0.00146312  nan  nan  nan  nan  nan  nan  -1.5  -0.5  1  -0.0123496  0.00987835  -0.000121998  0  0  0  0  0  0  0  0  0  -0.0106398  -0.00250107  -0.00287432  0.0111175  -0.0100994  0.00667473  0.00953554  -0.00873275  -0.00308716  -0.0496486  0.0499962  0.0125826 
1702484090.005059000  0  0  11.4463  0.00282366  -0.00520809  0.00566314  nan  nan  nan  nan  nan  nan  -1.5  -0.5  1  -0.00776324  0.00530943  -4.1219e-05  0  0  0  0  0  0  0  0  0  -0.0105985  -0.00248237  -0.00288382  0.0167993  -0.00435679  0.003745  0.00484726  -0.00417033  -0.00367885  -0.0502421  0.0487833  -0.0340007 
1702484090.010065000  0  0  11.3687  0.0167225  0.0184045  0.00266412  nan  nan  nan  nan  nan  nan  -1.5  -0.5  1  -0.0048537  0.011697  -5.67727e-05  0  0  0  0  0  0  0  0  0  -0.0106534  -0.00246276  -0.00283674  0.0088982  -0.000657807  0.0101126  0.0018962  -0.0104763  -0.00362193  -0.05089  0.0595727  0.00291789 
1702484090.015070000  0  0  11.4272  -0.0165044  0.00766117  0.0016714  nan  nan  nan  nan  nan  nan  -1.5  -0.5  1  -0.0119194  0.0096475  -0.000114996  6e-07  -6e-07  6e-07  0  0  0  0.000375  -0.000375  0.000375  -0.0106459  -0.00253036  -0.00286426  0.0114552  -0.00955881  0.00534761  0.0088936  -0.00835683  -0.00351446  -0.0488124  0.0615605  0.0142522 
1702484090.020063000  0  0  11.4911  0.0125022  -0.0117437  0.00655289  nan  nan  nan  nan  nan  nan  -1.5  -0.5  1  -0.00559748  0.0051399  -2.87707e-05  5e-06  -5e-06  5e-06  0  0  0  0.0015  -0.0015  0.0015  -0.0106069  -0.00249176  -0.00289177  0.0172021  -0.00180345  0.00016215  0.00251384  -0.00385455  -0.00420327  -0.0481317  0.0589492  -0.0398784 
1702484090.025061000  0  0  11.4027  0.0148329  0.0161603  0.00239997  nan  nan  nan  nan  nan  nan  -1.5  -0.5  1  -0.00536533  0.0120643  -6.47279e-05  1.69e-05  -1.69e-05  1.69e-05  0  0  0  0.003375  -0.003375  0.003375  -0.0106605  -0.00249318  -0.00283636  0.00884057  -0.0016932  0.00760452  0.00223166  -0.0106548  -0.00399978  -0.0501971  0.0657038  0.00999817 
1702484090.030066000  0  0  11.4049  -0.0143303  -0.000685749  0.0019762  nan  nan  nan  nan  nan  nan  -1.5  -0.5  1  -0.0113584  0.00838011  -9.52878e-05  4e-05  -4e-05  4e-05  0  0  0  0.006  -0.006  0.006  -0.0106319  -0.00255343  -0.0028312  0.013782  -0.00949474  0.00768172  0.00816557  -0.00689627  -0.00393853  -0.0464627  0.0648172  0.0146827 
1702484090.035077000  0  0  11.4883  0.0217182  -0.0102178  0.00642712  nan  nan  nan  nan  nan  nan  -1.5  -0.5  1  -0.00333464  0.0063414  -2.14462e-05  7.81e-05  -7.81e-05  7.81e-05  0  0  0  0.009375  -0.009375  0.009375  -0.0106059  -0.00250054  -0.00286808  0.0166865  8.77764e-05  0.00110619  0.000109471  -0.00482965  -0.00458615  -0.0444435  0.0648684  -0.0344774 
1702484090.040136000  0  0  11.4667  0.00874588  0.0189299  0.00129415  nan  nan  nan  nan  nan  nan  -1.5  -0.500001  1  -0.00658761  0.0129629  -8.58934e-05  0.000135  -0.000135  0.000135  0  0  0  0.0135  -0.0135  0.0135  -0.0106625  -0.00252792  -0.0028493  0.00892365  -0.00452063  0.00329139  0.00333611  -0.0113844  -0.00425089  -0.048184  0.0668771  0.026332 
1702484090.045053000  0  0  11.4093  -0.00209919  -0.00447738  0.00294981  nan  nan  nan  nan  nan  nan  -1.5  -0.500002  1  -0.00850782  0.00789963  -6.82095e-05  0.0002144  -0.0002144  0.0002144  0  0  0  0.018375  -0.018375  0.018375  -0.0106076  -0.00255797  -0.00280673  0.0159339  -0.00747702  0.00845809  0.00519251  -0.00620672  -0.00437712  -0.0435727  0.0660566  0.0068985 
1702484090.050044000  0  0  11.5226  0.0348071  -0.000883619  0.0066689  nan  nan  nan  nan  nan  nan  -1.5  -0.500003  1  9.09619e-05  0.00835676  -9.39862e-07  0.00032  -0.00032  0.00032  0  0  0  0.024  -0.024  0.024  -0.0105969  -0.00249809  -0.00285801  0.0159535  0.00256378  -0.0003558  -0.00337862  -0.00667092  -0.00496755  -0.0385308  0.0631397  -0.0336857 
1702484090.055063000  0  0  11.4762  0.0154526  0.0259866  0.00154025  nan  nan  nan  nan  nan  nan  -1.49999  -0.500005  1.00001  -0.00417827  0.0145512  -6.34972e-05  0.0004556  -0.0004556  0.0004556  0  0  0  0.030375  -0.030375  0.030375  -0.0106483  -0.00253683  -0.00282978  0.00903569  -0.00361817  0.00409515  0.000892033  -0.0127527  -0.00457078  -0.039112  0.0653518  0.0264546 
1702484090.060102000  0  0  11.4448  0.0146057  -0.00231661  0.00459787  nan  nan  nan  nan  nan  nan  -1.49999  -0.500008  1.00001  -0.00329716  0.00818391  -3.11834e-05  0.000625  -0.000625  0.000625  0  0  0  0.0375  -0.0375  0.0375  -0.0105968  -0.00254153  -0.002804  0.0179913  -0.00339471  0.00733593  0.000111902  -0.00639548  -0.00486603  -0.0302409  0.0634717  -0.00881303 
1702484090.065111000  0  0  11.4621  0.0365159  0.0196001  0.00541796  nan  nan  nan  nan  nan  nan  -1.49999  -0.500011  1.00001  0.00267611  0.0137755  3.07637e-05  0.0008319  -0.0008319  0.0008319  0  0  0  0.045375  -0.045375  0.045375  -0.0106231  -0.00250155  -0.00279983  0.0119303  0.00309846  0.00664044  -0.00571161  -0.0118993  -0.00518346  -0.020485  0.0702732  -0.0158899 
1702484090.070044000  0  0  11.4332  0.0199675  0.0434491  -0.000469435  nan  nan  nan  nan  nan  nan  -1.49998  -0.500016  1.00002  -0.00138435  0.0192793  -3.52878e-05  0.00108  -0.00108  0.00108  0  0  0  0.054  -0.054  0.054  -0.0106599  -0.00253767  -0.00276655  0.0061788  -0.00310276  0.0098388  -0.00163999  -0.0172237  -0.00461247  -0.0248471  0.0715598  0.0519926 
1702484090.075061000  0  0  11.414  0.00949547  0.0121712  -0.000645607  nan  nan  nan  nan  nan  nan  -1.49998  -0.500022  1.00002  -0.00227106  0.0129901  -4.14005e-05  0.0013731  -0.0013731  0.0013731  0  0  0  0.063375  -0.063375  0.063375  -0.0106029  -0.00255834  -0.00272593  0.0152836  -0.00539099  0.0122573  -0.000604087  -0.0108055  -0.00437525  -0.0134333  0.0750684  0.0518226 
1702484090.080094000  0  0  11.53  0.0472886  0.0237177  0.00251695  nan  nan  nan  nan  nan  nan  -1.49997  -0.50003  1.00003  0.00678682  0.0164022  9.53155e-05  0.001715  -0.001715  0.001715  0  0  0  0.0735  -0.0735  0.0735  -0.0106286  -0.00249095  -0.00276428  0.0121097  0.00472327  0.0036412  -0.00946662  -0.0140794  -0.00471511  -0.00748424  0.0820949  0.0156893 
1702484090.085088000  0  0  11.506  0.0218563  0.0447419  -0.00335857  nan  nan  nan  nan  nan  nan  -1.49996  -0.50004  1.00004  0.00127536  0.0218516  6.76642e-06  0.0021094  -0.0021094  0.0021094  0  0  0  0.084375  -0.084375  0.084375  -0.0106795  -0.0025395  -0.0027221  0.00670557  -0.00363858  0.00663889  -0.00381878  -0.0192823  -0.00397382  -0.00857977  0.0879129  0.0817204 
1702484090.090082000  0  0  11.438  0.0234329  0.0101891  -0.00147124  nan  nan  nan  nan  nan  nan  -1.49995  -0.500051  1.00005  0.00322397  0.0155812  2.29315e-05  0.00256  -0.00256  0.00256  0  0  0  0.096  -0.096  0.096  -0.01063  -0.00253722  -0.00265492  0.0162351  -0.00268049  0.0132762  -0.00551125  -0.0127493  -0.00387325  0.00383772  0.0969157  0.057123 
1702484090.095048000  0  0  11.4616  0.0442362  0.0371939  -3.41744e-07  nan  nan  nan  nan  nan  nan  -1.49993  -0.500065  1.00007  0.00852527  0.0226906  0.000158632  0.0030706  -0.0030706  0.0030706  0  0  0  0.108375  -0.108375  0.108375  -0.0106949  -0.0024989  -0.00264164  0.00888088  0.00239162  0.0124965  -0.0105351  -0.0195733  -0.00402007  0.00845016  0.105686  0.040205 
1702484090.100069000  0  0  11.5532  0.0153469  0.0375055  -0.00422656  nan  nan  nan  nan  nan  nan  -1.49992  -0.500082  1.00008  0.00227226  0.0230153  8.59217e-06  0.003645  -0.003645  0.003645  0  0  0  0.1215  -0.1215  0.1215  -0.0107006  -0.00256019  -0.00264571  0.00994542  -0.00710749  0.00616541  -0.00411055  -0.0196113  -0.00331505  0.00712316  0.105413  0.0859825 
1702484090.105106000  0  0  11.5715  0.0583913  0.0271762  0.00280268  nan  nan  nan  nan  nan  nan  -1.4999  -0.500102  1.0001  0.0123259  0.0213113  0.000208375  0.0042869  -0.0042869  0.0042869  0  0  0  0.135375  -0.135375  0.135375  -0.0106982  -0.00249213  -0.00261684  0.0138756  0.00387522  0.00590725  -0.0138359  -0.0176922  -0.00394304  0.0105081  0.108416  0.00439682 
1702484090.110046000  0  0  11.4916  0.0542234  0.0551483  0.000780488  nan  nan  nan  nan  nan  nan  -1.49988  -0.500125  1.00012  0.013333  0.0296346  0.000328383  0.005  -0.005  0.005  0  0  0  0.15  -0.15  0.15  -0.0107522  -0.00248807  -0.00253067  0.00544193  0.00314758  0.0138514  -0.0144714  -0.0255209  -0.00384939  0.0246901  0.124496  0.0287378 
1702484090.115067000  0  0  11.5778  0.0275344  0.0404406  -0.00286715  nan  nan  nan  nan  nan  nan  -1.49985  -0.500152  1.00015  0.00873455  0.0272939  0.000157376  0.0057881  -0.0057881  0.0057881  0  0  0  0.165375  -0.165375  0.165375  -0.0107485  -0.00253345  -0.00254103  0.0101559  -0.00452454  0.00819204  -0.00953908  -0.0227721  -0.00323413  0.0326907  0.128622  0.0681806 
1702484090.120064000  0  0  11.6199  0.0701423  0.035059  0.00298092  nan  nan  nan  nan  nan  nan  -1.49982  -0.500183  1.00018  0.0188242  0.0267912  0.000406722  0.006655  -0.006655  0.006655  0  0  0  0.1815  -0.1815  0.1815  -0.0107469  -0.00245729  -0.00252321  0.0127515  0.00628544  0.00621251  -0.0191952  -0.0218903  -0.00385661  0.0363116  0.131273  0.0013046 
1702484090.125069000  0  0  11.584  0.0562523  0.0656974  1.56251e-05  nan  nan  nan  nan  nan  nan  -1.49978  -0.500219  1.00022  0.0181379  0.0362172  0.000540234  0.0076044  -0.0076044  0.0076044  0  0  0  0.198375  -0.198375  0.198375  -0.0108389  -0.00245818  -0.00247137  0.00310304  0.00313992  0.0108102  -0.0179232  -0.0306882  -0.00369342  0.0523886  0.150936  0.0367389 
1702484090.130071000  0  0  11.6296  0.0319531  0.0380442  -0.00255059  nan  nan  nan  nan  nan  nan  -1.49974  -0.500259  1.00026  0.0159977  0.032206  0.000376975  0.00864  -0.00864  0.00864  0  0  0  0.216  -0.215931  0.216  -0.0108232  -0.00247818  -0.00245995  0.0103574  -0.0017553  0.00869683  -0.0151519  -0.0260569  -0.00317929  0.0754913  0.163635  0.0636753 
1702484090.135067000  0  0  11.6849  0.0740003  0.0495006  0.00359241  nan  nan  nan  nan  nan  nan  -1.49969  -0.500305  1.00031  0.0266059  0.0357315  0.000787892  0.0097656  -0.0097629  0.0097648  0  0  0  0.234375  -0.233101  0.233814  -0.0108687  -0.00238317  -0.00245959  0.008039  0.00967611  0.00587982  -0.0250794  -0.0290376  -0.00396701  0.0827301  0.168144  -0.00523502 
1702484090.140066000  0  0  11.6705  0.0504311  0.0759408  -0.000665615  nan  nan  nan  nan  nan  nan  -1.49964  -0.500357  1.00036  0.0234656  0.0440824  0.000843876  0.010985  -0.0109697  0.0109769  0  0  0  0.2535  -0.24952  0.250893  -0.0109592  -0.00239273  -0.00241797  -6.52304e-05  0.00345035  0.00874973  -0.0211805  -0.036581  -0.003612  0.0939985  0.184664  0.0444402 
1702484090.145078000  0  0  11.7052  0.0416925  0.0396053  -0.00133847  nan  nan  nan  nan  nan  nan  -1.49958  -0.500415  1.00042  0.0251779  0.0391436  0.000764111  0.0123019  -0.0122568  0.0122725  0  0  0  0.273375  -0.26519  0.267221  -0.0109467  -0.00236622  -0.00241016  0.00874091  0.0036873  0.00743579  -0.0220082  -0.0307886  -0.00332784  0.119091  0.204045  0.0500093 
1702484090.150061000  0  0  11.7487  0.0735115  0.0632513  0.0043215  nan  nan  nan  nan  nan  nan  -1.49952  -0.50048  1.00048  0.0343517  0.0460056  0.00132443  0.01372  -0.0136204  0.0136479  0  0  0  0.294  -0.28011  0.282799  -0.0110242  -0.00226318  -0.00240216  0.00239492  0.0136073  0.00544966  -0.0302114  -0.0368567  -0.00418074  0.130922  0.212579  -0.0122113 
1702484090.155067000  0  0  11.757  0.0386924  0.0754289  -0.00137422  nan  nan  nan  nan  nan  nan  -1.49945  -0.500551  1.00055  0.0286986  0.0513911  0.00118011  0.0152431  -0.0150567  0.0150992  0  0  0  0.315375  -0.29428  0.297627  -0.0111054  -0.00227926  -0.00238169  -0.00172961  0.00445256  0.00624469  -0.0236226  -0.0411995  -0.00354566  0.139943  0.228178  0.0526343 
1702484090.160063000  0  0  11.7956  0.0420846  0.038619  -0.000215587  nan  nan  nan  nan  nan  nan  -1.49937  -0.50063  1.00063  0.0339287  0.0471322  0.00126215  0.016875  -0.0165619  0.0166229  0  0  0  0.3375  -0.307699  0.311705  -0.0111081  -0.00220586  -0.00238223  0.00650117  0.00953298  0.00445137  -0.027652  -0.0358245  -0.00354696  0.17023  0.252347  0.0381645 
1702484090.165062000  0  0  11.8055  0.0569266  0.073072  0.00397562  nan  nan  nan  nan  nan  nan  -1.49928  -0.500717  1.00072  0.0396652  0.0573889  0.00189258  0.0186194  -0.0181324  0.018215  0  0  0  0.360375  -0.320369  0.325033  -0.0112366  -0.00211181  -0.00237167  -0.00381273  0.0152117  0.00513663  -0.0321592  -0.0449755  -0.00430577  0.182011  0.26763  -0.00663759 
1702484090.170060000  0  0  11.8038  0.021729  0.0740531  -0.00230532  nan  nan  nan  nan  nan  nan  -1.49918  -0.500812  1.00081  0.0336435  0.0597522  0.00157494  0.02048  -0.0197644  0.019872  0  0  0  0.384  -0.332289  0.337612  -0.0113138  -0.00211526  -0.00234963  -0.00364753  0.00577801  0.00652529  -0.0250256  -0.0460859  -0.00347418  0.186778  0.275884  0.0635583 
1702484090.175068000  0  0  11.8634  0.0441704  0.0482262  0.00143101  nan  nan  nan  nan  nan  nan  -1.49907  -0.500915  1.00092  0.0424737  0.0583411  0.00198734  0.0224606  -0.021454  0.0215899  0  0  0  0.408375  -0.343458  0.34944  -0.0113591  -0.00198997  -0.0023737  0.00104555  0.0159007  0.00292261  -0.0324356  -0.0433009  -0.00392025  0.210067  0.301916  0.0213149 
1702484090.180061000  0  0  11.8676  0.0371935  0.0801455  0.00395562  nan  nan  nan  nan  nan  nan  -1.49896  -0.501026  1.00103  0.0442797  0.0695928  0.00252976  0.024565  -0.0231977  0.0233651  0  0  0  0.4335  -0.353878  0.360518  -0.0115082  -0.00190936  -0.00235832  -0.010289  0.0167252  0.00392828  -0.0327533  -0.0530506  -0.00446625  0.226943  0.327775  -0.00478273 
1702484090.185061000  0  0  11.8407  0.0122229  0.0630911  -0.0019537  nan  nan  nan  nan  nan  nan  -1.49883  -0.501147  1.00115  0.0404646  0.0685495  0.00215626  0.0267969  -0.0249916  0.0251938  0  0  0  0.459375  -0.363548  0.370846  -0.0115726  -0.00187737  -0.00233124  -0.00517605  0.0102686  0.00716819  -0.0276816  -0.0504778  -0.0036243  0.230225  0.338214  0.0606643 
1702484090.190098000  0  0  11.9097  0.0457811  0.0565214  0.00322919  nan  nan  nan  nan  nan  nan  -1.49869  -0.501276  1.00128  0.0505049  0.0708612  0.00289127  0.02916  -0.0268319  0.0270723  0  0  0  0.486  -0.372468  0.380424  -0.011665  -0.0017192  -0.00235456  -0.00517182  0.0223128  0.00270864  -0.0361569  -0.0511733  -0.00441983  0.241081  0.357751  0.00383339 
1702484090.195070000  0  0  11.9321  0.0184948  0.0820119  0.00291701  nan  nan  nan  nan  nan  nan  -1.49854  -0.501415  1.00142  0.0475585  0.0811421  0.00309405  0.0316581  -0.028715  0.0289968  0  0  0  0.513375  -0.380637  0.389252  -0.0118363  -0.00165713  -0.0023555  -0.0150786  0.0172931  0.00202241  -0.031641  -0.059618  -0.00449122  0.254108  0.384462  0.00844955 
1702484090.200113000  0  0  11.9236  0.0105415  0.0500971  -0.000726443  nan  nan  nan  nan  nan  nan  -1.49837  -0.501564  1.00157  0.0489974  0.0784132  0.00299616  0.034295  -0.030637  0.0309636  0  0  0  0.5415  -0.388057  0.397331  -0.0119209  -0.00156105  -0.00234234  -0.00753219  0.0179874  0.00360923  -0.0315111  -0.0550439  -0.00401662  0.268819  0.406209  0.0492468 
1702484090.205074000  0  0  11.9203  0.0333993  0.0695466  0.0044841  nan  nan  nan  nan  nan  nan  -1.49819  -0.501722  1.00173  0.055994  0.0857875  0.00387078  0.0370742  -0.0325943  0.0329689  0  0  0  0.570152  -0.394727  0.404659  -0.0120657  -0.00140831  -0.00232987  -0.0133263  0.0259486  0.00503437  -0.0368679  -0.0605466  -0.004863  0.272386  0.417935  -0.00742115 
1702484090.210056000  0  0  12.0127  -0.00692012  0.0811341  0.00198003  nan  nan  nan  nan  nan  nan  -1.498  -0.50189  1.0019  0.0501909  0.0929656  0.00363869  0.0399954  -0.0345831  0.0350089  0  0  0  0.598209  -0.400647  0.411237  -0.0122407  -0.00135074  -0.00237193  -0.019745  0.0178701  -0.00165874  -0.0294023  -0.0655701  -0.00446312  0.284341  0.440977  0.0198808 
1702484090.215072000  0  0  11.96  -0.00132294  0.0493651  -0.000339722  nan  nan  nan  nan  nan  nan  -1.49779  -0.502068  1.00208  0.0541884  0.0903658  0.00377207  0.043055  -0.0365995  0.03708  0  0  0  0.625516  -0.405816  0.417065  -0.012332  -0.00121761  -0.00233589  -0.0119956  0.0219118  0.00341249  -0.031737  -0.0608311  -0.00422094  0.294626  0.460916  0.0464559 
1702484090.220121000  0  0  11.9398  0.0077489  0.0786566  0.00540147  nan  nan  nan  nan  nan  nan  -1.49757  -0.502256  1.00227  0.0582435  0.101646  0.00468978  0.0462493  -0.03864  0.0391783  0  0  0  0.652073  -0.410236  0.422143  -0.0125554  -0.00106717  -0.00231835  -0.0229209  0.0261396  0.00618997  -0.0339174  -0.0698861  -0.00515794  0.296543  0.485639  -0.0159389 
1702484090.225040000  0  0  12.0001  -0.0222018  0.0692571  0.000949332  nan  nan  nan  nan  nan  nan  -1.49733  -0.502454  1.00247  0.0534697  0.103632  0.00419946  0.0495745  -0.0407006  0.0413002  0  0  0  0.67788  -0.413906  0.426471  -0.0127074  -0.000987033  -0.00234635  -0.0225065  0.0195403  0.00181831  -0.0276065  -0.0694698  -0.00443155  0.298384  0.500609  0.0324488 
1702484090.230039000  0  0  12.0526  -0.0034165  0.0423986  0.00109209  nan  nan  nan  nan  nan  nan  -1.49707  -0.502663  1.00268  0.0604259  0.102344  0.00472781  0.0530268  -0.0427778  0.0434418  0  0  0  0.702937  -0.416825  0.430049  -0.0128447  -0.000806079  -0.00236628  -0.0178636  0.0283246  -0.00179295  -0.0327735  -0.0657779  -0.00465252  0.308349  0.520359  0.032874 
1702484090.235070000  0  0  11.9699  -0.00287922  0.0755106  0.00592089  nan  nan  nan  nan  nan  nan  -1.4968  -0.502882  1.00291  0.0613809  0.114031  0.00541755  0.0566026  -0.0448676  0.0455994  0  0  0  0.727244  -0.418995  0.432878  -0.0130876  -0.000667757  -0.00232287  -0.0288507  0.0283282  0.00595584  -0.0319642  -0.0749389  -0.00535061  0.299829  0.538417  -0.020505 
1702484090.240057000  0  0  11.9848  -0.0312684  0.0503367  -1.89228e-05  nan  nan  nan  nan  nan  nan  -1.49651  -0.503111  1.00314  0.0562577  0.113731  0.00468759  0.060298  -0.0469665  0.0477693  0  0  0  0.750801  -0.420415  0.434956  -0.0132523  -0.00057969  -0.00232818  -0.0251205  0.0212984  0.00501105  -0.0253513  -0.071889  -0.00435326  0.295769  0.560706  0.0437692 
1702484090.245058000  0  0  12.0706  -0.00321653  0.0402797  0.00294043  nan  nan  nan  nan  nan  nan  -1.4962  -0.503351  1.00339  0.0646023  0.115938  0.00564536  0.0641094  -0.0490705  0.0499477  0  0  0  0.773608  -0.421085  0.436284  -0.0134479  -0.000368073  -0.00237909  -0.0258478  0.0323285  -0.00126469  -0.0318918  -0.0714791  -0.00505139  0.299838  0.577048  0.0137585 
1702484090.250057000  0  0  12.0251  -0.0221935  0.0657632  0.00573449  nan  nan  nan  nan  nan  nan  -1.49587  -0.503602  1.00364  0.0616476  0.126089  0.00578358  0.0680329  -0.0511761  0.0521309  0  0  0  0.795665  -0.421004  0.436862  -0.0137166  -0.000247729  -0.00234665  -0.0353773  0.0277295  0.00312724  -0.0272606  -0.0787787  -0.00524839  0.295184  0.593237  -0.0191972 
1702484090.255069000  0  0  12.0043  -0.0325361  0.0303007  8.21759e-06  nan  nan  nan  nan  nan  nan  -1.49552  -0.503863  1.00391  0.0600934  0.123564  0.00528978  0.0720648  -0.0532793  0.0543151  0  0  0  0.816972  -0.420174  0.43669  -0.0138895  -0.00011872  -0.00234495  -0.028481  0.0253941  0.00491231  -0.024283  -0.0732855  -0.0044198  0.288475  0.613625  0.0440953 
1702484090.260087000  0  0  12.0835  -0.00695515  0.0320142  0.00458631  nan  nan  nan  nan  nan  nan  -1.49514  -0.504135  1.00418  0.0673457  0.128959  0.006395  0.0762013  -0.0553766  0.0564966  0  0  0  0.837529  -0.418594  0.435768  -0.014151  9.74787e-05  -0.00238055  -0.0336533  0.0351894  -0.000848661  -0.0297469  -0.0757542  -0.00533198  0.287582  0.63291  -0.0040091 
1702484090.265094000  0  0  12.0679  -0.0390796  0.0478347  0.0044211  nan  nan  nan  nan  nan  nan  -1.49475  -0.504417  1.00447  0.0611433  0.136091  0.00586758  0.0804388  -0.057464  0.0586715  0  0  0  0.857336  -0.416264  0.434097  -0.0144277  0.000201235  -0.00237806  -0.0397407  0.0268624  0.00070657  -0.0220808  -0.079846  -0.00488962  0.281303  0.638914  -0.00636757 
1702484090.270070000  0  0  12.0059  -0.0330259  0.0143714  -0.00010651  nan  nan  nan  nan  nan  nan  -1.49434  -0.504709  1.00477  0.0627349  0.133627  0.00576536  0.0847734  -0.059538  0.0608363  0  0  0  0.876393  -0.413183  0.431675  -0.0146225  0.000363245  -0.00235215  -0.0325521  0.0286124  0.00573609  -0.0223093  -0.0742739  -0.00438976  0.271297  0.654578  0.0452289 
1702484090.275076000  0  0  12.0456  -0.0173171  0.0292844  0.00597421  nan  nan  nan  nan  nan  nan  -1.49391  -0.505012  1.00508  0.0669515  0.141913  0.00670783  0.0892015  -0.0615946  0.062987  0  0  0  0.894699  -0.409353  0.428503  -0.0149239  0.000562706  -0.00237696  -0.0412522  0.0343855  0.00315641  -0.0248854  -0.0794402  -0.00529852  0.26358  0.672281  -0.0216925 
1702484090.280061000  0  0  12.0895  -0.0545963  0.0262803  0.00335249  nan  nan  nan  nan  nan  nan  -1.49345  -0.505325  1.0054  0.0599152  0.145128  0.00572148  0.0937192  -0.0636302  0.0651201  0  0  0  0.912256  -0.404773  0.424581  -0.0152062  0.000667126  -0.00240446  -0.0432372  0.0257524  -0.00059774  -0.0165623  -0.0794102  -0.00441636  0.261565  0.678013  0.00225748 
1702484090.285064000  0  0  12.0471  -0.0356638  0.00436773  0.000989377  nan  nan  nan  nan  nan  nan  -1.49297  -0.505649  1.00573  0.0644156  0.144234  0.00613328  0.0983228  -0.0656411  0.0672316  0  0  0  0.929063  -0.399442  0.419909  -0.0154459  0.000862982  -0.00238557  -0.0386255  0.0316652  0.00281754  -0.0197134  -0.0753638  -0.00438916  0.252691  0.684611  0.0315244 
1702484090.290060000  0  0  12.0162  -0.0303212  0.0237754  0.00661813  nan  nan  nan  nan  nan  nan  -1.49246  -0.505982  1.00607  0.0651118  0.153515  0.00664157  0.103009  -0.0676234  0.0693179  0  0  0  0.94512  -0.393362  0.414487  -0.0157881  0.00103385  -0.00236705  -0.0476935  0.0326436  0.00577331  -0.019006  -0.0813249  -0.00498441  0.235497  0.700638  -0.0328826 
1702484090.295069000  0  0  12.0575  -0.0613475  0.00427824  0.00170933  nan  nan  nan  nan  nan  nan  -1.49194  -0.506325  1.00642  0.0592802  0.153403  0.00554303  0.107773  -0.0695735  0.0713752  0  0  0  0.960427  -0.386532  0.408316  -0.0160592  0.00115047  -0.00239455  -0.0455243  0.0259338  0.00183523  -0.0120679  -0.0778468  -0.003864  0.23372  0.707634  0.0172734 
1702484090.300061000  0  0  12.0672  -0.0431189  -0.00622096  0.00179205  nan  nan  nan  nan  nan  nan  -1.49139  -0.506677  1.00679  0.0643583  0.154327  0.00617749  0.112612  -0.0714875  0.0733998  0  0  0  0.974984  -0.378952  0.401394  -0.0163419  0.00135468  -0.00240866  -0.0444055  0.033192  0.000971448  -0.0157958  -0.0755525  -0.00415537  0.231559  0.707525  0.019153 
1702484090.305059000  0  0  12.0266  -0.050116  0.0127664  0.00622608  nan  nan  nan  nan  nan  nan  -1.49081  -0.50704  1.00716  0.0614994  0.162476  0.00602251  0.117521  -0.0733617  0.0753879  0  0  0  0.988791  -0.370621  0.393722  -0.0167001  0.00149861  -0.00238756  -0.0519624  0.0298315  0.0043264  -0.0118485  -0.0803267  -0.0042726  0.209238  0.713473  -0.0351 
1702484090.310061000  0  0  12.0246  -0.064831  -0.0159632  0.000487906  nan  nan  nan  nan  nan  nan  -1.49021  -0.507411  1.00754  0.0577019  0.1611  0.00511195  0.122498  -0.0751924  0.0773358  0  0  0  1.00185  -0.361541  0.3853  -0.0169826  0.00162661  -0.0023892  -0.0476506  0.0258008  0.00364995  -0.00717703  -0.0754671  -0.00319042  0.195691  0.726224  0.0258054 
1702484090.315067000  0  0  12.0443  -0.0511071  -0.0138282  0.00295848  nan  nan  nan  nan  nan  nan  -1.48959  -0.507791  1.00793  0.0616314  0.164418  0.00572464  0.127539  -0.0769759  0.0792397  0  0  0  1.01416  -0.351711  0.376128  -0.0173071  0.00182329  -0.00240109  -0.0501085  0.0318702  0.00190163  -0.00990355  -0.075541  -0.00362236  0.193327  0.722634  -0.000757349 
1702484090.320060000  0  0  12.0209  -0.0672064  0.000869709  0.00562325  nan  nan  nan  nan  nan  nan  -1.48894  -0.508181  1.00833  0.0568497  0.170194  0.00503536  0.132639  -0.0787083  0.0810958  0  0  0  1.02571  -0.341131  0.366206  -0.0176619  0.00194573  -0.00238802  -0.0550235  0.0265376  0.00338046  -0.00430883  -0.0779685  -0.00331478  0.174054  0.71557  -0.0371429 
1702484090.325109000  0  0  12.002  -0.0658095  -0.0267347  -0.000499676  nan  nan  nan  nan  nan  nan  -1.48826  -0.508578  1.00874  0.0555702  0.168598  0.00449602  0.137794  -0.0803859  0.0829005  0  0  0  1.03652  -0.3298  0.355535  -0.0179619  0.00208877  -0.00238061  -0.0503814  0.0259618  0.00392483  -0.00237255  -0.0729173  -0.00240539  0.153446  0.724308  0.0302998 
1702484090.330091000  0  0  11.9963  -0.0572302  -0.0172721  0.00497485  nan  nan  nan  nan  nan  nan  -1.48756  -0.508984  1.00916  0.0565426  0.17409  0.00472539  0.143002  -0.0820051  0.0846499  0  0  0  1.04658  -0.31772  0.344113  -0.0183366  0.00225676  -0.00238239  -0.0554111  0.0283404  0.0041178  -0.00247443  -0.0751402  -0.00281589  0.137225  0.725834  -0.0340267 
1702484090.335052000  0  0  11.9994  -0.0776059  -0.0184278  0.00372898  nan  nan  nan  nan  nan  nan  -1.48683  -0.509398  1.00959  0.051737  0.17608  0.00374519  0.148259  -0.0835619  0.0863403  0  0  0  1.05588  -0.30489  0.331941  -0.0186744  0.00237273  -0.00239086  -0.0560742  0.0235556  0.00288728  0.00286083  -0.0738044  -0.00208064  0.128892  0.715856  -0.0258059 
1702484090.340062000  0  0  11.9787  -0.0661927  -0.0366231  -0.00202451  nan  nan  nan  nan  nan  nan  -1.48608  -0.50982  1.01002  0.0517233  0.17535  0.00345237  0.15356  -0.0850527  0.0879681  0  0  0  1.06444  -0.29131  0.319019  -0.0189874  0.00251868  -0.00237361  -0.0528218  0.0249036  0.00345603  0.00327848  -0.0697434  -0.0012912  0.102223  0.714886  0.0382184 
1702484090.345061000  0  0  11.9426  -0.0677206  -0.0290768  0.00415417  nan  nan  nan  nan  nan  nan  -1.48529  -0.510249  1.01047  0.0505748  0.180461  0.00324679  0.158902  -0.0864737  0.0895293  0  0  0  1.07225  -0.276979  0.305347  -0.0193699  0.00265757  -0.00236082  -0.0569695  0.0247519  0.00578187  0.0049711  -0.0715406  -0.00150173  0.089707  0.716327  -0.0369099 
1702484090.350072000  0  0  11.9435  -0.0879124  -0.0364105  0.0015619  nan  nan  nan  nan  nan  nan  -1.48449  -0.510685  1.01092  0.0453537  0.181162  0.00207322  0.164281  -0.0878213  0.0910203  0  0  0  1.0793  -0.261899  0.290925  -0.0197047  0.00275435  -0.0023588  -0.0561834  0.0198235  0.0043194  0.0104345  -0.0689902  -0.000539737  0.0798277  0.707531  -0.0141264 
1702484090.355070000  0  0  11.9477  -0.0744587  -0.0433342  -0.00216118  nan  nan  nan  nan  nan  nan  -1.48365  -0.511127  1.01138  0.0457996  0.181733  0.00190766  0.169694  -0.0890915  0.0924373  0  0  0  1.08561  -0.246069  0.275754  -0.0200567  0.0028955  -0.00236355  -0.0553588  0.0221985  0.00281081  0.0101762  -0.066425  6.5164e-05  0.0552963  0.697778  0.0263631 
1702484090.360133000  0  0  11.9185  -0.0795813  -0.0363662  0.00425743  nan  nan  nan  nan  nan  nan  -1.48279  -0.511575  1.01184  0.0417729  0.185598  0.00105927  0.175136  -0.0902807  0.0937766  0  0  0  1.09117  -0.229488  0.259832  -0.0204326  0.00299179  -0.00233522  -0.0582656  0.0188451  0.00403913  0.0142631  -0.067114  0.000153505  0.0279418  0.690181  -0.0547529 
1702484090.365065000  0  0  11.8681  -0.0874443  -0.0527304  -0.000968885  nan  nan  nan  nan  nan  nan  -1.4819  -0.51203  1.01232  0.0386333  0.185379  0.000186294  0.180604  -0.0913851  0.0950344  0  0  0  1.09597  -0.212158  0.24316  -0.0207669  0.00309298  -0.00232107  -0.0555224  0.0166858  0.00653228  0.01734  -0.0636969  0.00115857  0.0153603  0.691472  0.000525356 
1702484090.370088000  0  0  11.9074  -0.079448  -0.0519001  -0.00254907  nan  nan  nan  nan  nan  nan  -1.48098  -0.512489  1.01279  0.0382166  0.187168  -0.00011402  0.186095  -0.092402  0.0962069  0  0  0  1.10003  -0.1947  0.225738  -0.0211315  0.00320693  -0.00232692  -0.0572916  0.0183769  0.00202055  0.0176714  -0.0624358  0.00172242  -0.00368047  0.678209  0.0146392 
1702484090.375046000  0  0  11.8605  -0.0888865  -0.0497815  0.00338318  nan  nan  nan  nan  nan  nan  -1.48004  -0.512953  1.01328  0.0331212  0.189365  -0.00128873  0.191603  -0.0933334  0.0972907  0  0  0  1.10334  -0.177985  0.207831  -0.0214976  0.00328059  -0.00231096  -0.057934  0.0137451  0.00427472  0.0224369  -0.0616325  0.00198578  -0.0286466  0.666582  -0.0621476 
1702484090.380072000  0  0  11.7773  -0.0867371  -0.0683583  -0.00361424  nan  nan  nan  nan  nan  nan  -1.47907  -0.513422  1.01377  0.0311694  0.188632  -0.00198202  0.197127  -0.0941831  0.0982864  0  0  0  1.1059  -0.162021  0.190549  -0.0218214  0.00336131  -0.00226058  -0.0541395  0.0129239  0.00930938  0.0240163  -0.0578268  0.00303554  -0.0474759  0.668723  0.0148225 
1702484090.385084000  0  0  11.8163  -0.0819521  -0.0608741  -0.00229193  nan  nan  nan  nan  nan  nan  -1.47807  -0.513895  1.01426  0.0292206  0.191437  -0.00257668  0.202661  -0.0949548  0.0991975  0  0  0  1.1077  -0.146806  0.174018  -0.0222015  0.003444  -0.00227391  -0.0575018  0.0124397  0.00496978  0.0254883  -0.0577553  0.0035804  -0.0705881  0.653097  -0.00715486 
1702484090.390071000  0  0  11.8337  -0.0898763  -0.0683264  0.00250326  nan  nan  nan  nan  nan  nan  -1.47704  -0.514372  1.01476  0.0241816  0.190768  -0.00386768  0.208203  -0.0956524  0.100028  0  0  0  1.10876  -0.132342  0.158237  -0.0225507  0.00348826  -0.00227984  -0.0560831  0.00795101  0.00183955  0.0298408  -0.0542563  0.00388558  -0.0947823  0.635811  -0.0701465 
1702484090.395048000  0  0  11.75  -0.076874  -0.0762068  -0.00561269  nan  nan  nan  nan  nan  nan  -1.47599  -0.514851  1.01526  0.02389  0.19129  -0.00423256  0.213747  -0.0962795  0.100781  0  0  0  1.10907  -0.118627  0.143205  -0.0228921  0.00356358  -0.00223058  -0.0541468  0.00903294  0.00735793  0.0294428  -0.0519872  0.00487891  -0.117126  0.630695  0.0213695 
1702484090.400071000  0  0  11.7263  -0.0785443  -0.0712658  -0.00179713  nan  nan  nan  nan  nan  nan  -1.4749  -0.515334  1.01577  0.0195822  0.193828  -0.00533128  0.219292  -0.0968399  0.101461  0  0  0  1.10862  -0.105663  0.128924  -0.0232585  0.00359381  -0.00221006  -0.0561807  0.00524823  0.00817038  0.0327941  -0.0517756  0.00552022  -0.144617  0.618868  -0.0327381 
1702484090.405061000  0  0  11.7691  -0.0767895  -0.0842355  0.000393948  nan  nan  nan  nan  nan  nan  -1.47379  -0.51582  1.01628  0.0166183  0.191209  -0.00627948  0.224832  -0.0973374  0.102072  0  0  0  1.10743  -0.0934485  0.115393  -0.023593  0.00362985  -0.00223204  -0.0531082  0.00317752  0.0030267  0.0348116  -0.0466046  0.00569859  -0.166688  0.597234  -0.0619102 
1702484090.410062000  0  0  11.7137  -0.0662223  -0.0853881  -0.00737808  nan  nan  nan  nan  nan  nan  -1.47265  -0.516308  1.01679  0.0162787  0.192437  -0.00666501  0.230365  -0.0977756  0.102616  0  0  0  1.10549  -0.081984  0.102611  -0.023934  0.00367311  -0.0021875  -0.0529761  0.00411568  0.00653839  0.0341686  -0.045267  0.00674104  -0.181907  0.587233  0.0248156 
1702484090.415065000  0  0  11.6796  -0.0733293  -0.0830986  -0.00121032  nan  nan  nan  nan  nan  nan  -1.47149  -0.516797  1.0173  0.0104785  0.19312  -0.00811438  0.235886  -0.0981585  0.103099  0  0  0  1.10279  -0.0712696  0.0905799  -0.0242738  0.00366595  -0.00215906  -0.0527846  -0.00171919  0.00808031  0.0386461  -0.0435425  0.00731727  -0.208886  0.566788  -0.0580437 
1702484090.420061000  0  0  11.7245  -0.0599108  -0.10104  -0.0013921  nan  nan  nan  nan  nan  nan  -1.4703  -0.517289  1.01782  0.00962939  0.189687  -0.00866291  0.241392  -0.0984896  0.103523  0  0  0  1.09935  -0.0613051  0.0792986  -0.024579  0.00368369  -0.00217771  -0.0490533  -0.00142205  0.00293948  0.0382958  -0.0377634  0.00736619  -0.232499  0.549503  -0.0562607 
1702484090.425073000  0  0  11.6898  -0.0565691  -0.0913765  -0.00784867  nan  nan  nan  nan  nan  nan  -1.46908  -0.517782  1.01834  0.00770055  0.192102  -0.00936776  0.246878  -0.0987728  0.103893  0  0  0  1.09516  -0.0520907  0.0687673  -0.0249248  0.00368855  -0.00214884  -0.0512089  -0.00259122  0.00510131  0.038914  -0.0379627  0.00860444  -0.244871  0.53201  0.012064 
1702484090.430058000  0  0  11.6275  -0.0685021  -0.09666  -0.000616142  nan  nan  nan  nan  nan  nan  -1.46783  -0.518277  1.01886  0.00184428  0.189735  -0.0108558  0.252342  -0.0990117  0.104212  0  0  0  1.09022  -0.0436262  0.058986  -0.0252246  0.00364698  -0.00210745  -0.0469271  -0.00871157  0.00868655  0.0432694  -0.0335641  0.00895977  -0.261074  0.50211  -0.0818959 
1702484090.435064000  0  0  11.6674  -0.0419612  -0.105091  -0.00352743  nan  nan  nan  nan  nan  nan  -1.46655  -0.518772  1.01938  0.00346594  0.187696  -0.0109288  0.257779  -0.0992103  0.104484  0  0  0  1.08452  -0.0359118  0.0499546  -0.0255371  0.00365739  -0.00211952  -0.0451222  -0.00562672  0.00443593  0.0402414  -0.0295288  0.00890213  -0.286298  0.481846  -0.0449283 
1702484090.440062000  0  0  11.6579  -0.0473981  -0.0974847  -0.0083316  nan  nan  nan  nan  nan  nan  -1.46525  -0.519269  1.0199  -0.00100329  0.189639  -0.0121427  0.263186  -0.0993721  0.104713  0  0  0  1.07808  -0.0289473  0.0416733  -0.025859  0.00360954  -0.0020957  -0.0476077  -0.0100974  0.00460284  0.0430328  -0.029596  0.0103889  -0.301105  0.467253  0.000255495 
1702484090.445075000  0  0  11.6218  -0.0520374  -0.112419  -0.000803416  nan  nan  nan  nan  nan  nan  -1.46392  -0.519766  1.02043  -0.00443648  0.184431  -0.0131516  0.268559  -0.099501  0.104902  0  0  0  1.07089  -0.0227328  0.034142  -0.0261209  0.00355658  -0.00207701  -0.040615  -0.013461  0.00595264  0.0449175  -0.0227243  0.0102019  -0.309166  0.433902  -0.0919763 
1702484090.450043000  0  0  11.6326  -0.0238005  -0.110031  -0.00532077  nan  nan  nan  nan  nan  nan  -1.46256  -0.520264  1.02095  -0.00206389  0.184429  -0.0131071  0.273894  -0.0996007  0.105056  0  0  0  1.06294  -0.0172684  0.0273607  -0.0264223  0.00354524  -0.00206713  -0.0411028  -0.00967194  0.00458105  0.0409564  -0.0210554  0.0102463  -0.329198  0.413772  -0.0359533 
1702484090.455066000  0  0  11.6223  -0.039825  -0.107016  -0.00733587  nan  nan  nan  nan  nan  nan  -1.46118  -0.520762  1.02148  -0.00928891  0.184561  -0.0148302  0.279187  -0.0996749  0.105177  0  0  0  1.05425  -0.0125539  0.0213293  -0.0267135  0.00344664  -0.0020549  -0.041713  -0.0177732  0.00468023  0.046224  -0.0197195  0.0118632  -0.34561  0.39545  -0.0269331 
1702484090.460082000  0  0  11.6031  -0.0343309  -0.130637  -0.000591093  nan  nan  nan  nan  nan  nan  -1.45977  -0.52126  1.022  -0.00968987  0.1771  -0.0152358  0.284435  -0.0997275  0.10527  0  0  0  1.04481  -0.0085895  0.016048  -0.0269226  0.00338125  -0.00203033  -0.0325733  -0.0176651  0.00457628  0.045083  -0.0109254  0.0111438  -0.346102  0.361788  -0.10405 
1702484090.465061000  0  0  11.606  -0.0104019  -0.108867  -0.00638173  nan  nan  nan  nan  nan  nan  -1.45834  -0.521759  1.02253  -0.00790985  0.180243  -0.015356  0.289634  -0.0997621  0.105339  0  0  0  1.03461  -0.005375  0.0115167  -0.027223  0.00334353  -0.00202572  -0.0372134  -0.0147807  0.00453717  0.0415171  -0.0128319  0.0114914  -0.361154  0.335787  -0.0351424 
1702484090.470094000  0  0  11.5866  -0.0336591  -0.118762  -0.00697631  nan  nan  nan  nan  nan  nan  -1.45688  -0.522258  1.02306  -0.0172285  0.177087  -0.0173889  0.29478  -0.0997825  0.105387  0  0  0  1.02367  -0.0029106  0.0077354  -0.0274501  0.00319155  -0.00200543  -0.0339924  -0.0257237  0.00502807  0.0486725  -0.00863669  0.013184  -0.380469  0.316981  -0.0446357 
1702484090.475095000  0  0  11.5984  -0.00944226  -0.139155  -0.00138857  nan  nan  nan  nan  nan  nan  -1.45539  -0.522757  1.02358  -0.0128316  0.169652  -0.0169421  0.299869  -0.0997924  0.105417  0  0  0  1.01198  -0.0011961  0.004704  -0.0276487  0.0031441  -0.00200382  -0.0256914  -0.0200009  0.00274727  0.0428277  -0.000258381  0.0117894  -0.37513  0.280688  -0.100537 
1702484090.480064000  0  0  11.5822  -0.00168934  -0.103618  -0.00714174  nan  nan  nan  nan  nan  nan  -1.45388  -0.523256  1.02411  -0.0131422  0.174558  -0.0174862  0.304898  -0.0997957  0.105435  0  0  0  0.999535  -0.0002316  0.0024227  -0.0279282  0.00306157  -0.00198322  -0.0326023  -0.0198468  0.00467998  0.0412624  -0.00442505  0.012522  -0.376236  0.247946  -0.0359487 
1702484090.485060000  0  0  11.5579  -0.0269669  -0.125113  -0.00562344  nan  nan  nan  nan  nan  nan  -1.45234  -0.523755  1.02464  -0.0222934  0.167482  -0.0193549  0.309863  -0.099796  0.105443  0  0  0  0.986342  -0  0.0008914  -0.0281178  0.00289209  -0.00197277  -0.0247404  -0.0309352  0.00520387  0.0483232  0.00316291  0.0138353  -0.390639  0.221128  -0.0680602 
1702484090.490060000  0  0  11.5894  0.0176071  -0.147486  -0.0017665  nan  nan  nan  nan  nan  nan  -1.45078  -0.524254  1.02516  -0.0144987  0.160409  -0.0183945  0.314761  -0.099796  0.105445  0  0  0  0.972399  -0  0.0001101  -0.0282699  0.00284293  -0.00197679  -0.0175451  -0.0212134  0.00163608  0.0390063  0.0108673  0.0120908  -0.394072  0.194993  -0.0988263 
1702484090.495087000  0  0  11.5788  0.00727973  -0.103402  -0.00706919  nan  nan  nan  nan  nan  nan  -1.44919  -0.524753  1.02569  -0.0185228  0.166419  -0.0195942  0.319586  -0.099796  0.105445  0  0  0  0.957706  -0  -0  -0.0285306  0.00270865  -0.00195703  -0.0264235  -0.0256855  0.00342786  0.0409976  0.00508249  0.01338  -0.391737  0.160046  -0.0454348 
1702484090.500079000  0  0  11.5242  -0.0202414  -0.136592  -0.0048174  nan  nan  nan  nan  nan  nan  -1.44758  -0.525252  1.02622  -0.0267957  0.155512  -0.0211299  0.324336  -0.099796  0.105445  0  0  0  0.942263  -0  -0  -0.0286363  0.00251729  -0.00193058  -0.0136827  -0.0357421  0.00598492  0.0473386  0.0159847  0.0143156  -0.395032  0.126126  -0.0829381 
1702484090.505081000  0  0  11.5671  0.0345643  -0.140417  -0.00285844  nan  nan  nan  nan  nan  nan  -1.44595  -0.525751  1.02675  -0.0167151  0.15163  -0.019963  0.329007  -0.099796  0.105445  0  0  0  0.92607  -0  -0  -0.0287876  0.00247459  -0.00195442  -0.0109166  -0.0231168  0.002107  0.0357096  0.0200377  0.0125135  -0.397657  0.0964876  -0.0894042 
1702484090.510071000  0  0  11.5798  0.0108373  -0.101539  -0.00682854  nan  nan  nan  nan  nan  nan  -1.44429  -0.52625  1.02727  -0.0237172  0.156641  -0.0216042  0.333596  -0.099796  0.105445  0  0  0  0.909127  -0  -0  -0.0290047  0.00229672  -0.0019393  -0.0194278  -0.0312993  0.00181457  0.040629  0.0147637  0.0140868  -0.395462  0.0672529  -0.0555108 
1702484090.515061000  0  0  11.5295  -0.00654082  -0.142302  -0.00408998  nan  nan  nan  nan  nan  nan  -1.44261  -0.526749  1.0278  -0.0283474  0.143064  -0.0224182  0.338097  -0.099796  0.105445  0  0  0  0.891434  -0  -0  -0.0290638  0.0021211  -0.00192442  -0.00371024  -0.0369646  0.00371386  0.043608  0.0278616  0.0143019  -0.388112  0.0282771  -0.0918945 
1702484090.520072000  0  0  11.5369  0.0496595  -0.133424  -0.00336843  nan  nan  nan  nan  nan  nan  -1.44091  -0.527248  1.02833  -0.0181514  0.140913  -0.0214032  0.342509  -0.099796  0.105445  0  0  0  0.872991  -0  -0  -0.0291689  0.00205999  -0.00192466  -0.002907  -0.024005  0.00295664  0.0318088  0.0296611  0.0126997  -0.39196  -0.00603367  -0.0848913 
1702484090.525075000  0  0  11.553  0.0125225  -0.104235  -0.00547813  nan  nan  nan  nan  nan  nan  -1.43919  -0.527747  1.02885  -0.0279064  0.143569  -0.0233317  0.346826  -0.099796  0.105445  0  0  0  0.853798  -0  -0  -0.0293317  0.0018482  -0.00192034  -0.00897706  -0.0356676  0.00202592  0.0395481  0.0262315  0.0143916  -0.388888  -0.0328593  -0.0754389 
1702484090.530072000  0  0  11.5328  0.0010414  -0.151355  -0.00317337  nan  nan  nan  nan  nan  nan  -1.43744  -0.528246  1.02938  -0.0299272  0.128854  -0.0236753  0.351046  -0.099796  0.105445  0  0  0  0.833855  -0  -0  -0.0293273  0.00167129  -0.00192064  0.00730301  -0.038206  0.00136685  0.0401419  0.0400637  0.0141735  -0.371389  -0.0658767  -0.102068 
1702484090.535060000  0  0  11.5302  0.048331  -0.125821  -0.00414714  nan  nan  nan  nan  nan  nan  -1.43568  -0.528745  1.02991  -0.021306  0.129647  -0.0230804  0.355163  -0.099796  0.105445  0  0  0  0.813162  -0  -0  -0.0294315  0.00159674  -0.0019241  0.00419699  -0.027041  0.00188172  0.0299273  0.0384077  0.0130858  -0.371993  -0.10171  -0.0790193 
1702484090.540087000  0  0  11.5326  0.0125443  -0.109443  -0.00431913  nan  nan  nan  nan  nan  nan  -1.43389  -0.529244  1.03044  -0.0316485  0.129071  -0.0249035  0.359176  -0.099796  0.105445  0  0  0  0.791719  -0  -0  -0.0295075  0.00135696  -0.00192296  0.00191895  -0.0394982  0.00162105  0.0383202  0.0377221  0.0145296  -0.377634  -0.128157  -0.0913072 
1702484090.545113000  0  0  11.533  0.0161751  -0.151739  -0.00310137  nan  nan  nan  nan  nan  nan  -1.43209  -0.529743  1.03096  -0.0298957  0.115142  -0.0247737  0.363079  -0.099796  0.105445  0  0  0  0.769526  -0  -0  -0.029458  0.0012025  -0.00193051  0.0166468  -0.0373849  -0.000509969  0.0353097  0.0503728  0.0138914  -0.357199  -0.159951  -0.100146 
1702484090.550090000  0  0  11.5249  0.0476552  -0.122379  -0.0045736  nan  nan  nan  nan  nan  nan  -1.43026  -0.530242  1.03149  -0.0237374  0.116051  -0.0246027  0.36687  -0.099796  0.105445  0  0  0  0.746583  -0  -0  -0.0295166  0.00109606  -0.00193152  0.0129855  -0.029215  0.000446219  0.0276465  0.0480662  0.0132633  -0.349658  -0.19745  -0.0754626 
1702484090.555061000  0  0  11.5008  0.0143573  -0.114341  -0.00310178  nan  nan  nan  nan  nan  nan  -1.42842  -0.530741  1.03202  -0.0331872  0.112417  -0.0260998  0.370544  -0.099796  0.105445  0  0  0  0.72289  -0  -0  -0.0295465  0.000866369  -0.0019337  0.0145526  -0.0406452  0.00198964  0.0353743  0.0499353  0.0142831  -0.354158  -0.230724  -0.104059 
1702484090.560060000  0  0  11.518  0.0258679  -0.152072  -0.00315012  nan  nan  nan  nan  nan  nan  -1.42656  -0.53124  1.03255  -0.0301435  0.0998412  -0.0259091  0.374098  -0.099796  0.105445  0  0  0  0.698447  -0  -0  -0.0294568  0.000714015  -0.00196145  0.0270306  -0.0369242  -0.00119575  0.0311313  0.0608159  0.0136409  -0.338144  -0.255363  -0.0970321 
1702484090.565060000  0  0  11.5299  0.0425571  -0.120354  -0.00439933  nan  nan  nan  nan  nan  nan  -1.42468  -0.531739  1.03307  -0.026818  0.100811  -0.0261376  0.377527  -0.099796  0.105445  0  0  0  0.673254  -0  -0  -0.0294758  0.000581393  -0.0019695  0.0225748  -0.0323272  -0.00186914  0.0263865  0.0579233  0.0134094  -0.32787  -0.292186  -0.079102 
1702484090.570060000  0  0  11.4738  0.0168072  -0.118712  -0.00144179  nan  nan  nan  nan  nan  nan  -1.42278  -0.532238  1.0336  -0.0342071  0.094709  -0.0272147  0.380829  -0.099796  0.105445  0  0  0  0.647311  -0  -0  -0.0294123  0.000351667  -0.00195263  0.0271517  -0.0411856  0.00201621  0.032245  0.061748  0.0138661  -0.330269  -0.330657  -0.120638 
1702484090.575063000  0  0  11.4878  0.0329694  -0.139552  -0.00309511  nan  nan  nan  nan  nan  nan  -1.42087  -0.532737  1.03413  -0.0304687  0.0849909  -0.0271127  0.383999  -0.099796  0.105445  0  0  0  0.620618  -0  -0  -0.0293106  0.000209221  -0.00198478  0.0357797  -0.0364994  -0.000362818  0.0273596  0.0692806  0.0133602  -0.317647  -0.358277  -0.0949132 
1702484090.580112000  0  0  11.5433  0.0378248  -0.120269  -0.00404806  nan  nan  nan  nan  nan  nan  -1.41894  -0.533236  1.03465  -0.0289322  0.0834051  -0.0274896  0.387034  -0.099796  0.105445  0  0  0  0.593175  -0  -0  -0.0292265  4.41564e-05  -0.00201341  0.0335947  -0.0343418  -0.00496824  0.0245664  0.06844  0.0132958  -0.30166  -0.38911  -0.0823571 
1702484090.585060000  0  0  11.4839  0.0245048  -0.122259  -0.000290811  nan  nan  nan  nan  nan  nan  -1.417  -0.533735  1.03518  -0.033226  0.0765162  -0.0281788  0.38993  -0.099796  0.105445  0  0  0  0.564982  -0  -0  -0.0291365  -0.000150579  -0.00200934  0.0388791  -0.0394103  -0.000801639  0.0275302  0.0726797  0.0132286  -0.302287  -0.424136  -0.128651 
1702484090.590067000  0  0  11.4413  0.0381506  -0.132919  -0.00320571  nan  nan  nan  nan  nan  nan  -1.41504  -0.534234  1.03571  -0.0311165  0.067891  -0.0283152  0.392683  -0.099796  0.105445  0  0  0  0.536342  -0  -0  -0.0289741  -0.000310896  -0.00200854  0.0461738  -0.0365292  0.00174636  0.0242629  0.0785552  0.0130764  -0.29952  -0.45687  -0.090693 
1702484090.595060000  0  0  11.509  0.0382463  -0.11884  -0.00298916  nan  nan  nan  nan  nan  nan  -1.41307  -0.534733  1.03624  -0.0304051  0.0646988  -0.0287419  0.395294  -0.099796  0.105445  0  0  0  0.508353  -0  -0  -0.0288639  -0.00047166  -0.00206934  0.0458843  -0.0355593  -0.00397828  0.0224505  0.0788745  0.0129918  -0.283038  -0.487965  -0.0925538 
1702484090.600059000  0  0  11.4911  0.0300015  -0.120755  0.000906105  nan  nan  nan  nan  nan  nan  -1.41109  -0.535231  1.03676  -0.0320516  0.0581027  -0.0292155  0.397767  -0.099796  0.105445  0  0  0  0.481114  -0  -0  -0.0286811  -0.000658837  -0.0020707  0.0504151  -0.037412  -0.00310743  0.0229799  0.0824008  0.0125718  -0.271418  -0.516577  -0.137044 
1702484090.605075000  0  0  11.4433  0.0335477  -0.119299  -0.00312252  nan  nan  nan  nan  nan  nan  -1.4091  -0.53573  1.03729  -0.0317547  0.0514772  -0.0295725  0.400107  -0.099796  0.105445  0  0  0  0.454625  -0  -0  -0.0284878  -0.000825456  -0.00207144  0.0552876  -0.0367342  0.000278146  0.0216546  0.0857739  0.0127486  -0.266318  -0.550522  -0.0884546 
1702484090.610064000  0  0  11.4965  0.0361825  -0.113865  -0.00209561  nan  nan  nan  nan  nan  nan  -1.40709  -0.536229  1.03782  -0.0307207  0.0453814  -0.0299227  0.402315  -0.099796  0.105445  0  0  0  0.428886  -0  -0  -0.028282  -0.000989264  -0.00212587  0.0590043  -0.0354418  -0.0045476  0.0196735  0.0884776  0.0125307  -0.253361  -0.586264  -0.0991116 
1702484090.615104000  0  0  11.5106  0.0330104  -0.0994132  0.00102773  nan  nan  nan  nan  nan  nan  -1.40507  -0.536728  1.03834  -0.0306628  0.0414679  -0.0303971  0.404397  -0.099796  0.105445  0  0  0  0.403897  -0  -0  -0.0280732  -0.00115799  -0.00214507  0.0602357  -0.0351633  -0.00585915  0.0186878  0.0887912  0.0119954  -0.237949  -0.618053  -0.132801 
1702484090.620060000  0  0  11.4258  0.0269844  -0.105411  -0.00304875  nan  nan  nan  nan  nan  nan  -1.40305  -0.537227  1.03887  -0.032735  0.0341723  -0.0308474  0.406355  -0.099796  0.105445  0  0  0  0.379658  -0  -0  -0.027821  -0.00133623  -0.00213125  0.0661143  -0.0374051  0.000653753  0.01982  0.0925145  0.0124124  -0.236313  -0.640312  -0.0860144 
1702484090.625061000  0  0  11.4757  0.0389678  -0.101443  -0.00119706  nan  nan  nan  nan  nan  nan  -1.40101  -0.537726  1.0394  -0.0298608  0.0273149  -0.0311538  0.408194  -0.099796  0.105445  0  0  0  0.356169  -0  -0  -0.0275656  -0.0014778  -0.00219082  0.0711738  -0.033857  -0.00390357  0.0161213  0.0955654  0.011996  -0.226252  -0.676316  -0.104997 
1702484090.630042000  0  0  11.4957  0.0394116  -0.084559  0.00168467  nan  nan  nan  nan  nan  nan  -1.39896  -0.538225  1.03993  -0.0290387  0.0249417  -0.031678  0.409918  -0.099796  0.105445  0  0  0  0.33343  -0  -0  -0.0273178  -0.00163083  -0.00222806  0.0706799  -0.0325988  -0.00541584  0.0144572  0.0940908  0.0114782  -0.211829  -0.696518  -0.135841 
1702484090.635067000  0  0  11.4481  0.0233458  -0.0873484  -0.00276761  nan  nan  nan  nan  nan  nan  -1.39691  -0.538724  1.04045  -0.0326505  0.017666  -0.0321525  0.41153  -0.099796  0.105445  0  0  0  0.311442  -0  -0  -0.0270087  -0.00182168  -0.00222288  0.076401  -0.0369329  -0.00182827  0.0173312  0.0972639  0.0119933  -0.206139  -0.720131  -0.0853375 
1702484090.640042000  0  0  11.4739  0.0440634  -0.0866133  -0.000490481  nan  nan  nan  nan  nan  nan  -1.39485  -0.539223  1.04098  -0.0280621  0.00975375  -0.0324774  0.413034  -0.099796  0.105445  0  0  0  0.290203  -0  -0  -0.0266735  -0.00194607  -0.00227098  0.0831519  -0.0312078  -0.00440636  0.0120348  0.100986  0.0114663  -0.198847  -0.755848  -0.108532 
1702484090.645115000  0  0  11.4888  0.0345281  -0.0513671  0.00120351  nan  nan  nan  nan  nan  nan  -1.39278  -0.539722  1.04151  -0.0295138  0.0101861  -0.0331387  0.414433  -0.099796  0.105445  0  0  0  0.269714  -0  -0  -0.0263714  -0.00211604  -0.0023012  0.0791809  -0.0326922  -0.00509408  0.0127752  0.0961619  0.0111657  -0.186588  -0.781956  -0.126701 
1702484090.650041000  0  0  11.4437  0.0172685  -0.0724858  -0.00252571  nan  nan  nan  nan  nan  nan  -1.3907  -0.540221  1.04204  -0.0327967  0.00102403  -0.0335122  0.415732  -0.099796  0.105445  0  0  0  0.249975  -0  -0  -0.0260274  -0.00229091  -0.00231672  0.087457  -0.0367556  -0.00175161  0.0154836  0.101155  0.0115975  -0.176986  -0.78565  -0.0844039 
1702484090.655074000  0  0  11.4691  0.0463033  -0.0662751  0.000355237  nan  nan  nan  nan  nan  nan  -1.38862  -0.54072  1.04256  -0.0260094  -0.00514091  -0.0339918  0.416934  -0.099796  0.105445  0  0  0  0.230986  -0  -0  -0.0256466  -0.00239061  -0.00235407  0.0923145  -0.0282107  -0.00406397  0.00811348  0.102873  0.0109846  -0.167251  -0.813879  -0.114287 
1702484090.660062000  0  0  11.4889  0.0374271  -0.0317689  0.00218533  nan  nan  nan  nan  nan  nan  -1.38654  -0.541219  1.04309  -0.0276485  -0.00434679  -0.0346584  0.418043  -0.099796  0.105445  0  0  0  0.212747  -0  -0  -0.0253067  -0.00254703  -0.00239259  0.0880938  -0.029972  -0.00509442  0.00912908  0.0975423  0.0107017  -0.158842  -0.833851  -0.134334 
1702484090.665126000  0  0  11.4699  0.0202925  -0.0553661  -0.00220066  nan  nan  nan  nan  nan  nan  -1.38444  -0.541718  1.04362  -0.0303702  -0.0155145  -0.0349667  0.419063  -0.099796  0.105445  0  0  0  0.195258  -0  -0  -0.0248574  -0.00272546  -0.00241273  0.0989906  -0.033526  -0.00392886  0.0115259  0.104005  0.0110579  -0.146623  -0.846111  -0.0830707 
1702484090.670076000  0  0  11.4642  0.0512511  -0.0478368  0.00106706  nan  nan  nan  nan  nan  nan  -1.38235  -0.542217  1.04414  -0.0234298  -0.0196188  -0.0356439  0.419997  -0.099796  0.105445  0  0  0  0.178519  -0  -0  -0.0244545  -0.00280742  -0.0024365  0.101464  -0.0246408  -0.00342055  0.00406547  0.103658  0.0105508  -0.139905  -0.857983  -0.118846 
1702484090.675063000  0  0  11.4877  0.0309534  -0.00857943  0.00216254  nan  nan  nan  nan  nan  nan  -1.38024  -0.542716  1.04467  -0.0273262  -0.0175564  -0.0362957  0.420849  -0.099796  0.105445  0  0  0  0.16253  -0  -0  -0.0241188  -0.00296649  -0.00248187  0.0958375  -0.0292419  -0.00459861  0.00748351  0.0968842  0.0103879  -0.130755  -0.874176  -0.130911 
1702484090.680064000  0  0  11.4643  0.0135312  -0.0364076  -0.00166481  nan  nan  nan  nan  nan  nan  -1.37814  -0.543215  1.0452  -0.0300622  -0.0290729  -0.0365795  0.421624  -0.099796  0.105445  0  0  0  0.147291  -0  -0  -0.0236151  -0.00313427  -0.00250193  0.107308  -0.0328665  -0.00293958  0.0100087  0.103643  0.0107208  -0.119142  -0.880704  -0.0863975 
1702484090.685108000  0  0  11.4638  0.048321  -0.0124673  0.00289488  nan  nan  nan  nan  nan  nan  -1.37603  -0.543714  1.04573  -0.0213635  -0.0293334  -0.0375113  0.422324  -0.099796  0.105445  0  0  0  0.132802  -0  -0  -0.0231857  -0.00319838  -0.00253335  0.105182  -0.0216252  -0.0025601  0.0010249  0.099171  0.0100447  -0.106071  -0.887439  -0.136634 
1702484090.690042000  0  0  11.497  0.0208287  0.0152566  0.00230501  nan  nan  nan  nan  nan  nan  -1.37391  -0.544213  1.04625  -0.0272459  -0.0294879  -0.0380251  0.422953  -0.099796  0.105445  0  0  0  0.119063  -0  -0  -0.0227947  -0.00336196  -0.00257701  0.102517  -0.0288993  -0.0046922  0.00654587  0.0945665  0.0100678  -0.101879  -0.900525  -0.129491 
1702484090.695062000  0  0  11.4806  0.0148515  -0.0159675  -0.00117324  nan  nan  nan  nan  nan  nan  -1.3718  -0.544712  1.04678  -0.0274612  -0.04128  -0.0383919  0.423516  -0.099796  0.105445  0  0  0  0.106074  -0  -0  -0.0222614  -0.00349697  -0.00260343  0.114695  -0.0294413  -0.0035214  0.00668438  0.101579  0.010337  -0.0911993  -0.902589  -0.0887045 
1702484090.700061000  0  0  11.4623  0.0499993  0.00333778  0.00279304  nan  nan  nan  nan  nan  nan  -1.36968  -0.545211  1.04731  -0.0190243  -0.0416331  -0.0394367  0.424015  -0.099796  0.105445  0  0  0  0.0938353  -0  -0  -0.0217933  -0.00354907  -0.00262444  0.112815  -0.0185367  -0.00169336  -0.0019513  0.0972576  0.00984924  -0.0820467  -0.901445  -0.133405 
1702484090.705062000  0  0  11.4883  0.011941  0.0298997  0.00199563  nan  nan  nan  nan  nan  nan  -1.36756  -0.54571  1.04783  -0.0268153  -0.0408483  -0.0398427  0.424455  -0.099796  0.105445  0  0  0  0.0823464  -0  -0  -0.0213592  -0.00372253  -0.00266075  0.109034  -0.0281547  -0.00314945  0.00564628  0.0916607  0.00979596  -0.0758278  -0.903078  -0.122905 
1702484090.710066000  0  0  11.5004  0.0162611  -0.00409237  -0.000626799  nan  nan  nan  nan  nan  nan  -1.36543  -0.546209  1.04836  -0.0249005  -0.0529822  -0.0403347  0.42484  -0.099796  0.105445  0  0  0  0.0716075  -0  -0  -0.0207833  -0.00383458  -0.00269783  0.122085  -0.0261663  -0.0042582  0.0037607  0.0990374  0.0100041  -0.0671207  -0.902959  -0.0922058 
1702484090.715061000  0  0  11.4765  0.0452323  0.0278609  0.00356611  nan  nan  nan  nan  nan  nan  -1.36331  -0.546708  1.04889  -0.017959  -0.049654  -0.041484  0.425172  -0.099796  0.105445  0  0  0  0.0616185  -0  -0  -0.0203355  -0.00387865  -0.00271796  0.115696  -0.0169914  -0.00179571  -0.00330374  0.0911518  0.00955927  -0.0600702  -0.894319  -0.140169 
1702484090.720072000  0  0  11.4854  -0.000137956  0.0435987  0.0016932  nan  nan  nan  nan  nan  nan  -1.36118  -0.547207  1.04942  -0.0267628  -0.0509216  -0.0417411  0.425457  -0.099796  0.105445  0  0  0  0.0523796  -0  -0  -0.0198328  -0.00405772  -0.00274849  0.114544  -0.0279546  -0.00193706  0.00547636  0.0876241  0.00952469  -0.0501066  -0.893339  -0.116412 
1702484090.725075000  0  0  11.5104  0.0198536  0.0160945  0.000263946  nan  nan  nan  nan  nan  nan  -1.35905  -0.547706  1.04994  -0.0213479  -0.0611688  -0.0425328  0.425697  -0.099796  0.105445  0  0  0  0.0438906  -0  -0  -0.0192624  -0.00412352  -0.00278513  0.125751  -0.0215696  -0.00399689  0.000200155  0.0932682  0.00971099  -0.0415486  -0.890257  -0.100409 
1702484090.730060000  0  0  11.481  0.04333  0.0508486  0.00421648  nan  nan  nan  nan  nan  nan  -1.35693  -0.548205  1.05047  -0.0161336  -0.0566204  -0.0436655  0.425897  -0.099796  0.105445  0  0  0  0.0361517  -0  -0  -0.018779  -0.00417153  -0.00279693  0.117875  -0.0145261  -0.00110931  -0.00506685  0.0842498  0.0093019  -0.040045  -0.876795  -0.145725 
1702484090.735070000  0  0  11.478  -0.00373805  0.0545765  0.00149375  nan  nan  nan  nan  nan  nan  -1.3548  -0.548704  1.051  -0.025118  -0.0597005  -0.0438265  0.42606  -0.099796  0.105445  0  0  0  0.0291628  -0  -0  -0.0182621  -0.00433604  -0.00282403  0.119203  -0.0258182  -0.000321556  0.00403296  0.0827156  0.00928688  -0.0296272  -0.870137  -0.111541 
1702484090.740060000  0  0  11.5222  0.0230404  0.0326204  0.00121207  nan  nan  nan  nan  nan  nan  -1.35266  -0.549203  1.05153  -0.0176879  -0.0688118  -0.0448623  0.42619  -0.099796  0.105445  0  0  0  0.0229238  -0  -0  -0.0176671  -0.00437621  -0.00287472  0.129467  -0.0169451  -0.0038767  -0.00312214  0.0873325  0.00946315  -0.0173571  -0.868699  -0.109782 
1702484090.745074000  0  0  11.4971  0.0330338  0.0737967  0.00439004  nan  nan  nan  nan  nan  nan  -1.35053  -0.549702  1.05205  -0.0154835  -0.0616243  -0.0458844  0.426291  -0.099796  0.105445  0  0  0  0.0174349  -0  -0  -0.0172072  -0.00443205  -0.00287723  0.118392  -0.0135849  -0.00137156  -0.0053005  0.075892  0.00906919  -0.017303  -0.8458  -0.145567 
1702484090.750076000  0  0  11.462  -0.0107012  0.0601888  0.00125638  nan  nan  nan  nan  nan  nan  -1.3484  -0.550201  1.05258  -0.0239646  -0.0671398  -0.0459955  0.426366  -0.099796  0.105445  0  0  0  0.012696  -0  -0  -0.0166351  -0.00458684  -0.00287993  0.122783  -0.024322  0.00199063  0.00340228  0.0770408  0.00906299  -0.00989854  -0.829153  -0.106335 
1702484090.755062000  0  0  11.5099  0.0266743  0.0502587  0.00246652  nan  nan  nan  nan  nan  nan  -1.34627  -0.5507  1.05311  -0.0145616  -0.072455  -0.0473213  0.426419  -0.099796  0.105445  0  0  0  0.008707  -0  -0  -0.0160722  -0.00459012  -0.002935  0.12871  -0.0128506  -0.00180768  -0.00568742  0.0781842  0.00922341  -0.00102432  -0.819812  -0.123066 
1702484090.759065000  0  0  11.5032  0.0365621  0.0859132  0.00444414  nan  nan  nan  nan  nan  nan  -1.34414  -0.551199  1.05363  -0.0129989  -0.0657569  -0.0482994  0.426454  -0.099796  0.105445  0  0  0  0.0054681  -0  -0  -0.0161184  -0.00452896  -0.00304419  0.119801  -0.0106335  -0.0007962  -0.00721296  0.0682752  0.00909961  -0.00676497  -0.799958  -0.146548 
1702484090.765072000  0  0  11.4783  -0.00302977  0.0683365  0.00161431  nan  nan  nan  nan  nan  nan  -1.34201  -0.551698  1.05416  -0.0209174  -0.0718598  -0.048436  0.426475  -0.099796  0.105445  0  0  0  0.0029791  -0  -0  -0.0150161  -0.00477785  -0.00295144  0.124122  -0.0205344  0.00156347  0.000977022  0.069501  0.00888935  -0.00292907  -0.776082  -0.109072 
1702484090.770071000  0  0  11.4912  0.0305222  0.063942  0.00366579  nan  nan  nan  nan  nan  nan  -1.33987  -0.552197  1.05469  -0.0115479  -0.0754226  -0.0498584  0.426485  -0.099796  0.105445  0  0  0  0.0012402  -0  -0  -0.0144413  -0.00477296  -0.00297909  0.127832  -0.00896107  0.000639524  -0.00798263  0.0691494  0.0090089  0.0123958  -0.764059  -0.135911 
1702484090.775105000  0  0  11.5125  0.0201352  0.10554  0.00427903  nan  nan  nan  nan  nan  nan  -1.33774  -0.552696  1.05522  -0.0141767  -0.0682341  -0.0505589  0.426489  -0.099796  0.105445  0  0  0  0.0002513  -0  -0  -0.0139589  -0.00484659  -0.00301033  0.117377  -0.0117859  -0.000835494  -0.00523303  0.0581317  0.00868696  0.00787339  -0.745891  -0.140357 
1702484090.780072000  0  0  11.4929  -0.00235881  0.075517  0.00202672  nan  nan  nan  nan  nan  nan  -1.33561  -0.553195  1.05574  -0.018449  -0.0753468  -0.0509397  0.426489  -0.099796  0.105445  0  0  0  0  -0  -0  -0.0133782  -0.00494284  -0.0030085  0.124695  -0.0174908  0.00116444  -0.000623135  0.0615863  0.0087198  0.0104505  -0.717628  -0.112532 
1702484090.785063000  0  0  11.4841  0.0285805  0.0822313  0.00475143  nan  nan  nan  nan  nan  nan  -1.33348  -0.553694  1.05627  -0.00979942  -0.0752019  -0.0524017  0.426489  -0.099796  0.105445  0  0  0  0  -0  -0  -0.0128554  -0.00492188  -0.00302612  0.123808  -0.00660052  0.00197569  -0.00882817  0.0579309  0.00876841  0.0240581  -0.697426  -0.147077 
1702484090.790069000  0  0  11.5016  0.011294  0.116371  0.00398565  nan  nan  nan  nan  nan  nan  -1.33134  -0.554193  1.0568  -0.0134091  -0.0699528  -0.0530163  0.426489  -0.099796  0.105445  0  0  0  0  -0  -0  -0.0123657  -0.00499501  -0.00305119  0.115869  -0.0107711  0.00072655  -0.00497512  0.04912  0.00854151  0.0231831  -0.684647  -0.135236 
