ts fx fy fz tx ty tz exfx exfy exfz extx exty extz xd yd zd rolld pitchd yawd vxd vyd vzd wxd wyd wzd axd ayd azd e_x e_y e_z e_vx e_vy e_vz e_rx e_ry e_rz e_wx e_wy e_wz
1701275752.111418000  0  0  15.4526  0.0104293  -0.0379237  0.00399932  nan  nan  nan  nan  nan  nan  -1.5  0  1  -0.00583426  -0.00519012  3.02808e-05  0  0  0  0  0  0  0  0  0  0.00451397  -0.00771606  -0.027141  -0.00410604  0.010968  0.00293905  -0.00469856  0.00181677  -0.00375691  0.0354814  0.0465452  0.00567356 
1701275752.114855000  0  0  15.4576  0.0256138  -0.032639  0.00393605  nan  nan  nan  nan  nan  nan  -1.5  0  1  -0.00572563  -0.004891  2.80042e-05  0  0  0  0  0  0  0  0  0  0.0044964  -0.00767839  -0.0271365  -0.00445061  0.0110162  0.00261184  -0.00498486  0.00157787  -0.00373058  0.0117727  0.0398951  0.00622203 
1701275752.119956000  0  0  15.4754  -0.00122677  -0.0421427  0.00430942  nan  nan  nan  nan  nan  nan  -1.5  0  1  -0.00597988  -0.00534598  3.19686e-05  0  0  0  0  0  0  0  0  0  0.00457839  -0.0077279  -0.0271548  -0.00404806  0.0107957  0.00152802  -0.00420861  0.00242052  -0.00375728  0.0505744  0.0471052  0.000504048 
1701275752.124918000  0  0  15.4437  0.00319548  -0.0221086  0.00467501  nan  nan  nan  nan  nan  nan  -1.5  0  1  -0.00640363  -0.00548395  3.51175e-05  0  0  0  0  0  0  0  0  0  0.00456077  -0.00768106  -0.0271298  -0.00384069  0.0101486  0.00348423  -0.00368505  0.00236941  -0.00381906  0.0366906  0.0120685  -0.00440762 
1701275752.129887000  0  0  15.4748  0.00508112  -0.0283633  0.00430774  nan  nan  nan  nan  nan  nan  -1.5  0  1  -0.00634043  -0.00523561  3.31963e-05  0  0  0  0  0  0  0  0  0  0.00463496  -0.00773138  -0.0271581  -0.00432801  0.010335  0.00157664  -0.00362572  0.00236069  -0.00376487  0.0326554  0.0232907  0.000678542 
1701275752.134853000  0  0  15.4497  -0.011228  -0.0179992  0.0040446  nan  nan  nan  nan  nan  nan  -1.5  0  1  -0.00727157  -0.00605216  4.40092e-05  0  0  0  0  0  0  0  0  0  0.00473204  -0.00779662  -0.0271727  -0.00351117  0.00929524  0.00321733  -0.00229944  0.0030439  -0.00372131  0.0464057  -0.00299458  0.00423116 
1701275752.139853000  0  0  15.4486  0.00701605  -0.000229742  0.00387739  nan  nan  nan  nan  nan  nan  -1.5  0  1  -0.00699613  -0.00560498  3.92136e-05  0  0  0  0  0  0  0  0  0  0.00471146  -0.00774841  -0.0271596  -0.00404347  0.00953791  0.00325439  -0.00268308  0.00228703  -0.00367973  0.0183757  -0.025889  0.00622098 
1701275752.144845000  0  0  15.4592  -0.0029768  -0.00794853  0.00365262  nan  nan  nan  nan  nan  nan  -1.5  0  1  -0.00708519  -0.00545993  3.86851e-05  0  0  0  0  0  0  0  0  0  0.00478994  -0.00781744  -0.0271764  -0.00441582  0.00958183  0.0026225  -0.00232003  0.00224641  -0.00361969  0.0319703  -0.0116966  0.00881541 
1701275752.149884000  0  0  15.4222  0.00404509  0.0175893  0.00333067  nan  nan  nan  nan  nan  nan  -1.5  0  1  -0.00727559  -0.00555697  4.04308e-05  0  0  0  0  0  0  0  0  0  0.00477304  -0.0077746  -0.0271424  -0.00426625  0.00925388  0.00488922  -0.00214734  0.0017595  -0.00353025  0.0174984  -0.0515089  0.0124654 
1701275752.154945000  0  0  15.4722  0.0047452  0.0119167  0.00313789  nan  nan  nan  nan  nan  nan  -1.5  0  1  -0.00677815  -0.00480123  3.25439e-05  0  0  0  0  0  0  0  0  0  0.00483503  -0.00783378  -0.0271728  -0.00537565  0.0100129  0.00178189  -0.00252052  0.000993198  -0.00344123  0.0205445  -0.0326106  0.0139672 
1701275752.159867000  0  0  15.4268  0.000687926  0.0284708  0.00292974  nan  nan  nan  nan  nan  nan  -1.5  0  1  -0.00684906  -0.00465023  3.185e-05  0  0  0  0  0  0  0  0  0  0.00481229  -0.00778978  -0.0271364  -0.0055353  0.00984101  0.00457809  -0.00227685  0.00041127  -0.00335375  0.0249573  -0.0553554  0.0157553 
1701275752.164859000  0  0  15.4052  0.0198926  0.0533506  0.002592  nan  nan  nan  nan  nan  nan  -1.5  0  1  -0.00709474  -0.00464819  3.29781e-05  0  0  0  0  0  0  0  0  0  0.0048685  -0.00784434  -0.0271353  -0.00568152  0.00966625  0.00594531  -0.00230261  -0.00034141  -0.00322958  -0.00889615  -0.0909417  0.0189991 
1701275752.169869000  0  0  15.4248  0.014888  0.0428247  0.00280961  nan  nan  nan  nan  nan  nan  -1.5  0  1  -0.00685733  -0.00418439  2.86941e-05  0  0  0  0  0  0  0  0  0  0.00490413  -0.00789293  -0.0271499  -0.00636139  0.0100794  0.00473494  -0.00242053  -0.000890334  -0.00318148  0.00135896  -0.0659128  0.0144391 
1701275752.174866000  0  0  15.3977  0.0317974  0.0724613  0.0028914  nan  nan  nan  nan  nan  nan  -1.5  0  1  -0.00682182  -0.00401448  2.73864e-05  0  0  0  0  0  0  0  0  0  0.00487622  -0.00784688  -0.0271125  -0.00652394  0.0100303  0.00636372  -0.00274961  -0.00188272  -0.00313663  -0.0249252  -0.107201  0.0122089 
1701275752.179869000  0  0  15.4245  0.0422111  0.0713014  0.0030744  nan  nan  nan  nan  nan  nan  -1.5  0  1  -0.00613084  -0.00323546  1.98363e-05  0  0  0  0  0  0  0  0  0  0.00489067  -0.00789125  -0.027113  -0.0075605  0.0110181  0.00464858  -0.00366067  -0.00298817  -0.00310639  -0.0329669  -0.0924277  0.00857106 
1701275752.185333000  0  0  15.4154  0.0423094  0.070668  0.00339123  nan  nan  nan  nan  nan  nan  -1.5  0  1  -0.00652964  -0.00359595  2.34805e-05  0  0  0  0  0  0  0  0  0  0.00491944  -0.00794397  -0.0271004  -0.00716461  0.0106324  0.00520261  -0.00345633  -0.00302718  -0.00311887  -0.0354913  -0.0908529  0.00352282 
1701275752.189882000  0  0  15.4276  0.0598936  0.0780063  0.0040515  nan  nan  nan  nan  nan  nan  -1.5  0  1  -0.00587498  -0.00320485  1.88286e-05  0  0  0  0  0  0  0  0  0  0.00488659  -0.00789309  -0.027085  -0.00758955  0.0113529  0.00438404  -0.00451886  -0.00390972  -0.00322259  -0.0545417  -0.0937537  -0.00549948 
1701275752.194865000  0  0  15.4449  0.0576994  0.0570594  0.00418502  nan  nan  nan  nan  nan  nan  -1.5  0  1  -0.00572366  -0.00299925  1.71669e-05  0  0  0  0  0  0  0  0  0  0.00491754  -0.00793934  -0.0271038  -0.00792643  0.0116522  0.00332676  -0.00482012  -0.00405705  -0.00326145  -0.0471759  -0.0548121  -0.00697904 
1701275752.199887000  0  0  15.4135  0.0719703  0.0691091  0.0046671  nan  nan  nan  nan  nan  nan  -1.5  0  1  -0.00566501  -0.00328353  1.86014e-05  0  0  0  0  0  0  0  0  0  0.00488596  -0.00788637  -0.0270669  -0.00748978  0.0116159  0.00522684  -0.00534762  -0.0042706  -0.00337389  -0.0664869  -0.0737833  -0.0128586 
1701275752.204857000  0  0  15.4672  0.0683174  0.0493008  0.00472762  nan  nan  nan  nan  nan  nan  -1.5  -0  1  -0.00495469  -0.00287341  1.4237e-05  5e-06  -5e-06  5e-06  0  0  0  0.0015  -0.0015  0.0015  0.00491639  -0.00791682  -0.0271047  -0.00789501  0.012401  0.00203965  -0.00616085  -0.00455007  -0.00342004  -0.0506402  -0.0353469  -0.0129791 
1701275752.210342000  0  0  15.4777  0.0622831  0.0335098  0.00444524  nan  nan  nan  nan  nan  nan  -1.5  -1e-07  1  -0.00538919  -0.00353263  1.90382e-05  1.69e-05  -1.69e-05  1.69e-05  0  0  0  0.003375  -0.003375  0.003375  0.00497362  -0.00796568  -0.0271367  -0.00693823  0.011715  0.00163659  -0.00589285  -0.00377209  -0.00342209  -0.0429917  -0.0162131  -0.00822574 
1701275752.214860000  0  0  15.4949  0.0691936  0.0463721  0.00414879  nan  nan  nan  nan  nan  nan  -1.5  -2e-07  1  -0.00467952  -0.00301752  1.40206e-05  4e-05  -4e-05  4e-05  0  0  0  0.006  -0.006  0.006  0.00494138  -0.00791209  -0.0271332  -0.00720027  0.0121765  0.000772063  -0.00682921  -0.00456423  -0.00340151  -0.0445132  -0.0299761  -0.00367378 
1701275752.219861000  0  0  15.5213  0.0562434  0.0227836  0.00371281  nan  nan  nan  nan  nan  nan  -1.5  -5e-07  1  -0.00446534  -0.00293479  1.28049e-05  7.81e-05  -7.81e-05  7.81e-05  0  0  0  0.009375  -0.009375  0.009375  0.00500851  -0.00797167  -0.027185  -0.00704277  0.0121688  -0.000467047  -0.0069619  -0.0042883  -0.00334031  -0.0199594  0.00879566  0.002424 
1701275752.224857000  0  0  15.5116  0.0633063  0.0285441  0.00389026  nan  nan  nan  nan  nan  nan  -1.5  -1e-06  1  -0.00440429  -0.00307981  1.30644e-05  0.000135  -0.000135  0.000135  0  0  0  0.0135  -0.0135  0.0135  0.00498288  -0.00791973  -0.0271729  -0.00628069  0.0116136  0.000502041  -0.00722267  -0.00422145  -0.00335625  -0.0295202  -0.00221619  -0.000230645 
1701275752.229817000  0  0  15.5536  0.0656242  0.0227477  0.00353321  nan  nan  nan  nan  nan  nan  -1.5  -1.9e-06  1  -0.00370083  -0.00254853  8.43174e-06  0.0002144  -0.0002144  0.0002144  0  0  0  0.018375  -0.018375  0.018375  0.00503245  -0.00796212  -0.0272215  -0.0064772  0.0120135  -0.0016006  -0.00802246  -0.00453873  -0.0032827  -0.0244454  0.0117393  0.00431154 
1701275752.235289000  0  0  15.5532  0.0566075  0.00115798  0.00305036  nan  nan  nan  nan  nan  nan  -1.5  -3.2e-06  1  -0.00372775  -0.002877  9.02475e-06  0.00032  -0.00032  0.00032  0  0  0  0.024  -0.024  0.024  0.00510593  -0.00800309  -0.0272645  -0.00552384  0.0113765  -0.000943103  -0.007915  -0.0036957  -0.0031635  -0.00964773  0.0404362  0.0100735 
1701275752.239860000  0  0  15.5733  0.0648959  0.0161614  0.00283831  nan  nan  nan  nan  nan  nan  -1.49999  -5.1e-06  1.00001  -0.00277358  -0.00248235  4.18501e-06  0.0004556  -0.0004556  0.0004556  0  0  0  0.030375  -0.030375  0.030375  0.00507635  -0.00795056  -0.0272803  -0.00517116  0.0117003  -0.00159584  -0.00896068  -0.00420343  -0.00308872  -0.0123622  0.0195953  0.0121715 
1701275752.244854000  0  0  15.6076  0.0523574  -0.00987282  0.00284866  nan  nan  nan  nan  nan  nan  -1.49999  -7.8e-06  1.00001  -0.00207952  -0.00195844  -1.27384e-07  0.000625  -0.000625  0.000625  0  0  0  0.0375  -0.0375  0.0375  0.0051581  -0.00799765  -0.0273364  -0.00516136  0.0118297  -0.00297846  -0.00935744  -0.00401676  -0.00303113  0.0144958  0.0637427  0.0108883 
1701275752.249857000  0  0  15.6085  0.0581985  0.006593  0.00316637  nan  nan  nan  nan  nan  nan  -1.49999  -1.14e-05  1.00001  -0.00159218  -0.00163432  -3.49787e-06  0.0008319  -0.0008319  0.0008319  0  0  0  0.045375  -0.045375  0.045375  0.00514292  -0.00794653  -0.0273371  -0.00456982  0.0113661  -0.00230423  -0.00983101  -0.00432048  -0.00303527  0.00955462  0.0379557  0.00566458 
1701275752.254863000  0  0  15.6375  0.0487972  0.00110437  0.0038966  nan  nan  nan  nan  nan  nan  -1.49998  -1.62e-05  1.00002  -0.000482063  -0.000927817  -8.15273e-06  0.00108  -0.00108  0.00108  0  0  0  0.054  -0.054  0.054  0.00522786  -0.00799189  -0.027421  -0.00462566  0.0118578  -0.00315167  -0.0105415  -0.00463546  -0.00314107  0.0344416  0.0513374  -0.00448541 
1701275752.260359000  0  0  15.6589  0.0405138  -0.0100814  0.00409639  nan  nan  nan  nan  nan  nan  -1.49998  -2.23e-05  1.00002  -0.00023136  -0.000690091  -1.17403e-05  0.0013731  -0.0013731  0.0013731  0  0  0  0.063375  -0.063375  0.063375  0.00532942  -0.00805436  -0.0274829  -0.00401408  0.0111702  -0.00348391  -0.0103854  -0.00429425  -0.00320432  0.0473764  0.0673044  -0.00660114 
1701275752.264864000  0  0  15.6816  0.05291  0.0147263  0.00399773  nan  nan  nan  nan  nan  nan  -1.49997  -3e-05  1.00003  0.00115373  0.000482399  -1.54434e-05  0.001715  -0.001715  0.001715  0  0  0  0.0735  -0.0735  0.0735  0.00530841  -0.00800267  -0.0275035  -0.00424851  0.0116123  -0.00394915  -0.0116657  -0.00555492  -0.00320749  0.0400554  0.0376875  -0.00489306 
1701275752.269941000  0  0  15.6886  0.0440439  0.00493168  0.00396321  nan  nan  nan  nan  nan  nan  -1.49996  -3.96e-05  1.00004  0.001986  0.00149049  -1.81399e-05  0.0021094  -0.0021094  0.0021094  0  0  0  0.084375  -0.084375  0.084375  0.00540321  -0.00806394  -0.0275617  -0.00445329  0.0115048  -0.00323854  -0.012  -0.00602657  -0.00323605  0.0596648  0.0605274  -0.00376616 
1701275752.274865000  0  0  15.7056  0.0494982  0.0261925  0.00387578  nan  nan  nan  nan  nan  nan  -1.49995  -5.12e-05  1.00005  0.00307134  0.00277297  -1.87832e-05  0.00256  -0.00256  0.00256  0  0  0  0.096  -0.096  0.096  0.00538474  -0.00801214  -0.0275761  -0.00465829  0.01137  -0.00320826  -0.0127943  -0.00728544  -0.00323988  0.0590987  0.0371968  -0.00223264 
1701275752.279861000  0  0  15.7304  0.0472998  0.040454  0.00403352  nan  nan  nan  nan  nan  nan  -1.49993  -6.53e-05  1.00007  0.00442994  0.00416229  -1.63612e-05  0.0030706  -0.0030706  0.0030706  0  0  0  0.108375  -0.108375  0.108375  0.00545674  -0.00804876  -0.0276239  -0.00513522  0.0117219  -0.00352098  -0.0136528  -0.00859685  -0.0032667  0.0728796  0.0269167  -0.00434883 
1701275752.285315000  0  0  15.7489  0.0473528  0.0397559  0.00407822  nan  nan  nan  nan  nan  nan  -1.49992  -8.2e-05  1.00008  0.00507489  0.00514719  -1.75784e-05  0.003645  -0.003645  0.003645  0  0  0  0.1215  -0.1215  0.1215  0.00554233  -0.00812031  -0.0276548  -0.00501837  0.0111213  -0.00339419  -0.0138535  -0.00922232  -0.00329306  0.0750926  0.03535  -0.00458677 
1701275752.289860000  0  0  15.7755  0.0534321  0.0690931  0.00406421  nan  nan  nan  nan  nan  nan  -1.4999  -0.0001018  1.0001  0.00694099  0.0070616  -5.28513e-06  0.0042869  -0.0042869  0.0042869  0  0  0  0.135375  -0.135375  0.135375  0.0055159  -0.00806637  -0.0276743  -0.00578015  0.0117527  -0.00375446  -0.0153066  -0.0113476  -0.00330964  0.0809916  0.00762033  -0.00403329 
1701275752.294822000  0  0  15.7843  0.0540372  0.0671876  0.00340715  nan  nan  nan  nan  nan  nan  -1.49988  -0.000125  1.00012  0.00811913  0.00871987  4.0984e-06  0.005  -0.005  0.005  0  0  0  0.15  -0.15  0.15  0.00559606  -0.00814701  -0.0277003  -0.00635972  0.0116956  -0.00288432  -0.0159633  -0.0126589  -0.00322861  0.0874671  0.0260871  0.00537301 
1701275752.299866000  0  0  15.8223  0.0629897  0.0845516  0.00344305  nan  nan  nan  nan  nan  nan  -1.49985  -0.0001519  1.00015  0.0097763  0.0106261  2.28853e-05  0.0057881  -0.0057881  0.0057881  0  0  0  0.165375  -0.165375  0.165375  0.00556303  -0.0080918  -0.0277269  -0.00693228  0.0118811  -0.00380371  -0.0172031  -0.0145366  -0.00321862  0.0858034  0.016802  0.00458103 
1701275752.304862000  0  0  15.8425  0.0576055  0.0941203  0.00329344  nan  nan  nan  nan  nan  nan  -1.49982  -0.000183  1.00018  0.0116494  0.0126006  4.91927e-05  0.006655  -0.006655  0.006655  0  0  0  0.1815  -0.1815  0.1815  0.00561578  -0.00814604  -0.0277477  -0.00770241  0.0125176  -0.00352984  -0.0183184  -0.0163089  -0.00318224  0.108202  0.0201651  0.00637716 
1701275752.310331000  0  0  15.8628  0.0717498  0.0947529  0.00283591  nan  nan  nan  nan  nan  nan  -1.49978  -0.0002186  1.00022  0.0129416  0.0141955  6.7117e-05  0.0076044  -0.0076044  0.0076044  0  0  0  0.198375  -0.198375  0.198375  0.00566256  -0.00819116  -0.0277607  -0.00786484  0.0122699  -0.00320386  -0.0191802  -0.0175229  -0.00306266  0.0929601  0.0330002  0.0117092 
1701275752.314859000  0  0  15.91  0.0772759  0.119346  0.00280849  nan  nan  nan  nan  nan  nan  -1.49974  -0.0002592  1.00026  0.0155178  0.0165935  0.000119303  0.00864  -0.00864  0.00864  0  0  0  0.216  -0.216  0.216  0.00562256  -0.00812755  -0.027789  -0.00884301  0.0134233  -0.00448914  -0.0211774  -0.0199787  -0.00302632  0.106099  0.017507  0.0114663 
1701275752.319860000  0  0  15.9199  0.083876  0.11346  0.00270594  nan  nan  nan  nan  nan  nan  -1.49969  -0.0003052  1.00031  0.0170334  0.0186517  0.000154914  0.0097656  -0.0097656  0.0097656  0  0  0  0.234375  -0.234375  0.234375  0.00567461  -0.00819536  -0.0278045  -0.00945281  0.0133417  -0.00334528  -0.0221049  -0.0215037  -0.00296578  0.105027  0.0455092  0.0120108 
1701275752.324864000  0  0  15.98  0.0969072  0.126205  0.00288383  nan  nan  nan  nan  nan  nan  -1.49964  -0.000357  1.00036  0.0195481  0.0209682  0.000219511  0.010985  -0.010985  0.010985  0  0  0  0.2535  -0.2535  0.2535  0.00563115  -0.00812729  -0.0278365  -0.0101796  0.0142649  -0.00529097  -0.0241094  -0.0235656  -0.00296122  0.104905  0.0465532  0.00895345 
1701275752.329873000  0  0  16.0107  0.0929268  0.121925  0.0036529  nan  nan  nan  nan  nan  nan  -1.49958  -0.0004152  1.00042  0.0218357  0.0230528  0.000282008  0.0123019  -0.0123019  0.0123019  0  0  0  0.273375  -0.273375  0.273375  0.00567858  -0.00817057  -0.0278655  -0.0106847  0.0150267  -0.00528457  -0.0255102  -0.0250387  -0.00306572  0.12809  0.0711036  -0.00186995 
1701275752.335345000  0  0  16.0526  0.106448  0.111448  0.00355943  nan  nan  nan  nan  nan  nan  -1.49952  -0.0004802  1.00048  0.0232772  0.0247442  0.00032002  0.01372  -0.01372  0.01372  0  0  0  0.294  -0.294  0.294  0.0057423  -0.00822733  -0.0278857  -0.0106377  0.014619  -0.00592631  -0.0263714  -0.0258549  -0.00306603  0.113948  0.0991182  -0.000303834 
1701275752.339868000  0  0  16.101  0.102766  0.124335  0.00397279  nan  nan  nan  nan  nan  nan  -1.49945  -0.0005526  1.00055  0.0263254  0.0272016  0.000421671  0.0152431  -0.0152431  0.0152431  0  0  0  0.315375  -0.315375  0.315375  0.00569211  -0.0081499  -0.0279205  -0.0112917  0.0159959  -0.00688167  -0.0285142  -0.0278767  -0.00315435  0.145135  0.0994513  -0.00550127 
1701275752.344865000  0  0  16.1313  0.106132  0.10068  0.00423795  nan  nan  nan  nan  nan  nan  -1.49937  -0.0006328  1.00063  0.0284139  0.0294189  0.000499009  0.016875  -0.016875  0.016875  0  0  0  0.3375  -0.3375  0.3375  0.005728  -0.00817677  -0.0279607  -0.0117059  0.0162063  -0.00657206  -0.029679  -0.0288156  -0.0032507  0.152542  0.15231  -0.00806992 
1701275752.349875000  0  0  16.2083  0.116854  0.101261  0.00446759  nan  nan  nan  nan  nan  nan  -1.49928  -0.0007215  1.00072  0.0312002  0.0319041  0.000611866  0.0186194  -0.0186194  0.0186194  0  0  0  0.360375  -0.360375  0.360375  0.00567064  -0.00809571  -0.0280145  -0.0123069  0.017146  -0.00912696  -0.0316619  -0.0303055  -0.00335531  0.156278  0.168409  -0.00988641 
1701275752.354873000  0  0  16.2202  0.111009  0.0999753  0.00435801  nan  nan  nan  nan  nan  nan  -1.49918  -0.0008192  1.00082  0.0337063  0.0339222  0.000708708  0.02048  -0.02048  0.02048  0  0  0  0.384  -0.384  0.384  0.00572686  -0.00812734  -0.0280548  -0.0122923  0.0177301  -0.00749359  -0.03295  -0.0311977  -0.00339996  0.181483  0.180954  -0.00719636 
1701275752.360343000  0  0  16.3029  0.12203  0.0694038  0.00425582  nan  nan  nan  nan  nan  nan  -1.49907  -0.0009265  1.00093  0.0357086  0.0357409  0.000785827  0.0224606  -0.0224606  0.0224606  0  0  0  0.408375  -0.408375  0.408375  0.00578611  -0.00815013  -0.0281155  -0.0121341  0.017728  -0.0102058  -0.0339784  -0.0311979  -0.00344668  0.173711  0.235318  -0.00458974 
1701275752.364865000  0  0  16.3455  0.11657  0.0857322  0.0042938  nan  nan  nan  nan  nan  nan  -1.49896  -0.001044  1.00104  0.0392121  0.0386062  0.000962926  0.024565  -0.024565  0.024565  0  0  0  0.4335  -0.4335  0.4335  0.00572846  -0.00805389  -0.0281581  -0.0129484  0.0193109  -0.0103541  -0.0362443  -0.0330934  -0.00351049  0.209475  0.228079  -0.00399348 
1701275752.369874000  0  0  16.3741  0.124813  0.0679067  0.00400329  nan  nan  nan  nan  nan  nan  -1.49883  -0.0011724  1.00117  0.0415225  0.0409034  0.00108202  0.0267969  -0.0267969  0.0267969  0  0  0  0.459375  -0.459375  0.459375  0.00579358  -0.00808839  -0.0281679  -0.0131479  0.0194443  -0.00959074  -0.0374431  -0.0336978  -0.00352702  0.208602  0.266725  0.001175 
1701275752.374865000  0  0  16.4506  0.13145  0.0640913  0.00417707  nan  nan  nan  nan  nan  nan  -1.49869  -0.0013122  1.00131  0.0448334  0.043807  0.0012771  0.02916  -0.02916  0.02916  0  0  0  0.486  -0.486  0.485993  0.00572818  -0.00798902  -0.0282307  -0.0139717  0.0207329  -0.0116512  -0.0395709  -0.0349879  -0.00361289  0.221266  0.288344  -7.05368e-05 
1701275752.379856000  0  0  16.4577  0.115508  0.0695851  0.0040473  nan  nan  nan  nan  nan  nan  -1.49854  -0.0014642  1.00146  0.0473213  0.0459225  0.00141037  0.031658  -0.0316581  0.0316565  0  0  0  0.513223  -0.513371  0.512473  0.00581905  -0.00803325  -0.0282168  -0.0137634  0.0208953  -0.00948803  -0.0403798  -0.0356278  -0.00363736  0.258914  0.285934  0.00256762 
1701275752.385348000  0  0  16.527  0.121404  0.0476604  0.00357637  nan  nan  nan  nan  nan  nan  -1.49837  -0.001629  1.00163  0.0493618  0.0477966  0.00151534  0.0342912  -0.0342935  0.0342835  0  0  0  0.539924  -0.54064  0.538204  0.00593054  -0.00809355  -0.0282254  -0.0135842  0.0207487  -0.0112599  -0.0409837  -0.0353598  -0.00359605  0.255375  0.321838  0.00963246 
1701275752.389874000  0  0  16.5785  0.104487  0.0627547  0.00383936  nan  nan  nan  nan  nan  nan  -1.49819  -0.0018074  1.00181  0.053016  0.0509536  0.00177081  0.037056  -0.0370633  0.0370373  0  0  0  0.565875  -0.567159  0.563184  0.00584922  -0.00797775  -0.0282933  -0.0147874  0.0224655  -0.0118149  -0.0428111  -0.0371456  -0.00367091  0.306468  0.315532  0.00668569 
1701275752.394860000  0  0  16.6247  0.1078  0.0472965  0.00386543  nan  nan  nan  nan  nan  nan  -1.498  -0.0019999  1.002  0.054644  0.052712  0.00185742  0.0399487  -0.0399638  0.0399141  0  0  0  0.591076  -0.592928  0.587414  0.00598372  -0.00804167  -0.0283127  -0.0146315  0.0218826  -0.0122258  -0.042854  -0.036866  -0.00369361  0.301071  0.339804  0.0066881 
1701275752.399876000  0  0  16.7066  0.0938684  0.0497719  0.00429703  nan  nan  nan  nan  nan  nan  -1.49779  -0.0022072  1.00221  0.0579454  0.0556748  0.00210524  0.0429655  -0.0429913  0.0429102  0  0  0  0.615526  -0.617947  0.610894  0.00590565  -0.00792704  -0.0283929  -0.0159438  0.0234892  -0.0147602  -0.0441582  -0.0380097  -0.00380059  0.340841  0.348553  0.00154603 
1701275752.404861000  0  0  16.6986  0.0826151  0.0563575  0.00452428  nan  nan  nan  nan  nan  nan  -1.49757  -0.00243  1.00243  0.0598223  0.0575003  0.0022151  0.0461027  -0.046142  0.0460218  0  0  0  0.639227  -0.642216  0.633625  0.00601815  -0.00797007  -0.0283859  -0.0157916  0.023154  -0.0119081  -0.0439735  -0.0381306  -0.00384538  0.358727  0.338233  -0.0013839 
1701275752.410345000  0  0  16.7444  0.0794253  0.0378831  0.00445451  nan  nan  nan  nan  nan  nan  -1.49733  -0.0026688  1.00267  0.0614203  0.0590656  0.00229327  0.0493565  -0.0494122  0.0492452  0  0  0  0.662178  -0.665734  0.655605  0.00618962  -0.00807076  -0.0283649  -0.0157688  0.0229332  -0.0125403  -0.0435317  -0.0374021  -0.00386116  0.359319  0.362707  8.48507e-05 
1701275752.414854000  0  0  16.7667  0.0607091  0.0527061  0.00516167  nan  nan  nan  nan  nan  nan  -1.49708  -0.0029243  1.00292  0.0644247  0.0619325  0.00253984  0.0527232  -0.0527981  0.0525766  0  0  0  0.684378  -0.688503  0.676835  0.00610009  -0.00794241  -0.0284275  -0.0169593  0.0241184  -0.0115264  -0.0443248  -0.0387798  -0.00401535  0.40172  0.352191  -0.00874689 
1701275752.419879000  0  0  16.8009  0.0645911  0.041471  0.00474315  nan  nan  nan  nan  nan  nan  -1.4968  -0.003197  1.00319  0.0658661  0.0638021  0.0026303  0.0561991  -0.056296  0.0560123  0  0  0  0.705829  -0.710522  0.697315  0.00619919  -0.00799201  -0.0284282  -0.017344  0.0237001  -0.0115096  -0.0438117  -0.0385477  -0.00399842  0.388917  0.3695  -0.0020869 
1701275752.424871000  0  0  16.8577  0.0438488  0.0494374  0.00498649  nan  nan  nan  nan  nan  nan  -1.49651  -0.0034874  1.00348  0.0689074  0.0666374  0.00289215  0.0597803  -0.0599021  0.0595485  0  0  0  0.72653  -0.731791  0.717046  0.00610901  -0.00786639  -0.0284979  -0.0188894  0.0253459  -0.0127432  -0.0443635  -0.0395665  -0.00408271  0.432145  0.367049  -0.00452372 
1701275752.429879000  0  0  16.8486  0.0452757  0.0520616  0.00426273  nan  nan  nan  nan  nan  nan  -1.49621  -0.0037962  1.00379  0.0700315  0.0681064  0.00293567  0.0634631  -0.0636127  0.0631815  0  0  0  0.746481  -0.75231  0.736026  0.00623854  -0.00793394  -0.0284734  -0.0187372  0.0244768  -0.01019  -0.0434026  -0.0391929  -0.00395167  0.418559  0.358087  0.00503151 
1701275752.434872000  0  0  16.9195  0.0368189  0.0524593  0.00368385  nan  nan  nan  nan  nan  nan  -1.49588  -0.0041237  1.00411  0.0730722  0.0711836  0.00322777  0.0672438  -0.0674239  0.0669075  0  0  0  0.765681  -0.772079  0.754256  0.00613262  -0.00780184  -0.0285399  -0.020894  0.0264048  -0.0124285  -0.0440849  -0.0403223  -0.00387419  0.441443  0.370367  0.013201 
1701275752.439872000  0  0  16.9166  0.0123367  0.0593236  0.00347291  nan  nan  nan  nan  nan  nan  -1.49553  -0.0044706  1.00446  0.073984  0.0720851  0.00321272  0.0711187  -0.0713322  0.0707228  0  0  0  0.784132  -0.791098  0.771737  0.00631834  -0.00793263  -0.028527  -0.0202891  0.0256162  -0.0103821  -0.042401  -0.0394863  -0.00371697  0.465614  0.348548  0.0136908 
1701275752.445442000  0  0  16.9351  0.0202549  0.0417725  0.00319785  nan  nan  nan  nan  nan  nan  -1.49517  -0.0048372  1.00482  0.074978  0.073292  0.00322193  0.0750839  -0.0753337  0.0746236  0  0  0  0.801833  -0.809367  0.788467  0.00650363  -0.00806837  -0.0284615  -0.0203434  0.0251803  -0.00984934  -0.0411012  -0.038371  -0.00358046  0.436588  0.366933  0.0156505 
1701275752.449894000  0  0  16.9768  -0.000414649  0.0544183  0.00374378  nan  nan  nan  nan  nan  nan  -1.49478  -0.0052241  1.0052  0.0780307  0.0760704  0.0035041  0.0791358  -0.0794246  0.0786062  0  0  0  0.818784  -0.826886  0.804447  0.00636447  -0.00790706  -0.028547  -0.0221356  0.0271922  -0.0103902  -0.0416366  -0.039614  -0.00363088  0.479498  0.358738  0.00750952 
1701275752.454869000  0  0  16.9732  0.0120438  0.0514603  0.00328004  nan  nan  nan  nan  nan  nan  -1.49438  -0.0056316  1.00561  0.0787715  0.0772622  0.00348893  0.0832705  -0.0836013  0.0826668  0  0  0  0.834984  -0.843654  0.819677  0.00649003  -0.00799277  -0.0284703  -0.0220785  0.0263298  -0.00866411  -0.0403225  -0.0388715  -0.00348619  0.442235  0.355461  0.0124611 
1701275752.460324000  0  0  16.9991  0.00212249  0.0412246  0.00332537  nan  nan  nan  nan  nan  nan  -1.49395  -0.0060602  1.00603  0.080772  0.0788401  0.00359976  0.0874843  -0.0878599  0.0868017  0  0  0  0.850435  -0.859673  0.834158  0.0065629  -0.00801176  -0.0283833  -0.0227437  0.0273823  -0.00878072  -0.0397256  -0.0382762  -0.00339035  0.453014  0.366817  0.00985658 
1701275752.464872000  0  0  16.9722  0.0147701  0.0528378  0.00348433  nan  nan  nan  nan  nan  nan  -1.4935  -0.0065103  1.00648  0.0832087  0.0813156  0.00382065  0.0917736  -0.0921968  0.0910071  0  0  0  0.865136  -0.874942  0.847888  0.00642077  -0.00785067  -0.0284324  -0.0239328  0.0283534  -0.00532439  -0.040241  -0.0392218  -0.0033848  0.436449  0.357039  0.00709589 
1701275752.469887000  0  0  17.0088  0.0289308  0.0452865  0.00325763  nan  nan  nan  nan  nan  nan  -1.49303  -0.0069823  1.00694  0.0853935  0.0834446  0.00399659  0.0961345  -0.0966081  0.0952793  0  0  0  0.879086  -0.889461  0.860868  0.00638408  -0.00777509  -0.0283988  -0.0254009  0.0297078  -0.00611314  -0.0404335  -0.0392661  -0.00330521  0.413483  0.370976  0.00934577 
1701275752.475002000  0  0  16.9924  0.0204896  0.0576992  0.00368464  nan  nan  nan  nan  nan  nan  -1.49254  -0.0074765  1.00743  0.08792  0.0855782  0.00420554  0.100563  -0.10109  0.0996146  0  0  0  0.892287  -0.90323  0.873099  0.00626954  -0.0076315  -0.0284017  -0.0264162  0.0311  -0.00352319  -0.0405742  -0.0397044  -0.00331866  0.430111  0.353944  0.0024769 
1701275752.479872000  0  0  17.0055  0.0416082  0.0541147  0.00337105  nan  nan  nan  nan  nan  nan  -1.49203  -0.0079933  1.00794  0.0897333  0.0873188  0.00432086  0.105056  -0.105639  0.104009  0  0  0  0.904738  -0.916249  0.884579  0.00625776  -0.00758813  -0.0283205  -0.0274128  0.0320346  -0.00312308  -0.0406881  -0.0396036  -0.00323938  0.393867  0.359159  0.00618328 
1701275752.484815000  0  0  17.0467  0.0370546  0.055436  0.00313884  nan  nan  nan  nan  nan  nan  -1.49149  -0.008533  1.00847  0.0927269  0.0896591  0.00459766  0.109609  -0.110251  0.108459  0  0  0  0.916439  -0.928518  0.895309  0.00610759  -0.00741134  -0.028354  -0.0292597  0.0346312  -0.00417642  -0.0415098  -0.0401256  -0.00320075  0.411413  0.362811  0.00931467 
1701275752.489862000  0  0  17.0238  0.0539262  0.0541475  0.00270499  nan  nan  nan  nan  nan  nan  -1.49093  -0.0090959  1.00902  0.0940549  0.0910468  0.00463867  0.114219  -0.114923  0.112961  0  0  0  0.927389  -0.940037  0.905289  0.00608918  -0.0073721  -0.0282299  -0.0296469  0.0348027  -0.00177911  -0.0411623  -0.0396801  -0.00304413  0.377417  0.35998  0.0135372 
1701275752.494866000  0  0  17.0483  0.0611512  0.0379938  0.00247351  nan  nan  nan  nan  nan  nan  -1.49035  -0.0096823  1.0096  0.0962563  0.0925183  0.00476641  0.118882  -0.11965  0.117511  0  0  0  0.93759  -0.950805  0.91452  0.00608006  -0.0073137  -0.0281195  -0.0306418  0.0366351  -0.00232854  -0.0415761  -0.039016  -0.00295984  0.369328  0.381068  0.0157764 
1701275752.500008000  0  0  17.0204  0.0776373  0.0380528  0.00235932  nan  nan  nan  nan  nan  nan  -1.48974  -0.0102925  1.0102  0.0983264  0.0941376  0.00489669  0.123594  -0.12443  0.122105  0  0  0  0.947041  -0.960824  0.923  0.0059416  -0.00714574  -0.0280893  -0.0312224  0.0376861  0.000524648  -0.0419685  -0.0387062  -0.00287237  0.344524  0.3774  0.015996 
1701275752.504862000  0  0  17.035  0.0910593  0.0289483  0.00217065  nan  nan  nan  nan  nan  nan  -1.48911  -0.0109267  1.01082  0.100346  0.0956704  0.00501392  0.128351  -0.129257  0.12674  0  0  0  0.955741  -0.970093  0.93073  0.00588493  -0.00703123  -0.0280067  -0.0323024  0.0392358  0.000509338  -0.0425382  -0.0382264  -0.0027948  0.327208  0.388073  0.01765 
1701275752.509874000  0  0  17.0537  0.0812903  0.0331302  0.00256951  nan  nan  nan  nan  nan  nan  -1.48846  -0.0115852  1.01146  0.10279  0.0973896  0.00519184  0.13315  -0.13413  0.131411  0  0  0  0.963692  -0.978612  0.93771  0.00572728  -0.00682939  -0.0280014  -0.0335419  0.0413057  0.000403935  -0.0430288  -0.038106  -0.00278617  0.35022  0.379253  0.0108253 
1701275752.514885000  0  0  17.0447  0.105583  0.0329939  0.00205341  nan  nan  nan  nan  nan  nan  -1.48778  -0.0122681  1.01213  0.103982  0.098273  0.00516017  0.137987  -0.139042  0.136115  0  0  0  0.970893  -0.986381  0.943941  0.00570104  -0.00673366  -0.0279069  -0.0337474  0.0417282  0.00159294  -0.0430894  -0.0372417  -0.0026304  0.30772  0.369557  0.0164373 
1701275752.519885000  0  0  17.0891  0.0938325  0.0237329  0.00230595  nan  nan  nan  nan  nan  nan  -1.48708  -0.0129757  1.01283  0.106106  0.0993408  0.00523707  0.142858  -0.143992  0.140849  0  0  0  0.977344  -0.9934  0.949421  0.00565859  -0.00659328  -0.0278204  -0.0347235  0.0439219  -0.000501873  -0.0434037  -0.036353  -0.00261205  0.332228  0.375806  0.0118679 
1701275752.524913000  0  0  17.0774  0.0916931  0.0275936  0.00238166  nan  nan  nan  nan  nan  nan  -1.48635  -0.0137081  1.01354  0.10729  0.100666  0.00524466  0.147759  -0.148975  0.145608  0  0  0  0.983044  -0.999669  0.954151  0.00548883  -0.00638724  -0.0277942  -0.0353808  0.0442201  0.000935379  -0.0428986  -0.0359261  -0.00248726  0.330225  0.364032  0.00819797 
1701275752.529998000  0  0  17.0976  0.0820899  0.0158886  0.00302954  nan  nan  nan  nan  nan  nan  -1.4856  -0.0144655  1.01428  0.109042  0.10157  0.00526192  0.152687  -0.153988  0.150389  0  0  0  0.987995  -1.00519  0.958132  0.00547941  -0.00626904  -0.0276712  -0.0361844  0.0459243  9.79791e-05  -0.0429243  -0.0349015  -0.00255204  0.347596  0.373065  -0.00136819 
1701275752.535343000  0  0  17.0628  0.0643904  0.0142652  0.00349346  nan  nan  nan  nan  nan  nan  -1.48482  -0.015248  1.01505  0.110128  0.102153  0.00517174  0.157638  -0.159026  0.155188  0  0  0  0.992196  -1.00996  0.961362  0.00543345  -0.00613643  -0.0274992  -0.036046  0.046241  0.00247548  -0.0419233  -0.0336135  -0.00252448  0.36756  0.361141  -0.00964399 
1701275752.539878000  0  0  17.0911  0.0736942  0.0171261  0.00320573  nan  nan  nan  nan  nan  nan  -1.48402  -0.0160558  1.01583  0.111622  0.103892  0.00524804  0.162608  -0.164086  0.160002  0  0  0  0.995646  -1.01398  0.963842  0.00519164  -0.0058535  -0.0275593  -0.0377535  0.0474364  0.0014328  -0.0419689  -0.0337792  -0.00243823  0.35154  0.357959  -0.0065036 
1701275752.544954000  0  0  17.1062  0.0371766  0.00885081  0.00317939  nan  nan  nan  nan  nan  nan  -1.4832  -0.0168889  1.01665  0.112696  0.104819  0.00518701  0.167593  -0.169164  0.164826  0  0  0  0.998347  -1.01724  0.965572  0.00508478  -0.0056818  -0.0274479  -0.0385799  0.0482853  0.000716797  -0.0406765  -0.0327883  -0.00232079  0.401615  0.36128  -0.0083283 
1701275752.549975000  0  0  17.0999  0.0464882  0.0174554  0.00274624  nan  nan  nan  nan  nan  nan  -1.48235  -0.0177474  1.01748  0.113449  0.106044  0.00512116  0.17259  -0.174257  0.169656  0  0  0  1.0003  -1.01976  0.966553  0.00489486  -0.00544993  -0.0274243  -0.0395415  0.0484247  0.00143936  -0.0397382  -0.0324247  -0.0021224  0.374268  0.341798  -0.0049227 
1701275752.554871000  0  0  17.1228  0.0321213  0.0081271  0.00258177  nan  nan  nan  nan  nan  nan  -1.48147  -0.0186315  1.01834  0.114747  0.107163  0.0050981  0.177595  -0.179361  0.17449  0  0  0  1.0015  -1.02153  0.966783  0.0047319  -0.0052291  -0.0273497  -0.0407753  0.049739  0.000195868  -0.0390474  -0.0317174  -0.00200147  0.391871  0.350253  -0.00450877 
1701275752.560345000  0  0  17.0968  0.00939979  0.00616364  0.00230739  nan  nan  nan  nan  nan  nan  -1.48057  -0.019541  1.01923  0.114559  0.107355  0.00480277  0.182604  -0.184471  0.179323  0  0  0  1.00195  -1.02255  0.966263  0.00465308  -0.0050907  -0.02716  -0.0405001  0.0487814  0.00149426  -0.0365912  -0.030131  -0.00173706  0.404032  0.335503  -0.00502624 
1701275752.564880000  0  0  17.121  0.00576807  0.0146301  0.0021416  nan  nan  nan  nan  nan  nan  -1.47965  -0.0204762  1.02014  0.115824  0.108821  0.0048065  0.187613  -0.189585  0.184151  0  0  0  1.00165  -1.02282  0.964993  0.00438321  -0.00477836  -0.0272433  -0.042179  0.0500278  0.000389486  -0.0360481  -0.0302456  -0.00156936  0.404245  0.321766  -0.00549203 
1701275752.569871000  0  0  17.0981  -0.0173669  0.0104209  0.00230398  nan  nan  nan  nan  nan  nan  -1.4787  -0.0214369  1.02107  0.116325  0.109451  0.0046254  0.192619  -0.194698  0.188971  0  0  0  1.0006  -1.02234  0.962974  0.00422181  -0.00457244  -0.027138  -0.0425584  0.0500961  0.00162667  -0.0343086  -0.0292792  -0.00139757  0.425381  0.318139  -0.0115149 
1701275752.574876000  0  0  17.068  -0.00558255  0.0165393  0.00221363  nan  nan  nan  nan  nan  nan  -1.47772  -0.0224231  1.02203  0.116708  0.1103  0.00445101  0.197618  -0.199807  0.19378  0  0  0  0.998801  -1.02111  0.960204  0.00400634  -0.00432809  -0.0271152  -0.0431491  0.0499269  0.00341499  -0.0330291  -0.0287332  -0.0011946  0.389714  0.300981  -0.0139201 
1701275752.579876000  0  0  17.0779  -0.0244307  0.0154613  0.00242669  nan  nan  nan  nan  nan  nan  -1.47672  -0.0234349  1.02301  0.117594  0.111079  0.00431954  0.202606  -0.204908  0.198572  0  0  0  0.996252  -1.01913  0.956684  0.0038185  -0.00410563  -0.0270274  -0.0441699  0.0510082  0.0025274  -0.031784  -0.0280465  -0.00108956  0.408913  0.295002  -0.0195018 
1701275752.585337000  0  0  17.0245  -0.0200369  0.0151131  0.00205747  nan  nan  nan  nan  nan  nan  -1.47569  -0.0244722  1.02401  0.117144  0.11116  0.00395029  0.207579  -0.209997  0.203345  0  0  0  0.992953  -1.0164  0.952415  0.00371625  -0.00397849  -0.0267829  -0.0438788  0.0499158  0.00497823  -0.0296185  -0.0266618  -0.000821439  0.3762  0.279698  -0.018508 
1701275752.589871000  0  0  17.0381  -0.0210483  0.0165651  0.00142591  nan  nan  nan  nan  nan  nan  -1.47464  -0.0255349  1.02504  0.118475  0.112246  0.00389406  0.212534  -0.215071  0.208095  0  0  0  0.988904  -1.01291  0.947395  0.00341459  -0.00364292  -0.0268642  -0.0452932  0.0515742  0.00415237  -0.0293079  -0.0265137  -0.000601693  0.374427  0.275413  -0.012202 
1701275752.594872000  0  0  16.976  -0.020069  0.0149064  0.00122067  nan  nan  nan  nan  nan  nan  -1.47357  -0.0266229  1.02609  0.118662  0.112353  0.00358743  0.217467  -0.220125  0.212818  0  0  0  0.984104  -1.00868  0.941625  0.00327748  -0.0034324  -0.0266144  -0.0450627  0.0512816  0.00703589  -0.0279407  -0.025443  -0.000470662  0.356964  0.266052  -0.0113023 
1701275752.599871000  0  0  16.9785  -0.00717744  0.0128581  0.000447856  nan  nan  nan  nan  nan  nan  -1.47247  -0.0277361  1.02717  0.118967  0.112905  0.00334068  0.222374  -0.225156  0.21751  0  0  0  0.978555  -1.0037  0.935105  0.00304748  -0.00317387  -0.0265929  -0.045949  0.0517662  0.00637224  -0.0269463  -0.0246956  -0.000131523  0.322606  0.2611  -0.00494031 
1701275752.604877000  0  0  16.9432  -0.0203013  0.0131146  0.000490401  nan  nan  nan  nan  nan  nan  -1.47135  -0.0288744  1.02827  0.119459  0.113221  0.00308156  0.227251  -0.230161  0.222168  0  0  0  0.972256  -0.997971  0.927836  0.00285648  -0.00295316  -0.0263997  -0.0463267  0.0523264  0.00760968  -0.0257845  -0.0239198  4.71867e-05  0.332585  0.251724  -0.00909614 
1701275752.610355000  0  0  16.89  -0.0012679  0.0146551  -0.000103896  nan  nan  nan  nan  nan  nan  -1.4702  -0.0300376  1.02939  0.11893  0.112974  0.00263208  0.232095  -0.235135  0.226787  0  0  0  0.965206  -0.99149  0.919816  0.00272578  -0.00279965  -0.0260945  -0.0459604  0.0515453  0.00946259  -0.0242607  -0.0226167  0.000354291  0.281218  0.234  -0.00509654 
1701275752.614878000  0  0  16.8952  -0.00669174  0.00931322  -0.00027592  nan  nan  nan  nan  nan  nan  -1.46902  -0.0312257  1.03053  0.120006  0.11357  0.00246094  0.236902  -0.240074  0.231365  0  0  0  0.957407  -0.984258  0.911046  0.00239445  -0.0024423  -0.026163  -0.0469726  0.0531811  0.00869266  -0.0240269  -0.0220907  0.00057698  0.288174  0.237451  -0.00651845 
1701275752.619878000  0  0  16.8543  0.00176244  0.0134239  -0.000524963  nan  nan  nan  nan  nan  nan  -1.46783  -0.0324383  1.0317  0.11988  0.113531  0.00206998  0.241668  -0.244976  0.235896  0  0  0  0.948858  -0.976277  0.901526  0.00215467  -0.00214644  -0.0260361  -0.0469466  0.0529294  0.0100974  -0.0229189  -0.021171  0.00081021  0.2604  0.219566  -0.00685793 
1701275752.624873000  0  0  16.842  0.0125427  0.0086234  -0.000156885  nan  nan  nan  nan  nan  nan  -1.46661  -0.0336754  1.03289  0.120289  0.113641  0.00175213  0.246389  -0.249836  0.240379  0  0  0  0.939559  -0.967546  0.891257  0.00191522  -0.00187321  -0.0259906  -0.0474998  0.0538569  0.00989982  -0.0224004  -0.0202078  0.000981692  0.235269  0.217027  -0.0163086 
1701275752.629878000  0  0  16.8105  0.0092857  0.00244481  0.000195253  nan  nan  nan  nan  nan  nan  -1.46536  -0.0349366  1.03411  0.120482  0.113468  0.00136911  0.251062  -0.25465  0.244808  0  0  0  0.929509  -0.958065  0.880237  0.00166374  -0.00156252  -0.0258771  -0.0475305  0.0542983  0.0106247  -0.0215236  -0.0190088  0.00111781  0.230979  0.214227  -0.0248112 
1701275752.635347000  0  0  16.7716  0.0279119  0.00817773  0.000881886  nan  nan  nan  nan  nan  nan  -1.4641  -0.0362218  1.03534  0.120287  0.11298  0.000897445  0.255683  -0.259415  0.24918  0  0  0  0.91871  -0.947834  0.868467  0.00149949  -0.00131649  -0.0256617  -0.04735  0.0543829  0.0114152  -0.0207383  -0.0177841  0.0011202  0.188829  0.18995  -0.0363194 
1701275752.639877000  0  0  16.7708  0.0222874  0.00410926  0.0010057  nan  nan  nan  nan  nan  nan  -1.46281  -0.0375307  1.0366  0.120973  0.113208  0.000606535  0.260248  -0.264127  0.253491  0  0  0  0.907161  -0.936853  0.855948  0.00115834  -0.000937287  -0.0257388  -0.0482128  0.0558348  0.0105994  -0.0204904  -0.0171375  0.00122211  0.19598  0.18975  -0.0403512 
1701275752.644874000  0  0  16.7331  0.042379  0.00537489  0.000443838  nan  nan  nan  nan  nan  nan  -1.46149  -0.038863  1.03788  0.120413  0.112603  6.6561e-05  0.264753  -0.268782  0.257738  0  0  0  0.894862  -0.925122  0.842678  0.000905518  -0.000619668  -0.0256527  -0.0478524  0.0554439  0.0114182  -0.0195796  -0.0158524  0.00144391  0.149779  0.172722  -0.0352483 
1701275752.649878000  0  0  16.7306  0.0347856  -0.00244866  0.000262183  nan  nan  nan  nan  nan  nan  -1.46016  -0.0402184  1.03918  0.120507  0.112199  -0.000380729  0.269195  -0.273377  0.261917  0  0  0  0.881812  -0.912641  0.828658  0.000667256  -0.000333279  -0.0256101  -0.0482379  0.0564809  0.010155  -0.0189068  -0.0145693  0.0016461  0.155546  0.17188  -0.0361142 
1701275752.654871000  0  0  16.7  0.0366027  -0.00583786  -0.000441089  nan  nan  nan  nan  nan  nan  -1.4588  -0.0415966  1.0405  0.119926  0.111373  -0.000961166  0.27357  -0.277908  0.266023  0  0  0  0.868013  -0.899409  0.813888  0.000412669  -4.76047e-06  -0.025515  -0.0478202  0.0563014  0.0103371  -0.0179912  -0.0131507  0.00189076  0.141786  0.161595  -0.0290916 
1701275752.660333000  0  0  16.6879  0.0472573  -0.0106359  -0.000558914  nan  nan  nan  nan  nan  nan  -1.45742  -0.0429974  1.04184  0.119702  0.110736  -0.00148448  0.277874  -0.28237  0.270054  0  0  0  0.853464  -0.885428  0.798369  0.00021303  0.000282598  -0.0253564  -0.0480691  0.0569933  0.00919741  -0.0175619  -0.0118485  0.00201934  0.117905  0.155153  -0.0296037 
1701275752.664851000  0  0  16.6679  0.0337406  -0.0169638  -0.000616214  nan  nan  nan  nan  nan  nan  -1.45602  -0.0444202  1.0432  0.119228  0.110078  -0.00204402  0.282104  -0.286761  0.274006  0  0  0  0.838164  -0.870697  0.782099  -0.00013695  0.000675993  -0.0254416  -0.0479495  0.0570986  0.00901555  -0.0164309  -0.0104912  0.0023069  0.128935  0.150799  -0.0341916 
1701275752.669875000  0  0  16.6307  0.0515271  -0.015196  -0.00108887  nan  nan  nan  nan  nan  nan  -1.4546  -0.0458648  1.04458  0.118371  0.109028  -0.00269801  0.286255  -0.291076  0.277874  0  0  0  0.822115  -0.855216  0.765079  -0.000392643  0.001029  -0.0253855  -0.0474475  0.056704  0.00942131  -0.015629  -0.00902476  0.00257827  0.0880865  0.130793  -0.0315336 
1701275752.674824000  0  0  16.6251  0.0321794  -0.0248939  -0.00118268  nan  nan  nan  nan  nan  nan  -1.45316  -0.0473308  1.04597  0.117861  0.108097  -0.00330445  0.290323  -0.295312  0.281655  0  0  0  0.805316  -0.838985  0.74731  -0.000645194  0.00133385  -0.0253593  -0.047502  0.05731  0.00790817  -0.0144766  -0.00741343  0.00286912  0.109239  0.12951  -0.0355752 
1701275752.679868000  0  0  16.5925  0.0432364  -0.0222804  -0.00145811  nan  nan  nan  nan  nan  nan  -1.4517  -0.0488178  1.04739  0.11631  0.106627  -0.00409178  0.294307  -0.299464  0.285346  0  0  0  0.787767  -0.822004  0.72879  -0.000891205  0.00165399  -0.0253068  -0.0466765  0.0562839  0.00777323  -0.0130215  -0.00567443  0.00318533  0.0728463  0.104867  -0.0370743 
1701275752.685341000  0  0  16.5663  0.0389729  -0.0280186  -0.00119443  nan  nan  nan  nan  nan  nan  -1.45022  -0.0503253  1.04883  0.115504  0.105322  -0.00478227  0.2982  -0.30353  0.288942  0  0  0  0.769467  -0.804273  0.70952  -0.00105038  0.00189222  -0.0251466  -0.0464477  0.0566362  0.00702054  -0.0120092  -0.00393531  0.00337395  0.0687872  0.0950727  -0.0451126 
1701275752.689880000  0  0  16.5384  0.0194764  -0.0337186  -0.00129507  nan  nan  nan  nan  nan  nan  -1.44872  -0.051853  1.05028  0.113931  0.10393  -0.00556752  0.302  -0.307506  0.29244  0  0  0  0.750418  -0.785792  0.6895  -0.00139438  0.00228222  -0.0252423  -0.045744  0.0556522  0.00679683  -0.0100062  -0.00218031  0.00374052  0.0804243  0.0850285  -0.0505001 
1701275752.694876000  0  0  16.5052  0.0247571  -0.030824  -0.0015254  nan  nan  nan  nan  nan  nan  -1.4472  -0.0534002  1.05175  0.112716  0.102761  -0.00629245  0.305703  -0.311387  0.295836  0  0  0  0.730619  -0.76656  0.668731  -0.00168267  0.00262852  -0.0252104  -0.0455385  0.0553093  0.00660096  -0.00884475  -0.000878707  0.00400481  0.0576791  0.0649147  -0.0517508 
1701275752.699886000  0  0  16.4661  0.000420845  -0.0398238  -0.00179659  nan  nan  nan  nan  nan  nan  -1.44566  -0.0549667  1.05324  0.111159  0.101228  -0.00709633  0.309305  -0.31517  0.299126  0  0  0  0.710069  -0.746579  0.647211  -0.00191182  0.00290398  -0.0251768  -0.0450248  0.0547148  0.00662812  -0.00679204  0.000967877  0.00437174  0.0773504  0.059685  -0.0542984 
1701275752.704874000  0  0  16.4308  0.000298113  -0.0334722  -0.00227479  nan  nan  nan  nan  nan  nan  -1.44411  -0.0565518  1.05474  0.10903  0.0994517  -0.00798555  0.312802  -0.318852  0.302307  0  0  0  0.68877  -0.725848  0.624941  -0.00218668  0.00325445  -0.0251718  -0.0442095  0.0532992  0.00632205  -0.0046897  0.00266751  0.00479861  0.0533948  0.0288473  -0.054546 
1701275752.709991000  0  0  16.3951  -0.0262424  -0.0388645  -0.0023917  nan  nan  nan  nan  nan  nan  -1.44253  -0.058155  1.05626  0.107118  0.0975983  -0.00886028  0.316191  -0.322427  0.305374  0  0  0  0.666721  -0.704367  0.601921  -0.00238603  0.00349337  -0.0251118  -0.0435714  0.0525445  0.00586277  -0.00233411  0.0045533  0.00517374  0.0735028  0.0167519  -0.059827 
1701275752.714948000  0  0  16.3451  -0.0285121  -0.0370312  -0.00272439  nan  nan  nan  nan  nan  nan  -1.44094  -0.0597759  1.0578  0.10464  0.0956785  -0.00979573  0.319468  -0.325894  0.308325  0  0  0  0.643922  -0.682136  0.578152  -0.00266381  0.00380457  -0.0250789  -0.0426564  0.0508216  0.00622371  0.00010277  0.00628825  0.00558175  0.0495182  -0.00645744  -0.0621399 
1701275752.719943000  0  0  16.3091  -0.0362696  -0.0312051  -0.00295058  nan  nan  nan  nan  nan  nan  -1.43934  -0.0614138  1.05935  0.103255  0.0944562  -0.0105525  0.322629  -0.329248  0.311154  0  0  0  0.620372  -0.659155  0.553632  -0.00297105  0.00416463  -0.0250867  -0.0428344  0.0506884  0.00592978  0.00148392  0.00706618  0.00583496  0.0474312  -0.0257624  -0.0632461 
1701275752.724885000  0  0  16.2485  -0.0573624  -0.0381514  -0.0035474  nan  nan  nan  nan  nan  nan  -1.43772  -0.0630682  1.06091  0.100616  0.0919856  -0.0115554  0.325671  -0.332484  0.31386  0  0  0  0.596073  -0.635424  0.528362  -0.00319545  0.00442892  -0.0250666  -0.0414389  0.0489807  0.00677872  0.00437534  0.00930298  0.00633586  0.0516911  -0.0391306  -0.062941 
1701275752.729995000  0  0  16.2141  -0.0397084  -0.0253483  -0.00413448  nan  nan  nan  nan  nan  nan  -1.43608  -0.0647384  1.06248  0.0986415  0.0903424  -0.0124099  0.328589  -0.335601  0.316437  0  0  0  0.571024  -0.610943  0.502343  -0.0035006  0.0047798  -0.0251369  -0.0412828  0.0482918  0.0062911  0.00571935  0.010068  0.00663588  0.00484474  -0.0706938  -0.0589252 
1701275752.735332000  0  0  16.1597  -0.0591347  -0.0285558  -0.004351  nan  nan  nan  nan  nan  nan  -1.43443  -0.0664239  1.06407  0.0962409  0.0881949  -0.0133506  0.33138  -0.338592  0.318882  0  0  0  0.545224  -0.585711  0.475636  -0.00366324  0.00496954  -0.0250431  -0.0407534  0.0473531  0.00651809  0.00807153  0.0115834  0.00702932  0.0123416  -0.082415  -0.0628965 
1701275752.739860000  0  0  16.1103  -0.0508274  -0.0230545  -0.00432058  nan  nan  nan  nan  nan  nan  -1.43277  -0.0681241  1.06567  0.0933035  0.0857088  -0.0143653  0.33404  -0.341456  0.321194  0  0  0  0.518675  -0.55973  0.4493  -0.00399625  0.00533555  -0.0251639  -0.0395185  0.0454175  0.00688117  0.0105262  0.0133573  0.00745033  -0.0306554  -0.112595  -0.0715216 
1701275752.744869000  0  0  16.0788  -0.0513573  -0.0212297  -0.00386739  nan  nan  nan  nan  nan  nan  -1.43109  -0.0698383  1.06728  0.091406  0.0838095  -0.0152306  0.336565  -0.344189  0.323376  0  0  0  0.491467  -0.532999  0.423715  -0.00428984  0.00561394  -0.0252328  -0.0393803  0.0453333  0.00625191  0.011812  0.0143689  0.00760561  -0.0444984  -0.127472  -0.0820806 
1701275752.749876000  0  0  16.0128  -0.0582411  -0.0331775  -0.00383251  nan  nan  nan  nan  nan  nan  -1.4294  -0.0715658  1.06891  0.0881141  0.0808401  -0.0163043  0.338955  -0.346785  0.325432  0  0  0  0.464691  -0.505552  0.398879  -0.00448104  0.00583178  -0.0252005  -0.0378071  0.0433592  0.00738074  0.0146439  0.0166592  0.00794434  -0.0648206  -0.132561  -0.0891937 
1701275752.754871000  0  0  15.9799  -0.0438969  -0.0266146  -0.00387422  nan  nan  nan  nan  nan  nan  -1.4277  -0.0733059  1.07054  0.085263  0.0785365  -0.0172731  0.341213  -0.349245  0.327366  0  0  0  0.438664  -0.478389  0.374793  -0.00473943  0.00610873  -0.0252633  -0.0371128  0.042065  0.00685431  0.0164021  0.017784  0.00818403  -0.110544  -0.157165  -0.0931188 
1701275752.760325000  0  0  15.928  -0.0566075  -0.035005  -0.00314022  nan  nan  nan  nan  nan  nan  -1.42599  -0.075058  1.07218  0.0827278  0.0759141  -0.0182371  0.343343  -0.35157  0.329181  0  0  0  0.413388  -0.451976  0.351458  -0.00485082  0.00623509  -0.0251632  -0.0361429  0.0413284  0.00723172  0.0181113  0.0192406  0.00821091  -0.107596  -0.158994  -0.10589 
1701275752.764851000  0  0  15.8831  -0.0330132  -0.0346618  -0.00328633  nan  nan  nan  nan  nan  nan  -1.42427  -0.0768214  1.07383  0.0796784  0.0732198  -0.0192375  0.345349  -0.353766  0.330882  0  0  0  0.388861  -0.426314  0.328872  -0.0051703  0.00658076  -0.0252867  -0.0345669  0.0393513  0.00770501  0.0199268  0.0209678  0.00846462  -0.170426  -0.179465  -0.108343 
1701275752.769862000  0  0  15.8698  -0.0308904  -0.0230528  -0.0031203  nan  nan  nan  nan  nan  nan  -1.42254  -0.0785955  1.07549  0.0782753  0.071822  -0.0200095  0.347233  -0.355835  0.332471  0  0  0  0.365085  -0.401401  0.307037  -0.00548839  0.00690305  -0.0254227  -0.0347922  0.0397574  0.00658512  0.0202027  0.0209978  0.00844645  -0.177373  -0.200453  -0.110764 
1701275752.774861000  0  0  15.8173  -0.0290731  -0.0233426  -0.00342256  nan  nan  nan  nan  nan  nan  -1.4208  -0.0803795  1.07715  0.0750118  0.06867  -0.021047  0.349001  -0.357781  0.333954  0  0  0  0.342058  -0.377238  0.285951  -0.0056546  0.00709408  -0.025382  -0.0327899  0.0376418  0.00726874  0.0222915  0.0228724  0.00870381  -0.204623  -0.221493  -0.11068 
1701275752.779880000  0  0  15.7977  0.00126437  -0.0164067  -0.0037221  nan  nan  nan  nan  nan  nan  -1.41905  -0.0821731  1.07883  0.0732448  0.0669599  -0.021866  0.350655  -0.359608  0.335332  0  0  0  0.319782  -0.353825  0.265616  -0.00593649  0.00738372  -0.0255096  -0.0324931  0.0374153  0.00664534  0.0221246  0.0230012  0.00874856  -0.256649  -0.235307  -0.106542 
1701275752.785338000  0  0  15.7581  0.000300592  -0.00748565  -0.00360674  nan  nan  nan  nan  nan  nan  -1.41729  -0.0839754  1.08051  0.0712008  0.0648397  -0.0227324  0.3522  -0.36132  0.336611  0  0  0  0.298256  -0.331163  0.24603  -0.00608012  0.00753483  -0.0254704  -0.0318031  0.0369349  0.00691142  0.0225551  0.0233447  0.00875566  -0.259885  -0.25512  -0.108605 
1701275752.789883000  0  0  15.7389  0.0302274  0.00485646  -0.00394553  nan  nan  nan  nan  nan  nan  -1.41553  -0.0857861  1.08219  0.0685015  0.062385  -0.0236606  0.353639  -0.362921  0.337794  0  0  0  0.277479  -0.30925  0.227195  -0.00637719  0.00786079  -0.0255969  -0.0303514  0.0352005  0.00626702  0.0233378  0.0242117  0.00901646  -0.322101  -0.287035  -0.107978 
1701275752.794862000  0  0  15.7409  0.031018  0.00375898  -0.00419884  nan  nan  nan  nan  nan  nan  -1.41376  -0.0876045  1.08389  0.0669609  0.0608119  -0.024453  0.354976  -0.364414  0.338884  0  0  0  0.257453  -0.288087  0.209109  -0.00661351  0.00809806  -0.0256454  -0.0301963  0.0352534  0.00436065  0.023088  0.0241349  0.00910462  -0.320635  -0.284201  -0.105449 
1701275752.799867000  0  0  15.6941  0.0384138  0.0142359  -0.00459769  nan  nan  nan  nan  nan  nan  -1.41198  -0.0894301  1.08558  0.0637925  0.0577508  -0.0254385  0.356215  -0.365803  0.339886  0  0  0  0.238176  -0.267674  0.191773  -0.00675576  0.00826167  -0.0256067  -0.0280328  0.0329366  0.00515894  0.0243717  0.0253484  0.00938799  -0.348547  -0.316784  -0.104255 
1701275752.804849000  0  0  15.7004  0.0542753  0.025001  -0.00440468  nan  nan  nan  nan  nan  nan  -1.41019  -0.0912623  1.08728  0.0620827  0.0560024  -0.0262492  0.357359  -0.367092  0.340803  0  0  0  0.21965  -0.248012  0.175188  -0.00698625  0.00849813  -0.0256772  -0.0275096  0.0325948  0.00317591  0.0238795  0.0251221  0.00945083  -0.371091  -0.333324  -0.108688 
1701275752.809811000  0  0  15.7026  0.0464213  0.0213342  -0.00359268  nan  nan  nan  nan  nan  nan  -1.4084  -0.0931008  1.08899  0.0602559  0.0539848  -0.0270828  0.358412  -0.368285  0.341639  0  0  0  0.201873  -0.229099  0.159352  -0.00722837  0.00876157  -0.0258046  -0.0264978  0.031907  0.00161696  0.0239623  0.0253782  0.00942627  -0.358078  -0.32975  -0.121769 
1701275752.814870000  0  0  15.7022  0.0599985  0.0247504  -0.00302721  nan  nan  nan  nan  nan  nan  -1.40661  -0.094945  1.0907  0.0573173  0.0512664  -0.0280132  0.359379  -0.369384  0.342398  0  0  0  0.184847  -0.210936  0.144267  -0.00733362  0.00889405  -0.0257901  -0.0248298  0.0299393  -0.000159163  0.0247357  0.0261694  0.00945483  -0.391114  -0.344921  -0.13176 
1701275752.820002000  0  0  15.7029  0.0497876  0.0222652  -0.00262456  nan  nan  nan  nan  nan  nan  -1.40481  -0.0967945  1.09241  0.0557748  0.0498022  -0.0287961  0.360262  -0.370395  0.343083  0  0  0  0.16857  -0.193523  0.129931  -0.00750319  0.00907129  -0.0258292  -0.0245249  0.0296441  -0.00159944  0.0244354  0.0258248  0.0093987  -0.369504  -0.336541  -0.137399 
1701275752.824866000  0  0  15.691  0.0573361  0.0271501  -0.00279853  nan  nan  nan  nan  nan  nan  -1.40301  -0.0986488  1.09413  0.0527881  0.0470453  -0.0297188  0.361066  -0.371321  0.343699  0  0  0  0.153044  -0.176861  0.116346  -0.00765975  0.00925428  -0.0258883  -0.0224638  0.0272384  -0.00232813  0.0253975  0.026671  0.00951539  -0.393989  -0.354956  -0.136745 
1701275752.829875000  0  0  15.7042  0.0515715  0.0264967  -0.00259799  nan  nan  nan  nan  nan  nan  -1.4012  -0.100508  1.09585  0.0510343  0.0453813  -0.0305208  0.361794  -0.372165  0.344248  0  0  0  0.138268  -0.160948  0.10351  -0.00783542  0.00945226  -0.0259755  -0.0217562  0.0264701  -0.00432475  0.0252306  0.0264486  0.00949907  -0.38182  -0.351237  -0.139778 
1701275752.835292000  0  0  15.6791  0.0409039  0.0212231  -0.00249906  nan  nan  nan  nan  nan  nan  -1.39939  -0.10237  1.09757  0.0483527  0.0428042  -0.0314079  0.36245  -0.372932  0.344735  0  0  0  0.124241  -0.145785  0.0914246  -0.00785798  0.00949711  -0.0259397  -0.0200228  0.024553  -0.00422853  0.0260208  0.027069  0.00949967  -0.371937  -0.348994  -0.141441 
1701275752.839869000  0  0  15.6844  0.0587626  0.0345293  -0.00249411  nan  nan  nan  nan  nan  nan  -1.39758  -0.104237  1.0993  0.0457606  0.0406064  -0.0322665  0.363037  -0.373624  0.345163  0  0  0  0.110965  -0.131372  0.0800891  -0.00809489  0.00975935  -0.0261194  -0.0182918  0.0222771  -0.00545205  0.0264944  0.0272748  0.00959685  -0.409139  -0.375021  -0.143397 
1701275752.844862000  0  0  15.7072  0.0371469  0.0284338  -0.0023503  nan  nan  nan  nan  nan  nan  -1.39576  -0.106106  1.10102  0.0442424  0.0388271  -0.0330601  0.363561  -0.374247  0.345537  0  0  0  0.0984383  -0.11771  0.0695035  -0.00825074  0.00992742  -0.0262718  -0.0172245  0.0216228  -0.00766831  0.0263677  0.0271524  0.00956157  -0.369245  -0.362774  -0.145117 
1701275752.849863000  0  0  15.6987  0.0404393  0.0195796  -0.0029327  nan  nan  nan  nan  nan  nan  -1.39394  -0.107979  1.10275  0.0409895  0.0362009  -0.0339536  0.364023  -0.374803  0.34586  0  0  0  0.0866618  -0.104797  0.059668  -0.00833072  0.0100209  -0.0263117  -0.0151098  0.01861  -0.008249  0.0276183  0.0279802  0.0097048  -0.389479  -0.356549  -0.138157 
1701275752.854850000  0  0  15.7072  0.0401346  0.0307988  -0.00293817  nan  nan  nan  nan  nan  nan  -1.39212  -0.109854  1.10448  0.0392588  0.0344769  -0.0347496  0.364428  -0.375296  0.346135  0  0  0  0.0756354  -0.092634  0.0505824  -0.00845375  0.0101691  -0.0264728  -0.0139742  0.0174696  -0.00938646  0.0273785  0.0275923  0.00973223  -0.386181  -0.372038  -0.138594 
1701275752.860364000  0  0  15.7117  0.0212494  0.0237224  -0.00276514  nan  nan  nan  nan  nan  nan  -1.3903  -0.111732  1.10621  0.0366628  0.0320163  -0.0356014  0.364781  -0.37573  0.346367  0  0  0  0.065359  -0.0812213  0.0422469  -0.00838049  0.0101053  -0.026478  -0.012276  0.0155534  -0.0106544  0.0281946  0.0279516  0.009702  -0.361983  -0.363586  -0.1409 
1701275752.864856000  0  0  15.7194  0.0350249  0.0192112  -0.0032743  nan  nan  nan  nan  nan  nan  -1.38847  -0.113612  1.10795  0.0343849  0.0301573  -0.0364164  0.365083  -0.376109  0.346559  0  0  0  0.0558325  -0.0705585  0.0346614  -0.00862183  0.0103579  -0.0267143  -0.0105186  0.0132316  -0.0114665  0.0285491  0.0281881  0.00988078  -0.390554  -0.358283  -0.135847 
1701275752.869855000  0  0  15.7446  0.0112035  0.024469  -0.00317503  nan  nan  nan  nan  nan  nan  -1.38664  -0.115493  1.10968  0.0326747  0.0284966  -0.0372067  0.36534  -0.376437  0.346715  0  0  0  0.0470561  -0.0606458  0.0278258  -0.00872229  0.0104466  -0.0269261  -0.00928246  0.0120119  -0.0133201  0.0287357  0.027853  0.00990764  -0.350341  -0.363781  -0.138022 
1701275752.874850000  0  0  15.759  0.0139682  0.0157034  -0.0030319  nan  nan  nan  nan  nan  nan  -1.38482  -0.117376  1.11141  0.0299032  0.0262369  -0.0380439  0.365555  -0.376717  0.346838  0  0  0  0.0390297  -0.051483  0.0217403  -0.00875803  0.0104978  -0.0269998  -0.00734235  0.00931578  -0.0148234  0.0296652  0.028336  0.00994901  -0.365946  -0.353747  -0.141209 
1701275752.879872000  0  0  15.7763  0.0166809  0.0118359  -0.00266701  nan  nan  nan  nan  nan  nan  -1.38299  -0.11926  1.11315  0.0279008  0.0243348  -0.0388464  0.365732  -0.376953  0.346933  0  0  0  0.0317532  -0.0430703  0.0164047  -0.00880187  0.0105428  -0.0271703  -0.00572897  0.00757239  -0.0161424  0.0297604  0.028432  0.00992225  -0.371864  -0.347974  -0.146785 
1701275752.885386000  0  0  15.7672  -0.00508024  0.00770304  -0.00229517  nan  nan  nan  nan  nan  nan  -1.38116  -0.121145  1.11488  0.0249129  0.0216801  -0.0396884  0.365874  -0.377149  0.347003  0  0  0  0.0252268  -0.0354075  0.0118192  -0.00863157  0.010357  -0.0271654  -0.00354306  0.00487719  -0.016205  0.0310514  0.0290689  0.00984001  -0.348013  -0.347948  -0.151406 
1701275752.889863000  0  0  15.7825  0.0191257  0.0104981  -0.0023162  nan  nan  nan  nan  nan  nan  -1.37933  -0.123032  1.11662  0.0231921  0.0202849  -0.0404675  0.365985  -0.377308  0.347053  0  0  0  0.0194503  -0.0284948  0.0079836  -0.00883691  0.0105727  -0.0274298  -0.00200996  0.00291407  -0.01698  0.0307808  0.0288076  0.00990323  -0.387944  -0.349914  -0.152274 
1701275752.895422000  0  0  15.7691  0.0109392  0.012898  -0.00169371  nan  nan  nan  nan  nan  nan  -1.3775  -0.124918  1.11835  0.0211556  0.0180718  -0.0412712  0.36607  -0.377435  0.347085  0  0  0  0.0144239  -0.022332  0.0048981  -0.00863456  0.0103737  -0.0274681  -0.000252907  0.00133121  -0.0164249  0.0309088  0.0288734  0.0097135  -0.374859  -0.354938  -0.159007 
1701275752.899863000  0  0  15.7834  0.0256985  0.0140376  -0.00199974  nan  nan  nan  nan  nan  nan  -1.37567  -0.126806  1.12009  0.0195403  0.0167931  -0.0420473  0.366131  -0.377533  0.347103  0  0  0  0.0101475  -0.0169193  0.0025625  -0.00883649  0.0105849  -0.0277458  0.00130856  -0.000674822  -0.0169574  0.0306623  0.0285269  0.00979775  -0.398269  -0.35298  -0.155523 
1701275752.904870000  0  0  15.811  0.0289247  0.0171898  -0.00176775  nan  nan  nan  nan  nan  nan  -1.37384  -0.128694  1.12182  0.0180694  0.0153497  -0.0428262  0.366172  -0.377606  0.347111  0  0  0  0.006621  -0.0122565  0.000977  -0.0088161  0.0105748  -0.0279457  0.00263982  -0.00204532  -0.0184196  0.0302134  0.0281002  0.00974585  -0.398844  -0.353679  -0.158395 
1701275752.909880000  0  0  15.7887  0.0265782  0.0222168  -0.0017598  nan  nan  nan  nan  nan  nan  -1.37201  -0.130582  1.12356  0.0164328  0.0139425  -0.0436089  0.366198  -0.377657  0.347114  0  0  0  0.0038446  -0.0083438  0.0001414  -0.00879598  0.010557  -0.0280243  0.00406585  -0.00379047  -0.0169386  0.0300253  0.0276097  0.00972008  -0.392509  -0.356977  -0.158031 
