ts fx fy fz tx ty tz exfx exfy exfz extx exty extz xd yd zd rolld pitchd yawd vxd vyd vzd wxd wyd wzd axd ayd azd e_x e_y e_z e_vx e_vy e_vz e_rx e_ry e_rz e_wx e_wy e_wz
1699965125.876426000  0  0  11.6463  0.0976923  -0.0903478  -8.64522e-05  nan  nan  nan  nan  nan  nan  -1  0  1  0.0113794  -0.0231227  -0.000263111  0  0  0  0  0  0  0  0  0  0.0182426  -0.00373436  -0.0163363  -0.010605  0.0230223  -0.0079163  -0.0228357  0.0187901  -0.000254865  0.0147036  0.0078264  0.00362931 
1699965125.880427000  0  0  11.6254  0.083661  -0.0893671  0.000163606  nan  nan  nan  nan  nan  nan  -1  0  1  0.0108409  -0.0232226  -0.000251741  0  0  0  0  0  0  0  0  0  0.0182509  -0.00382351  -0.0163475  -0.0105489  0.022498  -0.00613445  -0.0219455  0.018841  -0.000304612  0.034577  0.00539713  0.00100104 
1699965125.885424000  0  0  11.6878  0.0698286  -0.0933768  -6.59127e-05  nan  nan  nan  nan  nan  nan  -1  0  1  0.0100729  -0.0231956  -0.000233634  0  0  0  0  0  0  0  0  0  0.0182415  -0.00388466  -0.0164111  -0.010403  0.0217116  -0.0111879  -0.0207746  0.0189244  -0.000280233  0.0514686  0.0126491  0.00362624 
1699965125.890356000  0  0  11.6813  0.082179  -0.0959683  -3.15031e-06  nan  nan  nan  nan  nan  nan  -1  0  1  0.0103704  -0.023377  -0.000242414  0  0  0  0  0  0  0  0  0  0.018194  -0.00377959  -0.0164539  -0.0100783  0.0218569  -0.0105637  -0.0210845  0.0191866  -0.00027333  0.0296198  0.0154197  0.00277268 
1699965125.895490000  0  0  11.6054  0.0771147  -0.105583  5.75821e-05  nan  nan  nan  nan  nan  nan  -1  0  1  0.0100413  -0.0236641  -0.000237604  0  0  0  0  0  0  0  0  0  0.0181939  -0.0038546  -0.0164351  -0.00990526  0.0215118  -0.00426996  -0.0204943  0.0196936  -0.000277561  0.034318  0.029985  0.00205583 
1699965125.900418000  0  0  11.6654  0.0682298  -0.111596  0.000280141  nan  nan  nan  nan  nan  nan  -1  0  1  0.0105168  -0.0234157  -0.000246244  0  0  0  0  0  0  0  0  0  0.0181447  -0.0037483  -0.0165058  -0.00996005  0.0219588  -0.00912458  -0.0205807  0.0197408  -0.000300029  0.0528828  0.0415773  -0.000501473 
1699965125.905371000  0  0  11.6323  0.0697397  -0.107905  0.000130161  nan  nan  nan  nan  nan  nan  -1  0  1  0.0098069  -0.0239296  -0.00023466  0  0  0  0  0  0  0  0  0  0.0181497  -0.00383386  -0.0164914  -0.00939344  0.0211925  -0.00638237  -0.0197028  0.0202739  -0.000285279  0.041786  0.0292904  0.00122577 
1699965125.910417000  0  0  11.5687  0.0927182  -0.115344  -0.000266869  nan  nan  nan  nan  nan  nan  -1  0  1  0.0108129  -0.0236847  -0.000256088  0  0  0  0  0  0  0  0  0  0.0180992  -0.00372205  -0.016478  -0.00976385  0.0221682  -0.0011341  -0.020934  0.0203502  -0.000215037  0.00715643  0.0434666  0.00548624 
1699965125.915380000  0  0  11.6139  0.0806205  -0.11466  -0.000283844  nan  nan  nan  nan  nan  nan  -1  0  1  0.0101605  -0.0236407  -0.000240188  0  0  0  0  0  0  0  0  0  0.0181059  -0.00379598  -0.0165111  -0.00971751  0.0215447  -0.00481832  -0.01999  0.0204527  -0.000199148  0.0226666  0.0411546  0.00553953 
1699965125.920448000  0  0  11.5465  0.0916577  -0.11067  -0.000711042  nan  nan  nan  nan  nan  nan  -1  0  1  0.00954226  -0.0243271  -0.00023212  0  0  0  0  0  0  0  0  0  0.0181231  -0.00385905  -0.016473  -0.00905181  0.0208155  0.000718614  -0.0194904  0.0211029  -0.000122814  -0.00400405  0.0271927  0.0101162 
1699965125.925371000  0  0  11.5137  0.104202  -0.114905  -0.00111908  nan  nan  nan  nan  nan  nan  -1  0  1  0.0104208  -0.0237393  -0.000247369  0  0  0  0  0  0  0  0  0  0.0180727  -0.00375317  -0.0164591  -0.00977985  0.0216697  0.00340396  -0.0205752  0.020797  -1.40713e-05  -0.0191112  0.0384774  0.0141292 
1699965125.930420000  0  0  11.5787  0.087429  -0.101621  -0.000291788  nan  nan  nan  nan  nan  nan  -1  0  1  0.00995036  -0.0239345  -0.000238142  0  0  0  0  0  0  0  0  0  0.0180738  -0.00381179  -0.0164835  -0.00936039  0.0212698  -0.00194662  -0.0198241  0.0208403  -6.70743e-05  0.00752393  0.0115109  0.0043181 
1699965125.935423000  0  0  11.5485  0.0994806  -0.102636  -0.000958579  nan  nan  nan  nan  nan  nan  -1  0  1  0.0092427  -0.02439  -0.000225414  0  0  0  0  0  0  0  0  0  0.0180811  -0.00389024  -0.016445  -0.00887263  0.0205025  0.000497369  -0.0194031  0.0212804  3.73937e-05  -0.020453  0.00949199  0.0116083 
1699965125.940424000  0  0  11.5466  0.117792  -0.101905  -0.00104969  nan  nan  nan  nan  nan  nan  -1  0  1  0.010142  -0.0235875  -0.00023921  0  0  0  0  0  0  0  0  0  0.0180292  -0.00378413  -0.0164434  -0.00979152  0.0214189  0.000630144  -0.0207293  0.0206068  0.000110998  -0.0448745  0.0142283  0.0120111 
1699965125.945417000  0  0  11.584  0.104955  -0.0852924  -0.000189322  nan  nan  nan  nan  nan  nan  -1  0  1  0.00984134  -0.0235636  -0.000231883  0  0  0  0  0  0  0  0  0  0.0180304  -0.00384587  -0.0164462  -0.00972741  0.0212113  -0.00247321  -0.0203741  0.0202582  3.4673e-05  -0.0224677  -0.0157907  0.0020198 
1699965125.950422000  0  0  11.5421  0.13975  -0.0897378  -0.000979565  nan  nan  nan  nan  nan  nan  -1  0  1  0.0105958  -0.0235952  -0.000249996  0  0  0  0  0  0  0  0  0  0.0179845  -0.00373931  -0.0164227  -0.00969326  0.0218964  0.000945077  -0.0218603  0.0202554  0.000156474  -0.0783844  -0.00687408  0.0106798 
1699965125.955424000  0  0  11.5272  0.142616  -0.0882814  -0.0014325  nan  nan  nan  nan  nan  nan  -1  0  1  0.0104476  -0.02305  -0.000240803  0  0  0  0  0  0  0  0  0  0.0179526  -0.00378043  -0.0163865  -0.0103604  0.0217807  0.00210472  -0.0221608  0.0197087  0.000249503  -0.081353  -0.00475737  0.0154113 
1699965125.960421000  0  0  11.5783  0.124806  -0.0648189  -0.00077127  nan  nan  nan  nan  nan  nan  -1  0  1  0.0105302  -0.0232304  -0.000244608  0  0  0  0  0  0  0  0  0  0.0179515  -0.00378384  -0.0164034  -0.00999488  0.0219537  -0.00210773  -0.0222018  0.0193374  0.000231574  -0.0453566  -0.0482661  0.00732514 
1699965125.965420000  0  0  11.5488  0.157344  -0.0710468  -0.00129187  nan  nan  nan  nan  nan  nan  -1  0  1  0.0113464  -0.023105  -0.000262145  0  0  0  0  0  0  0  0  0  0.0179021  -0.00367328  -0.0163858  -0.010121  0.0227212  0.000287927  -0.023849  0.019129  0.000351881  -0.0952782  -0.033893  0.0126296 
1699965125.970421000  0  0  11.5603  0.155361  -0.0678682  -0.000534704  nan  nan  nan  nan  nan  nan  -1  0  1  0.0110862  -0.022861  -0.000253431  0  0  0  0  0  0  0  0  0  0.017879  -0.0037135  -0.0163789  -0.0103537  0.0224912  -0.000695572  -0.0240699  0.0187066  0.000302874  -0.0892802  -0.0363643  0.00365507 
1699965125.975418000  0  0  11.6034  0.135768  -0.0576153  0.000591366  nan  nan  nan  nan  nan  nan  -1  0  1  0.0120084  -0.0225818  -0.000271161  0  0  0  0  0  0  0  0  0  0.0178278  -0.00359816  -0.0164104  -0.0104901  0.0234769  -0.00421865  -0.0248472  0.0180515  0.000172261  -0.0429406  -0.0508435  -0.00911469 
1699965125.980420000  0  0  11.5869  0.161939  -0.0778392  -4.81763e-05  nan  nan  nan  nan  nan  nan  -1  0  1  0.0118511  -0.0226535  -0.000268458  0  0  0  0  0  0  0  0  0  0.0178059  -0.00358073  -0.0163987  -0.0103898  0.023214  -0.00289263  -0.0254469  0.0182942  0.000203058  -0.089766  -0.0126287  -0.00142837 
1699965125.985425000  0  0  11.5837  0.158074  -0.0699326  -0.000109316  nan  nan  nan  nan  nan  nan  -1  0  1  0.0120089  -0.0224499  -0.000269588  0  0  0  0  0  0  0  0  0  0.0177775  -0.0035462  -0.016403  -0.0105969  0.0233363  -0.002619  -0.0259272  0.0178717  0.000212011  -0.0776182  -0.0245545  -0.000753655 
1699965125.990418000  0  0  11.6281  0.117937  -0.0696796  0.000100163  nan  nan  nan  nan  nan  nan  -1  0  1  0.0126025  -0.0223465  -0.000281613  0  0  0  0  0  0  0  0  0  0.0177269  -0.00342903  -0.0164482  -0.010507  0.023902  -0.00621815  -0.0259106  0.0176504  0.000172766  0.0025028  -0.0230246  -0.00297969 
1699965125.995370000  0  0  11.631  0.129981  -0.0862837  -0.00102814  nan  nan  nan  nan  nan  nan  -1  0  1  0.0111795  -0.0226327  -0.000253011  0  0  0  0  0  0  0  0  0  0.0177321  -0.00356256  -0.0164991  -0.0101425  0.0223636  -0.0063487  -0.0248368  0.0181189  0.000263839  -0.0314627  0.00587383  0.0102133 
1699965126.000436000  0  0  11.6113  0.111086  -0.0797009  -0.000666037  nan  nan  nan  nan  nan  nan  -1  0  1  0.012021  -0.0222454  -0.000267402  0  0  0  0  0  0  0  0  0  0.0176777  -0.00344587  -0.016511  -0.0105707  0.0231656  -0.00468238  -0.025382  0.0176591  0.000271421  0.0113429  -0.00306165  0.00561125 
1699965126.005377000  0  0  11.6628  0.0867744  -0.0841207  -0.000114497  nan  nan  nan  nan  nan  nan  -1  0  1  0.0117583  -0.0224103  -0.000263496  0  0  0  0  0  0  0  0  0  0.0176618  -0.00345298  -0.0165512  -0.0101948  0.0229094  -0.00887221  -0.0245223  0.0178794  0.000197375  0.052056  0.00375133  -0.000542542 
1699965126.010575000  0  0  11.636  0.0886201  -0.10967  -0.000906955  nan  nan  nan  nan  nan  nan  -1  0  1  0.0102163  -0.0226513  -0.000231401  0  0  0  0  0  0  0  0  0  0.017645  -0.00355706  -0.016583  -0.00991364  0.0211119  -0.00656409  -0.0228248  0.0186938  0.00024814  0.032748  0.047356  0.00885554 
1699965126.015435000  0  0  11.6122  0.0722288  -0.101662  -0.000282199  nan  nan  nan  nan  nan  nan  -1  0  1  0.0110664  -0.0224936  -0.000248912  0  0  0  0  0  0  0  0  0  0.0175959  -0.0034497  -0.0165991  -0.0100675  0.0219431  -0.00454516  -0.0231341  0.0185919  0.000217072  0.0683758  0.0322796  0.00135676 
1699965126.020460000  0  0  11.6981  0.055146  -0.11129  -0.000239405  nan  nan  nan  nan  nan  nan  -1  0  1  0.0102063  -0.0225694  -0.000230339  0  0  0  0  0  0  0  0  0  0.0175874  -0.00352634  -0.0166701  -0.00973632  0.0211009  -0.0115381  -0.0216185  0.0190194  0.000173503  0.088598  0.0476011  0.00125753 
1699965126.025990000  0  0  11.6167  0.0695262  -0.118316  0.000124292  nan  nan  nan  nan  nan  nan  -1  0  1  0.00909236  -0.0230031  -0.000209139  0  0  0  0  0  0  0  0  0  0.0175796  -0.00362092  -0.0166476  -0.00936403  0.0197808  -0.00479168  -0.020445  0.0198205  0.000103553  0.0490415  0.054284  -0.00258919 
1699965126.030422000  0  0  11.5954  0.0618433  -0.112427  0.000818913  nan  nan  nan  nan  nan  nan  -1  0  1  0.00999506  -0.0227383  -0.000227258  0  0  0  0  0  0  0  0  0  0.0175358  -0.00352782  -0.0166599  -0.00966179  0.0207155  -0.00299913  -0.0209226  0.0196714  6.9571e-06  0.0688013  0.0438768  -0.010306 
1699965126.035432000  0  0  11.6497  0.0579393  -0.119415  0.000741965  nan  nan  nan  nan  nan  nan  -1  0  1  0.00913656  -0.022851  -0.000208767  0  0  0  0  0  0  0  0  0  0.0175405  -0.00363582  -0.0167046  -0.0093899  0.0199044  -0.00741701  -0.0196646  0.0201649  -5.37391e-05  0.0650354  0.0533123  -0.00873718 
1699965126.040432000  0  0  11.5941  0.0888136  -0.11822  0.000522775  nan  nan  nan  nan  nan  nan  -1  0  1  0.00947275  -0.0231699  -0.00021947  0  0  0  0  0  0  0  0  0  0.0174976  -0.00353926  -0.0166992  -0.00902399  0.0200666  -0.00280991  -0.0203374  0.0206877  -5.66062e-05  0.009477  0.0461128  -0.00596862 
1699965126.045383000  0  0  11.5201  0.0823161  -0.1131  0.000446294  nan  nan  nan  nan  nan  nan  -1  0  1  0.00902829  -0.0233326  -0.00021064  0  0  0  0  0  0  0  0  0  0.0174993  -0.00363326  -0.0166378  -0.00901038  0.0196286  0.00323746  -0.0197245  0.0209293  -0.000103594  0.0168333  0.0336503  -0.00454275 
1699965126.050431000  0  0  11.6461  0.0851768  -0.11033  0.000367401  nan  nan  nan  nan  nan  nan  -1  0  1  0.00955361  -0.0228077  -0.000217883  0  0  0  0  0  0  0  0  0  0.0174521  -0.00353309  -0.0167251  -0.00925788  0.0202123  -0.00709301  -0.0201402  0.0205579  -0.000114371  0.0149359  0.031526  -0.00344881 
1699965126.055433000  0  0  11.5725  0.102116  -0.100814  -9.18811e-05  nan  nan  nan  nan  nan  nan  -1  0  1  0.00866364  -0.0234408  -0.00020307  0  0  0  0  0  0  0  0  0  0.0174809  -0.00364428  -0.0166727  -0.00869456  0.0192368  -0.00106187  -0.0196004  0.0210536  -8.92464e-05  -0.0239086  0.00793353  0.00204098 
1699965126.060442000  0  0  11.5257  0.0982393  -0.0922133  -0.000431516  nan  nan  nan  nan  nan  nan  -1  0  1  0.0083363  -0.0234531  -0.000195499  0  0  0  0  0  0  0  0  0  0.0174937  -0.00373709  -0.0166269  -0.0088294  0.0189788  0.00274907  -0.0193249  0.0208861  -5.89372e-05  -0.0186896  -0.00772587  0.00598332 
1699965126.065432000  0  0  11.5932  0.100247  -0.0908446  -0.000648732  nan  nan  nan  nan  nan  nan  -1  0  1  0.00901155  -0.0229289  -0.000206612  0  0  0  0  0  0  0  0  0  0.0174477  -0.00364112  -0.0166746  -0.00922647  0.019698  -0.00278578  -0.0200517  0.0203557  1.90336e-06  -0.0160185  -0.00558344  0.00809011 
1699965126.070441000  0  0  11.5173  0.119339  -0.0788787  -0.000885564  nan  nan  nan  nan  nan  nan  -1  0  1  0.00849142  -0.0234161  -0.000198823  0  0  0  0  0  0  0  0  0  0.0174513  -0.00372716  -0.0166158  -0.0088045  0.0191474  0.00342587  -0.0200552  0.0205228  5.91542e-05  -0.0541704  -0.0310522  0.010478 
1699965126.075366000  0  0  11.474  0.13036  -0.0716176  -0.000990635  nan  nan  nan  nan  nan  nan  -1  -0  1  0.00952878  -0.0230631  -0.00021975  6e-07  -6e-07  6e-07  0  0  0  0  0  0  0.017405  -0.00362842  -0.0165811  -0.00926358  0.0202098  0.00694557  -0.0214747  0.0199013  0.000134595  -0.0631521  -0.0398572  0.011037 
1699965126.080578000  0  0  11.5901  0.113915  -0.0731266  -0.000165107  nan  nan  nan  nan  nan  nan  -1  -0  1  0.00851396  -0.0231838  -0.000197373  5e-06  -5e-06  5e-06  0  0  0  0  0  0  0.0174233  -0.00373018  -0.0166285  -0.00885205  0.0192519  -0.00262038  -0.0205185  0.019843  5.97319e-05  -0.0390601  -0.0363025  0.00146652 
1699965126.085425000  0  0  11.5625  0.120903  -0.0689544  -0.000312168  nan  nan  nan  nan  nan  nan  -1  -1e-07  1  0.00925874  -0.0231322  -0.000214162  1.69e-05  -1.69e-05  1.69e-05  0  0  0  0  0  0  0.0173809  -0.0036349  -0.01661  -0.00889455  0.019971  -0.000365732  -0.0215099  0.0195462  9.84147e-05  -0.0439142  -0.0419161  0.00291796 
1699965126.090451000  0  0  11.5237  0.132219  -0.0665406  -1.96852e-05  nan  nan  nan  nan  nan  nan  -1  -2e-07  1  0.00931428  -0.0227314  -0.000211614  4e-05  -4e-05  4e-05  0  0  0  0  0  0  0.0173691  -0.00368674  -0.0165623  -0.00948163  0.0201175  0.00276272  -0.022028  0.0189158  5.26753e-05  -0.0617802  -0.0409445  -0.000280689 
1699965126.095533000  0  0  11.6221  0.111623  -0.0639967  0.00086053  nan  nan  nan  nan  nan  nan  -1  -5e-07  1  0.00865119  -0.0227735  -0.000196805  7.81e-05  -7.81e-05  7.81e-05  0  0  0  0  0  0  0.0173617  -0.00375079  -0.0166091  -0.00916272  0.0195053  -0.00532781  -0.021279  0.0187293  -8.24371e-05  -0.0274801  -0.0443159  -0.00993226 
1699965126.100997000  0  0  11.5756  0.119367  -0.0647067  0.00052164  nan  nan  nan  nan  nan  nan  -0.999999  -1e-06  1  0.00825539  -0.0229792  -0.00018929  0.000135  -0.000135  0.000135  0  0  0  0  0  0  0.0173498  -0.00380628  -0.0165883  -0.00898944  0.0190748  -0.00149295  -0.0212087  0.0187021  -9.42195e-05  -0.0436142  -0.0426455  -0.0055783 
1699965126.105435000  0  0  11.5801  0.123265  -0.0652002  -0.000162986  nan  nan  nan  nan  nan  nan  -0.999998  -1.9e-06  1  0.00907884  -0.0222792  -0.000201658  0.0002141  -0.0002144  0.0002134  0  0  0  0  0  0  0.0173041  -0.00371852  -0.0165966  -0.00977703  0.0199437  -0.00186661  -0.0222161  0.0179126  -2.08539e-05  -0.0421432  -0.0343956  0.00224587 
1699965126.110420000  0  0  11.6551  0.0996541  -0.0640942  -0.000594241  nan  nan  nan  nan  nan  nan  -0.999997  -3.2e-06  1  0.00857899  -0.0224951  -0.000192174  0.0003149  -0.00032  0.0003113  0  0  0  0  0  0  0.0172992  -0.00378467  -0.0166658  -0.00930125  0.0195188  -0.00795267  -0.0214262  0.0179845  5.5633e-05  -0.0021868  -0.0372685  0.00687169 
1699965126.115425000  0  0  11.6251  0.114714  -0.0747459  -0.00119402  nan  nan  nan  nan  nan  nan  -0.999995  -5.1e-06  1.00001  0.00925356  -0.0225865  -0.000207994  0.0004338  -0.0004556  0.0004249  0  0  0  0  0  0  0.0172553  -0.00368699  -0.0166786  -0.00915975  0.0201446  -0.00544222  -0.0223362  0.0181021  0.000174498  -0.0239347  -0.0170472  0.0131803 
1699965126.120455000  0  0  11.6287  0.111419  -0.0851017  -0.000929582  nan  nan  nan  nan  nan  nan  -0.999992  -7.8e-06  1.00001  0.00918477  -0.0220461  -0.000201277  0.0005669  -0.000625  0.0005504  0  0  0  0  0  0  0.0172325  -0.00371695  -0.0167214  -0.00979869  0.0201262  -0.00565884  -0.0223123  0.0177937  0.000208813  -0.0175643  0.00650118  0.00953164 
1699965126.125431000  0  0  11.6741  0.0912447  -0.0775774  -0.000262862  nan  nan  nan  nan  nan  nan  -0.999989  -1.14e-05  1.00001  0.00996902  -0.0219118  -0.000217029  0.0007105  -0.0008319  0.0006841  0  0  0  0  0  0  0.0171865  -0.00361513  -0.0167758  -0.00975919  0.0209636  -0.00932749  -0.0226561  0.0175432  0.000165496  0.0259466  -0.00624297  0.00163082 
1699965126.130433000  0  0  11.6333  0.104694  -0.0977636  -0.000673899  nan  nan  nan  nan  nan  nan  -0.999985  -1.62e-05  1.00001  0.00986283  -0.0222335  -0.000217674  0.000861  -0.00108  0.0008222  0  0  0  0  0  0  0.0171751  -0.00363128  -0.0167827  -0.00941713  0.020817  -0.00591755  -0.022668  0.0182188  0.000234774  -0.000842147  0.027914  0.006076 
1699965126.135380000  0  0  11.6393  0.096156  -0.110308  -0.0005342  nan  nan  nan  nan  nan  nan  -0.999981  -2.23e-05  1.00002  0.00944072  -0.0220205  -0.000206178  0.0010145  -0.0013731  0.000961  0  0  0  0  0  0  0.0171696  -0.00370005  -0.0168228  -0.00966593  0.0204306  -0.00633721  -0.0220973  0.0184841  0.000239182  0.0109828  0.0505624  0.00428569 
1699965126.140437000  0  0  11.6606  0.0829754  -0.103899  0.000651761  nan  nan  nan  nan  nan  nan  -0.999975  -3e-05  1.00002  0.0105379  -0.0219533  -0.000229532  0.0011672  -0.001715  0.0010968  0  0  0  0  0  0  0.0171226  -0.00359229  -0.0168649  -0.0095957  0.0216351  -0.00802832  -0.0227431  0.0185103  0.000117391  0.0432852  0.0375035  -0.00932092 
1699965126.145382000  0  0  11.6438  0.0893747  -0.114638  0.000258889  nan  nan  nan  nan  nan  nan  -0.999969  -3.96e-05  1.00003  0.00996059  -0.0225087  -0.000222488  0.0013155  -0.0021094  0.0012257  0  0  0  0  0  0  0.0171404  -0.00367787  -0.0168946  -0.00895739  0.0210585  -0.00656644  -0.0221404  0.0194481  0.000125335  0.0249426  0.0503541  -0.00448946 
1699965126.150808000  0  0  11.6077  0.0890319  -0.114943  -4.67432e-05  nan  nan  nan  nan  nan  nan  -0.999962  -5.12e-05  1.00004  0.0102818  -0.0222274  -0.000227126  0.0014556  -0.0025587  0.0013441  0  0  0  0  0  0  0.0171321  -0.00370264  -0.0168885  -0.00939178  0.021488  -0.00358054  -0.022337  0.019483  0.000139297  0.0274365  0.0506417  -0.000808683 
1699965126.155435000  0  0  11.6394  0.0807594  -0.103313  -1.90769e-06  nan  nan  nan  nan  nan  nan  -0.999954  -6.52e-05  1.00004  0.0112176  -0.0221677  -0.000247758  0.0015837  -0.0030604  0.0014482  0  0  0  0  0  0  0.01709  -0.00360082  -0.0169259  -0.00929657  0.0225083  -0.00614576  -0.0228757  0.0193893  0.000138009  0.0489374  0.0282432  -0.00135624 
1699965126.160435000  0  0  11.6166  0.106299  -0.113469  -0.0006516  nan  nan  nan  nan  nan  nan  -0.999946  -8.19e-05  1.00005  0.0108862  -0.0225449  -0.000245418  0.0016961  -0.0036108  0.0015342  0  0  0  0  0  0  0.017103  -0.0036575  -0.0169247  -0.00889442  0.022178  -0.00425338  -0.0228695  0.0200629  0.000202429  -0.00219847  0.0423594  0.00612071 
1699965126.165383000  0  0  11.6028  0.115902  -0.114754  -0.000666464  nan  nan  nan  nan  nan  nan  -0.999938  -0.0001014  1.00006  0.012353  -0.0221973  -0.000275494  0.001789  -0.0042061  0.0015988  0  0  0  0  0  0  0.0170567  -0.00354063  -0.0169409  -0.0092729  0.0237931  -0.00309364  -0.0244286  0.0199822  0.000245975  -0.00706164  0.0456719  0.00587105 
1699965126.170422000  0  0  11.6283  0.107253  -0.10267  0.000125639  nan  nan  nan  nan  nan  nan  -0.999928  -0.000124  1.00007  0.0124136  -0.0223867  -0.000280991  0.0018593  -0.0048425  0.0016434  0  0  0  0  0  0  0.0170749  -0.00360236  -0.0169582  -0.00900564  0.0240435  -0.00518022  -0.0243165  0.0200963  0.000157427  0.00920701  0.0204535  -0.00314476 
1699965126.175381000  0  0  11.609  0.137791  -0.101333  -0.000420959  nan  nan  nan  nan  nan  nan  -0.999919  -0.0001499  1.00007  0.01344  -0.0221911  -0.000303742  0.0019086  -0.0055164  0.0016716  0  0  0  0  0  0  0.01703  -0.003483  -0.0169611  -0.00920479  0.0250762  -0.00359379  -0.0258238  0.0199846  0.000224609  -0.0380037  0.0188083  0.0030159 
1699965126.180381000  0  0  11.5808  0.132117  -0.0908459  -0.000540445  nan  nan  nan  nan  nan  nan  -0.999909  -0.0001792  1.00008  0.0139691  -0.022252  -0.000319535  0.0019405  -0.0062239  0.0016872  0  0  0  0  0  0  0.0170378  -0.00352318  -0.0169372  -0.00921271  0.0258042  -0.00129527  -0.0263759  0.0199106  0.000259782  -0.0215749  -0.00148546  0.00415774 
1699965126.185905000  0  0  11.6027  0.12879  -0.0858908  -0.000736677  nan  nan  nan  nan  nan  nan  -0.9999  -0.0002122  1.00009  0.0144855  -0.0224278  -0.000337573  0.0019589  -0.0069612  0.0016939  0  0  0  0  0  0  0.0170457  -0.00352713  -0.0169716  -0.00894856  0.0265127  -0.00305411  -0.0268524  0.0199559  0.000336663  -0.0105377  -0.0118126  0.00584184 
1699965126.190434000  0  0  11.5748  0.160924  -0.0815779  -0.00138824  nan  nan  nan  nan  nan  nan  -0.99989  -0.0002489  1.0001  0.0155262  -0.0222295  -0.000362938  0.0019674  -0.0077248  0.0016954  0  0  0  0  0  0  0.0170032  -0.00340489  -0.0169708  -0.00917725  0.0275352  -0.000752119  -0.0285085  0.0196604  0.000472303  -0.0595701  -0.0177196  0.01263 
1699965126.195382000  0  0  11.5681  0.144717  -0.0686941  -0.00020488  nan  nan  nan  nan  nan  nan  -0.99988  -0.0002895  1.00011  0.0160308  -0.022435  -0.000383652  0.0019699  -0.0085107  0.0016955  0  0  0  0  0  0  0.0170282  -0.00342801  -0.0169773  -0.00898463  0.0282234  -0.00017402  -0.028867  0.0195156  0.000400716  -0.0238579  -0.0421551  -0.00144616 
1699965126.200423000  0  0  11.651  0.145663  -0.072804  -0.000641104  nan  nan  nan  nan  nan  nan  -0.99987  -0.000334  1.00012  0.0173232  -0.0220438  -0.000413376  0.0019701  -0.0093153  0.0016955  0  0  0  0  0  0  0.0169827  -0.00328344  -0.0170398  -0.00918161  0.0297237  -0.00697207  -0.0301313  0.0190476  0.000462252  -0.0141175  -0.0296299  0.00339128 
1699965126.205431000  0  0  11.6078  0.162802  -0.0703677  -0.00141499  nan  nan  nan  nan  nan  nan  -0.99986  -0.0003826  1.00013  0.017146  -0.0223484  -0.000423691  0.0019701  -0.0101348  0.0016955  0  0  0  0  0  0  0.0169917  -0.00331467  -0.017014  -0.00891402  0.029481  -0.00342879  -0.0304132  0.019131  0.000593118  -0.0458035  -0.0352696  0.0117562 
1699965126.210850000  0  0  11.5753  0.147464  -0.0579883  -0.00110391  nan  nan  nan  nan  nan  nan  -0.99985  -0.0004354  1.00013  0.0181  -0.0222575  -0.00045397  0.0019701  -0.0109655  0.0016955  0  0  0  0  0  0  0.0169831  -0.00328661  -0.0169984  -0.0090916  0.0305837  -0.00075027  -0.0311971  0.0185631  0.000629109  -0.00791461  -0.0548035  0.00750774 
1699965126.215376000  0  0  11.684  0.142663  -0.0734784  -0.000909103  nan  nan  nan  nan  nan  nan  -0.999841  -0.0004923  1.00014  0.0190039  -0.0220322  -0.000482214  0.0019701  -0.0118035  0.0016955  0  0  0  0  0  0  0.0169438  -0.00314328  -0.0170826  -0.00902644  0.0316579  -0.00964895  -0.0319325  0.0184567  0.000647034  0.00845355  -0.0228452  0.00489345 
1699965126.220431000  0  0  11.6249  0.146714  -0.0775072  -0.000925255  nan  nan  nan  nan  nan  nan  -0.999831  -0.0005534  1.00015  0.0191572  -0.0224216  -0.000507552  0.0019701  -0.0126452  0.0016955  0  0  0  0  0  0  0.0169341  -0.00312094  -0.0170704  -0.00864523  0.0316809  -0.00475267  -0.0321371  0.0188263  0.000704429  0.00223376  -0.0181875  0.0045214 
1699965126.225432000  0  0  11.5875  0.130172  -0.0734853  -0.000696359  nan  nan  nan  nan  nan  nan  -0.999821  -0.0006188  1.00016  0.0210262  -0.0220726  -0.000558933  0.0019701  -0.0134869  0.0016955  0  0  0  0  0  0  0.0168873  -0.00295361  -0.017068  -0.00908172  0.0336367  -0.0016411  -0.0334379  0.0183435  0.000721261  0.0472848  -0.0217901  0.00149188 
1699965126.230435000  0  0  11.7074  0.112369  -0.0878538  -0.00075367  nan  nan  nan  nan  nan  nan  -0.999811  -0.0006883  1.00017  0.0208004  -0.0220059  -0.000571761  0.0019701  -0.0143246  0.0016955  0  0  0  0  0  0  0.016879  -0.00292426  -0.0171657  -0.00885615  0.0335566  -0.0114095  -0.0326223  0.0184733  0.000733308  0.0753877  0.0057533  0.0020878 
1699965126.235414000  0  0  11.6234  0.109609  -0.0854502  -0.00100819  nan  nan  nan  nan  nan  nan  -0.999801  -0.000762  1.00018  0.020863  -0.0227453  -0.000610364  0.0019701  -0.0151548  0.0016955  0  0  0  0  0  0  0.0168904  -0.00289309  -0.0171278  -0.00813072  0.0333725  -0.00447347  -0.0322802  0.0191076  0.000801133  0.0777605  -0.00488917  0.00459107 
1699965126.240435000  0  0  11.6075  0.0955709  -0.0929527  -0.000749046  nan  nan  nan  nan  nan  nan  -0.999791  -0.0008398  1.00018  0.0224916  -0.0223785  -0.000663971  0.0019701  -0.0159736  0.0016955  0  0  0  0  0  0  0.0168456  -0.00271812  -0.017134  -0.00854189  0.0350477  -0.0031339  -0.0330908  0.0189135  0.000812202  0.113293  0.0119015  0.00124105 
1699965126.245426000  0  0  11.6974  0.0850498  -0.108759  -0.000617492  nan  nan  nan  nan  nan  nan  -0.999781  -0.0009217  1.00019  0.0220983  -0.0226233  -0.000688576  0.0019701  -0.0167773  0.0016955  0  0  0  0  0  0  0.0168737  -0.00271674  -0.0171978  -0.00806261  0.0347562  -0.0104719  -0.0319882  0.0195058  0.000819954  0.124192  0.0380642  -0.000480891 
1699965126.250426000  0  0  11.6448  0.0874918  -0.103739  -0.00049667  nan  nan  nan  nan  nan  nan  -0.999772  -0.0010076  1.0002  0.0230928  -0.0230115  -0.000751347  0.0019701  -0.0175622  0.0016955  0  0  0  0  0  0  0.0168394  -0.00254419  -0.0172009  -0.00761367  0.0355292  -0.00606715  -0.0323794  0.0199289  0.000837792  0.122907  0.0241331  -0.00216954 
1699965126.255428000  0  0  11.6211  0.0763488  -0.120147  -0.000517188  nan  nan  nan  nan  nan  nan  -0.999762  -0.0010973  1.00021  0.0233576  -0.023126  -0.000795117  0.0019701  -0.0183245  0.0016955  0  0  0  0  0  0  0.0168569  -0.00252169  -0.017197  -0.0075642  0.035759  -0.0040882  -0.0318228  0.02046  0.000859238  0.140072  0.0520625  -0.00212752 
1699965126.260951000  0  0  11.6953  0.0728041  -0.124402  -0.000341148  nan  nan  nan  nan  nan  nan  -0.999752  -0.0011908  1.00022  0.0227879  -0.0234947  -0.000829238  0.0019701  -0.0190604  0.0016955  0  0  0  0  0  0  0.0168913  -0.00251438  -0.0172486  -0.0069706  0.0351924  -0.0101423  -0.0305195  0.0211306  0.00085022  0.135171  0.0544021  -0.00423785 
1699965126.265397000  0  0  11.6443  0.0774372  -0.116012  -0.000187103  nan  nan  nan  nan  nan  nan  -0.999742  -0.0012879  1.00023  0.0237788  -0.0236966  -0.000900329  0.0019701  -0.0197662  0.0016955  0  0  0  0  0  0  0.016861  -0.00234646  -0.0172485  -0.00677235  0.0359707  -0.00588054  -0.0309711  0.0213374  0.000856675  0.13006  0.0357205  -0.00622797 
1699965126.270399000  0  0  11.606  0.0764828  -0.123087  -0.000220001  nan  nan  nan  nan  nan  nan  -0.999732  -0.0013884  1.00024  0.0237885  -0.023742  -0.00094884  0.0019701  -0.0204382  0.0016955  0  0  0  0  0  0  0.016898  -0.00235683  -0.0172183  -0.00689534  0.0359034  -0.00274516  -0.0303547  0.0216686  0.000870148  0.126297  0.0468232  -0.00595146 
1699965126.274468000  0  0  11.6557  0.0780275  -0.116311  -5.20596e-06  nan  nan  nan  nan  nan  nan  -0.999722  -0.0014922  1.00024  0.0247887  -0.0232794  -0.00101283  0.0019701  -0.0210726  0.0016955  0  0  0  0  0  0  0.0168656  -0.00218852  -0.0172641  -0.00728879  0.0369555  -0.00678556  -0.0308294  0.0212814  0.000867709  0.127575  0.0368334  -0.00861202 
1699965126.280542000  0  0  11.5813  0.0916982  -0.0995105  -0.000592646  nan  nan  nan  nan  nan  nan  -0.999712  -0.001599  1.00025  0.0243548  -0.0242225  -0.00108209  0.0019701  -0.0216656  0.0016955  0  0  0  0  0  0  0.0169151  -0.00219467  -0.0172061  -0.00637637  0.0362018  -0.000676886  -0.0300305  0.021877  0.000953701  0.0928839  -0.00224764  -0.00212893 
1699965126.284475000  0  0  11.561  0.0968664  -0.103693  -0.000841735  nan  nan  nan  nan  nan  nan  -0.999703  -0.0017087  1.00026  0.0255079  -0.0238848  -0.00116252  0.0019701  -0.0222136  0.0016955  0  0  0  0  0  0  0.0168856  -0.00202499  -0.0172058  -0.00679536  0.0372502  0.00101431  -0.0308515  0.0216565  0.00103654  0.0901014  0.00814587  0.000156326 
1699965126.290411000  0  0  11.5823  0.0917313  -0.0949817  -0.000871657  nan  nan  nan  nan  nan  nan  -0.999693  -0.0018211  1.00027  0.0246761  -0.0240349  -0.00121255  0.0019701  -0.0227126  0.0016955  0  0  0  0  0  0  0.0169091  -0.00209032  -0.0172035  -0.00659803  0.0363819  -0.000744328  -0.0294829  0.0217351  0.00111184  0.0877805  -0.00999995  -0.000222654 
1699965126.295413000  0  0  11.5374  0.114905  -0.0827226  -0.00170041  nan  nan  nan  nan  nan  nan  -0.999683  -0.0019358  1.00028  0.0244567  -0.0241799  -0.00128222  0.0019701  -0.0231591  0.0016955  0  0  0  0  0  0  0.0169369  -0.00207642  -0.0171426  -0.00659231  0.035944  0.00287729  -0.0293745  0.0215126  0.00130013  0.040435  -0.032471  0.00825383 
1699965126.300428000  0  0  11.5461  0.122352  -0.0784824  -0.00128461  nan  nan  nan  nan  nan  nan  -0.999673  -0.0020526  1.00029  0.0253333  -0.0235701  -0.00136458  0.0019701  -0.0235507  0.0016955  0  0  0  0  0  0  0.0168999  -0.00189473  -0.0171436  -0.00726514  0.0366876  0.00215166  -0.0301497  0.0207455  0.00135377  0.0326725  -0.0338934  0.00251998 
1699965126.305446000  0  0  11.5704  0.11154  -0.0658058  -0.000617982  nan  nan  nan  nan  nan  nan  -0.999663  -0.0021712  1.0003  0.0250542  -0.0238547  -0.00144713  0.0019701  -0.0238899  0.0016955  0  0  0  0  0  0  0.0169362  -0.00189316  -0.0171215  -0.0069145  0.0363898  0.000101355  -0.0295105  0.0205203  0.00135064  0.0484173  -0.0571749  -0.00578159 
1699965126.310449000  0  0  11.5443  0.141069  -0.0624183  -0.00111314  nan  nan  nan  nan  nan  nan  -0.999653  -0.0022914  1.0003  0.0259278  -0.023648  -0.00155022  0.0019701  -0.0241806  0.0016955  0  0  0  0  0  0  0.0169015  -0.00171034  -0.0170913  -0.00716673  0.0370298  0.00221012  -0.0306958  0.0199853  0.00148804  0.000264155  -0.0590278  -0.000966171 
1699965126.315584000  0  0  11.5632  0.133619  -0.0503319  -0.0010433  nan  nan  nan  nan  nan  nan  -0.999643  -0.0024129  1.00031  0.0260625  -0.0231644  -0.00163411  0.0019701  -0.0244265  0.0016955  0  0  0  0  0  0  0.0168907  -0.00164244  -0.0170661  -0.00771201  0.0371043  0.000593598  -0.030737  0.0190386  0.00157209  0.0155427  -0.074491  -0.00267971 
1699965126.320435000  0  0  11.5664  0.119982  -0.0490781  -0.000469505  nan  nan  nan  nan  nan  nan  -0.999634  -0.0025356  1.00032  0.0258514  -0.0231829  -0.00172869  0.0019701  -0.0246313  0.0016955  0  0  0  0  0  0  0.0168975  -0.00161449  -0.0170346  -0.00769281  0.0367765  0.000275361  -0.0302135  0.0186887  0.00157794  0.0380009  -0.0737798  -0.00991062 
1699965126.325383000  0  0  11.5582  0.136124  -0.0498467  -0.000845922  nan  nan  nan  nan  nan  nan  -0.999624  -0.0026592  1.00033  0.0263828  -0.0231244  -0.00184437  0.0019701  -0.0247989  0.0016955  0  0  0  0  0  0  0.0168618  -0.00143349  -0.0170255  -0.00770444  0.0370307  0.000934557  -0.0308817  0.0183287  0.00169264  0.0118642  -0.0689306  -0.00635242 
1699965126.330414000  0  0  11.5472  0.127016  -0.051618  -0.00105336  nan  nan  nan  nan  nan  nan  -0.999614  -0.0027835  1.00034  0.0259857  -0.0227625  -0.00193658  0.0019701  -0.0249328  0.0016955  0  0  0  0  0  0  0.0168551  -0.00143558  -0.0170207  -0.00818088  0.0364904  0.00185768  -0.0302902  0.0177753  0.00180274  0.0246372  -0.0602973  -0.00486037 
1699965126.335418000  0  0  11.5886  0.10907  -0.0578193  -0.000561057  nan  nan  nan  nan  nan  nan  -0.999604  -0.0029085  1.00035  0.0251875  -0.0230894  -0.00204354  0.0019701  -0.025037  0.0016955  0  0  0  0  0  0  0.016873  -0.00142968  -0.0170202  -0.00769361  0.0355637  -0.00157779  -0.0291087  0.0178999  0.0018108  0.0496596  -0.0490409  -0.0110948 
1699965126.340450000  0  0  11.5714  0.126448  -0.0687587  -0.00110434  nan  nan  nan  nan  nan  nan  -0.999594  -0.0030339  1.00035  0.0255612  -0.0230138  -0.00217314  0.0019701  -0.0251151  0.0016955  0  0  0  0  0  0  0.0168353  -0.00125387  -0.017  -0.00774602  0.0356022  -0.000188596  -0.0296022  0.0178449  0.00194908  0.0194439  -0.0266559  -0.00568654 
1699965126.345420000  0  0  11.552  0.109613  -0.0679451  -0.00138759  nan  nan  nan  nan  nan  nan  -0.999584  -0.0031596  1.00036  0.0250908  -0.0228854  -0.00228818  0.0019701  -0.0251709  0.0016955  0  0  0  0  0  0  0.0168291  -0.00122321  -0.016963  -0.00794486  0.0348714  0.00136101  -0.0287674  0.0175973  0.00207408  0.045434  -0.0260052  -0.003396 
1699965126.350951000  0  0  11.6069  0.0795579  -0.0753374  -0.00165504  nan  nan  nan  nan  nan  nan  -0.999575  -0.0032855  1.00037  0.024489  -0.0229781  -0.00241188  0.0019701  -0.0252082  0.0016955  0  0  0  0  0  0  0.0168321  -0.0011914  -0.0169822  -0.00769049  0.034172  -0.00314943  -0.0273615  0.0176785  0.00219029  0.0926095  -0.0119677  -0.00121499 
1699965126.355429000  0  0  11.593  0.0940752  -0.0858297  -0.00218855  nan  nan  nan  nan  nan  nan  -0.999565  -0.0034116  1.00038  0.024521  -0.0229549  -0.00255344  0.0019701  -0.0252306  0.0016955  0  0  0  0  0  0  0.0167977  -0.00102949  -0.0169812  -0.00767505  0.0338116  -0.0019943  -0.0273184  0.0178283  0.002381  0.0631792  0.00763934  0.00354689 
1699965126.360944000  0  0  11.5956  0.0731212  -0.0852833  -0.00115662  nan  nan  nan  nan  nan  nan  -0.999555  -0.0035378  1.00039  0.0243066  -0.0228908  -0.00269466  0.0019701  -0.025242  0.0016955  0  0  0  0  0  0  0.0167829  -0.000965686  -0.0169727  -0.00771477  0.0333958  -0.00221054  -0.0263947  0.0178093  0.0024001  0.0965888  0.00672073  -0.00954316 
1699965126.365516000  0  0  11.643  0.0675027  -0.10109  -0.000741472  nan  nan  nan  nan  nan  nan  -0.999545  -0.003664  1.0004  0.0243844  -0.022903  -0.00285064  0.0019701  -0.0252461  0.0016955  0  0  0  0  0  0  0.0167491  -0.000803743  -0.0170151  -0.00749801  0.0332594  -0.0060631  -0.0259089  0.0181761  0.00242994  0.103357  0.0349598  -0.015031 
1699965126.370372000  0  0  11.5899  0.0807576  -0.107492  -0.000728852  nan  nan  nan  nan  nan  nan  -0.999535  -0.0037903  1.00041  0.0235843  -0.0233354  -0.0030027  0.0019701  -0.0252466  0.0016955  0  0  0  0  0  0  0.0167528  -0.000773682  -0.0169909  -0.00708309  0.0320121  -0.00168968  -0.0250596  0.0188552  0.00250521  0.0690336  0.0415149  -0.0159414 
1699965126.375412000  0  0  11.5712  0.0586319  -0.104266  5.21702e-05  nan  nan  nan  nan  nan  nan  -0.999525  -0.0039165  1.00041  0.024352  -0.0231023  -0.00318135  0.0019701  -0.0252462  0.0016955  0  0  0  0  0  0  0.0167147  -0.00060791  -0.0169786  -0.00733907  0.0325775  -0.000138413  -0.0249738  0.0187666  0.00247037  0.112495  0.0358785  -0.0253558 
1699965126.380421000  0  0  11.6484  0.0504232  -0.118847  0.000351852  nan  nan  nan  nan  nan  nan  -0.999515  -0.0040427  1.00042  0.0235661  -0.0230804  -0.00333537  0.0019701  -0.0252424  0.0016955  0  0  0  0  0  0  0.0167135  -0.000597543  -0.0170394  -0.0071645  0.0317401  -0.006442  -0.0235572  0.0192524  0.00244702  0.11588  0.0605719  -0.0288684 
1699965126.385941000  0  0  11.6142  0.062773  -0.116837  0.000177854  nan  nan  nan  nan  nan  nan  -0.999506  -0.0041689  1.00043  0.0223363  -0.0235357  -0.00349604  0.0019701  -0.0252316  0.0016955  0  0  0  0  0  0  0.0167208  -0.00060474  -0.0170352  -0.00668152  0.0300722  -0.00360088  -0.0221731  0.0199391  0.00247971  0.0784462  0.0502335  -0.0270203 
1699965126.390424000  0  0  11.5848  0.0562371  -0.112953  5.18618e-05  nan  nan  nan  nan  nan  nan  -0.999496  -0.004295  1.00044  0.0231469  -0.0231756  -0.00369199  0.0019701  -0.02521  0.0016955  0  0  0  0  0  0  0.016686  -0.0004511  -0.0170285  -0.00713593  0.0306973  -0.00115518  -0.0224592  0.019732  0.00254806  0.0941506  0.0443716  -0.0261289 
1699965126.395428000  0  0  11.664  0.0625832  -0.121334  -0.00109441  nan  nan  nan  nan  nan  nan  -0.999486  -0.004421  1.00045  0.0221234  -0.0233281  -0.00386303  0.0019701  -0.0251737  0.0016955  0  0  0  0  0  0  0.0167339  -0.000467705  -0.017076  -0.00683975  0.0296042  -0.00765877  -0.0211941  0.0202255  0.00273507  0.0698191  0.0565937  -0.0136705 
1699965126.400428000  0  0  11.5833  0.08494  -0.0982787  -0.00167885  nan  nan  nan  nan  nan  nan  -0.999476  -0.0045467  1.00046  0.0224994  -0.0233674  -0.00407039  0.0019701  -0.0251192  0.0016955  0  0  0  0  0  0  0.0167001  -0.000320842  -0.0170472  -0.00691627  0.0295579  -0.00099109  -0.0217098  0.0200367  0.00294694  0.0298503  0.0122202  -0.00848387 
1699965126.405585000  0  0  11.5601  0.0877179  -0.0920406  -0.00235899  nan  nan  nan  nan  nan  nan  -0.999466  -0.0046722  1.00046  0.0222244  -0.023216  -0.0042645  0.0019701  -0.0250426  0.0016955  0  0  0  0  0  0  0.0167103  -0.000334331  -0.0170293  -0.0071898  0.0291716  0.000901135  -0.0213506  0.0198437  0.0031776  0.02099  0.00151876  -0.00228866 
1699965126.410370000  0  0  11.6394  0.0881257  -0.0984183  -0.00247335  nan  nan  nan  nan  nan  nan  -0.999456  -0.0047971  1.00047  0.0213486  -0.0230694  -0.00445113  0.0019701  -0.0249402  0.0016955  0  0  0  0  0  0  0.0167272  -0.000366784  -0.0170931  -0.00721108  0.0283007  -0.00557919  -0.0204731  0.0199047  0.0033627  0.0121007  0.0137138  -0.00271014 
1699965126.415429000  0  0  11.5343  0.110557  -0.0676016  -0.00216656  nan  nan  nan  nan  nan  nan  -0.999446  -0.0049215  1.00048  0.0218767  -0.022981  -0.00467778  0.0019701  -0.0248082  0.0016955  0  0  0  0  0  0  0.0166905  -0.000226157  -0.0170453  -0.00750446  0.0284108  0.00308638  -0.0213625  0.0192786  0.00352821  -0.0245782  -0.0421602  -0.00820003 
1699965126.420434000  0  0  11.5378  0.117145  -0.0609059  -0.00193881  nan  nan  nan  nan  nan  nan  -0.999437  -0.0050451  1.00049  0.0226253  -0.0223298  -0.00490296  0.0019701  -0.0246429  0.0016955  0  0  0  0  0  0  0.0166498  -7.99629e-05  -0.0170472  -0.00822906  0.0290517  0.0027962  -0.0222812  0.0183496  0.00366576  -0.0293026  -0.0470046  -0.0124226 
1699965126.425413000  0  0  11.6391  0.116768  -0.0657087  -0.00227677  nan  nan  nan  nan  nan  nan  -0.999427  -0.0051679  1.0005  0.022031  -0.0219825  -0.00511093  0.0019701  -0.0244405  0.0016955  0  0  0  0  0  0  0.016653  -4.81026e-05  -0.0171137  -0.00843052  0.0284616  -0.00551337  -0.0218863  0.017951  0.00384863  -0.0321814  -0.0337314  -0.0100266 
1699965126.430440000  0  0  11.5391  0.125476  -0.0452546  -0.00232433  nan  nan  nan  nan  nan  nan  -0.999417  -0.0052895  1.00051  0.0217059  -0.0221762  -0.00534319  0.0019701  -0.0241973  0.0016955  0  0  0  0  0  0  0.0166511  -1.01977e-05  -0.0170436  -0.00841948  0.0277086  0.0026841  -0.021925  0.0175133  0.00402775  -0.0492413  -0.0706133  -0.0112234 
1699965126.435885000  0  0  11.5579  0.133291  -0.0484463  -0.0025921  nan  nan  nan  nan  nan  nan  -0.999407  -0.0054098  1.00052  0.0213131  -0.0219652  -0.00557138  0.0019701  -0.0239095  0.0016955  0  0  0  0  0  0  0.0166485  9.56363e-06  -0.0170346  -0.00863418  0.0272003  0.00108532  -0.0219711  0.017032  0.00422566  -0.0644475  -0.0598018  -0.00985542 
1699965126.440412000  0  0  11.6568  0.121657  -0.0536788  -0.00258752  nan  nan  nan  nan  nan  nan  -0.999397  -0.0055285  1.00052  0.0212249  -0.021562  -0.00580858  0.0019701  -0.0235734  0.0016955  0  0  0  0  0  0  0.0166091  0.000142019  -0.017095  -0.00882082  0.0270204  -0.00702414  -0.0219075  0.0165568  0.00440238  -0.0417648  -0.0449652  -0.0116798 
1699965126.445359000  0  0  11.6104  0.11841  -0.0507773  -0.00261568  nan  nan  nan  nan  nan  nan  -0.999387  -0.0056454  1.00053  0.0197216  -0.0220314  -0.00603932  0.0019701  -0.0231852  0.0016955  0  0  0  0  0  0  0.0166447  1.5214e-05  -0.0170638  -0.00841132  0.0252432  -0.00322431  -0.0206758  0.0167014  0.00455722  -0.0466025  -0.0520987  -0.0128762 
1699965126.450361000  0  0  11.6113  0.125706  -0.057127  -0.00334106  nan  nan  nan  nan  nan  nan  -0.999378  -0.0057603  1.00054  0.019999  -0.0214945  -0.00629489  0.0019701  -0.0227412  0.0016955  0  0  0  0  0  0  0.0165999  0.000143051  -0.0170767  -0.0089937  0.025316  -0.00327842  -0.0212845  0.0161235  0.00483321  -0.0555948  -0.0340824  -0.00656886 
1699965126.455410000  0  0  11.6699  0.103924  -0.0704579  -0.00353085  nan  nan  nan  nan  nan  nan  -0.999368  -0.0058727  1.00055  0.019036  -0.0216515  -0.00654358  0.0019701  -0.0222377  0.0016955  0  0  0  0  0  0  0.0165976  0.000158629  -0.0171266  -0.00864583  0.0241532  -0.00805598  -0.0202114  0.0164066  0.00505486  -0.0219032  -0.0100246  -0.00641293 
1699965126.460963000  0  0  11.6144  0.106152  -0.0704646  -0.00366951  nan  nan  nan  nan  nan  nan  -0.999358  -0.0059825  1.00056  0.0180245  -0.0220981  -0.00680232  0.0019701  -0.0216708  0.0016955  0  0  0  0  0  0  0.0166206  0.000136953  -0.0171191  -0.00825718  0.022768  -0.00344992  -0.0194453  0.016701  0.00527371  -0.0334079  -0.0127197  -0.00686826 
1699965126.465444000  0  0  11.6298  0.107827  -0.0805919  -0.00381257  nan  nan  nan  nan  nan  nan  -0.999348  -0.0060893  1.00057  0.0181064  -0.0215274  -0.0070728  0.0019701  -0.0210368  0.0016955  0  0  0  0  0  0  0.0165778  0.000252108  -0.0171498  -0.00885457  0.0226459  -0.00467676  -0.0196845  0.0163738  0.00551257  -0.0345553  0.0105447  -0.00746854 
1699965126.470428000  0  0  11.6352  0.0849657  -0.0838445  -0.00323018  nan  nan  nan  nan  nan  nan  -0.999338  -0.0061928  1.00057  0.0165726  -0.0224004  -0.00733934  0.0019701  -0.0203326  0.0016955  0  0  0  0  0  0  0.0166103  0.000213361  -0.0171631  -0.00779345  0.0207434  -0.00508772  -0.0179744  0.0172694  0.00564849  -0.00456688  0.00881056  -0.0161076 
1699965126.475384000  0  0  11.6343  0.0878471  -0.100575  -0.00368807  nan  nan  nan  nan  nan  nan  -0.999328  -0.0062925  1.00058  0.0165897  -0.0222457  -0.00762855  0.0019701  -0.0195595  0.0016955  0  0  0  0  0  0  0.0165702  0.000319163  -0.0171883  -0.00790022  0.0205219  -0.00496655  -0.0180723  0.0175004  0.00589268  -0.00942913  0.040147  -0.0128259 
1699965126.480436000  0  0  11.6493  0.0847589  -0.110024  -0.00358283  nan  nan  nan  nan  nan  nan  -0.999318  -0.0063883  1.00059  0.0150059  -0.0221386  -0.00788941  0.0019701  -0.0187213  0.0016955  0  0  0  0  0  0  0.0165782  0.000233183  -0.0172101  -0.00802972  0.0186833  -0.00618365  -0.016586  0.0178304  0.00605068  -0.0169265  0.0560077  -0.0157215 
1699965126.484526000  0  0  11.6601  0.0741768  -0.103577  -0.00241662  nan  nan  nan  nan  nan  nan  -0.999309  -0.0064796  1.0006  0.014627  -0.0222766  -0.00818694  0.0019701  -0.0178216  0.0016955  0  0  0  0  0  0  0.0165477  0.000324977  -0.0172428  -0.00775452  0.017996  -0.00701117  -0.0160881  0.018035  0.00611724  -0.000342671  0.0412324  -0.0309646 
1699965126.490463000  0  0  11.653  0.0689579  -0.118725  -0.00183732  nan  nan  nan  nan  nan  nan  -0.999299  -0.0065664  1.00061  0.012676  -0.0231189  -0.00846435  0.0019701  -0.0168643  0.0016955  0  0  0  0  0  0  0.0166152  0.000157592  -0.0172661  -0.00684743  0.0158127  -0.00637041  -0.0142027  0.0192887  0.00609123  -0.0072505  0.059995  -0.0379458 
1699965126.495455000  0  0  11.6621  0.0623315  -0.123343  -0.00215283  nan  nan  nan  nan  nan  nan  -0.999289  -0.0066482  1.00062  0.0111538  -0.0231297  -0.00874567  0.0019701  -0.0158531  0.0016955  0  0  0  0  0  0  0.0166314  8.52933e-05  -0.017292  -0.00685843  0.0140044  -0.00708466  -0.0127091  0.0196782  0.00620453  -0.00773917  0.0656467  -0.0351349 
1699965126.500412000  0  0  11.6323  0.0470915  -0.107631  -0.00295151  nan  nan  nan  nan  nan  nan  -0.999279  -0.0067248  1.00063  0.0106764  -0.0230758  -0.00905675  0.0019701  -0.0147918  0.0016955  0  0  0  0  0  0  0.0165969  0.000153627  -0.0173054  -0.00692979  0.0131904  -0.00456973  -0.0119725  0.019589  0.00642879  0.0159639  0.0350421  -0.0273939 
1699965126.505542000  0  0  11.6282  0.0568932  -0.113388  -0.00460421  nan  nan  nan  nan  nan  nan  -0.999269  -0.006796  1.00063  0.00886179  -0.0236117  -0.00934853  0.0019701  -0.0136841  0.0016955  0  0  0  0  0  0  0.0166547  1.66651e-05  -0.0173059  -0.0063939  0.0111297  -0.00422989  -0.0104601  0.0203417  0.00677469  -0.0175537  0.0396325  -0.0101942 
1699965126.510455000  0  0  11.61  0.0545466  -0.112638  -0.00553279  nan  nan  nan  nan  nan  nan  -0.999259  -0.0068616  1.00064  0.00721823  -0.0239813  -0.00964759  0.0019701  -0.0125337  0.0016955  0  0  0  0  0  0  0.0167156  -0.000110425  -0.0172942  -0.00611735  0.0092603  -0.00273645  -0.00901114  0.0208033  0.00710552  -0.0261907  0.0338865  -0.00189531 
1699965126.515537000  0  0  11.6008  0.0611839  -0.0951537  -0.00472265  nan  nan  nan  nan  nan  nan  -0.999249  -0.0069213  1.00065  0.00681679  -0.0238271  -0.00997831  0.0019701  -0.0113444  0.0016955  0  0  0  0  0  0  0.0166843  -6.45302e-05  -0.0173095  -0.00627346  0.00862527  -0.001934  -0.00886628  0.0204739  0.00729372  -0.040798  0.00194737  -0.0139041 
1699965126.520446000  0  0  11.5845  0.0836225  -0.0960927  -0.00418779  nan  nan  nan  nan  nan  nan  -0.99924  -0.006975  1.00066  0.00554482  -0.0239397  -0.0102962  0.0019701  -0.01012  0.0016955  0  0  0  0  0  0  0.0167284  -0.000167766  -0.0172955  -0.00628384  0.00719395  -0.00060799  -0.00838081  0.0205505  0.0074578  -0.0901415  0.0031211  -0.0222307 
1699965126.525989000  0  0  11.5682  0.0821691  -0.0892132  -0.0034296  nan  nan  nan  nan  nan  nan  -0.99923  -0.0070225  1.00067  0.00334186  -0.0244975  -0.0105994  0.0019701  -0.0088642  0.0016955  0  0  0  0  0  0  0.0168126  -0.000425869  -0.0172579  -0.00582525  0.00490885  0.000679901  -0.00688154  0.0209366  0.00752103  -0.101028  -0.0141899  -0.0323403 
1699965126.530392000  0  0  11.5763  0.0791995  -0.0844898  -0.00342218  nan  nan  nan  nan  nan  nan  -0.99922  -0.0070636  1.00068  0.00290533  -0.0241243  -0.0109477  0.0019701  -0.0075807  0.0016955  0  0  0  0  0  0  0.0167838  -0.000400079  -0.017268  -0.00622416  0.00428696  2.34697e-05  -0.00682335  0.0204433  0.00770971  -0.0956241  -0.019099  -0.0343198 
1699965126.535368000  0  0  11.5664  0.107943  -0.0744852  -0.003864  nan  nan  nan  nan  nan  nan  -0.99921  -0.0070982  1.00069  0.00156899  -0.0240017  -0.0111697  0.0019701  -0.0062733  0.0016955  0  0  0  0  0  0  0.0168223  -0.000530793  -0.0172415  -0.00651265  0.00285168  0.000799148  -0.00672609  0.0199763  0.00783373  -0.154006  -0.0348116  -0.0300373 
1699965126.540426000  0  0  11.527  0.111321  -0.0597791  -0.00330182  nan  nan  nan  nan  nan  nan  -0.9992  -0.0071263  1.00069  0.00146703  -0.023586  -0.0111666  0.0019701  -0.0049458  0.0016954  0  0  0  0  0  0  0.0167875  -0.000514509  -0.0172023  -0.00707444  0.00268522  0.00399931  -0.00742739  0.0191272  0.00763536  -0.154311  -0.0564119  -0.0350808 
1699965126.545372000  0  0  11.5581  0.10451  -0.061014  -0.00298088  nan  nan  nan  nan  nan  nan  -0.99919  -0.0071477  1.0007  0.000195481  -0.0237521  -0.0111366  0.0019701  -0.0036019  0.0016932  0  0  0  0  0  0  0.016825  -0.000645548  -0.0171976  -0.00688129  0.0013459  0.00140868  -0.00686847  0.0190205  0.00742398  -0.14583  -0.0529607  -0.0369789 
1699965126.550418000  0  0  11.5372  0.129629  -0.0654222  -0.00383219  nan  nan  nan  nan  nan  nan  -0.999181  -0.0071623  1.00071  -0.000402719  -0.0233459  -0.0111226  0.0019701  -0.0022454  0.0016853  0  0  0  0  0  0  0.0167897  -0.000642947  -0.0171774  -0.00738725  0.000579549  0.00310029  -0.007558  0.0185015  0.00737524  -0.189725  -0.0393696  -0.02585 
1699965126.555425000  0  0  11.551  0.127564  -0.0522722  -0.00430758  nan  nan  nan  nan  nan  nan  -0.999171  -0.0071701  1.00072  -0.00171819  -0.0232882  -0.011092  0.0019701  -0.0008799  0.001668  0  0  0  0  0  0  0.0168006  -0.000815933  -0.0171687  -0.00746911  -0.000723846  0.0019486  -0.00725201  0.0180247  0.00731077  -0.188409  -0.0612829  -0.019263 
1699965126.560420000  0  0  11.5776  0.127793  -0.0593099  -0.00510615  nan  nan  nan  nan  nan  nan  -0.999161  -0.0071711  1.00073  -0.00277764  -0.0234361  -0.0110669  0.0019701  0.0004907  0.0016374  0  0  0  0  0  0  0.0168093  -0.000923641  -0.0171644  -0.00724438  -0.00185472  -0.000270749  -0.00719249  0.0179939  0.00733511  -0.189415  -0.046924  -0.00952422 
1699965126.565391000  0  0  11.5636  0.138814  -0.0652607  -0.00508138  nan  nan  nan  nan  nan  nan  -0.999151  -0.0071652  1.00074  -0.00348662  -0.0232078  -0.0110511  0.0019701  0.0018626  0.0015898  0  0  0  0  0  0  0.0167728  -0.000937706  -0.0171521  -0.00750316  -0.00272606  0.000867638  -0.00766227  0.0177078  0.00729317  -0.207135  -0.0323908  -0.00941449 
1699965126.570434000  0  0  11.6031  0.116415  -0.0576745  -0.00300005  nan  nan  nan  nan  nan  nan  -0.999141  -0.0071525  1.00074  -0.00413336  -0.0229331  -0.0110372  0.0019701  0.0032323  0.0015215  0  0  0  0  0  0  0.0167756  -0.00105043  -0.0171477  -0.00777122  -0.00332152  -0.00242628  -0.00763528  0.0171375  0.00698696  -0.162586  -0.0423163  -0.0323691 
1699965126.575421000  0  0  11.6194  0.124622  -0.0670095  -0.00332693  nan  nan  nan  nan  nan  nan  -0.999131  -0.0071329  1.00075  -0.0047927  -0.0230302  -0.0110216  0.0019701  0.0045958  0.0014287  0  0  0  0  0  0  0.0167409  -0.00107153  -0.0171657  -0.00753683  -0.00413484  -0.00374401  -0.0078903  0.0172323  0.00687579  -0.176653  -0.0245181  -0.0271712 
1699965126.580419000  0  0  11.5622  0.126676  -0.0740325  -0.00350725  nan  nan  nan  nan  nan  nan  -0.999121  -0.0071065  1.00076  -0.00587029  -0.0231921  -0.0109959  0.0019701  0.0059495  0.0013081  0  0  0  0  0  0  0.0167427  -0.00120511  -0.0171241  -0.00749385  -0.00519195  0.000941153  -0.00783897  0.017403  0.00679219  -0.181233  -0.0120426  -0.0240813 
1699965126.585996000  0  0  11.5986  0.108208  -0.0707604  -0.00270727  nan  nan  nan  nan  nan  nan  -0.999112  -0.0070734  1.00076  -0.00701017  -0.0231167  -0.01097  0.0019701  0.0072895  0.0011611  0  0  0  0  0  0  0.0167564  -0.00136136  -0.017125  -0.00754417  -0.00633678  -0.00207969  -0.00732622  0.0172061  0.00655844  -0.149015  -0.0167753  -0.0317435 
1699965126.590431000  0  0  11.644  0.10914  -0.0830093  -0.00241771  nan  nan  nan  nan  nan  nan  -0.999102  -0.0070336  1.00077  -0.00759066  -0.0230762  -0.0109568  0.0019701  0.0086123  0.0009912  0  0  0  0  0  0  0.0167243  -0.00139653  -0.0171735  -0.00741737  -0.0070454  -0.00575953  -0.007369  0.0173619  0.00637013  -0.150485  0.00628942  -0.0334799 
1699965126.595373000  0  0  11.58  0.108986  -0.0920817  -0.00239132  nan  nan  nan  nan  nan  nan  -0.999092  -0.0069873  1.00077  -0.00884191  -0.0233441  -0.0109256  0.0019701  0.0099139  0.0008024  0  0  0  0  0  0  0.0167367  -0.00155759  -0.0171322  -0.00728126  -0.00824466  -0.000500592  -0.00693529  0.0178349  0.00621761  -0.154168  0.020082  -0.0322846 
1699965126.600387000  0  0  11.6029  0.0914165  -0.0917392  -0.00224586  nan  nan  nan  nan  nan  nan  -0.999082  -0.0069346  1.00078  -0.0087623  -0.0228608  -0.0109317  0.0019701  0.0111906  0.0005983  0  0  0  0  0  0  0.0166971  -0.00159498  -0.0171637  -0.0077558  -0.0080755  -0.00235767  -0.00732131  0.0174802  0.00605565  -0.115477  0.0226608  -0.0324832 
1699965126.605393000  0  0  11.6486  0.0869817  -0.102419  -0.00233541  nan  nan  nan  nan  nan  nan  -0.999072  -0.0068755  1.00078  -0.0103405  -0.0233409  -0.0108907  0.0019701  0.0124388  0.0003827  0  0  0  0  0  0  0.0167326  -0.00180181  -0.0172099  -0.00712005  -0.0097101  -0.006048  -0.00633338  0.0182532  0.00591587  -0.115696  0.036908  -0.029966 
1699965126.610440000  0  0  11.548  0.0961338  -0.106462  -0.00302693  nan  nan  nan  nan  nan  nan  -0.999062  -0.0068102  1.00078  -0.0115518  -0.0237906  -0.0108572  0.0019701  0.0136546  0.0001593  0  0  0  0  0  0  0.0167712  -0.00200632  -0.0171498  -0.00690497  -0.0106968  0.00222339  -0.00598895  0.0189338  0.00588535  -0.137169  0.0387327  -0.0210169 
1699965126.615436000  0  0  11.6209  0.0777148  -0.108513  -0.00308771  nan  nan  nan  nan  nan  nan  -0.999052  -0.006739  1.00078  -0.0115325  -0.023611  -0.0108597  0.0019701  0.0148343  -6.81e-05  0  0  0  0  0  0  0.016738  -0.0020589  -0.0172005  -0.00687116  -0.0106483  -0.00374916  -0.00623015  0.0189899  0.00580087  -0.0981122  0.0423185  -0.0194123 
1699965126.620432000  0  0  11.6269  0.0851312  -0.115004  -0.0031835  nan  nan  nan  nan  nan  nan  -0.999043  -0.0066619  1.00078  -0.0133206  -0.0241522  -0.0108103  0.0019701  0.0159741  -0.0002958  0  0  0  0  0  0  0.0167833  -0.00230521  -0.0171874  -0.00628163  -0.0124253  -0.00425422  -0.00521301  0.019815  0.00570402  -0.122303  0.0477101  -0.0172466 
1699965126.625370000  0  0  11.5757  0.0968293  -0.111502  -0.00284398  nan  nan  nan  nan  nan  nan  -0.999033  -0.0065793  1.00078  -0.0133956  -0.023989  -0.0108107  0.0019701  0.0170704  -0.00052  0  0  0  0  0  0  0.0167499  -0.00236549  -0.0171676  -0.00655509  -0.0123083  -3.41085e-05  -0.00596527  0.0197986  0.00558734  -0.138778  0.0408557  -0.0203236 
1699965126.630416000  0  0  11.6195  0.0862588  -0.109055  -0.0022547  nan  nan  nan  nan  nan  nan  -0.999023  -0.0064913  1.00077  -0.0138774  -0.0239499  -0.0107996  0.0019701  0.0181193  -0.000737  0  0  0  0  0  0  0.0167751  -0.00256866  -0.0171794  -0.00655175  -0.0125446  -0.00366089  -0.00599914  0.019865  0.00542188  -0.117325  0.0353528  -0.0260351 
1699965126.635423000  0  0  11.6052  0.107466  -0.10939  -0.00250876  nan  nan  nan  nan  nan  nan  -0.999013  -0.0063982  1.00077  -0.0141949  -0.0241758  -0.0107888  0.0019701  0.019117  -0.000943  0  0  0  0  0  0  0.0167459  -0.00263507  -0.0171901  -0.00623762  -0.012787  -0.00244554  -0.00665406  0.0202494  0.00534348  -0.153714  0.0324853  -0.0220754 
1699965126.640565000  0  0  11.5612  0.108877  -0.0992946  -0.00214385  nan  nan  nan  nan  nan  nan  -0.999003  -0.0063002  1.00077  -0.0149528  -0.0242232  -0.0107698  0.0019701  0.02006  -0.0011342  0  0  0  0  0  0  0.0167914  -0.00287864  -0.017152  -0.00640562  -0.0131487  0.00115003  -0.00683779  0.0202193  0.00518978  -0.154847  0.0125715  -0.0250997 
1699965126.644440000  0  0  11.5725  0.107343  -0.0931679  -0.00189138  nan  nan  nan  nan  nan  nan  -0.998993  -0.0061977  1.00076  -0.0148145  -0.0239516  -0.0107772  0.0019701  0.0209443  -0.001307  0  0  0  0  0  0  0.0167634  -0.00295103  -0.0171567  -0.00666079  -0.0128256  0.000211402  -0.00747401  0.0198921  0.00507537  -0.145925  0.00332823  -0.0271115 
1699965126.650436000  0  0  11.5934  0.126623  -0.0874792  -0.00209507  nan  nan  nan  nan  nan  nan  -0.998984  -0.0060909  1.00075  -0.015489  -0.0243793  -0.0107544  0.0019701  0.0217663  -0.0014575  0  0  0  0  0  0  0.0167918  -0.00315847  -0.0171702  -0.00612669  -0.0132738  -0.00148652  -0.00803038  0.020191  0.00495546  -0.179367  -0.0107992  -0.0233662 
1699965126.655423000  0  0  11.5731  0.125031  -0.081648  -0.0026116  nan  nan  nan  nan  nan  nan  -0.998974  -0.0059802  1.00074  -0.0156134  -0.0241136  -0.0107555  0.0019703  0.0225221  -0.0015821  0  0  0  0  0  0  0.0168159  -0.00337619  -0.0171461  -0.00657817  -0.0129109  0.000147283  -0.0087438  0.0197694  0.00492515  -0.169619  -0.0185826  -0.0166064 
1699965126.660364000  0  0  11.6359  0.122519  -0.0733903  -0.00237484  nan  nan  nan  nan  nan  nan  -0.998964  -0.0058658  1.00074  -0.0150515  -0.0235608  -0.0107774  0.0019731  0.0232082  -0.0016769  0  0  0  0  0  0  0.0167816  -0.00344066  -0.0172015  -0.00704212  -0.0121447  -0.00498293  -0.0099382  0.0190115  0.00482872  -0.153607  -0.0281253  -0.0186018 
1699965126.665380000  0  0  11.6266  0.133854  -0.0791912  -0.002417  nan  nan  nan  nan  nan  nan  -0.998954  -0.0057482  1.00073  -0.0157555  -0.0240542  -0.010753  0.0019823  0.0238206  -0.0017383  0  0  0  0  0  0  0.0168188  -0.00368181  -0.0172125  -0.00652059  -0.012509  -0.00418206  -0.010292  0.0194483  0.00474714  -0.173022  -0.0205417  -0.0172589 
1699965126.670389000  0  0  11.6001  0.14287  -0.0807711  -0.00267948  nan  nan  nan  nan  nan  nan  -0.998944  -0.0056277  1.00072  -0.0159488  -0.0241068  -0.0107475  0.0020015  0.0243556  -0.0017624  0  0  0  0  0  0  0.0168445  -0.00391641  -0.017196  -0.00658283  -0.0121903  -0.00200782  -0.0111429  0.0194437  0.00471377  -0.183224  -0.0173395  -0.0136442 
1699965126.675421000  0  0  11.6694  0.142493  -0.0700508  -0.00315295  nan  nan  nan  nan  nan  nan  -0.998934  -0.0055048  1.00071  -0.0150987  -0.0235712  -0.0107761  0.0020346  0.0248096  -0.0017455  0  0  0  0  0  0  0.0168099  -0.00397492  -0.017255  -0.00700407  -0.0110762  -0.00768911  -0.0127104  0.0186484  0.00473012  -0.16805  -0.0314642  -0.00788931 
1699965126.680431000  0  0  11.628  0.151232  -0.0743817  -0.0027628  nan  nan  nan  nan  nan  nan  -0.998924  -0.0053798  1.0007  -0.0158026  -0.0241283  -0.0107507  0.0020853  0.0251787  -0.0016839  0  0  0  0  0  0  0.0168577  -0.00423804  -0.017232  -0.00650774  -0.0113376  -0.00427421  -0.0130499  0.0191062  0.00465255  -0.182405  -0.0270133  -0.0119906 
1699965126.685533000  0  0  11.6155  0.146332  -0.0756049  -0.00172409  nan  nan  nan  nan  nan  nan  -0.998913  -0.0052531  1.00069  -0.015744  -0.0240919  -0.0107527  0.0021573  0.0254592  -0.0015738  0  0  0  0  0  0  0.0168872  -0.00446665  -0.017242  -0.0066525  -0.0107314  -0.00322271  -0.0138571  0.018968  0.00447382  -0.165178  -0.023296  -0.0231871 
1699965126.690433000  0  0  11.6661  0.143914  -0.0684995  -0.00120427  nan  nan  nan  nan  nan  nan  -0.998902  -0.0051253  1.00069  -0.0146794  -0.0234724  -0.0107874  0.0022544  0.0256473  -0.0014115  0  0  0  0  0  0  0.0168519  -0.00451899  -0.017301  -0.00722751  -0.00931764  -0.00735546  -0.0154951  0.0181503  0.00431889  -0.145274  -0.0299841  -0.0281356 
1699965126.695424000  0  0  11.6271  0.154571  -0.0734697  -0.00150798  nan  nan  nan  nan  nan  nan  -0.99889  -0.0049968  1.00068  -0.0149076  -0.0237836  -0.0107775  0.0023803  0.0257393  -0.0011932  0  0  0  0  0  0  0.0168712  -0.00473063  -0.017292  -0.00697208  -0.00908169  -0.00412551  -0.0161662  0.0184141  0.00422851  -0.160414  -0.0224706  -0.0234354 
1699965126.700441000  0  0  11.6253  0.160254  -0.0777334  -0.00172564  nan  nan  nan  nan  nan  nan  -0.998878  -0.0048681  1.00067  -0.0134692  -0.0233425  -0.0108176  0.0025388  0.0257315  -0.0009152  0  0  0  0  0  0  0.0168349  -0.00476867  -0.017308  -0.00744486  -0.00713158  -0.00400501  -0.0183356  0.0180083  0.00417458  -0.15182  -0.0102095  -0.0201754 
1699965126.705442000  0  0  11.6659  0.151129  -0.0804668  -0.00173927  nan  nan  nan  nan  nan  nan  -0.998865  -0.0047397  1.00067  -0.0133409  -0.0229266  -0.0108261  0.0027337  0.0256201  -0.0005737  0  0  0  0  0  0  0.0168305  -0.00498056  -0.0173624  -0.0078675  -0.00655081  -0.0072932  -0.0189142  0.0176859  0.00407393  -0.128247  -0.00177686  -0.0189985 
1699965126.710434000  0  0  11.6686  0.154574  -0.0851544  -0.00159466  nan  nan  nan  nan  nan  nan  -0.998851  -0.0046121  1.00067  -0.0132069  -0.0231772  -0.0108259  0.0029687  0.0254013  -0.0001649  0  0  0  0  0  0  0.0168341  -0.00516946  -0.0173949  -0.00754143  -0.00596508  -0.00746284  -0.0196316  0.0180525  0.00394325  -0.128538  0.00422606  -0.0194992 
1699965126.715429000  0  0  11.649  0.162864  -0.0923745  -0.00157732  nan  nan  nan  nan  nan  nan  -0.998835  -0.0044858  1.00067  -0.0115595  -0.0225774  -0.010871  0.0032475  0.0250714  0.0003148  0  0  0  0  0  0  0.0167924  -0.00519215  -0.0174137  -0.00825112  -0.00374615  -0.00586004  -0.0218985  0.0176781  0.00387199  -0.124262  0.0221102  -0.0190034 
