ts fx fy fz tx ty tz exfx exfy exfz extx exty extz xd yd zd rolld pitchd yawd vxd vyd vzd wxd wyd wzd axd ayd azd e_x e_y e_z e_vx e_vy e_vz e_rx e_ry e_rz e_wx e_wy e_wz
1703170553.534408000  0  0  11.2789  0.117608  -0.15045  0.0147077  nan  nan  nan  nan  nan  nan  -2.5  -0.3  1  0.0240579  -0.00116278  -2.79793e-05  0  0  0  0  0  0  0  0  0  -0.00623974  0.0162614  -0.00183143  0.0191801  -0.0146707  -0.0023924  -0.0159569  0.0244384  -0.0189242  -0.0686075  0.0414549  0.0430541 
1703170553.538276000  0  0  11.2506  0.0794513  -0.109515  0.017294  nan  nan  nan  nan  nan  nan  -2.5  -0.3  1  0.0227665  -0.000986096  -2.24539e-05  0  0  0  0  0  0  0  0  0  -0.00617123  0.016192  -0.00182224  0.0187524  -0.0162332  -0.000390311  -0.0142849  0.0236134  -0.0190535  -0.00602475  -0.0368294  0.0120705 
1703170553.543222000  0  0  11.2479  0.0741537  -0.126946  0.0214303  nan  nan  nan  nan  nan  nan  -2.5  -0.3  1  0.023516  -0.00251707  -5.92023e-05  0  0  0  0  0  0  0  0  0  -0.00617457  0.0162824  -0.00177511  0.0207527  -0.0155211  -0.000315835  -0.0148744  0.0251532  -0.0195628  0.0121159  -0.0171662  -0.0338341 
1703170553.548268000  0  0  11.2669  0.113122  -0.140607  0.0166736  nan  nan  nan  nan  nan  nan  -2.5  -0.3  1  0.0241358  -0.00283464  -6.84293e-05  0  0  0  0  0  0  0  0  0  -0.00607502  0.0162164  -0.00179043  0.0208903  -0.0144744  -0.0016508  -0.0162187  0.0256817  -0.0191246  -0.055977  0.0060456  0.0207344 
1703170553.553273000  0  0  11.278  0.088211  -0.110611  0.0184167  nan  nan  nan  nan  nan  nan  -2.5  -0.3  1  0.0236968  -0.00195054  -4.62303e-05  0  0  0  0  0  0  0  0  0  -0.00612214  0.0162919  -0.00174306  0.0198743  -0.0152305  -0.00251212  -0.0155476  0.0243475  -0.019224  -0.0102816  -0.0429241  5.23693e-07 
1703170553.558287000  0  0  11.2549  0.079699  -0.12086  0.0200019  nan  nan  nan  nan  nan  nan  -2.5  -0.3  1  0.0234163  -0.0029618  -6.93669e-05  0  0  0  0  0  0  0  0  0  -0.00601579  0.0162165  -0.00173825  0.020884  -0.015445  -0.000896891  -0.0151615  0.0252509  -0.0194398  0.00352877  -0.031342  -0.0173443 
1703170553.563277000  0  0  11.2296  0.102776  -0.126909  0.0170544  nan  nan  nan  nan  nan  nan  -2.5  -0.3  1  0.0247034  -0.00362303  -8.95193e-05  0  0  0  0  0  0  0  0  0  -0.00599993  0.0163252  -0.00156648  0.0216894  -0.0141495  0.00053708  -0.0167973  0.0257245  -0.0191576  -0.0271357  -0.0238181  0.0163412 
1703170553.568264000  0  0  11.2948  0.0891698  -0.124885  0.0165443  nan  nan  nan  nan  nan  nan  -2.5  -0.3  1  0.0245553  -0.00275785  -6.77334e-05  0  0  0  0  0  0  0  0  0  -0.00600045  0.0164028  -0.00143895  0.020588  -0.0143774  -0.00433764  -0.0164796  0.0247338  -0.01901  -0.00161555  -0.016762  0.0209797 
1703170553.573424000  0  0  11.2147  0.069624  -0.117964  0.0193411  nan  nan  nan  nan  nan  nan  -2.5  -0.3  1  0.0241483  -0.00367965  -8.88744e-05  0  0  0  0  0  0  0  0  0  -0.00589104  0.0163265  -0.00140298  0.0214481  -0.0149162  0.00127158  -0.0157188  0.0253181  -0.019247  0.0315432  -0.0383239  -0.0113524 
1703170553.578282000  0  0  11.2715  0.0740713  -0.132141  0.0193587  nan  nan  nan  nan  nan  nan  -2.5  -0.3  1  0.0247208  -0.00455317  -0.000112581  0  0  0  0  0  0  0  0  0  -0.00590548  0.0164203  -0.00140591  0.0226519  -0.0142765  -0.00277404  -0.0162038  0.0262516  -0.019314  0.027586  -0.0186632  -0.0107672 
1703170553.583358000  0  0  11.314  0.0725479  -0.129033  0.0178075  nan  nan  nan  nan  nan  nan  -2.5  -0.3  1  0.0252836  -0.00270713  -6.84605e-05  0  0  0  0  0  0  0  0  0  -0.00596121  0.0165258  -0.00140312  0.0204168  -0.0137191  -0.00575841  -0.0165374  0.0245629  -0.0191813  0.0346912  -0.00590047  0.00715126 
1703170553.588366000  0  0  11.2243  0.0510535  -0.11113  0.0207885  nan  nan  nan  nan  nan  nan  -2.5  -0.3  1  0.0243616  -0.00383406  -9.34223e-05  0  0  0  0  0  0  0  0  0  -0.00585201  0.0164489  -0.00137076  0.0215421  -0.0149594  0.000532145  -0.015149  0.025177  -0.0194765  0.064808  -0.0513552  -0.0267976 
1703170553.593301000  0  0  11.2722  0.0566571  -0.129359  0.0202859  nan  nan  nan  nan  nan  nan  -2.5  -0.3  1  0.0249868  -0.00498931  -0.000124692  0  0  0  0  0  0  0  0  0  -0.0058267  0.0165437  -0.00125949  0.0229977  -0.0142781  -0.00311237  -0.0155434  0.026235  -0.0195517  0.0573295  -0.0244386  -0.019568 
1703170553.598291000  0  0  11.3154  0.0661354  -0.136498  0.0170521  nan  nan  nan  nan  nan  nan  -2.5  -0.3  1  0.0249757  -0.00416082  -0.000103941  0  0  0  0  0  0  0  0  0  -0.00573168  0.0164789  -0.00129833  0.0216695  -0.0139844  -0.00609066  -0.0154748  0.0255738  -0.0192293  0.0362169  -0.00152322  0.0172342 
1703170553.603292000  0  0  11.21  0.0405535  -0.108646  0.0195386  nan  nan  nan  nan  nan  nan  -2.5  -0.3  1  0.0244376  -0.00405033  -9.89999e-05  0  0  0  0  0  0  0  0  0  -0.00575916  0.0165579  -0.00122281  0.0215531  -0.0152107  0.00126027  -0.0142996  0.0249307  -0.0194515  0.0775502  -0.0538475  -0.0113731 
1703170553.607295000  0  0  11.239  0.0407968  -0.122079  0.0210722  nan  nan  nan  nan  nan  nan  -2.5  -0.3  1  0.0244269  -0.00553413  -0.000135208  0  0  0  0  0  0  0  0  0  -0.0056618  0.0165035  -0.00124355  0.0232195  -0.0149883  -0.000774245  -0.0140369  0.0263049  -0.0196808  0.0740067  -0.0408523  -0.0279046 
1703170553.613280000  0  0  11.276  0.0721452  -0.123846  0.0170272  nan  nan  nan  nan  nan  nan  -2.5  -0.3  1  0.0254578  -0.00459775  -0.000117074  0  0  0  0  0  0  0  0  0  -0.00568091  0.0166057  -0.00123981  0.0220765  -0.0138297  -0.00338846  -0.0152274  0.0253962  -0.0193153  0.020484  -0.0266092  0.0185846 
1703170553.618277000  0  0  11.2038  0.0481746  -0.105257  0.0199214  nan  nan  nan  nan  nan  nan  -2.5  -0.3  1  0.0249097  -0.00462749  -0.000115293  0  0  0  0  0  0  0  0  0  -0.00569946  0.0166854  -0.00117598  0.0221289  -0.014978  0.0016176  -0.0141472  0.0249866  -0.019584  0.0594551  -0.0617565  -0.0145926 
1703170553.623283000  0  0  11.2067  0.0584351  -0.116581  0.0203561  nan  nan  nan  nan  nan  nan  -2.5  -0.3  1  0.0257804  -0.00539898  -0.000139218  0  0  0  0  0  0  0  0  0  -0.00558565  0.0166261  -0.00117743  0.0228084  -0.0136737  0.00141114  -0.0148664  0.0255874  -0.0197374  0.0457288  -0.0443875  -0.0182133 
1703170553.628277000  0  0  11.2202  0.0824399  -0.118072  0.0175783  nan  nan  nan  nan  nan  nan  -2.5  -0.3  1  0.0258103  -0.00550235  -0.000142048  0  0  0  0  0  0  0  0  0  -0.00560254  0.0167154  -0.00114341  0.0229987  -0.0138477  0.000381902  -0.0152195  0.0255903  -0.019449  -0.00168153  -0.0412228  0.0132617 
1703170553.633276000  0  0  11.1813  0.0662394  -0.10828  0.0199209  nan  nan  nan  nan  nan  nan  -2.5  -0.3  1  0.025847  -0.00517815  -0.000133869  0  0  0  0  0  0  0  0  0  -0.00561507  0.0168076  -0.00106973  0.0225902  -0.0141777  0.00300857  -0.0148989  0.0249869  -0.0196737  0.0293685  -0.055278  -0.0135051 
1703170553.638109000  0  0  11.1349  0.0814634  -0.10502  0.0196399  nan  nan  nan  nan  nan  nan  -2.5  -0.3  1  0.0269283  -0.00510927  -0.000137617  0  0  0  0  0  0  0  0  0  -0.00551213  0.0167543  -0.00103256  0.0221825  -0.0127741  0.0062447  -0.0160338  0.0245845  -0.0197188  0.0097802  -0.0576399  -0.00942639 
1703170553.643277000  0  0  11.1876  0.0958183  -0.116042  0.0183119  nan  nan  nan  nan  nan  nan  -2.5  -0.3  1  0.0265331  -0.00632931  -0.000167975  0  0  0  0  0  0  0  0  0  -0.00550692  0.0168362  -0.000989917  0.0237774  -0.0133521  0.00238372  -0.0159673  0.0256875  -0.019576  -0.0217646  -0.046695  0.0055621 
1703170553.648294000  0  0  11.1928  0.0846049  -0.119243  0.0193975  nan  nan  nan  nan  nan  nan  -2.5  -0.3  1  0.0262332  -0.00584359  -0.00015333  0  0  0  0  0  0  0  0  0  -0.00540167  0.0167702  -0.000980244  0.0228543  -0.0135378  0.0020067  -0.0155322  0.0251591  -0.0196917  -0.00272669  -0.0337527  -0.00670253 
1703170553.652310000  0  0  11.0871  0.0896995  -0.099609  0.019188  nan  nan  nan  nan  nan  nan  -2.5  -0.3  1  0.0270337  -0.00550157  -0.000148763  0  0  0  0  0  0  0  0  0  -0.00531849  0.0167248  -0.000908419  0.022109  -0.0127045  0.00938855  -0.0163605  0.0243023  -0.0196958  -0.00412166  -0.0659952  -0.00401763 
1703170553.658298000  0  0  11.202  0.0944538  -0.119816  0.0190993  nan  nan  nan  nan  nan  nan  -2.5  -0.3  1  0.0273327  -0.00716187  -0.0001958  0  0  0  0  0  0  0  0  0  -0.00537623  0.0169769  -0.00069672  0.0244967  -0.0126711  0.000765239  -0.0167778  0.0257317  -0.019697  -0.00951532  -0.0391102  -0.0028869 
1703170553.663266000  0  0  11.2028  0.0919863  -0.118838  0.00852274  nan  nan  nan  nan  nan  nan  -2.5  -0.3  1  0.0276392  -0.00533971  -0.0101476  2e-07  2e-07  2e-07  0  0  0  0.000125  0.000125  0.000125  -0.00528396  0.0169224  -0.00068211  0.0222494  -0.0121728  0.000715663  -0.0169504  0.0242054  -0.00960906  -0.00223848  -0.0236496  0.00859144 
1703170553.668268000  0  0  11.0615  0.087441  -0.0833255  0.00942523  nan  nan  nan  nan  nan  nan  -2.5  -0.3  1  0.0284679  -0.004921  -0.0101401  1.7e-06  1.7e-06  1.7e-06  0  0  0  0.0005  0.0005  0.0005  -0.00529526  0.0170301  -0.000544858  0.0217142  -0.0118143  0.0105245  -0.0176216  0.0229848  -0.00968222  0.0152291  -0.0857538  -0.00188217 
1703170553.673286000  0  0  11.2151  0.0878077  -0.121198  0.0107605  nan  nan  nan  nan  nan  nan  -2.5  -0.3  1  0.0270705  -0.00776526  -0.0102103  5.6e-06  5.6e-06  5.6e-06  0  0  0  0.001125  0.001125  0.001125  -0.00515941  0.0169649  -0.000599484  0.0251749  -0.0128901  -0.000275681  -0.0163492  0.0258671  -0.009838  -0.000195093  -0.0377041  -0.0168049 
1703170553.678269000  0  0  11.2102  0.0990303  -0.118431  0.0091867  nan  nan  nan  nan  nan  nan  -2.5  -0.3  1  0.0282549  -0.00513626  -0.0101453  1.33e-05  1.33e-05  1.33e-05  0  0  0  0.002  0.002  0.002  -0.00521031  0.017093  -0.000542318  0.0220372  -0.0115849  6.98933e-05  -0.0176116  0.0234092  -0.00973007  -0.00973596  -0.0153613  0.00169593 
1703170553.683278000  0  0  11.068  0.0764169  -0.0853562  0.0137614  nan  nan  nan  nan  nan  nan  -2.5  -0.3  1  0.0285842  -0.0049072  -0.0101406  2.6e-05  2.6e-05  2.6e-05  0  0  0  0.003125  0.003125  0.003125  -0.00520645  0.0171923  -0.000414218  0.0217965  -0.0117578  0.0100221  -0.0175113  0.0224456  -0.0102831  0.0375992  -0.0751968  -0.0491986 
1703170553.688242000  0  0  11.2303  0.0759916  -0.126839  0.0167735  nan  nan  nan  nan  nan  nan  -2.5  -0.3  1  0.0278191  -0.00747012  -0.0102084  4.5e-05  4.5e-05  4.5e-05  0  0  0  0.0045  0.0045  0.0045  -0.00507384  0.0171377  -0.000477921  0.0250183  -0.0119121  -0.00131029  -0.016684  0.0251981  -0.0108855  0.0289928  -0.0179135  -0.0798358 
1703170553.693289000  0  0  11.1693  0.0932268  -0.124914  0.014739  nan  nan  nan  nan  nan  nan  -2.5  -0.299999  1  0.0286628  -0.00509475  -0.0101471  7.15e-05  7.15e-05  7.15e-05  0  0  0  0.006125  0.006125  0.006125  -0.00511413  0.0172549  -0.00039276  0.0222349  -0.011106  0.00301285  -0.0176461  0.0230746  -0.0110144  0.00310512  0.00239013  -0.0526834 
1703170553.698285000  0  0  11.0965  0.0533891  -0.0948058  0.0180649  nan  nan  nan  nan  nan  nan  -2.5  -0.299999  1  0.0273117  -0.00551095  -0.0101523  0.0001067  0.0001067  0.0001067  0  0  0  0.008  0.008  0.008  -0.00500073  0.017189  -0.000330913  0.0226319  -0.0126521  0.00821442  -0.0156258  0.0227803  -0.011645  0.0652849  -0.058785  -0.0869288 
1703170553.703278000  0  0  11.1866  0.0656072  -0.126639  0.0174329  nan  nan  nan  nan  nan  nan  -2.5  -0.299998  1  0.0281676  -0.00679035  -0.010194  0.0001519  0.0001519  0.0001519  0  0  0  0.010125  0.010125  0.010125  -0.00497419  0.0173142  -0.000308583  0.0245637  -0.0113516  0.00192258  -0.0163622  0.0243522  -0.0120024  0.0475574  -0.00860906  -0.0746687 
1703170553.707264000  0  0  11.1749  0.0800692  -0.131461  0.0139219  nan  nan  nan  nan  nan  nan  -2.5  -0.299997  1  0.0275936  -0.00624776  -0.0101766  0.0002083  0.0002083  0.0002083  0  0  0  0.0125  0.0125  0.0125  -0.0048864  0.0172682  -0.000285844  0.02391  -0.0116808  0.00289611  -0.0159768  0.02397  -0.0118452  0.0121135  0.00612614  -0.0323878 
1703170553.713283000  0  0  11.1131  0.0495758  -0.0979892  0.0160195  nan  nan  nan  nan  nan  nan  -2.5  -0.299996  1  0.0272468  -0.0053157  -0.010151  0.0002773  0.0002773  0.0002773  0  0  0  0.015125  0.015125  0.015125  -0.00488689  0.0173706  -0.00017771  0.0230084  -0.012256  0.00730324  -0.0149486  0.0224978  -0.012273  0.0656706  -0.0487089  -0.0536234 
1703170553.718283000  0  0  11.1548  0.0671222  -0.115231  0.0155025  nan  nan  nan  nan  nan  nan  -2.49999  -0.299995  1.00001  0.0279114  -0.0058809  -0.0101728  0.00036  0.00036  0.00036  0  0  0  0.018  0.018  0.018  -0.00487384  0.0174726  -0.000194106  0.0241153  -0.0111847  0.00460493  -0.0156264  0.0232178  -0.0124512  0.0358442  -0.0200213  -0.044971 
1703170553.723278000  0  0  11.1637  0.0729753  -0.118647  0.0135554  nan  nan  nan  nan  nan  nan  -2.49999  -0.299993  1.00001  0.0266335  -0.00608127  -0.0101739  0.0004577  0.0004577  0.0004577  0  0  0  0.021125  0.021125  0.021125  -0.0047524  0.01741  -0.000170976  0.0244318  -0.0122184  0.00416158  -0.0144722  0.023421  -0.0123756  0.010016  -0.0150334  -0.0213838 
1703170553.728284000  0  0  11.1698  0.0557524  -0.104277  0.0154487  nan  nan  nan  nan  nan  nan  -2.49999  -0.29999  1.00001  0.0268991  -0.00463496  -0.0101407  0.0005717  0.0005717  0.0005717  0  0  0  0.0245  0.0245  0.0245  -0.0047595  0.0175251  -0.000103471  0.0230368  -0.0117196  0.00388901  -0.0142645  0.0218352  -0.0127161  0.0445561  -0.0276029  -0.0411 
1703170553.733283000  0  0  11.1522  0.060204  -0.106665  0.0158947  nan  nan  nan  nan  nan  nan  -2.49999  -0.299987  1.00001  0.0271624  -0.0048371  -0.0101525  0.0007031  0.0007031  0.0007031  0  0  0  0.028125  0.028125  0.028125  -0.00474494  0.017628  -7.47827e-05  0.0237278  -0.0112511  0.00537683  -0.0144012  0.0220279  -0.0129368  0.0365833  -0.0247002  -0.0440523 
1703170553.738283000  0  0  11.2038  0.0588153  -0.1242  0.0160436  nan  nan  nan  nan  nan  nan  -2.49998  -0.299983  1.00002  0.0256137  -0.00605554  -0.0101824  0.0008533  0.0008533  0.0008533  0  0  0  0.032  0.032  0.032  -0.00462018  0.0175646  -8.41006e-05  0.0254742  -0.0124196  0.00200964  -0.0128622  0.0233789  -0.0131285  0.021856  -0.00264195  -0.0436149 
1703170553.743282000  0  0  11.2215  0.0536624  -0.116015  0.0158731  nan  nan  nan  nan  nan  nan  -2.49998  -0.299978  1.00002  0.0254035  -0.0044464  -0.0101478  0.0010235  0.0010235  0.0010235  0  0  0  0.036125  0.036125  0.036125  -0.00451053  0.0175116  -7.15466e-05  0.0236301  -0.0119258  0.00107842  -0.0124507  0.0217903  -0.0132999  0.0281716  -0.00191838  -0.0394033 
1703170553.748285000  0  0  11.1304  0.0526874  -0.101014  0.0182217  nan  nan  nan  nan  nan  nan  -2.49997  -0.299973  1.00003  0.0249981  -0.00467973  -0.0101607  0.001215  0.001215  0.001215  0  0  0  0.0405  0.0405  0.0405  -0.00451374  0.017634  3.3865e-05  0.0244617  -0.0124873  0.00768566  -0.0119678  0.0217017  -0.0137515  0.0247064  -0.0330635  -0.0635103 
1703170553.753284000  0  0  11.246  0.058462  -0.128422  0.0187024  nan  nan  nan  nan  nan  nan  -2.49997  -0.299966  1.00003  0.0243706  -0.00588558  -0.0101978  0.001429  0.001429  0.001429  0  0  0  0.045125  0.045125  0.045125  -0.00447068  0.0177209  -6.47074e-06  0.0265754  -0.0126208  -9.91722e-05  -0.0114482  0.0232732  -0.0140801  0.0063465  0.00762489  -0.0655977 
1703170553.758284000  0  0  11.2383  0.0748846  -0.1203  0.0154616  nan  nan  nan  nan  nan  nan  -2.49996  -0.299958  1.00004  0.0250138  -0.00327612  -0.0101487  0.0016667  0.0016667  0.0016667  0  0  0  0.05  0.05  0.05  -0.00437611  0.017679  9.10094e-06  0.0235633  -0.0110125  0.000848103  -0.0123159  0.020844  -0.013975  -0.018885  0.0181579  -0.0260888 
1703170553.763283000  0  0  11.1235  0.0614668  -0.0936943  0.0178083  nan  nan  nan  nan  nan  nan  -2.49995  -0.299949  1.00005  0.0235725  -0.00367279  -0.0101676  0.0019294  0.0019294  0.0019294  0  0  0  0.055125  0.055125  0.055125  -0.00435866  0.0177732  0.000134654  0.0246343  -0.0127933  0.00915223  -0.0108988  0.0207315  -0.0143496  -0.00641642  -0.0375975  -0.0510995 
1703170553.768291000  0  0  11.2561  0.0669852  -0.122363  0.0185674  nan  nan  nan  nan  nan  nan  -2.49994  -0.299939  1.00006  0.0235844  -0.00498188  -0.0102151  0.0022183  0.0022183  0.0022183  0  0  0  0.0605  0.0605  0.0605  -0.00432218  0.0178736  8.44537e-05  0.0270039  -0.012009  0.000241856  -0.0110484  0.0223757  -0.0146703  -0.0165281  0.0049599  -0.056786 
1703170553.773293000  0  0  11.2497  0.101559  -0.112921  0.0130726  nan  nan  nan  nan  nan  nan  -2.49993  -0.299927  1.00007  0.0243588  -0.00195823  -0.0101643  0.0025348  0.0025348  0.0025348  0  0  0  0.066125  0.066125  0.066125  -0.00422641  0.0178371  0.000104425  0.0235489  -0.0101362  0.00115214  -0.0125196  0.0195566  -0.0142448  -0.0737383  0.0171454  0.00722238 
1703170553.778284000  0  0  11.1567  0.0774729  -0.0763828  0.0162522  nan  nan  nan  nan  nan  nan  -2.49991  -0.299914  1.00009  0.0220548  -0.0024915  -0.0101932  0.00288  0.00288  0.00288  0  0  0  0.072  0.072  0.072  -0.00419763  0.0179084  0.000211283  0.0248763  -0.0128029  0.00799826  -0.0103874  0.0193426  -0.0145651  -0.0466216  -0.0587403  -0.0289227 
1703170553.783282000  0  0  11.3001  0.0881504  -0.10985  0.0181531  nan  nan  nan  nan  nan  nan  -2.4999  -0.299898  1.0001  0.0227262  -0.00342416  -0.0102406  0.0032552  0.0032552  0.003255  0  0  0  0.078125  0.078125  0.0779792  -0.00416258  0.0180199  0.000159162  0.0268577  -0.011081  -0.00161482  -0.0113984  0.020632  -0.0149461  -0.0578849  -0.00181232  -0.0482476 
1703170553.788291000  0  0  11.267  0.124945  -0.0961038  0.0130189  nan  nan  nan  nan  nan  nan  -2.49988  -0.299881  1.00012  0.0232211  -0.000240649  -0.010196  0.0036617  0.0036617  0.0036594  0  0  0  0.0845  0.0845  0.0837224  -0.00407211  0.0179848  0.000186233  0.0232891  -0.00954234  0.00118419  -0.0128687  0.0175568  -0.0145143  -0.119866  0.00409126  0.0111473 
1703170553.793289000  0  0  11.2209  0.075895  -0.0622885  0.017563  nan  nan  nan  nan  nan  nan  -2.49986  -0.299862  1.00014  0.02053  -0.00051678  -0.010232  0.0041006  0.0041006  0.0040918  0  0  0  0.091125  0.091125  0.0892156  -0.00403775  0.0180641  0.000276146  0.024386  -0.0125106  0.00469945  -0.0100756  0.017115  -0.0149717  -0.0468246  -0.0633346  -0.0405148 
1703170553.798290000  0  0  11.3419  0.0819598  -0.0945593  0.0188891  nan  nan  nan  nan  nan  nan  -2.49984  -0.29984  1.00016  0.0208318  -0.00109367  -0.0102788  0.0045733  0.0045733  0.0045511  0  0  0  0.098  0.098  0.0944588  -0.00390573  0.0180265  0.000226241  0.0256901  -0.0108229  -0.00337679  -0.0106374  0.0179776  -0.0153621  -0.0533656  -0.00406105  -0.0524945 
1703170553.803283000  0  0  11.2599  0.128579  -0.0799005  0.0142063  nan  nan  nan  nan  nan  nan  -2.49982  -0.299816  1.00018  0.0215707  0.00221059  -0.0102468  0.005081  0.005081  0.005036  0  0  0  0.105125  0.105125  0.099452  -0.00390152  0.0181454  0.000455955  0.0223156  -0.00941278  0.00241561  -0.0125636  0.0146078  -0.0149736  -0.13117  0.0032732  0.00174301 
1703170553.808284000  0  0  11.2476  0.0701473  -0.0593598  0.0200842  nan  nan  nan  nan  nan  nan  -2.49979  -0.299789  1.00021  0.0185421  0.0022812  -0.0102947  0.005625  0.005625  0.0055452  0  0  0  0.1125  0.1125  0.104195  -0.00383189  0.0181973  0.000667402  0.0229626  -0.0125539  0.00322558  -0.00937114  0.0139394  -0.0156151  -0.0426047  -0.0330809  -0.0644818 
1703170553.813284000  0  0  11.3067  0.0665612  -0.0819528  0.0212973  nan  nan  nan  nan  nan  nan  -2.49976  -0.299759  1.00024  0.018553  0.00263319  -0.0103348  0.0062065  0.0062065  0.0060775  0  0  0  0.120125  0.120125  0.108688  -0.00371558  0.0181561  0.000648883  0.0231656  -0.0112861  -0.000570911  -0.00943616  0.0139458  -0.0160888  -0.034167  0.01529  -0.074035 
1703170553.818263000  0  0  11.2307  0.0960698  -0.0820729  0.0152255  nan  nan  nan  nan  nan  nan  -2.49973  -0.299727  1.00027  0.018087  0.0045108  -0.0103533  0.0068267  0.0068267  0.0066317  0  0  0  0.128  0.128  0.112932  -0.00368215  0.0182375  0.000860002  0.0216886  -0.0112211  0.00474325  -0.00982782  0.0122704  -0.015619  -0.092935  0.034822  -0.00330055 
1703170553.823282000  0  0  11.2843  0.0367568  -0.079398  0.0190998  nan  nan  nan  nan  nan  nan  -2.49969  -0.299691  1.00031  0.0143139  0.00468722  -0.0104236  0.0074869  0.0074869  0.0072064  0  0  0  0.136125  0.136125  0.116925  -0.00357179  0.0181557  0.000844202  0.0221408  -0.0147234  0.00127442  -0.00568292  0.0122457  -0.0159997  -0.0134376  0.0293707  -0.0474592 
1703170553.828285000  0  0  11.262  0.038448  -0.0842122  0.0198218  nan  nan  nan  nan  nan  nan  -2.49965  -0.299652  1.00034  0.0151264  0.00582516  -0.0104632  0.0081883  0.0081883  0.0078005  0  0  0  0.1445  0.1445  0.120668  -0.00354959  0.0182949  0.0010151  0.0217251  -0.0129773  0.00282411  -0.00644499  0.0113444  -0.0163252  -0.00829682  0.0500618  -0.0526201 
1703170553.833266000  0  0  11.2291  0.0571913  -0.101935  0.0154349  nan  nan  nan  nan  nan  nan  -2.49961  -0.299609  1.00038  0.0138776  0.00665989  -0.0105245  0.0089323  0.0089323  0.0084127  0  0  0  0.153125  0.153125  0.124161  -0.00351761  0.0183641  0.0012028  0.0216944  -0.0137023  0.00505201  -0.00578703  0.0110917  -0.0159576  -0.0560565  0.0909712  -0.00185479 
1703170553.838285000  0  0  11.2754  0.0100758  -0.0986739  0.0177983  nan  nan  nan  nan  nan  nan  -2.49956  -0.299563  1.00043  0.0102133  0.00807498  -0.0106051  0.00972  0.00972  0.0090417  0  0  0  0.162  0.162  0.127404  -0.00342182  0.0182746  0.0011934  0.0206656  -0.0169581  0.00203647  -0.00180728  0.0102486  -0.0161303  -0.000813449  0.0936785  -0.0295099 
1703170553.843277000  0  0  11.1893  0.0102526  -0.0908183  0.019776  nan  nan  nan  nan  nan  nan  -2.49951  -0.299512  1.00047  0.0108666  0.00913373  -0.0106643  0.0105527  0.0105527  0.0096863  0  0  0  0.171125  0.171125  0.130398  -0.00341322  0.0184106  0.00142716  0.0205647  -0.0153825  0.0079251  -0.00233614  0.0093878  -0.0164781  0.00489167  0.0867367  -0.0502012 
1703170553.848285000  0  0  11.2598  0.0334119  -0.129546  0.0168672  nan  nan  nan  nan  nan  nan  -2.49946  -0.299457  1.00052  0.0084418  0.00870899  -0.0107715  0.0114317  0.0114317  0.0103453  0  0  0  0.1805  0.1805  0.133141  -0.00329427  0.0183259  0.00141786  0.0219102  -0.0169768  0.00312932  -0.000664517  0.0109911  -0.0162316  -0.0639985  0.151335  -0.0165734 
1703170553.853284000  0  0  11.2616  0.00236255  -0.104228  0.0195314  nan  nan  nan  nan  nan  nan  -2.4994  -0.299398  1.00058  0.00637162  0.0117718  -0.0108569  0.0123581  0.0123581  0.0110173  0  0  0  0.190125  0.190125  0.135634  -0.00328875  0.0183648  0.00160799  0.0191486  -0.0184657  0.00283814  0.00155835  0.00832183  -0.0165219  -0.0229936  0.127754  -0.0465956 
1703170553.858289000  0  0  11.1778  0.00534833  -0.0927181  0.0230287  nan  nan  nan  nan  nan  nan  -2.49933  -0.299333  1.00063  0.0064596  0.0126604  -0.0109427  0.0133333  0.0133333  0.0117012  0  0  0  0.2  0.2  0.137877  -0.00335112  0.0185127  0.00167096  0.0195948  -0.0175179  0.00885503  0.00135618  0.00787483  -0.017122  -0.02707  0.108216  -0.0833661 
1703170553.863283000  0  0  11.2903  0.0372181  -0.143524  0.0185452  nan  nan  nan  nan  nan  nan  -2.49926  -0.299264  1.00069  0.00446025  0.0122479  -0.0110682  0.0143585  0.0143585  0.0123957  0  0  0  0.210125  0.210125  0.13987  -0.00324486  0.0184241  0.00163913  0.0209749  -0.0184584  0.00106526  0.00232901  0.00980435  -0.0168191  -0.106599  0.194958  -0.0306045 
1703170553.868292000  0  0  11.2504  0.0234358  -0.108371  0.0195287  nan  nan  nan  nan  nan  nan  -2.49919  -0.29919  1.00076  0.00307827  0.0161831  -0.0111771  0.015435  0.015435  0.0130995  0  0  0  0.2205  0.2205  0.141613  -0.00332179  0.0185141  0.00167542  0.0174831  -0.0191044  0.00402694  0.00340805  0.00656179  -0.0169473  -0.0894594  0.156884  -0.0414347 
1703170553.873290000  0  0  11.1823  0.0159243  -0.0944263  0.0223692  nan  nan  nan  nan  nan  nan  -2.49911  -0.29911  1.00083  0.00123469  0.0163348  -0.0113168  0.016564  0.016564  0.0138114  0  0  0  0.231125  0.231125  0.143107  -0.00322382  0.0184201  0.0017365  0.0185108  -0.0198398  0.00884728  0.00483028  0.00678058  -0.0173732  -0.0897148  0.124468  -0.0720395 
1703170553.878270000  0  0  11.2822  0.0604713  -0.134799  0.0176894  nan  nan  nan  nan  nan  nan  -2.49902  -0.299024  1.0009  0.000751636  0.0169038  -0.0114404  0.0177467  0.0177467  0.0145301  0  0  0  0.242  0.242  0.14435  -0.00319758  0.0184886  0.00190578  0.0189333  -0.0192021  0.00150726  0.00388302  0.00750904  -0.0170128  -0.174337  0.202656  -0.0175023 
1703170553.883269000  0  0  11.1913  0.0478747  -0.0941149  0.0179748  nan  nan  nan  nan  nan  nan  -2.49893  -0.298932  1.00097  -0.000888187  0.0205464  -0.0115935  0.0189844  0.0189844  0.0152545  0  0  0  0.253125  0.253125  0.145343  -0.00320554  0.0185507  0.00216737  0.0158668  -0.0199836  0.00757146  0.00479777  0.00421233  -0.0169663  -0.15785  0.153346  -0.0216534 
1703170553.888271000  0  0  11.1183  0.037583  -0.0808365  0.0213322  nan  nan  nan  nan  nan  nan  -2.49883  -0.298834  1.00105  -0.00284682  0.0208392  -0.0117628  0.0202783  0.0202783  0.0159831  0  0  0  0.2645  0.2645  0.146086  -0.00311651  0.0184517  0.00224448  0.0168818  -0.0207054  0.0126575  0.0060918  0.00430569  -0.0173484  -0.150669  0.123799  -0.0592915 
1703170553.893270000  0  0  11.2296  0.0853858  -0.118208  0.0183157  nan  nan  nan  nan  nan  nan  -2.49873  -0.298729  1.00113  -0.0030668  0.0222477  -0.0119062  0.0216298  0.0216298  0.0167149  0  0  0  0.276125  0.276125  0.146579  -0.00311262  0.0185191  0.00240565  0.0163044  -0.019657  0.00449056  0.00456866  0.00421547  -0.017145  -0.235648  0.204971  -0.0237883 
1703170553.898270000  0  0  11.1821  0.0633143  -0.0885572  0.0206892  nan  nan  nan  nan  nan  nan  -2.49862  -0.298618  1.00122  -0.00626598  0.0248141  -0.0121341  0.02304  0.02304  0.0174485  0  0  0  0.288  0.288  0.146823  -0.00304518  0.0184062  0.00246385  0.0144359  -0.0218429  0.00781744  0.00681235  0.00230855  -0.0173061  -0.214133  0.16333  -0.0517107 
1703170553.903269000  0  0  11.1257  0.0654877  -0.0815374  0.0246074  nan  nan  nan  nan  nan  nan  -2.4985  -0.298499  1.00131  -0.00669381  0.0259446  -0.0122992  0.0245102  0.0245102  0.0181827  0  0  0  0.300125  0.300125  0.146816  -0.00303311  0.0184762  0.00269732  0.0147019  -0.0209304  0.0113656  0.00617549  0.00163528  -0.0179253  -0.211467  0.156024  -0.0935472 
1703170553.908269000  0  0  11.2073  0.106234  -0.104453  0.0199568  nan  nan  nan  nan  nan  nan  -2.49837  -0.298372  1.0014  -0.00746688  0.0275983  -0.0124848  0.0260417  0.0260417  0.0189163  0  0  0  0.3125  0.3125  0.146559  -0.00304728  0.0185097  0.00283977  0.013974  -0.0204218  0.00529713  0.00498148  0.00112818  -0.017626  -0.285101  0.210993  -0.0386396 
1703170553.913263000  0  0  11.2061  0.0687679  -0.082996  0.020832  nan  nan  nan  nan  nan  nan  -2.49824  -0.298238  1.00149  -0.0107897  0.0295394  -0.0127567  0.0276356  0.0276356  0.0196479  0  0  0  0.325125  0.325125  0.146052  -0.00298169  0.0183923  0.00288483  0.012888  -0.0226843  0.0053092  0.00742996  -4.23614e-05  -0.017638  -0.232932  0.178451  -0.0495076 
1703170553.918264000  0  0  11.1464  0.077936  -0.071319  0.0222028  nan  nan  nan  nan  nan  nan  -2.4981  -0.298096  1.00159  -0.0109527  0.0316656  -0.0129505  0.0292933  0.0292933  0.0203764  0  0  0  0.338  0.338  0.145295  -0.00297938  0.0184618  0.00307774  0.0120416  -0.0212788  0.0091411  0.00629946  -0.0016558  -0.0179053  -0.239585  0.171974  -0.0635326 
1703170553.923270000  0  0  11.2112  0.0976076  -0.0935375  0.0171831  nan  nan  nan  nan  nan  nan  -2.49795  -0.297945  1.0017  -0.013527  0.0323084  -0.0132125  0.031016  0.031016  0.0211004  0  0  0  0.351125  0.351125  0.144289  -0.00291167  0.0183482  0.00307541  0.0124635  -0.0226184  0.00450134  0.00709285  -0.000936949  -0.0173389  -0.290893  0.211347  -0.00720108 
1703170553.928270000  0  0  11.2761  0.0646826  -0.082349  0.0193084  nan  nan  nan  nan  nan  nan  -2.49779  -0.297786  1.00181  -0.0158721  0.0345997  -0.0135028  0.032805  0.032805  0.0218188  0  0  0  0.3645  0.3645  0.143032  -0.00293423  0.0183609  0.00316708  0.011019  -0.0239917  -0.000316863  0.00847572  -0.00246738  -0.0173851  -0.236203  0.204962  -0.033386 
1703170553.933270000  0  0  11.2037  0.0813695  -0.0677656  0.0200812  nan  nan  nan  nan  nan  nan  -2.49762  -0.297617  1.00192  -0.0154437  0.0381509  -0.0137271  0.0346615  0.0346615  0.0225303  0  0  0  0.378125  0.378125  0.141525  -0.00306721  0.0185084  0.00310602  0.00889237  -0.0218564  0.00492533  0.00669968  -0.00498972  -0.0174673  -0.251552  0.20271  -0.042117 
1703170553.938273000  0  0  11.2434  0.0758222  -0.0854118  0.0186927  nan  nan  nan  nan  nan  nan  -2.49744  -0.297439  1.00203  -0.0185904  0.0382124  -0.014039  0.0365867  0.0365867  0.0232337  0  0  0  0.392  0.392  0.139768  -0.00300946  0.0183875  0.00310934  0.0102411  -0.0238242  0.0019946  0.00846354  -0.0037315  -0.0171973  -0.259949  0.226072  -0.027901 
1703170553.943265000  0  0  11.3871  0.0632455  -0.0856087  0.0204456  nan  nan  nan  nan  nan  nan  -2.49725  -0.297251  1.00215  -0.0182188  0.0418396  -0.0142876  0.0385819  0.0385819  0.0239276  0  0  0  0.406125  0.406125  0.137761  -0.00326187  0.018674  0.00305432  0.00741262  -0.0225031  -0.00814345  0.00696058  -0.00614283  -0.0173275  -0.215691  0.254235  -0.0483882 
1703170553.948276000  0  0  11.245  0.0771593  -0.0659037  0.0196633  nan  nan  nan  nan  nan  nan  -2.49705  -0.297053  1.00227  -0.0199073  0.0449912  -0.0146242  0.0406483  0.0406483  0.0246109  0  0  0  0.4205  0.4205  0.135505  -0.00323823  0.0185739  0.00312411  0.00580306  -0.0221508  0.00173935  0.00724573  -0.00820625  -0.0172101  -0.248806  0.235721  -0.0399594 
1703170553.953275000  0  0  11.3045  0.0662037  -0.0830902  0.0203988  nan  nan  nan  nan  nan  nan  -2.49684  -0.296844  1.00239  -0.0223481  0.0456422  -0.0149578  0.0427873  0.0427873  0.0252822  0  0  0  0.435125  0.435125  0.132998  -0.00336237  0.018716  0.00304939  0.00686881  -0.0239123  -0.00247052  0.00846487  -0.00722318  -0.0171818  -0.23934  0.261264  -0.0495554 
1703170553.958271000  0  0  11.4905  0.0612672  -0.0961512  0.0208768  nan  nan  nan  nan  nan  nan  -2.49662  -0.296625  1.00252  -0.0220939  0.0483867  -0.0152225  0.045  0.045  0.0259404  0  0  0  0.45  0.45  0.130241  -0.00351789  0.0188615  0.00277328  0.00464186  -0.0224195  -0.0152108  0.00729107  -0.00794972  -0.0172458  -0.215251  0.297628  -0.0547977 
1703170553.963273000  0  0  11.2703  0.0749385  -0.0726839  0.0195662  nan  nan  nan  nan  nan  nan  -2.49639  -0.296394  1.00265  -0.0247319  0.0517634  -0.0156554  0.0472877  0.0472877  0.0265842  0  0  0  0.465125  0.465125  0.127234  -0.00350293  0.0187545  0.00285937  0.00337792  -0.0229185  0.00014578  0.0083849  -0.0100937  -0.0170175  -0.257149  0.271973  -0.0410594 
1703170553.968273000  0  0  11.3452  0.0420856  -0.089589  0.02085  nan  nan  nan  nan  nan  nan  -2.49615  -0.296152  1.00279  -0.0284169  0.0516815  -0.016072  0.0496517  0.0496517  0.0272124  0  0  0  0.4805  0.4805  0.123977  -0.0035328  0.0187368  0.00275249  0.00506101  -0.0258506  -0.00514069  0.0111755  -0.00833326  -0.0169898  -0.218809  0.28797  -0.0575467 
1703170553.973272000  0  0  11.4783  0.0466781  -0.109588  0.0191752  nan  nan  nan  nan  nan  nan  -2.4959  -0.295898  1.00293  -0.0293291  0.0540513  -0.016423  0.0520931  0.0520931  0.0278236  0  0  0  0.496125  0.496125  0.120471  -0.00352278  0.01863  0.00264379  0.00312354  -0.0250459  -0.0145161  0.0109339  -0.00875437  -0.0168177  -0.225877  0.335697  -0.0385479 
1703170553.978275000  0  0  11.2669  0.0604355  -0.0816187  0.0170856  nan  nan  nan  nan  nan  nan  -2.49563  -0.295631  1.00307  -0.0323079  0.0577262  -0.0169432  0.0546133  0.0546133  0.0284166  0  0  0  0.512  0.512  0.116714  -0.00355328  0.0186097  0.00281909  0.00177798  -0.025961  1.09794e-05  0.012243  -0.0111912  -0.0163625  -0.270436  0.303757  -0.017743 
1703170553.983270000  0  0  11.3337  0.0225783  -0.091842  0.020559  nan  nan  nan  nan  nan  nan  -2.49535  -0.295351  1.00321  -0.0355228  0.0578043  -0.0173786  0.0572135  0.0572135  0.0289903  0  0  0  0.528125  0.528125  0.112707  -0.00356846  0.0185915  0.00283373  0.00331141  -0.0281988  -0.00500247  0.0146987  -0.00977608  -0.016504  -0.217511  0.309399  -0.0597416 
1703170553.988269000  0  0  11.4319  0.0359654  -0.115856  0.0176297  nan  nan  nan  nan  nan  nan  -2.49506  -0.295059  1.00336  -0.0368347  0.0601157  -0.0177926  0.059895  0.059895  0.0295433  0  0  0  0.5445  0.5445  0.10845  -0.00356519  0.0184696  0.00274415  0.00170692  -0.0277322  -0.0119756  0.0146413  -0.00995087  -0.0161402  -0.245556  0.362902  -0.0272691 
1703170553.993261000  0  0  11.2617  0.0360228  -0.0980765  0.0161767  nan  nan  nan  nan  nan  nan  -2.49475  -0.294752  1.00351  -0.0403544  0.0634017  -0.0183962  0.062659  0.062659  0.0300744  0  0  0  0.561125  0.561125  0.103943  -0.00361723  0.0184519  0.00287037  0.000869704  -0.0292403  -0.000308706  0.0166424  -0.0116665  -0.0156342  -0.268701  0.344516  -0.0150857 
1703170553.998273000  0  0  11.3052  0.00450138  -0.103265  0.0205323  nan  nan  nan  nan  nan  nan  -2.49443  -0.294432  1.00366  -0.0438035  0.064305  -0.0189203  0.0655067  0.0655067  0.0305823  0  0  0  0.578  0.578  0.0991865  -0.00360388  0.0183  0.00282796  0.00145535  -0.03122  -0.00355295  0.0191876  -0.0108188  -0.0158268  -0.230392  0.345888  -0.0675679 
1703170554.003272000  0  0  11.3411  0.0415571  -0.12027  0.0188692  nan  nan  nan  nan  nan  nan  -2.4941  -0.294097  1.00381  -0.0443038  0.0668086  -0.0193351  0.0684394  0.068439  0.0310658  0  0  0  0.595125  0.594911  0.0941797  -0.00372232  0.0183785  0.00281171  0.000475634  -0.0299448  -0.00630446  0.0178842  -0.0111229  -0.0156588  -0.294854  0.385849  -0.0486671 
1703170554.008269000  0  0  11.2347  0.0348788  -0.113433  0.0188218  nan  nan  nan  nan  nan  nan  -2.49375  -0.293747  1.00397  -0.0479581  0.0694981  -0.0199865  0.0714583  0.0714554  0.0315237  0  0  0  0.6125  0.611572  0.0889229  -0.00374558  0.018309  0.00292849  6.29566e-05  -0.031638  0.0008095  0.0198801  -0.0119659  -0.0153654  -0.303496  0.380887  -0.0516072 
1703170554.013272000  0  0  11.2412  0.0175452  -0.101685  0.0211094  nan  nan  nan  nan  nan  nan  -2.49338  -0.293382  1.00413  -0.0508311  0.0716826  -0.0205817  0.0745648  0.0745544  0.0319546  0  0  0  0.630125  0.627984  0.0834161  -0.00375295  0.0181516  0.0029132  -0.00057561  -0.032681  0.000141591  0.0214701  -0.0124533  -0.0154581  -0.28462  0.361305  -0.0792733 
1703170554.018271000  0  0  11.2587  0.0430471  -0.117175  0.0196961  nan  nan  nan  nan  nan  nan  -2.493  -0.293002  1.00429  -0.0526561  0.0730567  -0.0210756  0.07776  0.0777348  0.0323574  0  0  0  0.647955  0.644146  0.0776593  -0.00377041  0.0180851  0.00296941  -0.000174908  -0.0327484  -0.00152005  0.021268  -0.0118092  -0.0152612  -0.336977  0.38711  -0.0638642 
1703170554.023273000  0  0  11.2293  0.0404879  -0.119261  0.0194557  nan  nan  nan  nan  nan  nan  -2.4926  -0.292605  1.00445  -0.0561226  0.0753911  -0.0217571  0.081044  0.0809954  0.0327308  0  0  0  0.665619  0.660058  0.0716736  -0.00377694  0.0179147  0.00298064  -0.000720451  -0.0343576  0.000314421  0.0228696  -0.0120813  -0.0149959  -0.349915  0.394712  -0.0640379 
1703170554.028272000  0  0  11.2082  0.0368907  -0.101553  0.0205578  nan  nan  nan  nan  nan  nan  -2.49219  -0.292192  1.00461  -0.0579586  0.0786612  -0.0223882  0.0844157  0.0843349  0.0330744  0  0  0  0.683032  0.67572  0.0658122  -0.00382113  0.0178625  0.00308007  -0.00241889  -0.0342311  0.00138987  0.0230187  -0.0136626  -0.0149969  -0.343917  0.374935  -0.077892 
1703170554.033270000  0  0  11.2246  0.0518837  -0.115916  0.0199925  nan  nan  nan  nan  nan  nan  -2.49176  -0.291761  1.00478  -0.0601347  0.0793633  -0.0229112  0.0878739  0.0877522  0.0333894  0  0  0  0.700196  0.691132  0.0602008  -0.00386781  0.0178266  0.00312188  -0.00116954  -0.0349463  -0.000155683  0.023074  -0.0123742  -0.0148566  -0.376702  0.39091  -0.0724705 
1703170554.038271000  0  0  11.2246  0.061828  -0.12529  0.0187102  nan  nan  nan  nan  nan  nan  -2.49131  -0.291314  1.00495  -0.062435  0.0822476  -0.0235897  0.0914173  0.0912458  0.0336769  0  0  0  0.71711  0.706294  0.0548394  -0.00388844  0.017658  0.00311866  -0.00271071  -0.0352904  -0.000292662  0.0232215  -0.0129806  -0.0145519  -0.399722  0.417986  -0.0600086 
1703170554.043269000  0  0  11.1373  0.0608345  -0.0912829  0.0190972  nan  nan  nan  nan  nan  nan  -2.49085  -0.290849  1.00512  -0.0643743  0.0861228  -0.0243203  0.0950446  0.0948147  0.0339382  0  0  0  0.733773  0.721205  0.0497281  -0.00396954  0.0176653  0.0032846  -0.00451019  -0.0350303  0.00544392  0.0231605  -0.0153869  -0.0144167  -0.39689  0.372749  -0.066509 
1703170554.048274000  0  0  11.1936  0.0664628  -0.117201  0.0199227  nan  nan  nan  nan  nan  nan  -2.49036  -0.290366  1.00529  -0.0673394  0.0854857  -0.0248618  0.0987546  0.0984575  0.0341746  0  0  0  0.750187  0.735867  0.0448667  -0.00397296  0.0174821  0.00326684  -0.0022  -0.036768  0.00124141  0.0238649  -0.0126653  -0.0143202  -0.417062  0.397013  -0.078059 
1703170554.053270000  0  0  11.1773  0.101387  -0.122712  0.0172859  nan  nan  nan  nan  nan  nan  -2.48986  -0.289864  1.00546  -0.0678927  0.0897505  -0.0255325  0.102546  0.102173  0.0343873  0  0  0  0.76635  0.750279  0.0402553  -0.00407005  0.0175166  0.00344419  -0.00517359  -0.0353394  0.00198861  0.021714  -0.0147003  -0.0139845  -0.467204  0.432242  -0.0489279 
1703170554.058268000  0  0  11.0816  0.0850212  -0.0853202  0.018553  nan  nan  nan  nan  nan  nan  -2.48934  -0.289344  1.00563  -0.0713122  0.0927448  -0.0263942  0.106418  0.10596  0.0345775  0  0  0  0.782264  0.764441  0.0358939  -0.00409677  0.0173374  0.00351597  -0.005967  -0.0364123  0.00860383  0.0229621  -0.0162384  -0.0137698  -0.446469  0.36976  -0.0674594 
1703170554.063270000  0  0  11.1886  0.0949588  -0.125135  0.0204  nan  nan  nan  nan  nan  nan  -2.48879  -0.288804  1.00581  -0.072631  0.0919862  -0.0268088  0.110368  0.109817  0.0347466  0  0  0  0.797928  0.778353  0.0317825  -0.00420252  0.017325  0.00344285  -0.00385639  -0.0370638  0.000945934  0.0218837  -0.0130939  -0.0139177  -0.455372  0.418957  -0.088915 
1703170554.068271000  0  0  11.1685  0.131301  -0.129631  0.0168148  nan  nan  nan  nan  nan  nan  -2.48823  -0.288246  1.00598  -0.0729317  0.0966666  -0.0275301  0.114397  0.113743  0.0348958  0  0  0  0.813341  0.792015  0.0279211  -0.00439455  0.0173831  0.00343676  -0.00712998  -0.0353966  0.00245185  0.0193212  -0.0151916  -0.0134914  -0.50382  0.45273  -0.0489444 
1703170554.073299000  0  0  11.105  0.0970187  -0.0978242  0.0189305  nan  nan  nan  nan  nan  nan  -2.48765  -0.287667  1.00615  -0.0765713  0.0990136  -0.0284219  0.118501  0.117737  0.0350263  0  0  0  0.828505  0.805427  0.0243098  -0.00442477  0.0171995  0.00349545  -0.00749718  -0.037058  0.00687535  0.0209496  -0.0159421  -0.0133316  -0.449043  0.393162  -0.077491 
1703170554.078273000  0  0  11.1972  0.100705  -0.137955  0.0204522  nan  nan  nan  nan  nan  nan  -2.48705  -0.287068  1.00633  -0.0774383  0.0984486  -0.0288301  0.122681  0.121797  0.0351393  0  0  0  0.843418  0.818589  0.0209484  -0.00448558  0.0172229  0.00363673  -0.00576108  -0.0372539  -0.000131307  0.0195437  -0.0131082  -0.0135282  -0.440773  0.446611  -0.094267 
1703170554.083272000  0  0  11.146  0.123903  -0.135837  0.0163569  nan  nan  nan  nan  nan  nan  -2.48642  -0.286449  1.00651  -0.0794749  0.101794  -0.0296685  0.126935  0.125922  0.0352362  0  0  0  0.858082  0.8315  0.017837  -0.00453757  0.0170489  0.00367408  -0.00749791  -0.0369984  0.00353842  0.0188517  -0.0141071  -0.0129097  -0.482555  0.453561  -0.0501934 
1703170554.088274000  0  0  11.1176  0.0933655  -0.10355  0.0185402  nan  nan  nan  nan  nan  nan  -2.48578  -0.285809  1.00668  -0.0816685  0.10483  -0.0305181  0.131262  0.130111  0.0353181  0  0  0  0.872495  0.844162  0.0149756  -0.00476223  0.0171241  0.00373815  -0.0086375  -0.0378717  0.00553862  0.0192716  -0.0154855  -0.0128593  -0.421905  0.400186  -0.0782727 
1703170554.093270000  0  0  11.207  0.0919833  -0.134189  0.0191781  nan  nan  nan  nan  nan  nan  -2.48511  -0.285148  1.00686  -0.0825833  0.10496  -0.0310095  0.13566  0.134363  0.0353863  0  0  0  0.886659  0.856574  0.0123642  -0.00483919  0.0170911  0.00378747  -0.00789004  -0.0380537  -0.000960482  0.0181716  -0.0133339  -0.0128988  -0.406286  0.441131  -0.0858234 
1703170554.098296000  0  0  11.1518  0.102978  -0.125726  0.0154602  nan  nan  nan  nan  nan  nan  -2.48442  -0.284465  1.00704  -0.084919  0.107589  -0.0318691  0.140128  0.138677  0.0354421  0  0  0  0.900573  0.868736  0.0100028  -0.00488288  0.0169107  0.00382707  -0.00876395  -0.0382082  0.00302515  0.0181391  -0.013871  -0.0122472  -0.429489  0.429163  -0.0468976 
1703170554.103279000  0  0  11.1296  0.0704443  -0.106946  0.016701  nan  nan  nan  nan  nan  nan  -2.48371  -0.283761  1.00721  -0.0871319  0.110009  -0.0327155  0.144665  0.14305  0.0354868  0  0  0  0.914236  0.880648  0.0078914  -0.00498229  0.0169241  0.00401717  -0.00963944  -0.0390852  0.00435634  0.0187677  -0.0147468  -0.0120023  -0.366959  0.39897  -0.0654624 
1703170554.108287000  0  0  11.181  0.0623248  -0.116408  0.0172293  nan  nan  nan  nan  nan  nan  -2.48297  -0.283034  1.00739  -0.0883945  0.111053  -0.0333502  0.14927  0.147483  0.0355215  0  0  0  0.92765  0.89231  0.0060301  -0.00509004  0.0168704  0.00402815  -0.00967114  -0.0393772  0.000761417  0.0184028  -0.0138097  -0.011888  -0.345352  0.408478  -0.0734872 
1703170554.113292000  0  0  11.1745  0.0693424  -0.122271  0.015449  nan  nan  nan  nan  nan  nan  -2.48222  -0.282286  1.00757  -0.0908257  0.11229  -0.0341431  0.153941  0.151973  0.0355475  0  0  0  0.940813  0.903722  0.0044187  -0.00512605  0.0166756  0.00404212  -0.00948991  -0.0402139  0.00134249  0.0188027  -0.0129919  -0.0113963  -0.365  0.411643  -0.0570138 
1703170554.118291000  0  0  11.1807  0.0506407  -0.118075  0.0152197  nan  nan  nan  nan  nan  nan  -2.48143  -0.281515  1.00775  -0.0935048  0.114467  -0.0350642  0.158677  0.15652  0.0355661  0  0  0  0.953727  0.914883  0.0030573  -0.00519137  0.0164714  0.00404809  -0.0106579  -0.0414418  0.0011535  0.0199093  -0.0131977  -0.0109619  -0.337629  0.405012  -0.0593649 
1703170554.123279000  0  0  11.1624  0.0373493  -0.117589  0.0169834  nan  nan  nan  nan  nan  nan  -2.48063  -0.280721  1.00792  -0.0957303  0.115934  -0.0358825  0.163478  0.161121  0.0355785  0  0  0  0.966391  0.925795  0.0019459  -0.0052866  0.0163824  0.00413052  -0.010509  -0.0422301  0.00247257  0.020597  -0.0128475  -0.0108396  -0.31704  0.399941  -0.0830298 
1703170554.128298000  0  0  11.1996  0.0469957  -0.129117  0.017621  nan  nan  nan  nan  nan  nan  -2.4798  -0.279903  1.0081  -0.0969277  0.116542  -0.0365091  0.168341  0.165777  0.0355859  0  0  0  0.978804  0.936457  0.0010845  -0.00539888  0.0163234  0.00418331  -0.00995075  -0.0424653  -0.000155668  0.0199945  -0.0115182  -0.0107903  -0.330794  0.409369  -0.0916466 
1703170554.133307000  0  0  11.1906  0.0525232  -0.129099  0.0162671  nan  nan  nan  nan  nan  nan  -2.47895  -0.279063  1.00828  -0.0987412  0.119577  -0.0374549  0.173265  0.170486  0.0355897  0  0  0  0.990968  0.946869  0.0004731  -0.00546338  0.0161214  0.00419479  -0.0120924  -0.0424679  0.000820565  0.0199519  -0.0124057  -0.0104366  -0.342156  0.41954  -0.0788761 
1703170554.138288000  0  0  11.1158  0.0266462  -0.106326  0.0186985  nan  nan  nan  nan  nan  nan  -2.47807  -0.278198  1.00846  -0.101911  0.121102  -0.0384323  0.17825  0.175245  0.0355911  0  0  0  1.00288  0.957031  0.0001118  -0.00556943  0.0160204  0.00432619  -0.0113283  -0.0438564  0.00613601  0.0216685  -0.0125885  -0.0103579  -0.306417  0.372811  -0.110417 
1703170554.143283000  0  0  11.1988  0.041149  -0.133464  0.019338  nan  nan  nan  nan  nan  nan  -2.47716  -0.27731  1.00864  -0.102275  0.120895  -0.0389025  0.183294  0.180055  0.0355913  0  0  0  1.01454  0.966943  -0  -0.00569483  0.015947  0.00435724  -0.0104246  -0.0436702  0.000286285  0.020287  -0.0103732  -0.0105176  -0.321622  0.405518  -0.116537 
1703170554.148288000  0  0  11.1811  0.0672886  -0.138268  0.0148539  nan  nan  nan  nan  nan  nan  -2.47623  -0.276398  1.00881  -0.103588  0.124171  -0.0398536  0.188395  0.184914  0.0355913  0  0  0  1.02596  0.976605  -0  -0.00577164  0.0157445  0.00438679  -0.0127886  -0.0429905  0.00189992  0.0193884  -0.0113848  -0.00991914  -0.367334  0.427456  -0.0673318 
1703170554.153289000  0  0  11.0775  0.0379731  -0.101633  0.0181761  nan  nan  nan  nan  nan  nan  -2.47528  -0.275461  1.00899  -0.10739  0.1256  -0.0409419  0.193553  0.189821  0.0355913  0  0  0  1.03712  0.986017  -0  -0.00588412  0.0156451  0.00454268  -0.0115591  -0.0448838  0.00925566  0.0215779  -0.0117794  -0.00980223  -0.329663  0.35344  -0.110541 
1703170554.158300000  0  0  11.2014  0.0579986  -0.144865  0.0185898  nan  nan  nan  nan  nan  nan  -2.4743  -0.274499  1.00917  -0.107719  0.123857  -0.0412622  0.198766  0.194774  0.0355913  0  0  0  1.04804  0.995178  -0  -0.00592712  0.0154307  0.00449764  -0.00966048  -0.0449821  0.000575089  0.0199771  -0.00783724  -0.00996057  -0.354186  0.400788  -0.113838 
1703170554.163292000  0  0  11.1648  0.101381  -0.139711  0.0121142  nan  nan  nan  nan  nan  nan  -2.47329  -0.273513  1.00935  -0.108132  0.128267  -0.0422606  0.204033  0.199772  0.0355913  0  0  0  1.0587  1.00409  -0  -0.00611832  0.0153785  0.00453946  -0.0129277  -0.0433539  0.00353977  0.0177586  -0.0101749  -0.00914371  -0.421687  0.416631  -0.0422068 
1703170554.168300000  0  0  11.1033  0.0566226  -0.102377  0.0164223  nan  nan  nan  nan  nan  nan  -2.47226  -0.272502  1.00953  -0.112036  0.129068  -0.0433334  0.209353  0.204815  0.0355913  0  0  0  1.06911  1.01275  -0  -0.00623256  0.0152505  0.00464071  -0.0116007  -0.0458783  0.00802627  0.0201033  -0.0100403  -0.00898635  -0.352688  0.335027  -0.0983086 
1703170554.173286000  0  0  11.2151  0.0842481  -0.143504  0.0175605  nan  nan  nan  nan  nan  nan  -2.4712  -0.271465  1.0097  -0.111332  0.127837  -0.0435896  0.214724  0.2099  0.0355913  0  0  0  1.07928  1.02116  -0  -0.00628577  0.0150395  0.00461131  -0.0102475  -0.0446519  0.000131532  0.0173695  -0.00669696  -0.00928873  -0.380473  0.384751  -0.108986 
1703170554.178286000  0  0  11.1604  0.141919  -0.135379  0.0114656  nan  nan  nan  nan  nan  nan  -2.47011  -0.270403  1.00988  -0.111144  0.132505  -0.0445724  0.220145  0.215026  0.0355913  0  0  0  1.08919  1.02933  -0  -0.00654134  0.0150797  0.00475372  -0.0134361  -0.0423472  0.00414488  0.0141001  -0.0096555  -0.00854461  -0.466522  0.401366  -0.0412675 
1703170554.183280000  0  0  11.1782  0.0800412  -0.106282  0.0177651  nan  nan  nan  nan  nan  nan  -2.469  -0.269315  1.01006  -0.114305  0.132832  -0.0455294  0.225615  0.220192  0.0355913  0  0  0  1.09885  1.03724  -0  -0.0067258  0.014967  0.00464782  -0.0125922  -0.0450722  0.00341979  0.0159896  -0.00879128  -0.00866767  -0.355578  0.329033  -0.119046 
1703170554.188289000  0  0  11.2475  0.112079  -0.140248  0.0182172  nan  nan  nan  nan  nan  nan  -2.46785  -0.268201  1.01024  -0.113181  0.132313  -0.0458233  0.231133  0.225398  0.0355913  0  0  0  1.10827  1.0449  -0  -0.00678915  0.0147711  0.00462114  -0.0115876  -0.0428906  -0.00147983  0.0127601  -0.00624694  -0.00901077  -0.387121  0.372594  -0.120598 
1703170554.193298000  0  0  11.2381  0.157458  -0.142914  0.0123524  nan  nan  nan  nan  nan  nan  -2.46668  -0.267061  1.01042  -0.114146  0.135149  -0.0467837  0.236697  0.230641  0.0355913  0  0  0  1.11743  1.05231  -0  -0.00701624  0.0146766  0.00452463  -0.0133795  -0.042432  -0.000216327  0.0108215  -0.00703211  -0.00823183  -0.462123  0.387342  -0.056195 
1703170554.198285000  0  0  11.2793  0.0914294  -0.121341  0.0180262  nan  nan  nan  nan  nan  nan  -2.46549  -0.265894  1.01059  -0.117634  0.135117  -0.0477718  0.242307  0.235921  0.0355913  0  0  0  1.12634  1.05947  -0  -0.00707445  0.0144354  0.00451216  -0.0129481  -0.0456567  -0.00277113  0.0131148  -0.00582526  -0.0082986  -0.346924  0.327202  -0.12678 
1703170554.203287000  0  0  11.2996  0.115486  -0.136593  0.0178608  nan  nan  nan  nan  nan  nan  -2.46426  -0.264701  1.01077  -0.115982  0.136032  -0.0481737  0.24796  0.241235  0.0355913  0  0  0  1.13501  1.06639  -0  -0.00722964  0.0143765  0.0045212  -0.0128475  -0.04256  -0.00422853  0.00963119  -0.00504428  -0.00862235  -0.358432  0.35092  -0.120797 
1703170554.208266000  0  0  11.2953  0.138758  -0.1474  0.012824  nan  nan  nan  nan  nan  nan  -2.46301  -0.263482  1.01095  -0.117539  0.137119  -0.0490427  0.253657  0.246584  0.0355913  0  0  0  1.14342  1.07305  -0  -0.00737882  0.0142396  0.00456135  -0.0128297  -0.0430285  -0.00374247  0.00879185  -0.00441551  -0.00785815  -0.398675  0.36686  -0.0666331 
1703170554.213266000  0  0  11.3506  0.080016  -0.133392  0.0170284  nan  nan  nan  nan  nan  nan  -2.46172  -0.262235  1.01113  -0.120477  0.138111  -0.050103  0.259394  0.251965  0.0355913  0  0  0  1.15159  1.07946  -0  -0.0074631  0.0140022  0.00451624  -0.0139815  -0.045784  -0.0071408  0.0107331  -0.00402952  -0.00782388  -0.295052  0.332383  -0.119948 
1703170554.218218000  0  0  11.3026  0.086387  -0.129823  0.0180157  nan  nan  nan  nan  nan  nan  -2.46041  -0.260962  1.01131  -0.12036  0.138545  -0.0506788  0.265172  0.257378  0.0355913  0  0  0  1.1595  1.08562  -0  -0.00753055  0.0137915  0.00451695  -0.0125904  -0.0434587  -0.0037399  0.00919671  -0.00312993  -0.00805013  -0.291037  0.314379  -0.129643 
1703170554.223278000  0  0  11.3691  0.111658  -0.159774  0.0138515  nan  nan  nan  nan  nan  nan  -2.45907  -0.259662  1.01148  -0.121534  0.138223  -0.0513506  0.270989  0.262821  0.0355913  0  0  0  1.16716  1.09153  -0  -0.00768767  0.0137123  0.00448401  -0.0119695  -0.0447463  -0.00822638  0.00828744  -0.000968352  -0.00746332  -0.334763  0.353736  -0.0843206 
1703170554.228266000  0  0  11.3674  0.0615003  -0.133889  0.015743  nan  nan  nan  nan  nan  nan  -2.4577  -0.258334  1.01166  -0.123523  0.140895  -0.0525091  0.276843  0.268293  0.0355913  0  0  0  1.17458  1.09719  -0  -0.00786607  0.0135674  0.00452984  -0.0141712  -0.0457631  -0.00772518  0.0094895  -0.00255662  -0.00730304  -0.241042  0.316504  -0.110053 
1703170554.233265000  0  0  11.2744  0.0613764  -0.12144  0.0167853  nan  nan  nan  nan  nan  nan  -2.4563  -0.256979  1.01184  -0.123657  0.141742  -0.0531904  0.282734  0.273793  0.0355913  0  0  0  1.18174  1.10261  -0  -0.00801858  0.0134657  0.00456605  -0.0124196  -0.0435027  -0.00119207  0.00853795  -0.00241587  -0.00743434  -0.22983  0.28819  -0.121584 
1703170554.238264000  0  0  11.3823  0.0836032  -0.16835  0.0131486  nan  nan  nan  nan  nan  nan  -2.45488  -0.255596  1.01202  -0.125292  0.140033  -0.0537755  0.28866  0.279319  0.0355913  0  0  0  1.18865  1.10777  -0  -0.00806788  0.0132284  0.00448369  -0.0111571  -0.0457308  -0.00858151  0.00839256  0.00129068  -0.00681151  -0.275817  0.346136  -0.0833335 
1703170554.243278000  0  0  11.3403  0.0483386  -0.131351  0.0152664  nan  nan  nan  nan  nan  nan  -2.45342  -0.254185  1.01219  -0.126919  0.143087  -0.0549611  0.29462  0.28487  0.0355913  0  0  0  1.19532  1.11268  -0  -0.00827739  0.0131055  0.0044802  -0.0131673  -0.045839  -0.00513758  0.009228  -0.000780291  -0.0066727  -0.209812  0.290626  -0.111654 
1703170554.248273000  0  0  11.2622  0.0380092  -0.127536  0.0167821  nan  nan  nan  nan  nan  nan  -2.45193  -0.252747  1.01237  -0.127909  0.14239  -0.0555908  0.300613  0.290445  0.0355913  0  0  0  1.20173  1.11734  -0  -0.00832406  0.0128883  0.00449659  -0.0101091  -0.0447452  0.000296043  0.00935388  0.000894476  -0.00676591  -0.189111  0.263178  -0.129601 
1703170554.253269000  0  0  11.3861  0.0736911  -0.175679  0.0124995  nan  nan  nan  nan  nan  nan  -2.45041  -0.251281  1.01255  -0.128144  0.141797  -0.0561293  0.306637  0.296043  0.0355913  0  0  0  1.20789  1.12175  -0  -0.00852432  0.0127729  0.00442685  -0.0101721  -0.0457921  -0.00823752  0.0079255  0.00340341  -0.00624658  -0.24919  0.337545  -0.0819762 
1703170554.258269000  0  0  11.3479  0.048162  -0.135576  0.0146199  nan  nan  nan  nan  nan  nan  -2.44886  -0.249787  1.01273  -0.12962  0.14497  -0.0573361  0.312691  0.301662  0.0355913  0  0  0  1.21381  1.12592  -0  -0.00872732  0.0126507  0.00443374  -0.0125105  -0.0458202  -0.00507797  0.00857008  0.00105986  -0.00612332  -0.201864  0.278515  -0.110142 
1703170554.263271000  0  0  11.2837  0.0411606  -0.133262  0.0173807  nan  nan  nan  nan  nan  nan  -2.44728  -0.248264  1.01291  -0.130349  0.144142  -0.0579264  0.318775  0.307302  0.0355913  0  0  0  1.21947  1.12983  -0  -0.0087683  0.0124349  0.00444591  -0.00960404  -0.0446843  -0.000644051  0.00842363  0.00283459  -0.00636874  -0.185167  0.253136  -0.141921 
1703170554.268272000  0  0  11.3959  0.080527  -0.177836  0.012999  nan  nan  nan  nan  nan  nan  -2.44568  -0.246714  1.01308  -0.130736  0.142892  -0.0584158  0.324886  0.31296  0.0355913  0  0  0  1.22488  1.13349  -0  -0.00881203  0.0122034  0.00437297  -0.0091943  -0.0456258  -0.0084241  0.00703151  0.00594973  -0.0058753  -0.253563  0.312876  -0.0927368 
1703170554.273271000  0  0  11.3513  0.0605102  -0.138352  0.0143996  nan  nan  nan  nan  nan  nan  -2.44404  -0.245135  1.01326  -0.132078  0.145715  -0.0595816  0.331023  0.318636  0.0355913  0  0  0  1.23005  1.1369  -0  -0.00903631  0.0120938  0.00435834  -0.0109926  -0.0455362  -0.00480814  0.00743908  0.00383431  -0.00572072  -0.21533  0.25255  -0.112223 
1703170554.278269000  0  0  11.3142  0.0650489  -0.126493  0.0165774  nan  nan  nan  nan  nan  nan  -2.44237  -0.243527  1.01344  -0.131702  0.14654  -0.0602392  0.337186  0.324329  0.0355913  0  0  0  1.23496  1.14006  -0  -0.00927991  0.0120168  0.00435403  -0.0101465  -0.0436924  -0.00215277  0.00606582  0.00368045  -0.00603653  -0.209264  0.228892  -0.135817 
1703170554.282269000  0  0  11.3872  0.0940649  -0.151003  0.0129829  nan  nan  nan  nan  nan  nan  -2.44066  -0.241891  1.01362  -0.133474  0.146972  -0.0611693  0.343372  0.330036  0.0355913  0  0  0  1.23963  1.14298  -0  -0.00966983  0.0115095  0.00426311  -0.0105169  -0.044993  -0.00681758  0.00619938  0.00450473  -0.00532362  -0.273018  0.271964  -0.0991841 
1703170554.288276000  0  0  11.3518  0.0889461  -0.134755  0.0139961  nan  nan  nan  nan  nan  nan  -2.43893  -0.240227  1.0138  -0.13351  0.147215  -0.0618206  0.349582  0.335758  0.0355913  0  0  0  1.24404  1.14564  -0  -0.00949607  0.0116259  0.00428807  -0.0102192  -0.0443603  -0.00436502  0.00479381  0.00529041  -0.00540482  -0.245872  0.228086  -0.110953 
1703170554.293263000  0  0  11.303  0.102911  -0.114274  0.0160268  nan  nan  nan  nan  nan  nan  -2.43717  -0.238534  1.01397  -0.131939  0.150288  -0.0626071  0.355812  0.341492  0.0355913  0  0  0  1.2482  1.14805  -0  -0.00994263  0.0116866  0.00449336  -0.0115055  -0.0410772  -0.00118062  0.00187994  0.00240389  -0.00577834  -0.242295  0.217377  -0.132002 
1703170554.298269000  0  0  11.3495  0.134235  -0.14176  0.013831  nan  nan  nan  nan  nan  nan  -2.43537  -0.236812  1.01415  -0.132701  0.14905  -0.0631814  0.362063  0.347238  0.0355913  0  0  0  1.25212  1.15021  -0  -0.00999715  0.0114731  0.00445246  -0.0102216  -0.0418171  -0.00440442  0.000707027  0.00498894  -0.0054343  -0.295966  0.246574  -0.10852 
1703170554.303273000  0  0  11.3597  0.11486  -0.120893  0.0161605  nan  nan  nan  nan  nan  nan  -2.43355  -0.235061  1.01433  -0.133154  0.150197  -0.0640269  0.368333  0.352994  0.0355913  0  0  0  1.25578  1.15212  -0  -0.010161  0.0113299  0.00450755  -0.0110928  -0.0416263  -0.00504153  6.51045e-06  0.00419421  -0.00559785  -0.246363  0.210974  -0.135859 
1703170554.308270000  0  0  11.3113  0.134233  -0.112373  0.0164113  nan  nan  nan  nan  nan  nan  -2.43169  -0.233282  1.01451  -0.131992  0.15184  -0.064694  0.374621  0.358759  0.0355913  0  0  0  1.25919  1.15378  -0  -0.0103714  0.0112435  0.00449755  -0.0113108  -0.0386979  -0.00157464  -0.00251518  0.00326082  -0.0058656  -0.258893  0.203443  -0.135788 
1703170554.313268000  0  0  11.335  0.139535  -0.127083  0.0145326  nan  nan  nan  nan  nan  nan  -2.4298  -0.231474  1.01469  -0.133382  0.150155  -0.0653162  0.380925  0.364531  0.0355913  0  0  0  1.26236  1.1552  -0  -0.0104161  0.0110331  0.00446905  -0.00922668  -0.0400669  -0.00323754  -0.00267205  0.00588735  -0.00547563  -0.268458  0.204767  -0.11685 
1703170554.318269000  0  0  11.4141  0.12292  -0.12816  0.0162185  nan  nan  nan  nan  nan  nan  -2.42788  -0.229637  1.01486  -0.132684  0.150691  -0.0659152  0.387244  0.37031  0.0355913  0  0  0  1.26527  1.15636  -0  -0.0106468  0.0109231  0.0043494  -0.0103685  -0.0396465  -0.00850736  -0.00412974  0.00624438  -0.00575214  -0.216061  0.20297  -0.13473 
1703170554.323270000  0  0  11.3315  0.139116  -0.119723  0.0139636  nan  nan  nan  nan  nan  nan  -2.42593  -0.227771  1.01504  -0.132295  0.152015  -0.066667  0.393577  0.376095  0.0355913  0  0  0  1.26793  1.15727  -0  -0.0106994  0.0107483  0.00436584  -0.0101624  -0.0370941  -0.00268031  -0.0058663  0.00571583  -0.0055804  -0.230812  0.190959  -0.108427 
1703170554.328271000  0  0  11.397  0.12597  -0.130769  0.0144144  nan  nan  nan  nan  nan  nan  -2.42395  -0.225876  1.01522  -0.133285  0.150353  -0.067239  0.399923  0.381883  0.0355913  0  0  0  1.27035  1.15793  -0  -0.0108652  0.010618  0.00433973  -0.00858872  -0.0388764  -0.00728965  -0.00580377  0.00797558  -0.00540856  -0.203342  0.188649  -0.116172 
1703170554.333271000  0  0  11.4905  0.123223  -0.143609  0.0148495  nan  nan  nan  nan  nan  nan  -2.42193  -0.223952  1.0154  -0.131859  0.151088  -0.0677597  0.40628  0.387673  0.0355913  0  0  0  1.27251  1.15834  -0  -0.0110959  0.0105322  0.00425333  -0.0103011  -0.0378586  -0.0137  -0.00788364  0.0082215  -0.00565394  -0.173524  0.213351  -0.118689 
1703170554.338265000  0  0  11.3948  0.13135  -0.119531  0.0129055  nan  nan  nan  nan  nan  nan  -2.41988  -0.221999  1.01558  -0.131863  0.152653  -0.0686093  0.412647  0.393466  0.0355913  0  0  0  1.27442  1.15851  -0  -0.0111571  0.0103609  0.00426003  -0.0102823  -0.0357036  -0.00686037  -0.00894528  0.00719019  -0.00536841  -0.178737  0.173587  -0.0976704 
1703170554.343271000  0  0  11.4732  0.0995638  -0.135508  0.0161124  nan  nan  nan  nan  nan  nan  -2.4178  -0.220017  1.01575  -0.133156  0.150478  -0.069167  0.419024  0.399258  0.0355913  0  0  0  1.27609  1.15842  -0  -0.0113722  0.0102407  0.00413308  -0.00825354  -0.038246  -0.012191  -0.00798111  0.0100442  -0.00545709  -0.121672  0.175011  -0.136951 
1703170554.348271000  0  0  11.5735  0.109454  -0.159561  0.0155947  nan  nan  nan  nan  nan  nan  -2.41569  -0.218006  1.01593  -0.131171  0.150284  -0.0694862  0.425408  0.405049  0.0355913  0  0  0  1.2775  1.15808  -0  -0.0114319  0.0100698  0.00401826  -0.00939861  -0.0365511  -0.0192025  -0.0105215  0.0114391  -0.00575309  -0.113653  0.21054  -0.126869 
1703170554.353271000  0  0  11.422  0.11719  -0.118003  0.0134108  nan  nan  nan  nan  nan  nan  -2.41355  -0.215967  1.01611  -0.131648  0.153262  -0.070597  0.431798  0.410839  0.0355913  0  0  0  1.27867  1.15749  -0  -0.0116411  0.010015  0.00403526  -0.00994634  -0.0344873  -0.00825865  -0.0108696  0.00863949  -0.00540591  -0.126237  0.153636  -0.103576 
