    ts      x      y      z   roll  pitch    yaw     vx     vy     vz     wx     wy     wz     ax     ay     az    dwx    dwy    dwz
 0.0050000  -1.0000000  -0.0000000   1.0000000   0.0000000   0.0000000   0.0000000   0.0000006  -0.0000006   0.0000006   0.0000000   0.0000000   0.0000000   0.0003750  -0.0003750   0.0003750   0.0000000   0.0000000   0.0000000
 0.0100000  -1.0000000  -0.0000000   1.0000000   0.0000000   0.0000000   0.0000000   0.0000050  -0.0000050   0.0000050   0.0000000   0.0000000   0.0000000   0.0015000  -0.0015000   0.0015000   0.0000000   0.0000000   0.0000000
 0.0150000  -1.0000000  -0.0000001   1.0000000   0.0000000   0.0000000   0.0000000   0.0000169  -0.0000169   0.0000169   0.0000000   0.0000000   0.0000000   0.0033750  -0.0033750   0.0033750   0.0000000   0.0000000   0.0000000
 0.0200000  -1.0000000  -0.0000002   1.0000000   0.0000000   0.0000000   0.0000001   0.0000400  -0.0000400   0.0000400   0.0000000   0.0000000   0.0000000   0.0060000  -0.0060000   0.0060000   0.0000000   0.0000000   0.0000000
 0.0250000  -1.0000000  -0.0000005   1.0000000   0.0000000   0.0000000   0.0000002   0.0000781  -0.0000781   0.0000781   0.0000000   0.0000000   0.0000000   0.0093750  -0.0093750   0.0093750   0.0000000   0.0000000   0.0000000
 0.0300000  -0.9999990  -0.0000010   1.0000000   0.0000000   0.0000000   0.0000004   0.0001350  -0.0001350   0.0001350   0.0000000   0.0000000   0.0000000   0.0135000  -0.0135000   0.0135000   0.0000000   0.0000000   0.0000000
 0.0350000  -0.9999980  -0.0000019   1.0000000   0.0000000   0.0000000   0.0000006   0.0002141  -0.0002144   0.0002134   0.0000000   0.0000000   0.0000000   0.0181089  -0.0183750   0.0177563   0.0000000   0.0000000   0.0000000
 0.0400000  -0.9999970  -0.0000032   1.0000000   0.0000000   0.0000000   0.0000008   0.0003149  -0.0003200   0.0003113   0.0000000   0.0000000   0.0000000   0.0220904  -0.0240000   0.0212689   0.0000000   0.0000000   0.0000000
 0.0450000  -0.9999950  -0.0000051   1.0000100   0.0000000   0.0000000   0.0000010   0.0004338  -0.0004556   0.0004249   0.0000000   0.0000000   0.0000000   0.0253219  -0.0303750   0.0240315   0.0000000   0.0000000   0.0000000
 0.0500000  -0.9999920  -0.0000078   1.0000100   0.0000000   0.0000000   0.0000012   0.0005669  -0.0006250   0.0005504   0.0000000   0.0000000   0.0000000   0.0278034  -0.0375000   0.0260442   0.0000000   0.0000000   0.0000000
 0.0550000  -0.9999890  -0.0000114   1.0000100   0.0000000   0.0000000   0.0000014   0.0007105  -0.0008319   0.0006841   0.0000000   0.0000000   0.0000000   0.0295350  -0.0453750   0.0273068   0.0000000   0.0000000   0.0000000
 0.0600000  -0.9999850  -0.0000162   1.0000100   0.0000000   0.0000000   0.0000016   0.0008610  -0.0010800   0.0008222   0.0000000   0.0000000   0.0000000   0.0305165  -0.0540000   0.0278194   0.0000000   0.0000000   0.0000000
 0.0650000  -0.9999810  -0.0000223   1.0000200   0.0000000   0.0000000   0.0000017   0.0010145  -0.0013731   0.0009610   0.0000000   0.0000000   0.0000000   0.0307480  -0.0633750   0.0275820   0.0000000   0.0000000   0.0000000
 0.0700000  -0.9999750  -0.0000300   1.0000200   0.0000000   0.0000000   0.0000018   0.0011672  -0.0017150   0.0010968   0.0000000   0.0000000   0.0000000   0.0302295  -0.0735000   0.0265946   0.0000000   0.0000000   0.0000000
 0.0750000  -0.9999690  -0.0000396   1.0000300   0.0000000   0.0000000   0.0000017   0.0013155  -0.0021094   0.0012257   0.0000000   0.0000000   0.0000000   0.0289610  -0.0843749   0.0248573   0.0000000   0.0000000   0.0000000
 0.0800000  -0.9999620  -0.0000512   1.0000400   0.0000000   0.0000000   0.0000014   0.0014556  -0.0025587   0.0013441   0.0000000   0.0000000   0.0000000   0.0269425  -0.0952303   0.0223699   0.0000000   0.0000000   0.0000000
 0.0850000  -0.9999540  -0.0000652   1.0000400   0.0000000   0.0000000   0.0000009   0.0015837  -0.0030604   0.0014482   0.0000000   0.0000000   0.0000000   0.0241741  -0.1053360   0.0191325   0.0000000   0.0000000   0.0000000
 0.0900000  -0.9999460  -0.0000819   1.0000500   0.0000000   0.0000000  -0.0000000   0.0016961  -0.0036108   0.0015342   0.0000000   0.0000000   0.0000000   0.0206556  -0.1146910   0.0151451   0.0000000   0.0000000   0.0000000
 0.0950000  -0.9999380  -0.0001014   1.0000600   0.0000000   0.0000000  -0.0000013   0.0017890  -0.0042061   0.0015988   0.0000000   0.0000000   0.0000000   0.0163871  -0.1232970   0.0108017   0.0000000   0.0000000   0.0000000
 0.1000000  -0.9999280  -0.0001240   1.0000700   0.0000000   0.0000000  -0.0000031   0.0018593  -0.0048425   0.0016434   0.0000000   0.0000000   0.0000000   0.0118331  -0.1311520   0.0071515   0.0000000   0.0000000   0.0000000
 0.1050000  -0.9999190  -0.0001499   1.0000700   0.0000000   0.0000000  -0.0000055   0.0019086  -0.0055164   0.0016716   0.0000000   0.0000000   0.0000000   0.0079951  -0.1382580   0.0042512   0.0000000   0.0000000   0.0000000
 0.1100000  -0.9999090  -0.0001792   1.0000800   0.0000000   0.0000000  -0.0000087   0.0019405  -0.0062239   0.0016872   0.0000000   0.0000000   0.0000000   0.0049070  -0.1446130   0.0021010   0.0000000   0.0000000   0.0000000
 0.1150000  -0.9999000  -0.0002122   1.0000900   0.0000000   0.0000000  -0.0000127   0.0019589  -0.0069612   0.0016939   0.0000000   0.0000000   0.0000000   0.0025690  -0.1502190   0.0007007   0.0000000   0.0000000   0.0000000
 0.1200000  -0.9998900  -0.0002489   1.0001000   0.0000000   0.0000000  -0.0000178   0.0019674  -0.0077248   0.0016954   0.0000000   0.0000000   0.0000000   0.0009810  -0.1550740   0.0000505   0.0000000   0.0000000   0.0000000
 0.1250000  -0.9998800  -0.0002895   1.0001100   0.0000000   0.0000000  -0.0000240   0.0019699  -0.0085107   0.0016955   0.0000000   0.0000000   0.0000000   0.0001429  -0.1591790  -0.0000000   0.0000000   0.0000000   0.0000000
 0.1300000  -0.9998700  -0.0003340   1.0001200   0.0000000   0.0000000  -0.0000315   0.0019701  -0.0093153   0.0016955   0.0000000   0.0000000   0.0000000   0.0000000  -0.1625350  -0.0000000   0.0000000   0.0000000   0.0000000
 0.1350000  -0.9998600  -0.0003826   1.0001300   0.0000000   0.0000000  -0.0000405   0.0019701  -0.0101348   0.0016955   0.0000000   0.0000000   0.0000000   0.0000000  -0.1651400  -0.0000000   0.0000000   0.0000000   0.0000000
 0.1400000  -0.9998500  -0.0004354   1.0001300   0.0000000   0.0000000  -0.0000511   0.0019701  -0.0109655   0.0016955   0.0000000   0.0000000   0.0000000   0.0000000  -0.1669960  -0.0000000   0.0000000   0.0000000   0.0000000
 0.1450000  -0.9998410  -0.0004923   1.0001400   0.0000000   0.0000000  -0.0000635   0.0019701  -0.0118035   0.0016955   0.0000000   0.0000000   0.0000000   0.0000000  -0.1681010  -0.0000000   0.0000000   0.0000000   0.0000000
 0.1500000  -0.9998310  -0.0005534   1.0001500   0.0000000   0.0000000  -0.0000780   0.0019701  -0.0126452   0.0016955   0.0000000   0.0000000   0.0000000   0.0000000  -0.1684570  -0.0000000   0.0000000   0.0000000   0.0000000
 0.1550000  -0.9998210  -0.0006188   1.0001600   0.0000000   0.0000000  -0.0000948   0.0019701  -0.0134869   0.0016955   0.0000000   0.0000000   0.0000000   0.0000000  -0.1680620  -0.0000000   0.0000000   0.0000000   0.0000000
 0.1600000  -0.9998110  -0.0006883   1.0001700   0.0000000   0.0000000  -0.0001140   0.0019701  -0.0143246   0.0016955   0.0000000   0.0000000   0.0000000   0.0000000  -0.1669180  -0.0000000   0.0000000   0.0000000   0.0000000
 0.1650000  -0.9998010  -0.0007620   1.0001800   0.0000000   0.0000000  -0.0001358   0.0019701  -0.0151548   0.0016955   0.0000000   0.0000000   0.0000000   0.0000000  -0.1650230  -0.0000000   0.0000000   0.0000000   0.0000000
 0.1700000  -0.9997910  -0.0008398   1.0001800   0.0000000   0.0000000  -0.0001606   0.0019701  -0.0159736   0.0016955   0.0000000   0.0000000   0.0000000   0.0000000  -0.1623790  -0.0000000   0.0000000   0.0000000   0.0000000
 0.1750000  -0.9997810  -0.0009217   1.0001900   0.0000000   0.0000000  -0.0001886   0.0019701  -0.0167773   0.0016955   0.0000000   0.0000000   0.0000000   0.0000000  -0.1589840  -0.0000000   0.0000000   0.0000000   0.0000000
 0.1800000  -0.9997720  -0.0010076   1.0002000   0.0000000   0.0000000  -0.0002199   0.0019701  -0.0175622   0.0016955   0.0000000   0.0000000   0.0000000   0.0000000  -0.1548400  -0.0000000   0.0000000   0.0000000   0.0000000
 0.1850000  -0.9997620  -0.0010973   1.0002100   0.0000000   0.0000000  -0.0002549   0.0019701  -0.0183245   0.0016955   0.0000000   0.0000000   0.0000000   0.0000000  -0.1499450  -0.0000000   0.0000000   0.0000000   0.0000000
 0.1900000  -0.9997520  -0.0011908   1.0002200   0.0000000   0.0000000  -0.0002938   0.0019701  -0.0190604   0.0016955   0.0000000   0.0000000   0.0000000   0.0000000  -0.1443000  -0.0000000   0.0000000   0.0000000   0.0000000
 0.1950000  -0.9997420  -0.0012879   1.0002300   0.0000000   0.0000000  -0.0003368   0.0019701  -0.0197662   0.0016955   0.0000000   0.0000000   0.0000000   0.0000000  -0.1379060  -0.0000000   0.0000000   0.0000000   0.0000000
 0.2000000  -0.9997320  -0.0013884   1.0002400   0.0000000   0.0000000  -0.0003840   0.0019701  -0.0204382   0.0016955   0.0000000   0.0000000   0.0000000   0.0000000  -0.1307610  -0.0000000   0.0000000   0.0000000   0.0000000
 0.2050000  -0.9997220  -0.0014922   1.0002400   0.0000000   0.0000000  -0.0004357   0.0019701  -0.0210726   0.0016955   0.0000000   0.0000000   0.0000000   0.0000000  -0.1228670  -0.0000000   0.0000000   0.0000000   0.0000000
 0.2100000  -0.9997120  -0.0015990   1.0002500   0.0000000   0.0000000  -0.0004921   0.0019701  -0.0216656   0.0016955   0.0000000   0.0000000   0.0000000   0.0000000  -0.1142220  -0.0000000   0.0000000   0.0000000   0.0000000
 0.2150000  -0.9997030  -0.0017087   1.0002600   0.0000000   0.0000000  -0.0005532   0.0019701  -0.0222136   0.0016955   0.0000000   0.0000000   0.0000000   0.0000000  -0.1048280  -0.0000000   0.0000000   0.0000000   0.0000000
 0.2200000  -0.9996930  -0.0018211   1.0002700   0.0000000   0.0000000  -0.0006194   0.0019701  -0.0227126   0.0016955   0.0000000   0.0000000   0.0000000   0.0000000  -0.0946832  -0.0000000   0.0000000   0.0000000   0.0000000
 0.2250000  -0.9996830  -0.0019358   1.0002800   0.0000000   0.0000000  -0.0006908   0.0019701  -0.0231591   0.0016955   0.0000000   0.0000000   0.0000000   0.0000000  -0.0837898  -0.0000000   0.0000000   0.0000000   0.0000000
 0.2300000  -0.9996730  -0.0020526   1.0002900   0.0000000   0.0000000  -0.0007674   0.0019701  -0.0235507   0.0016955   0.0000000   0.0000000   0.0000000   0.0000000  -0.0729539  -0.0000000   0.0000000   0.0000000   0.0000000
 0.2350000  -0.9996630  -0.0021712   1.0003000   0.0000000   0.0000000  -0.0008494   0.0019701  -0.0238899   0.0016955   0.0000000   0.0000000   0.0000000   0.0000000  -0.0628680  -0.0000000   0.0000000   0.0000000   0.0000000
 0.2400000  -0.9996530  -0.0022914   1.0003000   0.0000000   0.0000000  -0.0009370   0.0019701  -0.0241806   0.0016955   0.0000000   0.0000000   0.0000000   0.0000000  -0.0535321  -0.0000000   0.0000000   0.0000000   0.0000000
 0.2450000  -0.9996430  -0.0024129   1.0003100   0.0000000   0.0000000  -0.0010303   0.0019701  -0.0244265   0.0016955   0.0000000   0.0000000   0.0000000   0.0000000  -0.0449461  -0.0000000   0.0000000   0.0000000   0.0000000
 0.2500000  -0.9996340  -0.0025356   1.0003200   0.0000000   0.0000000  -0.0011293   0.0019701  -0.0246313   0.0016955   0.0000000   0.0000000   0.0000000   0.0000000  -0.0371102  -0.0000000   0.0000000   0.0000000   0.0000000
 0.2550000  -0.9996240  -0.0026592   1.0003300   0.0000000   0.0000000  -0.0012342   0.0019701  -0.0247989   0.0016955   0.0000000   0.0000000   0.0000000   0.0000000  -0.0300243  -0.0000000   0.0000000   0.0000000   0.0000000
 0.2600000  -0.9996140  -0.0027835   1.0003400   0.0000000   0.0000000  -0.0013450   0.0019701  -0.0249328   0.0016955   0.0000000   0.0000000   0.0000000   0.0000000  -0.0236884  -0.0000000   0.0000000   0.0000000   0.0000000
 0.2650000  -0.9996040  -0.0029085   1.0003500   0.0000000   0.0000000  -0.0014619   0.0019701  -0.0250370   0.0016955   0.0000000   0.0000000   0.0000000   0.0000000  -0.0181025  -0.0000000   0.0000000   0.0000000   0.0000000
 0.2700000  -0.9995940  -0.0030339   1.0003500   0.0000000   0.0000000  -0.0015848   0.0019701  -0.0251151   0.0016955   0.0000000   0.0000000   0.0000000   0.0000000  -0.0132665  -0.0000000   0.0000000   0.0000000   0.0000000
 0.2750000  -0.9995840  -0.0031596   1.0003600   0.0000000   0.0000000  -0.0017139   0.0019701  -0.0251709   0.0016955   0.0000000   0.0000000   0.0000000   0.0000000  -0.0091806  -0.0000000   0.0000000   0.0000000   0.0000000
 0.2800000  -0.9995750  -0.0032855   1.0003700   0.0000000   0.0000000  -0.0018491   0.0019701  -0.0252082   0.0016955   0.0000000   0.0000000   0.0000000   0.0000000  -0.0058447  -0.0000000   0.0000000   0.0000000   0.0000000
 0.2850000  -0.9995650  -0.0034116   1.0003800   0.0000000   0.0000000  -0.0019905   0.0019701  -0.0252306   0.0016955   0.0000000   0.0000000   0.0000000   0.0000000  -0.0032588  -0.0000000   0.0000000   0.0000000   0.0000000
 0.2900000  -0.9995550  -0.0035378   1.0003900   0.0000000   0.0000000  -0.0021382   0.0019701  -0.0252420   0.0016955   0.0000000   0.0000000   0.0000000   0.0000000  -0.0014229  -0.0000000   0.0000000   0.0000000   0.0000000
 0.2950000  -0.9995450  -0.0036640   1.0004000   0.0000000   0.0000000  -0.0022921   0.0019701  -0.0252461   0.0016955   0.0000000   0.0000000   0.0000000   0.0000000  -0.0003369  -0.0000000   0.0000000   0.0000000   0.0000000
 0.3000000  -0.9995350  -0.0037903   1.0004100   0.0000000   0.0000000  -0.0024523   0.0019701  -0.0252466   0.0016955   0.0000000   0.0000000   0.0000000   0.0000000   0.0000000  -0.0000000   0.0000000   0.0000000   0.0000000
 0.3050000  -0.9995250  -0.0039165   1.0004100   0.0000000   0.0000000  -0.0026187   0.0019701  -0.0252462   0.0016955   0.0000000   0.0000000   0.0000000   0.0000000   0.0002940  -0.0000000   0.0000000   0.0000000   0.0000000
 0.3100000  -0.9995150  -0.0040427   1.0004200   0.0000000   0.0000000  -0.0027914   0.0019701  -0.0252424   0.0016955   0.0000000   0.0000000   0.0000000   0.0000000   0.0013330  -0.0000000   0.0000000   0.0000000   0.0000000
 0.3150000  -0.9995060  -0.0041689   1.0004300   0.0000000   0.0000000  -0.0029703   0.0019701  -0.0252316   0.0016955   0.0000000   0.0000000   0.0000000   0.0000000   0.0031221  -0.0000000   0.0000000   0.0000000   0.0000000
 0.3200000  -0.9994960  -0.0042950   1.0004400   0.0000000   0.0000000  -0.0031555   0.0019701  -0.0252100   0.0016955   0.0000000   0.0000000   0.0000000   0.0000000   0.0056611  -0.0000000   0.0000000   0.0000000   0.0000000
 0.3250000  -0.9994860  -0.0044210   1.0004500   0.0000000   0.0000000  -0.0033469   0.0019701  -0.0251737   0.0016955   0.0000000   0.0000000   0.0000000   0.0000000   0.0089502  -0.0000000   0.0000000   0.0000000   0.0000000
 0.3300000  -0.9994760  -0.0045467   1.0004600   0.0000000   0.0000000  -0.0035446   0.0019701  -0.0251192   0.0016955   0.0000000   0.0000000   0.0000000   0.0000000   0.0129892  -0.0000000   0.0000000   0.0000000   0.0000000
 0.3350000  -0.9994660  -0.0046722   1.0004600   0.0000000   0.0000000  -0.0037485   0.0019701  -0.0250426   0.0016955   0.0000000   0.0000000   0.0000000   0.0000000   0.0177782  -0.0000000   0.0000000   0.0000000   0.0000000
 0.3400000  -0.9994560  -0.0047971   1.0004700   0.0000000   0.0000000  -0.0039586   0.0019701  -0.0249402   0.0016955   0.0000000   0.0000000   0.0000000   0.0000000   0.0233173  -0.0000000   0.0000000   0.0000000   0.0000000
 0.3450000  -0.9994460  -0.0049215   1.0004800   0.0000000   0.0000000  -0.0041750   0.0019701  -0.0248082   0.0016955   0.0000000   0.0000000   0.0000000   0.0000000   0.0296063  -0.0000000   0.0000000   0.0000000   0.0000000
 0.3500000  -0.9994370  -0.0050451   1.0004900   0.0000000   0.0000000  -0.0043977   0.0019701  -0.0246429   0.0016955   0.0000000   0.0000000   0.0000000   0.0000000   0.0366454  -0.0000000   0.0000000   0.0000000   0.0000000
 0.3550000  -0.9994270  -0.0051679   1.0005000   0.0000000   0.0000000  -0.0046266   0.0019701  -0.0244405   0.0016955   0.0000000   0.0000000   0.0000000   0.0000000   0.0444344  -0.0000000   0.0000000   0.0000000   0.0000000
 0.3600000  -0.9994170  -0.0052895   1.0005100   0.0000000   0.0000000  -0.0048618   0.0019701  -0.0241973   0.0016955   0.0000000   0.0000000   0.0000000   0.0000000   0.0529735  -0.0000000   0.0000000   0.0000000   0.0000000
 0.3650000  -0.9994070  -0.0054098   1.0005200   0.0000000   0.0000000  -0.0051032   0.0019701  -0.0239095   0.0016955   0.0000000   0.0000000   0.0000000   0.0000000   0.0622625  -0.0000000   0.0000000   0.0000000   0.0000000
 0.3700000  -0.9993970  -0.0055285   1.0005200   0.0000000   0.0000000  -0.0053509   0.0019701  -0.0235734   0.0016955   0.0000000   0.0000000   0.0000000   0.0000000   0.0723016  -0.0000000   0.0000000   0.0000000   0.0000000
 0.3750000  -0.9993870  -0.0056454   1.0005300   0.0000000   0.0000000  -0.0056048   0.0019701  -0.0231852   0.0016955   0.0000000   0.0000000   0.0000000   0.0000000   0.0830906  -0.0000000   0.0000000   0.0000000   0.0000000
 0.3800000  -0.9993780  -0.0057603   1.0005400   0.0000000   0.0000000  -0.0058650   0.0019701  -0.0227412   0.0016955   0.0000000   0.0000000   0.0000000   0.0000000   0.0946296  -0.0000000   0.0000000   0.0000000   0.0000000
 0.3850000  -0.9993680  -0.0058727   1.0005500   0.0000000   0.0000000  -0.0061314   0.0019701  -0.0222377   0.0016955   0.0000000   0.0000000   0.0000000   0.0000000   0.1069190  -0.0000000   0.0000000   0.0000000   0.0000000
 0.3900000  -0.9993580  -0.0059825   1.0005600   0.0000000   0.0000000  -0.0064040   0.0019701  -0.0216708   0.0016955   0.0000000   0.0000000   0.0000000   0.0000000   0.1199580  -0.0000000   0.0000000   0.0000000   0.0000000
 0.3950000  -0.9993480  -0.0060893   1.0005700   0.0000000   0.0000000  -0.0066830   0.0019701  -0.0210368   0.0016955   0.0000000   0.0000000   0.0000000   0.0000000   0.1337470  -0.0000000   0.0000000   0.0000000   0.0000000
 0.4000000  -0.9993380  -0.0061928   1.0005700   0.0000000   0.0000000  -0.0069681   0.0019701  -0.0203326   0.0016955   0.0000000   0.0000000   0.0000000   0.0000000   0.1478570  -0.0000000   0.0000000   0.0000000   0.0000000
 0.4050000  -0.9993280  -0.0062925   1.0005800   0.0000000   0.0000000  -0.0072595   0.0019701  -0.0195595   0.0016955   0.0000000   0.0000000   0.0000000   0.0000000   0.1612610  -0.0000000   0.0000000   0.0000000   0.0000000
 0.4100000  -0.9993180  -0.0063883   1.0005900   0.0000000   0.0000000  -0.0075572   0.0019701  -0.0187213   0.0016955   0.0000000   0.0000000   0.0000000   0.0000000   0.1739150  -0.0000000   0.0000000   0.0000000   0.0000000
 0.4150000  -0.9993090  -0.0064796   1.0006000   0.0000000   0.0000000  -0.0078611   0.0019701  -0.0178216   0.0016955   0.0000000   0.0000000   0.0000000   0.0000000   0.1858190  -0.0000000   0.0000000   0.0000000   0.0000000
 0.4200000  -0.9992990  -0.0065664   1.0006100   0.0000000   0.0000000  -0.0081713   0.0019701  -0.0168643   0.0016955   0.0000000   0.0000000   0.0000000   0.0000000   0.1969730  -0.0000000   0.0000000   0.0000000   0.0000000
 0.4250000  -0.9992890  -0.0066482   1.0006200   0.0000000   0.0000000  -0.0084877   0.0019701  -0.0158531   0.0016955   0.0000000   0.0000000   0.0000000   0.0000000   0.2073780  -0.0000000   0.0000000   0.0000000   0.0000000
 0.4300000  -0.9992790  -0.0067248   1.0006300   0.0000000   0.0000000  -0.0088104   0.0019701  -0.0147918   0.0016955   0.0000000   0.0000000   0.0000000   0.0000000   0.2170320  -0.0000000   0.0000000   0.0000000   0.0000000
 0.4350000  -0.9992690  -0.0067960   1.0006300   0.0000000   0.0000000  -0.0091393   0.0019701  -0.0136841   0.0016955   0.0000000   0.0000000   0.0000000   0.0000000   0.2259360  -0.0000000   0.0000000   0.0000000   0.0000000
 0.4400000  -0.9992590  -0.0068616   1.0006400   0.0000000   0.0000000  -0.0094745   0.0019701  -0.0125337   0.0016955   0.0000000   0.0000000   0.0000000   0.0000000   0.2340900  -0.0000000   0.0000000   0.0000000   0.0000000
 0.4450000  -0.9992490  -0.0069213   1.0006500   0.0000000   0.0000000  -0.0098159   0.0019701  -0.0113444   0.0016955   0.0000000   0.0000000   0.0000000   0.0000000   0.2414950  -0.0000000   0.0000000   0.0000000   0.0000000
 0.4500000  -0.9992400  -0.0069750   1.0006600   0.0000000   0.0000000  -0.0101635   0.0019701  -0.0101200   0.0016955   0.0000000   0.0000000   0.0000000   0.0000000   0.2481490  -0.0000000   0.0000000   0.0000000   0.0000000
 0.4550000  -0.9992300  -0.0070225   1.0006700   0.0000000   0.0000000  -0.0105175   0.0019701  -0.0088642   0.0016955   0.0000000   0.0000000   0.0000000   0.0000000   0.2540530  -0.0000000   0.0000000   0.0000000   0.0000000
 0.4600000  -0.9992200  -0.0070636   1.0006800   0.0000000   0.0000000  -0.0108776   0.0019701  -0.0075807   0.0016955   0.0000000   0.0000000   0.0000000   0.0000000   0.2592070  -0.0000000   0.0000000   0.0000000   0.0000000
 0.4650000  -0.9992100  -0.0070982   1.0006900   0.0000000   0.0000000  -0.0111320   0.0019701  -0.0062733   0.0016955   0.0000000   0.0000000   0.0000000   0.0000000   0.2636120  -0.0000000   0.0000000   0.0000000   0.0000000
 0.4700000  -0.9992000  -0.0071263   1.0006900   0.0000000   0.0000000  -0.0111320   0.0019701  -0.0049458   0.0016954   0.0000000   0.0000000   0.0000000   0.0000000   0.2672660  -0.0001051   0.0000000   0.0000000   0.0000000
 0.4750000  -0.9991900  -0.0071477   1.0007000   0.0000000   0.0000000  -0.0111320   0.0019701  -0.0036019   0.0016932   0.0000000   0.0000000   0.0000000   0.0000000   0.2701700  -0.0008773   0.0000000   0.0000000   0.0000000
 0.4800000  -0.9991810  -0.0071623   1.0007100   0.0000000   0.0000000  -0.0111320   0.0019701  -0.0022454   0.0016853   0.0000000   0.0000000   0.0000000   0.0000000   0.2723240  -0.0023994   0.0000000   0.0000000   0.0000000
 0.4850000  -0.9991710  -0.0071701   1.0007200   0.0000000   0.0000000  -0.0111320   0.0019701  -0.0008799   0.0016680   0.0000000   0.0000000   0.0000000   0.0000000   0.2737280  -0.0046715   0.0000000   0.0000000   0.0000000
 0.4900000  -0.9991610  -0.0071711   1.0007300   0.0000000   0.0000000  -0.0111320   0.0019701   0.0004907   0.0016374   0.0000000   0.0000000   0.0000000   0.0000000   0.2743830  -0.0076937   0.0000000   0.0000000   0.0000000
 0.4950000  -0.9991510  -0.0071652   1.0007400   0.0000000   0.0000000  -0.0111320   0.0019701   0.0018626   0.0015898   0.0000000   0.0000000   0.0000000   0.0000000   0.2742870  -0.0114658   0.0000000   0.0000000   0.0000000
 0.5000000  -0.9991410  -0.0071525   1.0007400   0.0000000   0.0000000  -0.0111320   0.0019701   0.0032323   0.0015215   0.0000000   0.0000000   0.0000000   0.0000000   0.2734410  -0.0159879   0.0000000   0.0000000   0.0000000
 0.5050000  -0.9991310  -0.0071329   1.0007500   0.0000000   0.0000000  -0.0111320   0.0019701   0.0045958   0.0014287   0.0000000   0.0000000   0.0000000   0.0000000   0.2718450  -0.0212601   0.0000000   0.0000000   0.0000000
 0.5100000  -0.9991210  -0.0071065   1.0007600   0.0000000   0.0000000  -0.0111320   0.0019701   0.0059495   0.0013081   0.0000000   0.0000000   0.0000000   0.0000000   0.2695000  -0.0268836   0.0000000   0.0000000   0.0000000
 0.5150000  -0.9991120  -0.0070734   1.0007600   0.0000000   0.0000000  -0.0111320   0.0019701   0.0072895   0.0011611   0.0000000   0.0000000   0.0000000   0.0000000   0.2664040  -0.0318123   0.0000000   0.0000000   0.0000000
 0.5200000  -0.9991020  -0.0070336   1.0007700   0.0000000   0.0000000  -0.0111320   0.0019701   0.0086123   0.0009912   0.0000000   0.0000000   0.0000000   0.0000000   0.2625580  -0.0359909   0.0000000   0.0000000   0.0000000
 0.5250000  -0.9990920  -0.0069873   1.0007700   0.0000000   0.0000000  -0.0111320   0.0019701   0.0099139   0.0008024   0.0000000   0.0000000   0.0000000   0.0000000   0.2579620  -0.0394196   0.0000000   0.0000000   0.0000000
 0.5300000  -0.9990820  -0.0069346   1.0007800   0.0000000   0.0000000  -0.0111320   0.0019701   0.0111906   0.0005983   0.0000000   0.0000000   0.0000000   0.0000000   0.2526170  -0.0420982   0.0000000   0.0000000   0.0000000
 0.5350000  -0.9990720  -0.0068755   1.0007800   0.0000000   0.0000000  -0.0111320   0.0019701   0.0124388   0.0003827   0.0000000   0.0000000   0.0000000   0.0000000   0.2465210  -0.0440269   0.0000000   0.0000000   0.0000000
 0.5400000  -0.9990620  -0.0068102   1.0007800   0.0000000   0.0000000  -0.0111320   0.0019701   0.0136546   0.0001593   0.0000000   0.0000000   0.0000000   0.0000000   0.2396750  -0.0452055   0.0000000   0.0000000   0.0000000
 0.5450000  -0.9990520  -0.0067390   1.0007800   0.0000000   0.0000000  -0.0111320   0.0019701   0.0148343  -0.0000681   0.0000000   0.0000000   0.0000000   0.0000000   0.2320790  -0.0456342   0.0000000   0.0000000   0.0000000
 0.5500000  -0.9990430  -0.0066619   1.0007800   0.0000000   0.0000000  -0.0111320   0.0019701   0.0159741  -0.0002958   0.0000000   0.0000000   0.0000000   0.0000000   0.2237330  -0.0453128   0.0000000   0.0000000   0.0000000
 0.5550000  -0.9990330  -0.0065793   1.0007800   0.0000000   0.0000000  -0.0111320   0.0019701   0.0170704  -0.0005200   0.0000000   0.0000000   0.0000000   0.0000000   0.2146380  -0.0442415   0.0000000   0.0000000   0.0000000
 0.5600000  -0.9990230  -0.0064913   1.0007700   0.0000000   0.0000000  -0.0111320   0.0019701   0.0181193  -0.0007370   0.0000000   0.0000000   0.0000000   0.0000000   0.2047920  -0.0424201   0.0000000   0.0000000   0.0000000
 0.5650000  -0.9990130  -0.0063982   1.0007700   0.0000000   0.0000000  -0.0111320   0.0019701   0.0191170  -0.0009430   0.0000000   0.0000000   0.0000000   0.0000000   0.1941960  -0.0398488   0.0000000   0.0000000   0.0000000
 0.5700000  -0.9990030  -0.0063002   1.0007700   0.0000000   0.0000000  -0.0111320   0.0019701   0.0200600  -0.0011342   0.0000000   0.0000000   0.0000000   0.0000000   0.1828500  -0.0365274   0.0000000   0.0000000   0.0000000
 0.5750000  -0.9989930  -0.0061977   1.0007600   0.0000000   0.0000000  -0.0111320   0.0019701   0.0209443  -0.0013070   0.0000000   0.0000000   0.0000000   0.0000000   0.1707550  -0.0324561   0.0000000   0.0000000   0.0000000
 0.5800000  -0.9989840  -0.0060909   1.0007500   0.0000000   0.0000000  -0.0111320   0.0019701   0.0217663  -0.0014575   0.0000000   0.0000000   0.0000000   0.0000000   0.1579090  -0.0276347   0.0000000   0.0000000   0.0000000
 0.5850000  -0.9989740  -0.0059802   1.0007400   0.0000000   0.0000000  -0.0111320   0.0019703   0.0225221  -0.0015821   0.0000000   0.0000000   0.0000000   0.0001788   0.1443130  -0.0220634   0.0000000   0.0000000   0.0000000
 0.5900000  -0.9989640  -0.0058658   1.0007400   0.0000000   0.0000000  -0.0111320   0.0019731   0.0232082  -0.0016769   0.0000000   0.0000000   0.0000000   0.0010717   0.1299670  -0.0157420   0.0000000   0.0000000   0.0000000
 0.5950000  -0.9989540  -0.0057482   1.0007300   0.0000000   0.0000000  -0.0111320   0.0019823   0.0238206  -0.0017383   0.0000000   0.0000000   0.0000000   0.0027146   0.1148720  -0.0086707   0.0000000   0.0000000   0.0000000
 0.6000000  -0.9989440  -0.0056277   1.0007200   0.0000000   0.0000000  -0.0111320   0.0020015   0.0243556  -0.0017624   0.0000000   0.0000000   0.0000000   0.0051075   0.0990258  -0.0008493   0.0000000   0.0000000   0.0000000
 0.6050000  -0.9989340  -0.0055048   1.0007100   0.0000000   0.0000000  -0.0111320   0.0020346   0.0248096  -0.0017455   0.0000000   0.0000000   0.0000000   0.0082504   0.0824300   0.0077221   0.0000000   0.0000000   0.0000000
 0.6100000  -0.9989240  -0.0053798   1.0007000   0.0000000   0.0000000  -0.0111320   0.0020853   0.0251787  -0.0016839   0.0000000   0.0000000   0.0000000   0.0121433   0.0650842   0.0170434   0.0000000   0.0000000   0.0000000
 0.6150000  -0.9989130  -0.0052531   1.0006900   0.0000000   0.0000000  -0.0111320   0.0021573   0.0254592  -0.0015738   0.0000000   0.0000000   0.0000000   0.0167862   0.0469885   0.0271147   0.0000000   0.0000000   0.0000000
 0.6200000  -0.9989020  -0.0051253   1.0006900   0.0000000   0.0000000  -0.0111320   0.0022544   0.0256473  -0.0014115   0.0000000   0.0000000   0.0000000   0.0221790   0.0281427   0.0379361   0.0000000   0.0000000   0.0000000
 0.6250000  -0.9988900  -0.0049968   1.0006800   0.0000000   0.0000000  -0.0111320   0.0023803   0.0257393  -0.0011932   0.0000000   0.0000000   0.0000000   0.0283219   0.0085469   0.0495075   0.0000000   0.0000000   0.0000000
 0.6300000  -0.9988780  -0.0048681   1.0006700   0.0000000   0.0000000  -0.0111320   0.0025388   0.0257315  -0.0009152   0.0000000   0.0000000   0.0000000   0.0352148  -0.0117988   0.0618288   0.0000000   0.0000000   0.0000000
 0.6350000  -0.9988650  -0.0047397   1.0006700   0.0000000   0.0000000  -0.0111320   0.0027337   0.0256201  -0.0005737   0.0000000   0.0000000   0.0000000   0.0428577  -0.0328946   0.0749002   0.0000000   0.0000000   0.0000000
 0.6400000  -0.9988510  -0.0046121   1.0006700   0.0000000   0.0000000  -0.0111320   0.0029687   0.0254013  -0.0001649   0.0000000   0.0000000   0.0000000   0.0512506  -0.0547404   0.0887215   0.0000000   0.0000000   0.0000000
 0.6450000  -0.9988350  -0.0044858   1.0006700   0.0000000   0.0000000  -0.0111320   0.0032475   0.0250714   0.0003148   0.0000000   0.0000000   0.0000000   0.0603935  -0.0773362   0.1032930   0.0000000   0.0000000   0.0000000
 0.6500000  -0.9988180  -0.0043615   1.0006700   0.0000000   0.0000000  -0.0111320   0.0035738   0.0246267   0.0008692   0.0000000   0.0000000   0.0000000   0.0702864  -0.1006820   0.1186140   0.0000000   0.0000000   0.0000000
 0.6550000  -0.9987990  -0.0042398   1.0006800   0.0000000   0.0000000  -0.0111320   0.0039516   0.0240634   0.0015022   0.0000000   0.0000000   0.0000000   0.0809293  -0.1247780   0.1346860   0.0000000   0.0000000   0.0000000
 0.6600000  -0.9987790  -0.0041211   1.0006900   0.0000000   0.0000000  -0.0111320   0.0043844   0.0233777   0.0022173   0.0000000   0.0000000   0.0000000   0.0923222  -0.1496230   0.1515070   0.0000000   0.0000000   0.0000000
 0.6650000  -0.9987550  -0.0040062   1.0007000   0.0000000   0.0000000  -0.0111320   0.0048760   0.0225659   0.0030185   0.0000000   0.0000000   0.0000000   0.1044650  -0.1752190   0.1690780   0.0000000   0.0000000   0.0000000
 0.6700000  -0.9987300  -0.0038957   1.0007200   0.0000000   0.0000000  -0.0111320   0.0054303   0.0216242   0.0039094   0.0000000   0.0000000   0.0000000   0.1173580  -0.2015650   0.1874000   0.0000000   0.0000000   0.0000000
 0.6750000  -0.9987010  -0.0037902   1.0007400   0.0000000   0.0000000  -0.0111320   0.0060509   0.0205490   0.0048937   0.0000000   0.0000000   0.0000000   0.1310010  -0.2286610   0.2064710   0.0000000   0.0000000   0.0000000
 0.6800000  -0.9986690  -0.0036904   1.0007700   0.0000000   0.0000000  -0.0111320   0.0067415   0.0193364   0.0059753   0.0000000   0.0000000   0.0000000   0.1453930  -0.2565070   0.2262920   0.0000000   0.0000000   0.0000000
 0.6850000  -0.9986330  -0.0035971   1.0008000   0.0000000   0.0000000  -0.0111320   0.0075047   0.0179827   0.0071579   0.0000000   0.0000000   0.0000000   0.1597480  -0.2851020   0.2468640   0.0000000   0.0000000   0.0000000
 0.6900000  -0.9985940  -0.0035108   1.0008400   0.0000000   0.0000000  -0.0111320   0.0083378   0.0164841   0.0084452   0.0000000   0.0000000   0.0000000   0.1733530  -0.3144480   0.2681850   0.0000000   0.0000000   0.0000000
 0.6950000  -0.9985500  -0.0034325   1.0008800   0.0000000   0.0000000  -0.0111320   0.0092370   0.0148369   0.0098410   0.0000000   0.0000000   0.0000000   0.1862080  -0.3445440   0.2902560   0.0000000   0.0000000   0.0000000
 0.7000000  -0.9985010  -0.0033627   1.0009400   0.0000000   0.0000000  -0.0111320   0.0101986   0.0130374   0.0113490   0.0000000   0.0000000   0.0000000   0.1983130  -0.3753900   0.3130780   0.0000000   0.0000000   0.0000000
 0.7050000  -0.9984480  -0.0033023   1.0010000   0.0000000   0.0000000  -0.0111320   0.0112189   0.0110818   0.0129730   0.0000000   0.0000000   0.0000000   0.2096680  -0.4069850   0.3366490   0.0000000   0.0000000   0.0000000
 0.7100000  -0.9983890  -0.0032522   1.0010700   0.0000000   0.0000000  -0.0111320   0.0122940   0.0089663   0.0147168   0.0000000   0.0000000   0.0000000   0.2202720  -0.4393310   0.3609700   0.0000000   0.0000000   0.0000000
 0.7150000  -0.9983250  -0.0032130   1.0011500   0.0000000   0.0000000  -0.0111320   0.0134203   0.0066872   0.0165840   0.0000000   0.0000000   0.0000000   0.2301270  -0.4724270   0.3860420   0.0000000   0.0000000   0.0000000
 0.7200000  -0.9982550  -0.0031856   1.0012300   0.0000000   0.0000000  -0.0111320   0.0145941   0.0042408   0.0185784   0.0000000   0.0000000   0.0000000   0.2392320  -0.5062730   0.4118630   0.0000000   0.0000000   0.0000000
 0.7250000  -0.9981790  -0.0031708   1.0013300   0.0000000   0.0000000  -0.0111320   0.0158114   0.0016233   0.0207039   0.0000000   0.0000000   0.0000000   0.2475870  -0.5408680   0.4384340   0.0000000   0.0000000   0.0000000
 0.7300000  -0.9980970  -0.0031696   1.0014400   0.0000000   0.0000000  -0.0111320   0.0170687  -0.0011691   0.0229640   0.0000000   0.0000000   0.0000000   0.2551920  -0.5762140   0.4657560   0.0000000   0.0000000   0.0000000
 0.7350000  -0.9980080  -0.0031828   1.0015600   0.0000000   0.0000000  -0.0111320   0.0183621  -0.0041401   0.0253627   0.0000000   0.0000000   0.0000000   0.2620470  -0.6122930   0.4938270   0.0000000   0.0000000   0.0000000
 0.7400000  -0.9979130  -0.0032113   1.0016900   0.0000000   0.0000000  -0.0111320   0.0196879  -0.0072916   0.0279036   0.0000000   0.0000000   0.0000000   0.2681520  -0.6481630   0.5226490   0.0000000   0.0000000   0.0000000
 0.7450000  -0.9978110  -0.0032560   1.0018400   0.0000000   0.0000000  -0.0111320   0.0210424  -0.0106205   0.0305904   0.0000000   0.0000000   0.0000000   0.2735060  -0.6832830   0.5522200   0.0000000   0.0000000   0.0000000
 0.7500000  -0.9977030  -0.0033178   1.0020000   0.0000000   0.0000000  -0.0111320   0.0224217  -0.0141232   0.0334270   0.0000000   0.0000000   0.0000000   0.2781110  -0.7176520   0.5825410   0.0000000   0.0000000   0.0000000
 0.7550000  -0.9975870  -0.0033976   1.0021700   0.0000000   0.0000000  -0.0111320   0.0238222  -0.0177958   0.0364171   0.0000000   0.0000000   0.0000000   0.2819660  -0.7512720   0.6136130   0.0000000   0.0000000   0.0000000
 0.7600000  -0.9974640  -0.0034961   1.0023600   0.0000000   0.0000000  -0.0111320   0.0252401  -0.0216346   0.0395644   0.0000000   0.0000000   0.0000000   0.2850710  -0.7841420   0.6454340   0.0000000   0.0000000   0.0000000
 0.7650000  -0.9973350  -0.0036142   1.0025700   0.0000000   0.0000000  -0.0111320   0.0266717  -0.0256359   0.0428717   0.0000000   0.0000000   0.0000000   0.2874260  -0.8162620   0.6773610   0.0000000   0.0000000   0.0000000
 0.7700000  -0.9971980  -0.0037527   1.0027900   0.0000000   0.0000000  -0.0111320   0.0281131  -0.0297960   0.0463367   0.0000000   0.0000000   0.0000000   0.2890310  -0.8476310   0.7085410   0.0000000   0.0000000   0.0000000
 0.7750000  -0.9970530  -0.0039124   1.0030300   0.0000000   0.0000000  -0.0111320   0.0295607  -0.0341110   0.0499558   0.0000000   0.0000000   0.0000000   0.2898860  -0.8782510   0.7389720   0.0000000   0.0000000   0.0000000
 0.7800000  -0.9969020  -0.0040941   1.0032900   0.0000000   0.0000000  -0.0111320   0.0310107  -0.0385773   0.0537252   0.0000000   0.0000000   0.0000000   0.2899900  -0.9081210   0.7686530   0.0000000   0.0000000   0.0000000
 0.7850000  -0.9967430  -0.0042984   1.0035700   0.0000000   0.0000000  -0.0111320   0.0324594  -0.0431910   0.0576411   0.0000000   0.0000000   0.0000000   0.2893450  -0.9372410   0.7975840   0.0000000   0.0000000   0.0000000
 0.7900000  -0.9965770  -0.0045262   1.0038700   0.0000000   0.0000000  -0.0111320   0.0339029  -0.0479484   0.0616998   0.0000000   0.0000000   0.0000000   0.2879500  -0.9656110   0.8257640   0.0000000   0.0000000   0.0000000
 0.7950000  -0.9964040  -0.0047781   1.0041900   0.0000000   0.0000000  -0.0111320   0.0353376  -0.0528458   0.0658975   0.0000000   0.0000000   0.0000000   0.2858050  -0.9932300   0.8531950   0.0000000   0.0000000   0.0000000
 0.8000000  -0.9962240  -0.0050549   1.0045300   0.0000000   0.0000000  -0.0111320   0.0367597  -0.0578795   0.0702305   0.0000000   0.0000000   0.0000000   0.2829100  -1.0201000   0.8798760   0.0000000   0.0000000   0.0000000
 0.8050000  -0.9960370  -0.0053571   1.0048900   0.0000000   0.0000000  -0.0111320   0.0381655  -0.0630456   0.0746950   0.0000000   0.0000000   0.0000000   0.2792650  -1.0462200   0.9058070   0.0000000   0.0000000   0.0000000
 0.8100000  -0.9958420  -0.0056856   1.0052800   0.0000000   0.0000000  -0.0111320   0.0395511  -0.0683404   0.0792873   0.0000000   0.0000000   0.0000000   0.2748700  -1.0715900   0.9309870   0.0000000   0.0000000   0.0000000
 0.8150000  -0.9956410  -0.0060408   1.0056800   0.0000000   0.0000000  -0.0111320   0.0409129  -0.0737602   0.0840037   0.0000000   0.0000000   0.0000000   0.2697240  -1.0962100   0.9554180   0.0000000   0.0000000   0.0000000
 0.8200000  -0.9954330  -0.0064234   1.0061200   0.0000000   0.0000000  -0.0111320   0.0422471  -0.0793013   0.0888403   0.0000000   0.0000000   0.0000000   0.2638290  -1.1200800   0.9790990   0.0000000   0.0000000   0.0000000
 0.8250000  -0.9952190  -0.0068340   1.0065700   0.0000000   0.0000000  -0.0111320   0.0435500  -0.0849598   0.0937934   0.0000000   0.0000000   0.0000000   0.2571840  -1.1432000   1.0020300   0.0000000   0.0000000   0.0000000
 0.8300000  -0.9949980  -0.0072731   1.0070500   0.0000000   0.0000000  -0.0111320   0.0448177  -0.0907320   0.0988593   0.0000000   0.0000000   0.0000000   0.2497890  -1.1655700   1.0242100   0.0000000   0.0000000   0.0000000
 0.8350000  -0.9947710  -0.0077415   1.0075600   0.0000000   0.0000000  -0.0111320   0.0460466  -0.0966142   0.1040340   0.0000000   0.0000000   0.0000000   0.2416440  -1.1871900   1.0456400   0.0000000   0.0000000   0.0000000
 0.8400000  -0.9945370  -0.0082395   1.0081000   0.0000000   0.0000000  -0.0111320   0.0472329  -0.1026030   0.1093140   0.0000000   0.0000000   0.0000000   0.2327490  -1.2080600   1.0663200   0.0000000   0.0000000   0.0000000
 0.8450000  -0.9942980  -0.0087677   1.0086600   0.0000000   0.0000000  -0.0111320   0.0483729  -0.1086940   0.1146960   0.0000000   0.0000000   0.0000000   0.2231040  -1.2281800   1.0862500   0.0000000   0.0000000   0.0000000
 0.8500000  -0.9940540  -0.0093266   1.0092400   0.0000000   0.0000000  -0.0111320   0.0494627  -0.1148830   0.1201760   0.0000000   0.0000000   0.0000000   0.2127080  -1.2475500   1.1054300   0.0000000   0.0000000   0.0000000
 0.8550000  -0.9938040  -0.0099167   1.0098600   0.0000000   0.0000000  -0.0111320   0.0504987  -0.1211680   0.1257490   0.0000000   0.0000000   0.0000000   0.2015630  -1.2661700   1.1238600   0.0000000   0.0000000   0.0000000
 0.8600000  -0.9935490  -0.0105384   1.0105000   0.0000000   0.0000000  -0.0111320   0.0514771  -0.1275440   0.1314130   0.0000000   0.0000000   0.0000000   0.1896680  -1.2840400   1.1415400   0.0000000   0.0000000   0.0000000
 0.8650000  -0.9932890  -0.0111922   1.0111700   0.0000000   0.0000000  -0.0111320   0.0523941  -0.1340070   0.1371630   0.0000000   0.0000000   0.0000000   0.1770230  -1.3011600   1.1584800   0.0000000   0.0000000   0.0000000
 0.8700000  -0.9930250  -0.0118786   1.0118700   0.0000000   0.0000000  -0.0111320   0.0532461  -0.1405540   0.1429970   0.0000000   0.0000000   0.0000000   0.1636280  -1.3175300   1.1746600   0.0000000   0.0000000   0.0000000
 0.8750000  -0.9927570  -0.0125979   1.0126000   0.0000000   0.0000000  -0.0111320   0.0540291  -0.1471810   0.1489090   0.0000000   0.0000000   0.0000000   0.1494830  -1.3331500   1.1900900   0.0000000   0.0000000   0.0000000
 0.8800000  -0.9924850  -0.0133505   1.0133600   0.0000000   0.0000000  -0.0111320   0.0547401  -0.1538840   0.1548960   0.0000000   0.0000000   0.0000000   0.1349500  -1.3480200   1.2047700   0.0000000   0.0000000   0.0000000
 0.8850000  -0.9922100  -0.0141369   1.0141500   0.0000000   0.0000000  -0.0111320   0.0553799  -0.1606600   0.1609550   0.0000000   0.0000000   0.0000000   0.1210970  -1.3621400   1.2187000   0.0000000   0.0000000   0.0000000
 0.8900000  -0.9919310  -0.0149573   1.0149700   0.0000000   0.0000000  -0.0111320   0.0559523  -0.1675040   0.1670820   0.0000000   0.0000000   0.0000000   0.1079950  -1.3755100   1.2318800   0.0000000   0.0000000   0.0000000
 0.8950000  -0.9916500  -0.0158120   1.0158200   0.0000000   0.0000000  -0.0111320   0.0564611  -0.1744140   0.1732730   0.0000000   0.0000000   0.0000000   0.0956420  -1.3881300   1.2443100   0.0000000   0.0000000   0.0000000
 0.9000000  -0.9913670  -0.0167015   1.0167000   0.0000000   0.0000000  -0.0111320   0.0569099  -0.1813840   0.1795240   0.0000000   0.0000000   0.0000000   0.0840394  -1.4000000   1.2559900   0.0000000   0.0000000   0.0000000
 0.9050000  -0.9910810  -0.0176260   1.0176200   0.0000000   0.0000000  -0.0111320   0.0573027  -0.1884120   0.1858310   0.0000000   0.0000000   0.0000000   0.0731868  -1.4111200   1.2669200   0.0000000   0.0000000   0.0000000
 0.9100000  -0.9907940  -0.0185857   1.0185600   0.0000000   0.0000000  -0.0111320   0.0576431  -0.1954940   0.1921920   0.0000000   0.0000000   0.0000000   0.0630842  -1.4214900   1.2771000   0.0000000   0.0000000   0.0000000
 0.9150000  -0.9905050  -0.0195810   1.0195400   0.0000000   0.0000000  -0.0111320   0.0579348  -0.2026260   0.1986010   0.0000000   0.0000000   0.0000000   0.0537316  -1.4311100   1.2865300   0.0000000   0.0000000   0.0000000
 0.9200000  -0.9902150  -0.0206120   1.0205500   0.0000000   0.0000000  -0.0111320   0.0581816  -0.2098040   0.2050560   0.0000000   0.0000000   0.0000000   0.0451290  -1.4399800   1.2952100   0.0000000   0.0000000   0.0000000
 0.9250000  -0.9899230  -0.0216791   1.0215900   0.0000000   0.0000000  -0.0111320   0.0583873  -0.2170240   0.2115520   0.0000000   0.0000000   0.0000000   0.0372764  -1.4480900   1.3031400   0.0000000   0.0000000   0.0000000
 0.9300000  -0.9896310  -0.0227823   1.0226600   0.0000000   0.0000000  -0.0111320   0.0585556  -0.2242840   0.2180860   0.0000000   0.0000000   0.0000000   0.0301738  -1.4554600   1.3103300   0.0000000   0.0000000   0.0000000
 0.9350000  -0.9893380  -0.0239220   1.0237700   0.0000000   0.0000000  -0.0111320   0.0586903  -0.2315780   0.2246540   0.0000000   0.0000000   0.0000000   0.0238212  -1.4620800   1.3167600   0.0000000   0.0000000   0.0000000
 0.9400000  -0.9890440  -0.0250982   1.0249100   0.0000000   0.0000000  -0.0111320   0.0587951  -0.2389030   0.2312520   0.0000000   0.0000000   0.0000000   0.0182186  -1.4679500   1.3224400   0.0000000   0.0000000   0.0000000
 0.9450000  -0.9887500  -0.0263111   1.0260800   0.0000000   0.0000000  -0.0111320   0.0588738  -0.2462560   0.2378770   0.0000000   0.0000000   0.0000000   0.0133660  -1.4730700   1.3273700   0.0000000   0.0000000   0.0000000
 0.9500000  -0.9884550  -0.0275608   1.0272900   0.0000000   0.0000000  -0.0111320   0.0589300  -0.2536330   0.2445250   0.0000000   0.0000000   0.0000000   0.0092634  -1.4774400   1.3315500   0.0000000   0.0000000   0.0000000
 0.9550000  -0.9881600  -0.0288474   1.0285300   0.0000000   0.0000000  -0.0111320   0.0589676  -0.2610290   0.2511910   0.0000000   0.0000000   0.0000000   0.0059108  -1.4810600   1.3349800   0.0000000   0.0000000   0.0000000
 0.9600000  -0.9878660  -0.0301711   1.0298000   0.0000000   0.0000000  -0.0111320   0.0589904  -0.2684420   0.2578730   0.0000000   0.0000000   0.0000000   0.0033082  -1.4839300   1.3376600   0.0000000   0.0000000   0.0000000
 0.9650000  -0.9875710  -0.0315319   1.0311100   0.0000000   0.0000000  -0.0111320   0.0590020  -0.2758670   0.2645670   0.0000000   0.0000000   0.0000000   0.0014555  -1.4860500   1.3395900   0.0000000   0.0000000   0.0000000
 0.9700000  -0.9872760  -0.0329298   1.0324500   0.0000000   0.0000000  -0.0111320   0.0590062  -0.2833010   0.2712680   0.0000000   0.0000000   0.0000000   0.0003529  -1.4874200   1.3407700   0.0000000   0.0000000   0.0000000
 0.9750000  -0.9870130  -0.0343649   1.0338200   0.0000000   0.0000000  -0.0111320   0.0589921  -0.2907400   0.2779730   0.0000000   0.0000000   0.0000000   0.0000000  -1.4880400   1.3412000   0.0000000   0.0000000   0.0000000
 0.9800000  -0.9870130  -0.0348910   1.0339000   0.0000000   0.0000000  -0.0111320   0.0589921  -0.2932420   0.2784400   0.0000000   0.0000000   0.0000000   0.0000000  -1.4880800   1.3412000   0.0000000   0.0000000   0.0000000
 0.9850000  -0.9867180  -0.0363758   1.0353100   0.0000000   0.0000000  -0.0115027   0.0589927  -0.3006820   0.2851450   0.0000000   0.0000000   0.0000000   0.0003750  -1.4877100   1.3408300   0.0000000   0.0000000   0.0000000
 0.9900000  -0.9864230  -0.0378978   1.0367500   0.0000000   0.0000000  -0.0118796   0.0589971  -0.3081180   0.2918470   0.0000000   0.0000000   0.0000000   0.0015000  -1.4865800   1.3397000   0.0000000   0.0000000   0.0000000
 0.9950000  -0.9861280  -0.0394570   1.0382200   0.0000000   0.0000000  -0.0122627   0.0590090  -0.3155470   0.2985410   0.0000000   0.0000000   0.0000000   0.0033750  -1.4847100   1.3378300   0.0000000   0.0000000   0.0000000
 1.0000000  -0.9858330  -0.0410532   1.0397300   0.0000000   0.0000000  -0.0126520   0.0590321  -0.3229640   0.3052240   0.0000000   0.0000000   0.0000000   0.0060000  -1.4820800   1.3352000   0.0000000   0.0000000   0.0000000
 1.0050000  -0.9855370  -0.0426866   1.0412800   0.0000000   0.0000000  -0.0130475   0.0590702  -0.3303660   0.3118920   0.0000000   0.0000000   0.0000000   0.0093750  -1.4787100   1.3318300   0.0000000   0.0000000   0.0000000
 1.0100000  -0.9852420  -0.0443569   1.0428500   0.0000000   0.0000000  -0.0134492   0.0591271  -0.3377500   0.3185410   0.0000000   0.0000000   0.0000000   0.0135000  -1.4745800   1.3277000   0.0000000   0.0000000   0.0000000
 1.0150000  -0.9849460  -0.0460640   1.0444600   0.0000000   0.0000000  -0.0138569   0.0592065  -0.3451110   0.3251680   0.0000000   0.0000000   0.0000000   0.0183750  -1.4697100   1.3228300   0.0000000   0.0000000   0.0000000
 1.0200000  -0.9846500  -0.0478079   1.0461000   0.0000000   0.0000000  -0.0142706   0.0593121  -0.3524450   0.3317680   0.0000000   0.0000000   0.0000000   0.0240000  -1.4640800   1.3172000   0.0000000   0.0000000   0.0000000
 1.0250000  -0.9843530  -0.0495884   1.0477800   0.0000000   0.0000000  -0.0146902   0.0594477  -0.3597500   0.3383390   0.0000000   0.0000000   0.0000000   0.0303750  -1.4577100   1.3108300   0.0000000   0.0000000   0.0000000
 1.0300000  -0.9840550  -0.0514054   1.0494900   0.0000000   0.0000000  -0.0151157   0.0596171  -0.3670210   0.3448750   0.0000000   0.0000000   0.0000000   0.0375000  -1.4505800   1.3037000   0.0000000   0.0000000   0.0000000
 1.0350000  -0.9837570  -0.0532586   1.0512300   0.0000000   0.0000000  -0.0155469   0.0598240  -0.3742550   0.3513740   0.0000000   0.0000000   0.0000000   0.0453750  -1.4427100   1.2958300   0.0000000   0.0000000   0.0000000
 1.0400000  -0.9834570  -0.0551479   1.0530000   0.0000000   0.0000000  -0.0159838   0.0600721  -0.3814470   0.3578320   0.0000000   0.0000000   0.0000000   0.0540000  -1.4340800   1.2872000   0.0000000   0.0000000   0.0000000
 1.0450000  -0.9831560  -0.0570730   1.0548100   0.0000000   0.0000000  -0.0164262   0.0603652  -0.3885940   0.3642450   0.0000000   0.0000000   0.0000000   0.0633750  -1.4247100   1.2778300   0.0000000   0.0000000   0.0000000
 1.0500000  -0.9828530  -0.0590337   1.0566400   0.0000000   0.0000000  -0.0168740   0.0607071  -0.3956930   0.3706090   0.0000000   0.0000000   0.0000000   0.0735000  -1.4145800   1.2677000   0.0000000   0.0000000   0.0000000
 1.0550000  -0.9825490  -0.0610298   1.0585100   0.0000000   0.0000000  -0.0173270   0.0611015  -0.4027390   0.3769210   0.0000000   0.0000000   0.0000000   0.0843750  -1.4037100   1.2568300   0.0000000   0.0000000   0.0000000
 1.0600000  -0.9822420  -0.0630610   1.0604100   0.0000000   0.0000000  -0.0177852   0.0615521  -0.4097290   0.3831760   0.0000000   0.0000000   0.0000000   0.0960000  -1.3920800   1.2452000   0.0000000   0.0000000   0.0000000
 1.0650000  -0.9819330  -0.0651270   1.0623400   0.0000000   0.0000000  -0.0182484   0.0620627  -0.4166590   0.3893720   0.0000000   0.0000000   0.0000000   0.1083750  -1.3797100   1.2328300   0.0000000   0.0000000   0.0000000
 1.0700000  -0.9816210  -0.0672275   1.0643100   0.0000000   0.0000000  -0.0187164   0.0626371  -0.4235250   0.3955030   0.0000000   0.0000000   0.0000000   0.1215000  -1.3665800   1.2197000   0.0000000   0.0000000   0.0000000
 1.0750000  -0.9813070  -0.0693621   1.0663000   0.0000000   0.0000000  -0.0191890   0.0632790  -0.4303230   0.4015670   0.0000000   0.0000000   0.0000000   0.1353750  -1.3527100   1.2058300   0.0000000   0.0000000   0.0000000
 1.0800000  -0.9809880  -0.0715306   1.0683200   0.0000000   0.0000000  -0.0196660   0.0639921  -0.4370500   0.4075600   0.0000000   0.0000000   0.0000000   0.1500000  -1.3380800   1.1912000   0.0000000   0.0000000   0.0000000
 1.0850000  -0.9806670  -0.0737325   1.0703700   0.0000000   0.0000000  -0.0201473   0.0647802  -0.4437030   0.4134780   0.0000000   0.0000000   0.0000000   0.1653750  -1.3227100   1.1758300   0.0000000   0.0000000   0.0000000
 1.0900000  -0.9803410  -0.0759675   1.0724600   0.0000000   0.0000000  -0.0206326   0.0656471  -0.4502760   0.4193170   0.0000000   0.0000000   0.0000000   0.1815000  -1.3065800   1.1597000   0.0000000   0.0000000   0.0000000
 1.0950000  -0.9800100  -0.0782351   1.0745700   0.0000000   0.0000000  -0.0211218   0.0665965  -0.4567670   0.4250740   0.0000000   0.0000000   0.0000000   0.1983750  -1.2897100   1.1428300   0.0000000   0.0000000   0.0000000
 1.1000000  -0.9796740  -0.0805350   1.0767100   0.0000000   0.0000000  -0.0216146   0.0676321  -0.4631720   0.4307440   0.0000000   0.0000000   0.0000000   0.2160000  -1.2720800   1.1252000   0.0000000   0.0000000   0.0000000
 1.1050000  -0.9793340  -0.0828667   1.0788700   0.0000000   0.0000000  -0.0221107   0.0687577  -0.4694870   0.4363250   0.0000000   0.0000000   0.0000000   0.2343750  -1.2537100   1.1068300   0.0000000   0.0000000   0.0000000
 1.1100000  -0.9789870  -0.0852297   1.0810700   0.0000000   0.0000000  -0.0226100   0.0699771  -0.4757080   0.4418120   0.0000000   0.0000000   0.0000000   0.2535000  -1.2345800   1.0877000   0.0000000   0.0000000   0.0000000
 1.1150000  -0.9786340  -0.0876236   1.0832900   0.0000000   0.0000000  -0.0231121   0.0712940  -0.4818310   0.4472010   0.0000000   0.0000000   0.0000000   0.2733750  -1.2147100   1.0678300   0.0000000   0.0000000   0.0000000
 1.1200000  -0.9782740  -0.0900479   1.0855400   0.0000000   0.0000000  -0.0236168   0.0727121  -0.4878540   0.4524890   0.0000000   0.0000000   0.0000000   0.2940000  -1.1940800   1.0472000   0.0000000   0.0000000   0.0000000
 1.1250000  -0.9779060  -0.0925020   1.0878200   0.0000000   0.0000000  -0.0241239   0.0742352  -0.4937710   0.4576710   0.0000000   0.0000000   0.0000000   0.3153750  -1.1727100   1.0258300   0.0000000   0.0000000   0.0000000
 1.1300000  -0.9775310  -0.0949854   1.0901200   0.0000000   0.0000000  -0.0246330   0.0758669  -0.4995800   0.4627460   0.0000000   0.0000000   0.0000000   0.3373110  -1.1505800   1.0037000   0.0000000   0.0000000   0.0000000
 1.1350000  -0.9771470  -0.0974976   1.0924400   0.0000000   0.0000000  -0.0251439   0.0776072  -0.5052760   0.4677070   0.0000000   0.0000000   0.0000000   0.3586820  -1.1277100   0.9808290   0.0000000   0.0000000   0.0000000
 1.1400000  -0.9767550  -0.1000380   1.0947900   0.0000000   0.0000000  -0.0256562   0.0794525  -0.5108550   0.4725530   0.0000000   0.0000000   0.0000000   0.3793040  -1.1040800   0.9572040   0.0000000   0.0000000   0.0000000
 1.1450000  -0.9763530  -0.1026060   1.0971700   0.0000000   0.0000000  -0.0261696   0.0813990  -0.5163150   0.4772780   0.0000000   0.0000000   0.0000000   0.3991760  -1.0797100   0.9328290   0.0000000   0.0000000   0.0000000
 1.1500000  -0.9759410  -0.1052010   1.0995700   0.0000000   0.0000000  -0.0266838   0.0834430  -0.5216510   0.4818800   0.0000000   0.0000000   0.0000000   0.4182970  -1.0545800   0.9077040   0.0000000   0.0000000   0.0000000
 1.1550000  -0.9755180  -0.1078220   1.1019900   0.0000000   0.0000000  -0.0271985   0.0855808  -0.5268600   0.4863540   0.0000000   0.0000000   0.0000000   0.4366690  -1.0287100   0.8818290   0.0000000   0.0000000   0.0000000
 1.1600000  -0.9750850  -0.1104690   1.1044300   0.0000000   0.0000000  -0.0277134   0.0878085  -0.5319370   0.4906970   0.0000000   0.0000000   0.0000000   0.4542910  -1.0020800   0.8552040   0.0000000   0.0000000   0.0000000
 1.1650000  -0.9746400  -0.1131410   1.1068900   0.0000000   0.0000000  -0.0282280   0.0901224  -0.5368790   0.4949050   0.0000000   0.0000000   0.0000000   0.4711620  -0.9747080   0.8278290   0.0000000   0.0000000   0.0000000
 1.1700000  -0.9741830  -0.1158380   1.1093800   0.0000000   0.0000000  -0.0287420   0.0925188  -0.5416830   0.4989740   0.0000000   0.0000000   0.0000000   0.4872840  -0.9465830   0.7997040   0.0000000   0.0000000   0.0000000
 1.1750000  -0.9737150  -0.1185580   1.1118800   0.0000000   0.0000000  -0.0292551   0.0949940  -0.5463440   0.5029000   0.0000000   0.0000000   0.0000000   0.5026550  -0.9177080   0.7708290   0.0000000   0.0000000   0.0000000
 1.1800000  -0.9732330  -0.1213010   1.1144100   0.0000000   0.0000000  -0.0297671   0.0975441  -0.5508590   0.5066810   0.0000000   0.0000000   0.0000000   0.5172770  -0.8880830   0.7412040   0.0000000   0.0000000   0.0000000
 1.1850000  -0.9727390  -0.1240660   1.1169500   0.0000000   0.0000000  -0.0302774   0.1001660  -0.5552230   0.5103110   0.0000000   0.0000000   0.0000000   0.5311490  -0.8577080   0.7108290   0.0000000   0.0000000   0.0000000
 1.1900000  -0.9722320  -0.1268530   1.1195100   0.0000000   0.0000000  -0.0307860   0.1028540  -0.5594340   0.5137880   0.0000000   0.0000000   0.0000000   0.5442700  -0.8265830   0.6797040   0.0000000   0.0000000   0.0000000
 1.1950000  -0.9717100  -0.1296600   1.1220900   0.0000000   0.0000000  -0.0312924   0.1056070  -0.5634880   0.5171070   0.0000000   0.0000000   0.0000000   0.5566420  -0.7947080   0.6478290   0.0000000   0.0000000   0.0000000
 1.2000000  -0.9711750  -0.1324880   1.1246800   0.0000000   0.0000000  -0.0317964   0.1084200  -0.5673800   0.5202650   0.0000000   0.0000000   0.0000000   0.5682640  -0.7620830   0.6152040   0.0000000   0.0000000   0.0000000
 1.2050000  -0.9706260  -0.1353340   1.1272900   0.0000000   0.0000000  -0.0322978   0.1112880  -0.5711080   0.5232580   0.0000000   0.0000000   0.0000000   0.5791350  -0.7287080   0.5818290   0.0000000   0.0000000   0.0000000
 1.2100000  -0.9700620  -0.1381980   1.1299100   0.0000000   0.0000000  -0.0327961   0.1142100  -0.5746660   0.5260820   0.0000000   0.0000000   0.0000000   0.5892570  -0.6945830   0.5477040   0.0000000   0.0000000   0.0000000
 1.2150000  -0.9694840  -0.1410800   1.1325500   0.0000000   0.0000000  -0.0332913   0.1171800  -0.5780520   0.5287340   0.0000000   0.0000000   0.0000000   0.5986280  -0.6597080   0.5128290   0.0000000   0.0000000   0.0000000
 1.2200000  -0.9688910  -0.1439790   1.1352000   0.0000000   0.0000000  -0.0337831   0.1201950  -0.5812620   0.5312090   0.0000000   0.0000000   0.0000000   0.6072500  -0.6240830   0.4772040   0.0000000   0.0000000   0.0000000
 1.2250000  -0.9682820  -0.1468930   1.1378600   0.0000000   0.0000000  -0.0342712   0.1232510  -0.5842920   0.5335040   0.0000000   0.0000000   0.0000000   0.6151220  -0.5877080   0.4408290   0.0000000   0.0000000   0.0000000
 1.2300000  -0.9676580  -0.1498210   1.1405400   0.0000000   0.0000000  -0.0347553   0.1263450  -0.5871380   0.5356160   0.0000000   0.0000000   0.0000000   0.6222430  -0.5505830   0.4037040   0.0000000   0.0000000   0.0000000
 1.2350000  -0.9670180  -0.1527640   1.1432200   0.0000000   0.0000000  -0.0352354   0.1294720  -0.5897960   0.5375400   0.0000000   0.0000000   0.0000000   0.6286150  -0.5127080   0.3658290   0.0000000   0.0000000   0.0000000
 1.2400000  -0.9663630  -0.1557190   1.1459100   0.0000000   0.0000000  -0.0357112   0.1326300  -0.5922640   0.5392730   0.0000000   0.0000000   0.0000000   0.6342370  -0.4740830   0.3272040   0.0000000   0.0000000   0.0000000
 1.2450000  -0.9656920  -0.1586860   1.1486100   0.0000000   0.0000000  -0.0361825   0.1358130  -0.5945360   0.5408110   0.0000000   0.0000000   0.0000000   0.6391080  -0.4347080   0.2878290   0.0000000   0.0000000   0.0000000
 1.2500000  -0.9650050  -0.1616640   1.1513200   0.0000000   0.0000000  -0.0366491   0.1390190  -0.5966090   0.5421500   0.0000000   0.0000000   0.0000000   0.6432300  -0.3945830   0.2477040   0.0000000   0.0000000   0.0000000
 1.2550000  -0.9643020  -0.1646520   1.1540300   0.0000000   0.0000000  -0.0371108   0.1422440  -0.5984810   0.5432870   0.0000000   0.0000000   0.0000000   0.6466010  -0.3539350   0.2068290   0.0000000   0.0000000   0.0000000
 1.2600000  -0.9635830  -0.1676480   1.1567500   0.0000000   0.0000000  -0.0375675   0.1454840  -0.6001500   0.5442170   0.0000000   0.0000000   0.0000000   0.6492230  -0.3138850   0.1652040   0.0000000   0.0000000   0.0000000
 1.2650000  -0.9628470  -0.1706530   1.1594700   0.0000000   0.0000000  -0.0380191   0.1487350  -0.6016210   0.5449370   0.0000000   0.0000000   0.0000000   0.6510950  -0.2745860   0.1228290   0.0000000   0.0000000   0.0000000
 1.2700000  -0.9620950  -0.1736640   1.1622000   0.0000000   0.0000000  -0.0384654   0.1519940  -0.6028970   0.5454440   0.0000000   0.0000000   0.0000000   0.6522160  -0.2360370   0.0797039   0.0000000   0.0000000   0.0000000
 1.2750000  -0.9613270  -0.1766820   1.1649300   0.0000000   0.0000000  -0.0389062   0.1552560  -0.6039820   0.5457330   0.0000000   0.0000000   0.0000000   0.6525880  -0.1982370   0.0358289   0.0000000   0.0000000   0.0000000
 1.2800000  -0.9605430  -0.1797040   1.1676600   0.0000000   0.0000000  -0.0393414   0.1585180  -0.6048810   0.5458020   0.0000000   0.0000000   0.0000000   0.6522100  -0.1611880  -0.0084757   0.0000000   0.0000000   0.0000000
 1.2850000  -0.9597420  -0.1827300   1.1703900   0.0000000   0.0000000  -0.0397710   0.1617770  -0.6055960   0.5456500   0.0000000   0.0000000   0.0000000   0.6510810  -0.1248880  -0.0521202   0.0000000   0.0000000   0.0000000
 1.2900000  -0.9589250  -0.1857590   1.1731100   0.0000000   0.0000000  -0.0401948   0.1650280  -0.6061310   0.5452820   0.0000000   0.0000000   0.0000000   0.6492030  -0.0893390  -0.0950147   0.0000000   0.0000000   0.0000000
 1.2950000  -0.9580920  -0.1887910   1.1758400   0.0000000   0.0000000  -0.0406127   0.1682680  -0.6064900   0.5447010   0.0000000   0.0000000   0.0000000   0.6465740  -0.0545395  -0.1371590   0.0000000   0.0000000   0.0000000
 1.3000000  -0.9572420  -0.1918240   1.1785600   0.0000000   0.0000000  -0.0410247   0.1714930  -0.6066770   0.5439110   0.0000000   0.0000000   0.0000000   0.6431960  -0.0204901  -0.1785540   0.0000000   0.0000000   0.0000000
 1.3050000  -0.9563770  -0.1948580   1.1812800   0.0000000   0.0000000  -0.0414306   0.1746980  -0.6066960   0.5429170   0.0000000   0.0000000   0.0000000   0.6390680   0.0128093  -0.2191980   0.0000000   0.0000000   0.0000000
 1.3100000  -0.9554950  -0.1978910   1.1839900   0.0000000   0.0000000  -0.0418305   0.1778820  -0.6065510   0.5417200   0.0000000   0.0000000   0.0000000   0.6341890   0.0453587  -0.2590930   0.0000000   0.0000000   0.0000000
 1.3150000  -0.9545980  -0.2009230   1.1866900   0.0000000   0.0000000  -0.0422242   0.1810390  -0.6062440   0.5403270   0.0000000   0.0000000   0.0000000   0.6285610   0.0771581  -0.2982370   0.0000000   0.0000000   0.0000000
