ts x y z roll pitch yaw vx vy vz wx wy wz ax ay az dwx dwy dwz jx jy jz ddwx ddwy ddwz
1700576024.321353000  -1.5  0  1  0  0  0  6e-07  6e-07  6e-07  0  0  0  0.000375  0.000375  0.000375  0  0  0  0  0  0  0  0  0 
1700576024.325997000  -1.5  0  1  0  0  0  5e-06  5e-06  5e-06  0  0  0  0.0014996  0.0014996  0.0014996  0  0  0  0  0  0  0  0  0 
1700576024.330992000  -1.5  1e-07  1  0  0  0  1.55e-05  1.55e-05  1.55e-05  0  0  0  0.0025892  0.0025892  0.0025892  0  0  0  0  0  0  0  0  0 
1700576024.336013000  -1.5  2e-07  1  0  0  1e-07  2.96e-05  2.96e-05  2.96e-05  0  0  0  0.0029289  0.0029289  0.0029289  0  0  0  0  0  0  0  0  0 
1700576024.340990000  -1.5  4e-07  1  0  0  2e-07  4.36e-05  4.36e-05  4.36e-05  0  0  0  0.0025185  0.0025185  0.0025185  0  0  0  0  0  0  0  0  0 
1700576024.345990000  -1.5  6e-07  1  0  0  4e-07  5.36e-05  5.36e-05  5.36e-05  0  0  0  0.0013619  0.0013619  0.0013619  0  0  0  0  0  0  0  0  0 
1700576024.350994000  -1.5  9e-07  1  0  0  6e-07  5.74e-05  5.74e-05  5.74e-05  0  0  0  0.0003076  0.0003076  0.0003076  0  0  0  0  0  0  0  0  0 
1700576024.356011000  -1.5  1.2e-06  1  0  0  8e-07  5.79e-05  5.79e-05  5.79e-05  0  0  0  3.3e-06  -3.3e-06  3.3e-06  0  0  0  0  0  0  0  0  0 
1700576024.361008000  -1.5  1.5e-06  1  0  0  1e-06  5.87e-05  5.71e-05  5.87e-05  0  0  0  0.0004491  -0.0004491  0.0004491  0  0  0  0  0  0  0  0  0 
1700576024.366007000  -1.5  1.7e-06  1  0  0  1.2e-06  6.36e-05  5.22e-05  6.36e-05  0  0  0  0.0016448  -0.0016448  0.0016448  0  0  0  0  0  0  0  0  0 
1700576024.371007000  -1.5  2e-06  1  0  0  1.4e-06  7.64e-05  3.94e-05  7.64e-05  0  0  0  0.0035905  -0.0035905  0.0035905  0  0  0  0  0  0  0  0  0 
1700576024.376019000  -1.5  2.1e-06  1  0  0  1.6e-06  0.0001008  1.5e-05  0.0001008  0  0  0  0.0062863  -0.0062863  0.0062863  0  0  0  0  0  0  0  0  0 
1700576024.381009000  -1.5  2.1e-06  1  0  0  1.7e-06  0.0001405  -2.47e-05  0.0001405  0  0  0  0.009732  -0.009732  0.009732  0  0  0  0  0  0  0  0  0 
1700576024.386008000  -1.5  1.8e-06  1  0  0  1.8e-06  0.0001994  -8.36e-05  0.0001994  0  0  0  0.0139277  -0.0139277  0.0139277  0  0  0  0  0  0  0  0  0 
1700576024.391007000  -1.49999  1.2e-06  1.00001  0  0  1.7e-06  0.0002811  -0.0001653  0.0002811  0  0  0  0.0188734  -0.0188734  0.0188734  0  0  0  0  0  0  0  0  0 
1700576024.396012000  -1.49999  1e-07  1.00001  0  0  1.4e-06  0.0003894  -0.0002735  0.0003894  0  0  0  0.0245692  -0.0245692  0.0245692  0  0  0  0  0  0  0  0  0 
1700576024.401009000  -1.49999  -1.6e-06  1.00001  0  0  9e-07  0.000528  -0.0004122  0.000528  0  0  0  0.0310149  -0.0310149  0.0310149  0  0  0  0  0  0  0  0  0 
1700576024.406007000  -1.49999  -4e-06  1.00001  0  0  0  0.0007008  -0.0005849  0.0007008  0  0  0  0.0382106  -0.0382106  0.0382106  0  0  0  0  0  0  0  0  0 
1700576024.411009000  -1.49998  -7.5e-06  1.00002  0  0  -1.3e-06  0.0009114  -0.0007956  0.0009114  0  0  0  0.0461564  -0.0461564  0.0461564  0  0  0  0  0  0  0  0  0 
1700576024.416013000  -1.49998  -1.21e-05  1.00002  0  0  -3.1e-06  0.0011636  -0.0010478  0.0011636  0  0  0  0.0548521  -0.0548521  0.0548521  0  0  0  0  0  0  0  0  0 
1700576024.421002000  -1.49997  -1.8e-05  1.00003  0  0  -5.5e-06  0.0014611  -0.0013453  0.0014611  0  0  0  0.0642978  -0.0642978  0.0642978  0  0  0  0  0  0  0  0  0 
1700576024.426003000  -1.49996  -2.56e-05  1.00004  0  0  -8.7e-06  0.0018078  -0.001692  0.0018078  0  0  0  0.0744935  -0.0744935  0.0744935  0  0  0  0  0  0  0  0  0 
1700576024.431006000  -1.49995  -3.5e-05  1.00005  0  0  -1.27e-05  0.0022073  -0.0020915  0.0022073  0  0  0  0.0854393  -0.0854393  0.0854393  0  0  0  0  0  0  0  0  0 
1700576024.436000000  -1.49994  -4.66e-05  1.00006  0  0  -1.78e-05  0.0026634  -0.0025476  0.0026634  0  0  0  0.097135  -0.097135  0.097135  0  0  0  0  0  0  0  0  0 
1700576024.441005000  -1.49993  -6.06e-05  1.00007  0  0  -2.4e-05  0.0031799  -0.0030641  0.0031799  0  0  0  0.109581  -0.109581  0.109581  0  0  0  0  0  0  0  0  0 
1700576024.446003000  -1.49991  -7.74e-05  1.00009  0  0  -3.15e-05  0.0037605  -0.0036447  0.0037605  0  0  0  0.122776  -0.122776  0.122776  0  0  0  0  0  0  0  0  0 
1700576024.450987000  -1.49989  -9.72e-05  1.00011  0  0  -4.05e-05  0.0044089  -0.0042931  0.0044089  0  0  0  0.136722  -0.136722  0.136722  0  0  0  0  0  0  0  0  0 
1700576024.456002000  -1.49987  -0.0001204  1.00013  0  0  -5.11e-05  0.005129  -0.0050132  0.005129  0  0  0  0.151418  -0.151418  0.151418  0  0  0  0  0  0  0  0  0 
1700576024.461005000  -1.49984  -0.0001474  1.00016  0  0  -6.35e-05  0.0059244  -0.0058085  0.0059244  0  0  0  0.166864  -0.166864  0.166864  0  0  0  0  0  0  0  0  0 
1700576024.466007000  -1.49981  -0.0001786  1.00019  0  0  -7.8e-05  0.0067989  -0.0066831  0.0067989  0  0  0  0.183059  -0.183059  0.183059  0  0  0  0  0  0  0  0  0 
1700576024.471005000  -1.49977  -0.0002144  1.00023  0  0  -9.48e-05  0.0077562  -0.0076404  0.0077562  0  0  0  0.200005  -0.200005  0.200005  0  0  0  0  0  0  0  0  0 
1700576024.476013000  -1.49973  -0.0002552  1.00027  0  0  -0.000114  0.0088001  -0.0086844  0.0088001  0  0  0  0.217701  -0.217701  0.217701  0  0  0  0  0  0  0  0  0 
1700576024.481021000  -1.49968  -0.0003014  1.00032  0  0  -0.0001358  0.0099345  -0.0098186  0.0099345  0  0  0  0.236147  -0.236147  0.236147  0  0  0  0  0  0  0  0  0 
1700576024.486007000  -1.49963  -0.0003535  1.00037  0  0  -0.0001606  0.0111629  -0.0110471  0.0111629  0  0  0  0.255342  -0.255342  0.255342  0  0  0  0  0  0  0  0  0 
1700576024.491007000  -1.49957  -0.000412  1.00043  0  0  -0.0001886  0.0124891  -0.0123733  0.0124891  0  0  0  0.275288  -0.275288  0.275288  0  0  0  0  0  0  0  0  0 
1700576024.496003000  -1.4995  -0.0004774  1.0005  0  0  -0.0002199  0.013917  -0.0138012  0.013917  0  0  0  0.295984  -0.295984  0.295984  0  0  0  0  0  0  0  0  0 
1700576024.501006000  -1.49943  -0.0005502  1.00057  0  0  -0.0002549  0.0154502  -0.0153344  0.0154502  0  0  0  0.317429  -0.317429  0.317429  0  0  0  0  0  0  0  0  0 
1700576024.506007000  -1.49935  -0.000631  1.00065  0  0  -0.0002938  0.0170925  -0.0169767  0.0170925  0  0  0  0.339625  -0.339625  0.339625  0  0  0  0  0  0  0  0  0 
1700576024.511004000  -1.49926  -0.0007202  1.00074  0  0  -0.0003368  0.0188477  -0.0187319  0.0188477  0  0  0  0.362571  -0.362571  0.362571  0  0  0  0  0  0  0  0  0 
1700576024.516005000  -1.49916  -0.0008185  1.00084  0  0  -0.000384  0.0207195  -0.0206037  0.0207195  0  0  0  0.386267  -0.386267  0.386267  0  0  0  0  0  0  0  0  0 
1700576024.521004000  -1.49905  -0.0009264  1.00095  0  0  -0.0004357  0.0227116  -0.0225958  0.0227116  0  0  0  0.410712  -0.410712  0.410712  0  0  0  0  0  0  0  0  0 
1700576024.526008000  -1.49893  -0.0010446  1.00107  0  0  -0.0004921  0.0248279  -0.0247121  0.0248279  0  0  0  0.435908  -0.435908  0.435908  0  0  0  0  0  0  0  0  0 
1700576024.530989000  -1.4988  -0.0011738  1.0012  0  0  -0.0005532  0.027072  -0.0269562  0.027072  0  0  0  0.461854  -0.461854  0.461854  0  0  0  0  0  0  0  0  0 
1700576024.536005000  -1.49866  -0.0013144  1.00134  0  0  -0.0006194  0.0294477  -0.0293319  0.0294477  0  0  0  0.48855  -0.48855  0.48855  0  0  0  0  0  0  0  0  0 
1700576024.541006000  -1.49851  -0.0014673  1.00149  0  0  -0.0006908  0.0319587  -0.0318429  0.0319587  0  0  0  0.515995  -0.515995  0.515995  0  0  0  0  0  0  0  0  0 
1700576024.546007000  -1.49834  -0.0016331  1.00166  0  0  -0.0007674  0.0346089  -0.0344931  0.0346089  0  0  0  0.544191  -0.544191  0.544191  0  0  0  0  0  0  0  0  0 
1700576024.550989000  -1.49816  -0.0018125  1.00184  0  0  -0.0008494  0.0374019  -0.0372861  0.0374019  0  0  0  0.573137  -0.573137  0.573137  0  0  0  0  0  0  0  0  0 
1700576024.556004000  -1.49797  -0.0020062  1.00203  0  0  -0.000937  0.0403415  -0.0402257  0.0403415  0  0  0  0.602833  -0.602833  0.602833  0  0  0  0  0  0  0  0  0 
1700576024.561004000  -1.49776  -0.002215  1.00224  0  0  -0.0010303  0.0434315  -0.0433156  0.0434315  0  0  0  0.633278  -0.633278  0.633278  0  0  0  0  0  0  0  0  0 
1700576024.566007000  -1.49753  -0.0024396  1.00247  0  0  -0.0011293  0.0466755  -0.0465597  0.0466755  0  0  0  0.664474  -0.664474  0.664474  0  0  0  0  0  0  0  0  0 
1700576024.571005000  -1.49729  -0.0026808  1.00271  0  0  -0.0012342  0.0500774  -0.0499616  0.0500774  0  0  0  0.69642  -0.69642  0.69642  0  0  0  0  0  0  0  0  0 
1700576024.575989000  -1.49703  -0.0029395  1.00297  0  0  -0.001345  0.053641  -0.0535252  0.053641  0  0  0  0.729115  -0.729115  0.729115  0  0  0  0  0  0  0  0  0 
1700576024.580985000  -1.49676  -0.0032164  1.00324  0  0  -0.0014619  0.0573698  -0.057254  0.0573698  0  0  0  0.762457  -0.762457  0.762457  0  0  0  0  0  0  0  0  0 
1700576024.585987000  -1.49646  -0.0035123  1.00354  0  0  -0.0015848  0.0612646  -0.0611488  0.0612646  0  0  0  0.795343  -0.795343  0.795343  0  0  0  0  0  0  0  0  0 
1700576024.590991000  -1.49614  -0.0038281  1.00386  0  0  -0.0017139  0.065322  -0.0652062  0.065322  0  0  0  0.827479  -0.827479  0.827479  0  0  0  0  0  0  0  0  0 
1700576024.595987000  -1.49581  -0.0041646  1.00419  0  0  -0.0018491  0.0695381  -0.0694223  0.0695381  0  0  0  0.858866  -0.858866  0.858866  0  0  0  0  0  0  0  0  0 
1700576024.600985000  -1.49545  -0.0045226  1.00455  0  0  -0.0019905  0.0739094  -0.0737936  0.0739094  0  0  0  0.889502  -0.889502  0.889502  0  0  0  0  0  0  0  0  0 
1700576024.605986000  -1.49507  -0.0049028  1.00493  0  0  -0.0021382  0.0784319  -0.0783161  0.0784319  0  0  0  0.919388  -0.919388  0.919388  0  0  0  0  0  0  0  0  0 
1700576024.610992000  -1.49466  -0.005306  1.00534  0  0  -0.0022921  0.083102  -0.0829862  0.083102  0  0  0  0.948525  -0.948525  0.948525  0  0  0  0  0  0  0  0  0 
1700576024.615987000  -1.49423  -0.0057329  1.00577  0  0  -0.0024523  0.0879159  -0.0878001  0.0879159  0  0  0  0.976911  -0.976911  0.976911  0  0  0  0  0  0  0  0  0 
1700576024.620985000  -1.49378  -0.0061842  1.00622  0  0  -0.0026187  0.0928699  -0.0927541  0.0928699  0  0  0  1.00455  -1.00455  1.00455  0  0  0  0  0  0  0  0  0 
1700576024.625986000  -1.49331  -0.0066607  1.00669  0  0  -0.0027914  0.0979601  -0.0978443  0.0979601  0  0  0  1.03143  -1.03143  1.03143  0  0  0  0  0  0  0  0  0 
1700576024.631003000  -1.4928  -0.0071629  1.0072  0  0  -0.0029703  0.103183  -0.103067  0.103183  0  0  0  1.05757  -1.05757  1.05757  0  0  0  0  0  0  0  0  0 
1700576024.636001000  -1.49227  -0.0076916  1.00773  0  0  -0.0031555  0.108535  -0.108419  0.108535  0  0  0  1.08296  -1.08296  1.08296  0  0  0  0  0  0  0  0  0 
1700576024.641001000  -1.49172  -0.0082473  1.00828  0  0  -0.0033469  0.114011  -0.113895  0.114011  0  0  0  1.10759  -1.10759  1.10759  0  0  0  0  0  0  0  0  0 
1700576024.645999000  -1.49113  -0.0088307  1.00887  0  0  -0.0035446  0.119609  -0.119493  0.119609  0  0  0  1.13148  -1.13148  1.13148  0  0  0  0  0  0  0  0  0 
1700576024.651000000  -1.49052  -0.0094424  1.00948  0  0  -0.0037485  0.125325  -0.125209  0.125325  0  0  0  1.15462  -1.15462  1.15462  0  0  0  0  0  0  0  0  0 
1700576024.656006000  -1.48988  -0.010083  1.01012  0  0  -0.0039586  0.131154  -0.131038  0.131154  0  0  0  1.177  -1.177  1.177  0  0  0  0  0  0  0  0  0 
1700576024.660999000  -1.48921  -0.010753  1.01079  0  0  -0.004175  0.137094  -0.136978  0.137094  0  0  0  1.19864  -1.19864  1.19864  0  0  0  0  0  0  0  0  0 
1700576024.666000000  -1.48851  -0.011453  1.01149  0  0  -0.0043977  0.143139  -0.143023  0.143139  0  0  0  1.21952  -1.21952  1.21952  0  0  0  0  0  0  0  0  0 
1700576024.671001000  -1.48778  -0.0121834  1.01222  0  0  -0.0046266  0.149288  -0.149172  0.149288  0  0  0  1.23966  -1.23966  1.23966  0  0  0  0  0  0  0  0  0 
1700576024.676001000  -1.48702  -0.0129448  1.01298  0  0  -0.0048618  0.155535  -0.155419  0.155535  0  0  0  1.25905  -1.25905  1.25905  0  0  0  0  0  0  0  0  0 
1700576024.681003000  -1.48622  -0.0137377  1.01378  0  0  -0.0051032  0.161877  -0.161761  0.161877  0  0  0  1.27768  -1.27768  1.27768  0  0  0  0  0  0  0  0  0 
1700576024.686000000  -1.4854  -0.0145626  1.0146  0  0  -0.0053509  0.16831  -0.168194  0.16831  0  0  0  1.29557  -1.29557  1.29557  0  0  0  0  0  0  0  0  0 
1700576024.690987000  -1.48454  -0.0154198  1.01546  0  0  -0.0056048  0.174831  -0.174715  0.174831  0  0  0  1.31271  -1.31271  1.31271  0  0  0  0  0  0  0  0  0 
1700576024.696022000  -1.48365  -0.0163099  1.01635  0  0  -0.005865  0.181436  -0.18132  0.181436  0  0  0  1.32909  -1.32909  1.32909  0  0  0  0  0  0  0  0  0 
1700576024.700999000  -1.48272  -0.0172332  1.01728  0  0  -0.0061314  0.188121  -0.188005  0.188121  0  0  0  1.34473  -1.34473  1.34473  0  0  0  0  0  0  0  0  0 
1700576024.705999000  -1.48177  -0.0181901  1.01823  0  0  -0.006404  0.194882  -0.194766  0.194882  0  0  0  1.35961  -1.35961  1.35961  0  0  0  0  0  0  0  0  0 
1700576024.711004000  -1.48078  -0.019181  1.01922  0  0  -0.006683  0.201716  -0.2016  0.201716  0  0  0  1.37375  -1.37375  1.37375  0  0  0  0  0  0  0  0  0 
1700576024.716001000  -1.47975  -0.0202062  1.02025  0  0  -0.0069681  0.208618  -0.208503  0.208618  0  0  0  1.38714  -1.38714  1.38714  0  0  0  0  0  0  0  0  0 
1700576024.720999000  -1.47869  -0.0212661  1.02131  0  0  -0.0072595  0.215586  -0.21547  0.215586  0  0  0  1.39977  -1.39977  1.39977  0  0  0  0  0  0  0  0  0 
1700576024.725999000  -1.47759  -0.022361  1.02241  0  0  -0.0075572  0.222615  -0.222499  0.222615  0  0  0  1.41166  -1.41166  1.41166  0  0  0  0  0  0  0  0  0 
1700576024.731005000  -1.47646  -0.0234912  1.02354  0  0  -0.0078611  0.229701  -0.229585  0.229701  0  0  0  1.4228  -1.4228  1.4228  0  0  0  0  0  0  0  0  0 
1700576024.736001000  -1.4753  -0.0246569  1.0247  0  0  -0.0081713  0.236842  -0.236726  0.236842  0  0  0  1.43318  -1.43318  1.43318  0  0  0  0  0  0  0  0  0 
1700576024.741000000  -1.47409  -0.0258585  1.02591  0  0  -0.0084877  0.244032  -0.243916  0.244032  0  0  0  1.44282  -1.44282  1.44282  0  0  0  0  0  0  0  0  0 
1700576024.746000000  -1.47286  -0.0270962  1.02714  0  0  -0.0088104  0.251268  -0.251153  0.251268  0  0  0  1.45171  -1.45171  1.45171  0  0  0  0  0  0  0  0  0 
1700576024.751001000  -1.47158  -0.0283701  1.02842  0  0  -0.0091393  0.258548  -0.258432  0.258548  0  0  0  1.45984  -1.45984  1.45984  0  0  0  0  0  0  0  0  0 
1700576024.755999000  -1.47027  -0.0296806  1.02973  0  0  -0.0094745  0.265866  -0.26575  0.265866  0  0  0  1.46723  -1.46723  1.46723  0  0  0  0  0  0  0  0  0 
1700576024.760999000  -1.46892  -0.0310277  1.03108  0  0  -0.0098159  0.273219  -0.273103  0.273219  0  0  0  1.47386  -1.47386  1.47386  0  0  0  0  0  0  0  0  0 
1700576024.765999000  -1.46754  -0.0324116  1.03246  0  0  -0.0101635  0.280603  -0.280487  0.280603  0  0  0  1.47975  -1.47975  1.47975  0  0  0  0  0  0  0  0  0 
1700576024.771006000  -1.46612  -0.0338326  1.03388  0  0  -0.0105175  0.288015  -0.287899  0.288015  0  0  0  1.48489  -1.48489  1.48489  0  0  0  0  0  0  0  0  0 
1700576024.776001000  -1.46466  -0.0352907  1.03534  0  0  -0.0108776  0.295451  -0.295335  0.295451  0  0  0  1.48927  -1.48927  1.48927  0  0  0  0  0  0  0  0  0 
1700576024.780999000  -1.46316  -0.036786  1.03684  0  0  -0.011244  0.302906  -0.302791  0.302906  0  0  0  1.49291  -1.49291  1.49291  0  0  0  0  0  0  0  0  0 
1700576024.786001000  -1.46163  -0.0383186  1.03837  0  0  -0.0116167  0.310378  -0.310263  0.310378  0  0  0  1.4958  -1.4958  1.4958  0  0  0  0  0  0  0  0  0 
1700576024.791000000  -1.46006  -0.0398886  1.03994  0  0  -0.0119956  0.317863  -0.317747  0.317863  0  0  0  1.49793  -1.49793  1.49793  0  0  0  0  0  0  0  0  0 
1700576024.796017000  -1.45845  -0.0414961  1.04155  0  0  -0.0123808  0.325357  -0.325241  0.325357  0  0  0  1.49932  -1.49932  1.49932  0  0  0  0  0  0  0  0  0 
1700576024.801001000  -1.45681  -0.043141  1.04319  0  0  -0.0127722  0.332855  -0.332739  0.332855  0  0  0  1.49995  -1.49995  1.49995  0  0  0  0  0  0  0  0  0 
1700576024.806000000  -1.45512  -0.0448235  1.04488  0  0  -0.0131699  0.340355  -0.340239  0.340355  0  0  0  1.5  -1.5  1.5  0  0  0  0  0  0  0  0  0 
1700576024.811003000  -1.4534  -0.0465434  1.0466  0  0  -0.0135738  0.347855  -0.347739  0.347855  0  0  0  1.5  -1.5  1.5  0  0  0  0  0  0  0  0  0 
1700576024.816002000  -1.45164  -0.0483009  1.04836  0  0  -0.013984  0.355355  -0.355239  0.355355  0  0  0  1.5  -1.5  1.5  0  0  0  0  0  0  0  0  0 
1700576024.821001000  -1.44985  -0.0500958  1.05015  0  0  -0.0144004  0.362855  -0.362739  0.362855  0  0  0  1.5  -1.5  1.5  0  0  0  0  0  0  0  0  0 
1700576024.826001000  -1.44801  -0.0519283  1.05199  0  0  -0.014823  0.370355  -0.370239  0.370355  0  0  0  1.5  -1.5  1.5  0  0  0  0  0  0  0  0  0 
1700576024.831006000  -1.44614  -0.0537982  1.05386  0  0  -0.015252  0.377855  -0.377739  0.377855  0  0  0  1.5  -1.5  1.5  0  0  0  0  0  0  0  0  0 
1700576024.836002000  -1.44424  -0.0557057  1.05576  0  0  -0.0156871  0.385355  -0.385239  0.385355  0  0  0  1.5  -1.5  1.5  0  0  0  0  0  0  0  0  0 
1700576024.840997000  -1.44229  -0.0576506  1.05771  0  0  -0.0161285  0.392855  -0.392739  0.392855  0  0  0  1.5  -1.5  1.5  0  0  0  0  0  0  0  0  0 
1700576024.845999000  -1.44031  -0.059633  1.05969  0  0  -0.0165762  0.400355  -0.400239  0.400355  0  0  0  1.5  -1.5  1.5  0  0  0  0  0  0  0  0  0 
1700576024.851002000  -1.43829  -0.061653  1.06171  0  0  -0.0170301  0.407855  -0.407739  0.407855  0  0  0  1.5  -1.5  1.5  0  0  0  0  0  0  0  0  0 
1700576024.856023000  -1.43623  -0.0637104  1.06377  0  0  -0.0174903  0.415355  -0.415239  0.415355  0  0  0  1.5  -1.5  1.5  0  0  0  0  0  0  0  0  0 
1700576024.861001000  -1.43413  -0.0658054  1.06587  0  0  -0.0179567  0.422855  -0.422739  0.422855  0  0  0  1.5  -1.5  1.5  0  0  0  0  0  0  0  0  0 
1700576024.866002000  -1.432  -0.0679378  1.068  0  0  -0.0184294  0.430355  -0.430239  0.430355  0  0  0  1.5  -1.5  1.5  0  0  0  0  0  0  0  0  0 
1700576024.871006000  -1.42983  -0.0701078  1.07017  0  0  -0.0189083  0.437855  -0.437739  0.437855  0  0  0  1.5  -1.5  1.5  0  0  0  0  0  0  0  0  0 
1700576024.876002000  -1.42762  -0.0723152  1.07238  0  0  -0.0193935  0.445355  -0.445239  0.445355  0  0  0  1.5  -1.5  1.5  0  0  0  0  0  0  0  0  0 
1700576024.881001000  -1.42538  -0.0745602  1.07462  0  0  -0.0198849  0.452855  -0.452739  0.452855  0  0  0  1.5  -1.5  1.5  0  0  0  0  0  0  0  0  0 
1700576024.886001000  -1.42415  -0.0758489  1.07585  0  0  -0.0203825  0.456943  -0.456943  0.456943  0  0  0  1.5  -1.5  1.5  0  0  0  0  0  0  0  0  0 
1700576024.890990000  -1.42415  -0.0758489  1.07585  0  0  -0.0206504  0.456943  -0.456943  0.456943  0  0  0  1.5  -1.5  1.5  0  0  0  0  0  0  0  0  0 
1700576024.896001000  -1.42185  -0.0781523  1.07815  0  0  -0.0211575  0.464442  -0.464442  0.464442  0  0  0  1.49962  -1.49962  1.49962  0  0  0  0  0  0  0  0  0 
1700576024.901002000  -1.41951  -0.0804933  1.08049  0  0  -0.0216709  0.471938  -0.471938  0.471938  0  0  0  1.4985  -1.4985  1.4985  0  0  0  0  0  0  0  0  0 
1700576024.905999000  -1.41713  -0.0828717  1.08287  0  0  -0.0221906  0.479426  -0.479426  0.479426  0  0  0  1.49662  -1.49662  1.49662  0  0  0  0  0  0  0  0  0 
1700576024.911002000  -1.41471  -0.0852875  1.08529  0  0  -0.0227164  0.486903  -0.486903  0.486903  0  0  0  1.494  -1.494  1.494  0  0  0  0  0  0  0  0  0 
1700576024.916001000  -1.41226  -0.0877407  1.08774  0  0  -0.0232484  0.494365  -0.494365  0.494365  0  0  0  1.49062  -1.49062  1.49062  0  0  0  0  0  0  0  0  0 
1700576024.921002000  -1.40977  -0.0902312  1.09023  0  0  -0.0237866  0.501808  -0.501808  0.501808  0  0  0  1.4865  -1.4865  1.4865  0  0  0  0  0  0  0  0  0 
1700576024.926001000  -1.40724  -0.0927588  1.09276  0  0  -0.0243308  0.509228  -0.509228  0.509228  0  0  0  1.48162  -1.48162  1.48162  0  0  0  0  0  0  0  0  0 
1700576024.931005000  -1.40468  -0.0953234  1.09532  0  0  -0.024881  0.516623  -0.516623  0.516623  0  0  0  1.476  -1.476  1.476  0  0  0  0  0  0  0  0  0 
1700576024.936002000  -1.40208  -0.0979249  1.09792  0  0  -0.0254371  0.523987  -0.523987  0.523987  0  0  0  1.46962  -1.46962  1.46962  0  0  0  0  0  0  0  0  0 
1700576024.941001000  -1.39944  -0.100563  1.10056  0  0  -0.0259991  0.531318  -0.531318  0.531318  0  0  0  1.4625  -1.4625  1.4625  0  0  0  0  0  0  0  0  0 
1700576024.946000000  -1.39676  -0.103238  1.10324  0  0  -0.0265669  0.538611  -0.538611  0.538611  0  0  0  1.45462  -1.45462  1.45462  0  0  0  0  0  0  0  0  0 
1700576024.951005000  -1.39405  -0.105949  1.10595  0  0  -0.0271402  0.545863  -0.545863  0.545863  0  0  0  1.446  -1.446  1.446  0  0  0  0  0  0  0  0  0 
1700576024.956012000  -1.3913  -0.108697  1.1087  0  0  -0.0277192  0.55307  -0.55307  0.55307  0  0  0  1.43662  -1.43662  1.43662  0  0  0  0  0  0  0  0  0 
1700576024.960986000  -1.38852  -0.11148  1.11148  0  0  -0.0283035  0.560228  -0.560228  0.560228  0  0  0  1.4265  -1.4265  1.4265  0  0  0  0  0  0  0  0  0 
1700576024.965999000  -1.3857  -0.114299  1.1143  0  0  -0.028893  0.567333  -0.567333  0.567333  0  0  0  1.41562  -1.41562  1.41562  0  0  0  0  0  0  0  0  0 
1700576024.971001000  -1.38285  -0.117153  1.11715  0  0  -0.0294878  0.574383  -0.574383  0.574383  0  0  0  1.404  -1.404  1.404  0  0  0  0  0  0  0  0  0 
1700576024.976002000  -1.37996  -0.120043  1.12004  0  0  -0.0300874  0.581372  -0.581372  0.581372  0  0  0  1.39162  -1.39162  1.39162  0  0  0  0  0  0  0  0  0 
1700576024.981001000  -1.37703  -0.122967  1.12297  0  0  -0.0306919  0.588298  -0.588298  0.588298  0  0  0  1.3785  -1.3785  1.3785  0  0  0  0  0  0  0  0  0 
1700576024.986000000  -1.37407  -0.125925  1.12593  0  0  -0.031301  0.595156  -0.595156  0.595156  0  0  0  1.36462  -1.36462  1.36462  0  0  0  0  0  0  0  0  0 
1700576024.991000000  -1.37108  -0.128918  1.12892  0  0  -0.0319146  0.601943  -0.601943  0.601943  0  0  0  1.35  -1.35  1.35  0  0  0  0  0  0  0  0  0 
1700576024.996000000  -1.36806  -0.131945  1.13194  0  0  -0.0325324  0.608655  -0.608655  0.608655  0  0  0  1.33462  -1.33462  1.33462  0  0  0  0  0  0  0  0  0 
1700576025.001000000  -1.365  -0.135005  1.135  0  0  -0.0331542  0.615288  -0.615288  0.615288  0  0  0  1.3185  -1.3185  1.3185  0  0  0  0  0  0  0  0  0 
1700576025.005999000  -1.3619  -0.138097  1.1381  0  0  -0.0337799  0.621838  -0.621838  0.621838  0  0  0  1.30162  -1.30162  1.30162  0  0  0  0  0  0  0  0  0 
1700576025.011005000  -1.35878  -0.141223  1.14122  0  0  -0.0344092  0.628303  -0.628303  0.628303  0  0  0  1.284  -1.284  1.284  0  0  0  0  0  0  0  0  0 
1700576025.016038000  -1.35562  -0.14438  1.14438  0  0  -0.0350418  0.634677  -0.634677  0.634677  0  0  0  1.26562  -1.26562  1.26562  0  0  0  0  0  0  0  0  0 
1700576025.020994000  -1.35243  -0.147569  1.14757  0  0  -0.0356776  0.640958  -0.640958  0.640958  0  0  0  1.2465  -1.2465  1.2465  0  0  0  0  0  0  0  0  0 
1700576025.026009000  -1.34921  -0.15079  1.15079  0  0  -0.0363162  0.647141  -0.647141  0.647141  0  0  0  1.22662  -1.22662  1.22662  0  0  0  0  0  0  0  0  0 
1700576025.031006000  -1.34596  -0.154041  1.15404  0  0  -0.0369575  0.653223  -0.653223  0.653223  0  0  0  1.206  -1.206  1.206  0  0  0  0  0  0  0  0  0 
1700576025.036002000  -1.34268  -0.157322  1.15732  0  0  -0.0376011  0.6592  -0.6592  0.6592  0  0  0  1.18462  -1.18462  1.18462  0  0  0  0  0  0  0  0  0 
1700576025.041002000  -1.33937  -0.160632  1.16063  0  0  -0.0382467  0.665068  -0.665068  0.665068  0  0  0  1.1625  -1.1625  1.1625  0  0  0  0  0  0  0  0  0 
1700576025.046001000  -1.33603  -0.163972  1.16397  0  0  -0.038894  0.670823  -0.670823  0.670823  0  0  0  1.13962  -1.13962  1.13962  0  0  0  0  0  0  0  0  0 
1700576025.051006000  -1.33266  -0.167341  1.16734  0  0  -0.0395429  0.676463  -0.676463  0.676463  0  0  0  1.116  -1.116  1.116  0  0  0  0  0  0  0  0  0 
1700576025.056001000  -1.32926  -0.170737  1.17074  0  0  -0.0401928  0.681982  -0.681982  0.681982  0  0  0  1.09162  -1.09162  1.09162  0  0  0  0  0  0  0  0  0 
1700576025.061003000  -1.32584  -0.17416  1.17416  0  0  -0.0408435  0.687378  -0.687378  0.687378  0  0  0  1.0665  -1.0665  1.0665  0  0  0  0  0  0  0  0  0 
1700576025.066003000  -1.32239  -0.17761  1.17761  0  0  -0.0414948  0.692646  -0.692646  0.692646  0  0  0  1.04062  -1.04062  1.04062  0  0  0  0  0  0  0  0  0 
1700576025.071004000  -1.31891  -0.181086  1.18109  0  0  -0.0421461  0.697783  -0.697783  0.697783  0  0  0  1.014  -1.014  1.014  0  0  0  0  0  0  0  0  0 
1700576025.076011000  -1.31541  -0.184588  1.18459  0  0  -0.0427972  0.702785  -0.702785  0.702785  0  0  0  0.986625  -0.986625  0.986625  0  0  0  0  0  0  0  0  0 
1700576025.081017000  -1.31189  -0.188114  1.18811  0  0  -0.0434478  0.707648  -0.707648  0.707648  0  0  0  0.9585  -0.9585  0.9585  0  0  0  0  0  0  0  0  0 
1700576025.086001000  -1.30834  -0.191664  1.19166  0  0  -0.0440974  0.712368  -0.712368  0.712368  0  0  0  0.929625  -0.929625  0.929625  0  0  0  0  0  0  0  0  0 
1700576025.091004000  -1.30476  -0.195237  1.19524  0  0  -0.0447458  0.716943  -0.716943  0.716943  0  0  0  0.9  -0.9  0.9  0  0  0  0  0  0  0  0  0 
1700576025.096001000  -1.30117  -0.198833  1.19883  0  0  -0.0453927  0.721367  -0.721367  0.721367  0  0  0  0.869625  -0.869625  0.869625  0  0  0  0  0  0  0  0  0 
1700576025.101000000  -1.29755  -0.202451  1.20245  0  0  -0.0460378  0.725638  -0.725638  0.725638  0  0  0  0.8385  -0.8385  0.8385  0  0  0  0  0  0  0  0  0 
1700576025.106008000  -1.29391  -0.206089  1.20609  0  0  -0.0466807  0.729751  -0.729751  0.729751  0  0  0  0.806625  -0.806625  0.806625  0  0  0  0  0  0  0  0  0 
1700576025.111001000  -1.29025  -0.209748  1.20975  0  0  -0.0473212  0.733703  -0.733703  0.733703  0  0  0  0.774  -0.774  0.774  0  0  0  0  0  0  0  0  0 
1700576025.116003000  -1.28657  -0.213426  1.21343  0  0  -0.0479591  0.73749  -0.73749  0.73749  0  0  0  0.740625  -0.740625  0.740625  0  0  0  0  0  0  0  0  0 
1700576025.120999000  -1.28288  -0.217123  1.21712  0  0  -0.048594  0.741108  -0.741108  0.741108  0  0  0  0.7065  -0.7065  0.7065  0  0  0  0  0  0  0  0  0 
1700576025.125986000  -1.27916  -0.220837  1.22084  0  0  -0.0492257  0.744553  -0.744553  0.744553  0  0  0  0.671625  -0.671625  0.671625  0  0  0  0  0  0  0  0  0 
1700576025.131004000  -1.27543  -0.224568  1.22457  0  0  -0.0498539  0.747823  -0.747823  0.747823  0  0  0  0.636  -0.636  0.636  0  0  0  0  0  0  0  0  0 
1700576025.136001000  -1.27169  -0.228315  1.22831  0  0  -0.0504785  0.750912  -0.750912  0.750912  0  0  0  0.599625  -0.599625  0.599625  0  0  0  0  0  0  0  0  0 
1700576025.141000000  -1.26792  -0.232077  1.23208  0  0  -0.0510992  0.753818  -0.753818  0.753818  0  0  0  0.5625  -0.5625  0.5625  0  0  0  0  0  0  0  0  0 
1700576025.146001000  -1.26415  -0.235853  1.23585  0  0  -0.0517158  0.756536  -0.756536  0.756536  0  0  0  0.524625  -0.524625  0.524625  0  0  0  0  0  0  0  0  0 
1700576025.151004000  -1.26036  -0.239642  1.23964  0  0  -0.0523281  0.759063  -0.759063  0.759063  0  0  0  0.486  -0.486  0.486  0  0  0  0  0  0  0  0  0 
1700576025.156003000  -1.25656  -0.243443  1.24344  0  0  -0.0529359  0.761395  -0.761395  0.761395  0  0  0  0.446625  -0.446625  0.446625  0  0  0  0  0  0  0  0  0 
1700576025.161001000  -1.25274  -0.247255  1.24726  0  0  -0.053539  0.763528  -0.763528  0.763528  0  0  0  0.4065  -0.4065  0.4065  0  0  0  0  0  0  0  0  0 
1700576025.165999000  -1.24892  -0.251078  1.25108  0  0  -0.0541373  0.765458  -0.765458  0.765458  0  0  0  0.365625  -0.365625  0.365625  0  0  0  0  0  0  0  0  0 
1700576025.171001000  -1.24509  -0.25491  1.25491  0  0  -0.0547305  0.767183  -0.767183  0.767183  0  0  0  0.324  -0.324  0.324  0  0  0  0  0  0  0  0  0 
1700576025.176009000  -1.24125  -0.258749  1.25875  0  0  -0.0553186  0.768697  -0.768697  0.768697  0  0  0  0.281625  -0.281625  0.281625  0  0  0  0  0  0  0  0  0 
1700576025.181001000  -1.2374  -0.262596  1.2626  0  0  -0.0559013  0.769998  -0.769998  0.769998  0  0  0  0.2385  -0.2385  0.2385  0  0  0  0  0  0  0  0  0 
1700576025.185991000  -1.23355  -0.266449  1.26645  0  0  -0.0564786  0.771081  -0.771081  0.771081  0  0  0  0.194625  -0.194625  0.194625  0  0  0  0  0  0  0  0  0 
1700576025.190997000  -1.22969  -0.270307  1.27031  0  0  -0.0570504  0.771943  -0.771943  0.771943  0  0  0  0.15  -0.15  0.15  0  0  0  0  0  0  0  0  0 
1700576025.195986000  -1.22583  -0.274168  1.27417  0  0  -0.0576165  0.77258  -0.77258  0.77258  0  0  0  0.104625  -0.104625  0.104625  0  0  0  0  0  0  0  0  0 
1700576025.200986000  -1.22197  -0.278032  1.27803  0  0  -0.0581768  0.772988  -0.772988  0.772988  0  0  0  0.0585  -0.0585  0.0585  0  0  0  0  0  0  0  0  0 
1700576025.205988000  -1.2181  -0.281898  1.2819  0  0  -0.0587312  0.773163  -0.773163  0.773163  0  0  0  0.011625  -0.011625  0.011625  0  0  0  0  0  0  0  0  0 
1700576025.210995000  -1.21424  -0.285763  1.28576  0  0  -0.0592797  0.773103  -0.773103  0.773103  0  0  0  -0.0355731  0.0355731  -0.0355731  0  0  0  0  0  0  0  0  0 
1700576025.215992000  -1.21037  -0.289628  1.28963  0  0  -0.0598222  0.772809  -0.772809  0.772809  0  0  0  -0.0820664  0.0820664  -0.0820664  0  0  0  0  0  0  0  0  0 
1700576025.220991000  -1.20651  -0.293491  1.29349  0  0  -0.0603585  0.772284  -0.772284  0.772284  0  0  0  -0.12781  0.12781  -0.12781  0  0  0  0  0  0  0  0  0 
1700576025.225991000  -1.20265  -0.297351  1.29735  0  0  -0.0608888  0.771532  -0.771532  0.771532  0  0  0  -0.172803  0.172803  -0.172803  0  0  0  0  0  0  0  0  0 
1700576025.230990000  -1.19879  -0.301206  1.30121  0  0  -0.0614128  0.770557  -0.770557  0.770557  0  0  0  -0.217046  0.217046  -0.217046  0  0  0  0  0  0  0  0  0 
1700576025.235990000  -1.19494  -0.305056  1.30506  0  0  -0.0619307  0.769363  -0.769363  0.769363  0  0  0  -0.26054  0.26054  -0.26054  0  0  0  0  0  0  0  0  0 
1700576025.240992000  -1.1911  -0.308899  1.3089  0  0  -0.0624423  0.767953  -0.767953  0.767953  0  0  0  -0.303283  0.303283  -0.303283  0  0  0  0  0  0  0  0  0 
1700576025.245989000  -1.18726  -0.312735  1.31274  0  0  -0.0629476  0.766331  -0.766331  0.766331  0  0  0  -0.345276  0.345276  -0.345276  0  0  0  0  0  0  0  0  0 
1700576025.251000000  -1.18344  -0.316562  1.31656  0  0  -0.0634468  0.764501  -0.764501  0.764501  0  0  0  -0.38652  0.38652  -0.38652  0  0  0  0  0  0  0  0  0 
1700576025.255989000  -1.17962  -0.32038  1.32038  0  0  -0.0639396  0.762467  -0.762467  0.762467  0  0  0  -0.427013  0.427013  -0.427013  0  0  0  0  0  0  0  0  0 
1700576025.261001000  -1.17581  -0.324187  1.32419  0  0  -0.0644262  0.760233  -0.760233  0.760233  0  0  0  -0.466756  0.466756  -0.466756  0  0  0  0  0  0  0  0  0 
1700576025.266001000  -1.17202  -0.327982  1.32798  0  0  -0.0649066  0.757801  -0.757801  0.757801  0  0  0  -0.50575  0.50575  -0.50575  0  0  0  0  0  0  0  0  0 
1700576025.271008000  -1.16824  -0.331764  1.33176  0  0  -0.0653807  0.755176  -0.755176  0.755176  0  0  0  -0.543993  0.543993  -0.543993  0  0  0  0  0  0  0  0  0 
1700576025.275998000  -1.16447  -0.335533  1.33553  0  0  -0.0658486  0.752362  -0.752362  0.752362  0  0  0  -0.581486  0.581486  -0.581486  0  0  0  0  0  0  0  0  0 
1700576025.281000000  -1.16071  -0.339288  1.33929  0  0  -0.0663102  0.749363  -0.749363  0.749363  0  0  0  -0.61823  0.61823  -0.61823  0  0  0  0  0  0  0  0  0 
1700576025.286007000  -1.15697  -0.343027  1.34303  0  0  -0.0667655  0.746181  -0.746181  0.746181  0  0  0  -0.654223  0.654223  -0.654223  0  0  0  0  0  0  0  0  0 
1700576025.291007000  -1.15325  -0.346749  1.34675  0  0  -0.0672146  0.742822  -0.742822  0.742822  0  0  0  -0.689466  0.689466  -0.689466  0  0  0  0  0  0  0  0  0 
1700576025.295999000  -1.14955  -0.350454  1.35045  0  0  -0.0676575  0.739288  -0.739288  0.739288  0  0  0  -0.72396  0.72396  -0.72396  0  0  0  0  0  0  0  0  0 
1700576025.301007000  -1.14586  -0.354142  1.35414  0  0  -0.0680941  0.735583  -0.735583  0.735583  0  0  0  -0.757703  0.757703  -0.757703  0  0  0  0  0  0  0  0  0 
1700576025.305998000  -1.14219  -0.35781  1.35781  0  0  -0.0685245  0.731712  -0.731712  0.731712  0  0  0  -0.790696  0.790696  -0.790696  0  0  0  0  0  0  0  0  0 
1700576025.311007000  -1.13854  -0.361459  1.36146  0  0  -0.0689486  0.727678  -0.727678  0.727678  0  0  0  -0.82294  0.82294  -0.82294  0  0  0  0  0  0  0  0  0 
1700576025.315998000  -1.13491  -0.365087  1.36509  0  0  -0.0693664  0.723484  -0.723484  0.723484  0  0  0  -0.854433  0.854433  -0.854433  0  0  0  0  0  0  0  0  0 
1700576025.321003000  -1.13131  -0.368693  1.36869  0  0  -0.0697781  0.719135  -0.719135  0.719135  0  0  0  -0.885176  0.885176  -0.885176  0  0  0  0  0  0  0  0  0 
1700576025.326000000  -1.12772  -0.372278  1.37228  0  0  -0.0701834  0.714633  -0.714633  0.714633  0  0  0  -0.91517  0.91517  -0.91517  0  0  0  0  0  0  0  0  0 
1700576025.331006000  -1.12416  -0.375839  1.37584  0  0  -0.0705825  0.709984  -0.709984  0.709984  0  0  0  -0.944413  0.944413  -0.944413  0  0  0  0  0  0  0  0  0 
1700576025.336002000  -1.12062  -0.379377  1.37938  0  0  -0.0709754  0.70519  -0.70519  0.70519  0  0  0  -0.972906  0.972906  -0.972906  0  0  0  0  0  0  0  0  0 
1700576025.341010000  -1.11711  -0.382891  1.38289  0  0  -0.071362  0.700256  -0.700256  0.700256  0  0  0  -1.00065  1.00065  -1.00065  0  0  0  0  0  0  0  0  0 
1700576025.345999000  -1.11362  -0.38638  1.38638  0  0  -0.0717424  0.695185  -0.695185  0.695185  0  0  0  -1.02764  1.02764  -1.02764  0  0  0  0  0  0  0  0  0 
1700576025.351007000  -1.11016  -0.389842  1.38984  0  0  -0.0721165  0.689981  -0.689981  0.689981  0  0  0  -1.05389  1.05389  -1.05389  0  0  0  0  0  0  0  0  0 
1700576025.355997000  -1.10672  -0.393279  1.39328  0  0  -0.0724843  0.684648  -0.684648  0.684648  0  0  0  -1.07938  1.07938  -1.07938  0  0  0  0  0  0  0  0  0 
1700576025.361008000  -1.10331  -0.396689  1.39669  0  0  -0.0728459  0.679189  -0.679189  0.679189  0  0  0  -1.10412  1.10412  -1.10412  0  0  0  0  0  0  0  0  0 
1700576025.366001000  -1.09993  -0.400071  1.40007  0  0  -0.0732013  0.673608  -0.673608  0.673608  0  0  0  -1.12812  1.12812  -1.12812  0  0  0  0  0  0  0  0  0 
1700576025.371008000  -1.09658  -0.403425  1.40342  0  0  -0.0735504  0.667909  -0.667909  0.667909  0  0  0  -1.15136  1.15136  -1.15136  0  0  0  0  0  0  0  0  0 
1700576025.375999000  -1.09325  -0.40675  1.40675  0  0  -0.0738933  0.662095  -0.662095  0.662095  0  0  0  -1.17385  1.17385  -1.17385  0  0  0  0  0  0  0  0  0 
1700576025.381006000  -1.08995  -0.410045  1.41005  0  0  -0.0742299  0.656171  -0.656171  0.656171  0  0  0  -1.1956  1.1956  -1.1956  0  0  0  0  0  0  0  0  0 
1700576025.385998000  -1.08669  -0.413311  1.41331  0  0  -0.0745602  0.650141  -0.650141  0.650141  0  0  0  -1.21659  1.21659  -1.21659  0  0  0  0  0  0  0  0  0 
1700576025.391018000  -1.08345  -0.416547  1.41655  0  0  -0.0748844  0.644007  -0.644007  0.644007  0  0  0  -1.23683  1.23683  -1.23683  0  0  0  0  0  0  0  0  0 
1700576025.396008000  -1.08025  -0.419751  1.41975  0  0  -0.0752022  0.637773  -0.637773  0.637773  0  0  0  -1.25633  1.25633  -1.25633  0  0  0  0  0  0  0  0  0 
1700576025.401006000  -1.07708  -0.422924  1.42292  0  0  -0.0755138  0.631445  -0.631445  0.631445  0  0  0  -1.27507  1.27507  -1.27507  0  0  0  0  0  0  0  0  0 
1700576025.406004000  -1.07393  -0.426065  1.42607  0  0  -0.0758192  0.625024  -0.625024  0.625024  0  0  0  -1.29306  1.29306  -1.29306  0  0  0  0  0  0  0  0  0 
1700576025.411006000  -1.07083  -0.429174  1.42917  0  0  -0.0761183  0.618515  -0.618515  0.618515  0  0  0  -1.31031  1.31031  -1.31031  0  0  0  0  0  0  0  0  0 
1700576025.416002000  -1.06775  -0.43225  1.43225  0  0  -0.0764112  0.611922  -0.611922  0.611922  0  0  0  -1.3268  1.3268  -1.3268  0  0  0  0  0  0  0  0  0 
1700576025.421005000  -1.06471  -0.435293  1.43529  0  0  -0.0766978  0.605249  -0.605249  0.605249  0  0  0  -1.34254  1.34254  -1.34254  0  0  0  0  0  0  0  0  0 
1700576025.425998000  -1.0617  -0.438303  1.4383  0  0  -0.0769781  0.598498  -0.598498  0.598498  0  0  0  -1.35754  1.35754  -1.35754  0  0  0  0  0  0  0  0  0 
1700576025.431006000  -1.05872  -0.441278  1.44128  0  0  -0.0772522  0.591674  -0.591674  0.591674  0  0  0  -1.37178  1.37178  -1.37178  0  0  0  0  0  0  0  0  0 
1700576025.435992000  -1.05578  -0.444219  1.44422  0  0  -0.0775201  0.584782  -0.584782  0.584782  0  0  0  -1.38527  1.38527  -1.38527  0  0  0  0  0  0  0  0  0 
1700576025.440993000  -1.05287  -0.447126  1.44713  0  0  -0.0777817  0.577823  -0.577823  0.577823  0  0  0  -1.39802  1.39802  -1.39802  0  0  0  0  0  0  0  0  0 
1700576025.445992000  -1.05  -0.449998  1.45  0  0  -0.0780371  0.570803  -0.570803  0.570803  0  0  0  -1.41001  1.41001  -1.41001  0  0  0  0  0  0  0  0  0 
1700576025.450990000  -1.04717  -0.452834  1.45283  0  0  -0.0782862  0.563724  -0.563724  0.563724  0  0  0  -1.42125  1.42125  -1.42125  0  0  0  0  0  0  0  0  0 
1700576025.455988000  -1.04437  -0.455635  1.45563  0  0  -0.078529  0.556591  -0.556591  0.556591  0  0  0  -1.43175  1.43175  -1.43175  0  0  0  0  0  0  0  0  0 
1700576025.460989000  -1.0416  -0.4584  1.4584  0  0  -0.0787657  0.549408  -0.549408  0.549408  0  0  0  -1.44149  1.44149  -1.44149  0  0  0  0  0  0  0  0  0 
1700576025.465990000  -1.03887  -0.461129  1.46113  0  0  -0.078996  0.542178  -0.542178  0.542178  0  0  0  -1.45048  1.45048  -1.45048  0  0  0  0  0  0  0  0  0 
1700576025.470991000  -1.03618  -0.463821  1.46382  0  0  -0.0792201  0.534904  -0.534904  0.534904  0  0  0  -1.45873  1.45873  -1.45873  0  0  0  0  0  0  0  0  0 
1700576025.475988000  -1.03352  -0.466478  1.46648  0  0  -0.079438  0.527592  -0.527592  0.527592  0  0  0  -1.46622  1.46622  -1.46622  0  0  0  0  0  0  0  0  0 
1700576025.480989000  -1.0309  -0.469097  1.4691  0  0  -0.0796496  0.520243  -0.520243  0.520243  0  0  0  -1.47296  1.47296  -1.47296  0  0  0  0  0  0  0  0  0 
1700576025.485990000  -1.02832  -0.47168  1.47168  0  0  -0.079855  0.512863  -0.512863  0.512863  0  0  0  -1.47896  1.47896  -1.47896  0  0  0  0  0  0  0  0  0 
1700576025.490991000  -1.02577  -0.474226  1.47423  0  0  -0.0800541  0.505455  -0.505455  0.505455  0  0  0  -1.4842  1.4842  -1.4842  0  0  0  0  0  0  0  0  0 
1700576025.495991000  -1.02327  -0.476735  1.47673  0  0  -0.0802469  0.498023  -0.498023  0.498023  0  0  0  -1.48869  1.48869  -1.48869  0  0  0  0  0  0  0  0  0 
1700576025.500989000  -1.02079  -0.479206  1.47921  0  0  -0.0804335  0.490569  -0.490569  0.490569  0  0  0  -1.49244  1.49244  -1.49244  0  0  0  0  0  0  0  0  0 
1700576025.505987000  -1.01836  -0.48164  1.48164  0  0  -0.0806139  0.483099  -0.483099  0.483099  0  0  0  -1.49543  1.49543  -1.49543  0  0  0  0  0  0  0  0  0 
1700576025.510989000  -1.01596  -0.484037  1.48404  0  0  -0.080788  0.475616  -0.475616  0.475616  0  0  0  -1.49767  1.49767  -1.49767  0  0  0  0  0  0  0  0  0 
1700576025.515987000  -1.0136  -0.486396  1.4864  0  0  -0.0809559  0.468124  -0.468124  0.468124  0  0  0  -1.49917  1.49917  -1.49917  0  0  0  0  0  0  0  0  0 
1700576025.520986000  -1.01128  -0.488718  1.48872  0  0  -0.0811175  0.460626  -0.460626  0.460626  0  0  0  -1.49991  1.49991  -1.49991  0  0  0  0  0  0  0  0  0 
1700576025.525990000  -1.009  -0.491003  1.491  0  0  -0.0812728  0.453126  -0.453126  0.453126  0  0  0  -1.5  1.5  -1.5  0  0  0  0  0  0  0  0  0 
1700576025.530989000  -1.00675  -0.49325  1.49325  0  0  -0.081422  0.445626  -0.445626  0.445626  0  0  0  -1.5  1.5  -1.5  0  0  0  0  0  0  0  0  0 
1700576025.535988000  -1.00454  -0.495459  1.49546  0  0  -0.0815648  0.438126  -0.438126  0.438126  0  0  0  -1.5  1.5  -1.5  0  0  0  0  0  0  0  0  0 
1700576025.540986000  -1.00237  -0.497631  1.49763  0  0  -0.0817014  0.430626  -0.430626  0.430626  0  0  0  -1.5  1.5  -1.5  0  0  0  0  0  0  0  0  0 
1700576025.545991000  -1.00023  -0.499765  1.49977  0  0  -0.0818318  0.423126  -0.423126  0.423126  0  0  0  -1.5  1.5  -1.5  0  0  0  0  0  0  0  0  0 
1700576025.550989000  -0.998138  -0.501862  1.50186  0  0  -0.0819559  0.415626  -0.415626  0.415626  0  0  0  -1.5  1.5  -1.5  0  0  0  0  0  0  0  0  0 
1700576025.555998000  -0.996079  -0.503921  1.50392  0  0  -0.0820738  0.408126  -0.408126  0.408126  0  0  0  -1.5  1.5  -1.5  0  0  0  0  0  0  0  0  0 
1700576025.560988000  -0.994057  -0.505943  1.50594  0  0  -0.0821854  0.400626  -0.400626  0.400626  0  0  0  -1.5  1.5  -1.5  0  0  0  0  0  0  0  0  0 
1700576025.565991000  -0.992072  -0.507928  1.50793  0  0  -0.0822907  0.393126  -0.393126  0.393126  0  0  0  -1.5  1.5  -1.5  0  0  0  0  0  0  0  0  0 
1700576025.570988000  -0.990125  -0.509875  1.50987  0  0  -0.0823898  0.385626  -0.385626  0.385626  0  0  0  -1.5  1.5  -1.5  0  0  0  0  0  0  0  0  0 
1700576025.575990000  -0.988216  -0.511784  1.51178  0  0  -0.0824827  0.378126  -0.378126  0.378126  0  0  0  -1.5  1.5  -1.5  0  0  0  0  0  0  0  0  0 
1700576025.580990000  -0.986344  -0.513656  1.51366  0  0  -0.0825693  0.370626  -0.370626  0.370626  0  0  0  -1.5  1.5  -1.5  0  0  0  0  0  0  0  0  0 
1700576025.585990000  -0.98451  -0.51549  1.51549  0  0  -0.0826497  0.363126  -0.363126  0.363126  0  0  0  -1.5  1.5  -1.5  0  0  0  0  0  0  0  0  0 
1700576025.590991000  -0.982713  -0.517287  1.51729  0  0  -0.0827238  0.355626  -0.355626  0.355626  0  0  0  -1.5  1.5  -1.5  0  0  0  0  0  0  0  0  0 
1700576025.595990000  -0.980954  -0.519046  1.51905  0  0  -0.0827917  0.348126  -0.348126  0.348126  0  0  0  -1.5  1.5  -1.5  0  0  0  0  0  0  0  0  0 
1700576025.601005000  -0.979232  -0.520768  1.52077  0  0  -0.0828533  0.340626  -0.340626  0.340626  0  0  0  -1.5  1.5  -1.5  0  0  0  0  0  0  0  0  0 
1700576025.606005000  -0.977547  -0.522453  1.52245  0  0  -0.0829086  0.333126  -0.333126  0.333126  0  0  0  -1.5  1.5  -1.5  0  0  0  0  0  0  0  0  0 
1700576025.611005000  -0.9759  -0.5241  1.5241  0  0  -0.0829577  0.325626  -0.325626  0.325626  0  0  0  -1.5  1.5  -1.5  0  0  0  0  0  0  0  0  0 
1700576025.616010000  -0.974291  -0.525709  1.52571  0  0  -0.0830006  0.318126  -0.318126  0.318126  0  0  0  -1.5  1.5  -1.5  0  0  0  0  0  0  0  0  0 
1700576025.621005000  -0.972719  -0.527281  1.52728  0  0  -0.0830372  0.310626  -0.310626  0.310626  0  0  0  -1.5  1.5  -1.5  0  0  0  0  0  0  0  0  0 
1700576025.625994000  -0.971185  -0.528815  1.52882  0  0  -0.0830676  0.303126  -0.303126  0.303126  0  0  0  -1.5  1.5  -1.5  0  0  0  0  0  0  0  0  0 
1700576025.630997000  -0.969688  -0.530312  1.53031  0  0  -0.0830917  0.295626  -0.295626  0.295626  0  0  0  -1.5  1.5  -1.5  0  0  0  0  0  0  0  0  0 
1700576025.636002000  -0.968228  -0.531772  1.53177  0  0  -0.0831095  0.288126  -0.288126  0.288126  0  0  0  -1.5  1.5  -1.5  0  0  0  0  0  0  0  0  0 
1700576025.641005000  -0.966807  -0.533193  1.53319  0  0  -0.0831211  0.280626  -0.280626  0.280626  0  0  0  -1.5  1.5  -1.5  0  0  0  0  0  0  0  0  0 
1700576025.646006000  -0.965422  -0.534578  1.53458  0  0  -0.0831265  0.273126  -0.273126  0.273126  0  0  0  -1.5  1.5  -1.5  0  0  0  0  0  0  0  0  0 
1700576025.650998000  -0.964075  -0.535925  1.53592  0  0  -0.0831256  0.265626  -0.265626  0.265626  0  0  0  -1.5  1.5  -1.5  0  0  0  0  0  0  0  0  0 
1700576025.655990000  -0.962766  -0.537234  1.53723  0  0  -0.0831185  0.258126  -0.258126  0.258126  0  0  0  -1.5  1.5  -1.5  0  0  0  0  0  0  0  0  0 
1700576025.661005000  -0.961494  -0.538506  1.53851  0  0  -0.0831051  0.250626  -0.250626  0.250626  0  0  0  -1.5  1.5  -1.5  0  0  0  0  0  0  0  0  0 
1700576025.666006000  -0.96026  -0.53974  1.53974  0  0  -0.0830855  0.243126  -0.243126  0.243126  0  0  0  -1.5  1.5  -1.5  0  0  0  0  0  0  0  0  0 
1700576025.671007000  -0.959063  -0.540937  1.54094  0  0  -0.0830596  0.235626  -0.235626  0.235626  0  0  0  -1.5  1.5  -1.5  0  0  0  0  0  0  0  0  0 
1700576025.675990000  -0.957903  -0.542097  1.5421  0  0  -0.0830274  0.228126  -0.228126  0.228126  0  0  0  -1.5  1.5  -1.5  0  0  0  0  0  0  0  0  0 
1700576025.680991000  -0.956782  -0.543218  1.54322  0  0  -0.082989  0.220626  -0.220626  0.220626  0  0  0  -1.5  1.5  -1.5  0  0  0  0  0  0  0  0  0 
1700576025.686007000  -0.955697  -0.544303  1.5443  0  0  -0.0829444  0.213126  -0.213126  0.213126  0  0  0  -1.5  1.5  -1.5  0  0  0  0  0  0  0  0  0 
1700576025.690999000  -0.95465  -0.54535  1.54535  0  0  -0.0828935  0.205626  -0.205626  0.205626  0  0  0  -1.5  1.5  -1.5  0  0  0  0  0  0  0  0  0 
1700576025.695987000  -0.953641  -0.546359  1.54636  0  0  -0.0828364  0.198126  -0.198126  0.198126  0  0  0  -1.5  1.5  -1.5  0  0  0  0  0  0  0  0  0 
1700576025.701001000  -0.952669  -0.547331  1.54733  0  0  -0.082773  0.190626  -0.190626  0.190626  0  0  0  -1.5  1.5  -1.5  0  0  0  0  0  0  0  0  0 
1700576025.705991000  -0.951735  -0.548265  1.54827  0  0  -0.0827033  0.183126  -0.183126  0.183126  0  0  0  -1.5  1.5  -1.5  0  0  0  0  0  0  0  0  0 
1700576025.710997000  -0.950838  -0.549162  1.54916  0  0  -0.0826274  0.175626  -0.175626  0.175626  0  0  0  -1.5  1.5  -1.5  0  0  0  0  0  0  0  0  0 
1700576025.715990000  -0.949978  -0.550022  1.55002  0  0  -0.0825453  0.168126  -0.168126  0.168126  0  0  0  -1.5  1.5  -1.5  0  0  0  0  0  0  0  0  0 
1700576025.721004000  -0.949157  -0.550843  1.55084  0  0  -0.0824569  0.160626  -0.160626  0.160626  0  0  0  -1.5  1.5  -1.5  0  0  0  0  0  0  0  0  0 
1700576025.726006000  -0.948372  -0.551628  1.55163  0  0  -0.0823623  0.153126  -0.153126  0.153126  0  0  0  -1.5  1.5  -1.5  0  0  0  0  0  0  0  0  0 
1700576025.731006000  -0.947625  -0.552375  1.55237  0  0  -0.0822614  0.145626  -0.145626  0.145626  0  0  0  -1.5  1.5  -1.5  0  0  0  0  0  0  0  0  0 
1700576025.736003000  -0.946916  -0.553084  1.55308  0  0  -0.0821543  0.138126  -0.138126  0.138126  0  0  0  -1.5  1.5  -1.5  0  0  0  0  0  0  0  0  0 
1700576025.741005000  -0.946244  -0.553756  1.55376  0  0  -0.0820409  0.130626  -0.130626  0.130626  0  0  0  -1.5  1.5  -1.5  0  0  0  0  0  0  0  0  0 
1700576025.746006000  -0.94561  -0.55439  1.55439  0  0  -0.0819212  0.123126  -0.123126  0.123126  0  0  0  -1.5  1.5  -1.5  0  0  0  0  0  0  0  0  0 
1700576025.751004000  -0.945013  -0.554987  1.55499  0  0  -0.0817953  0.115626  -0.115626  0.115626  0  0  0  -1.5  1.5  -1.5  0  0  0  0  0  0  0  0  0 
1700576025.756007000  -0.944453  -0.555547  1.55555  0  0  -0.0816632  0.108126  -0.108126  0.108126  0  0  0  -1.5  1.5  -1.5  0  0  0  0  0  0  0  0  0 
1700576025.760998000  -0.943931  -0.556069  1.55607  0  0  -0.0815249  0.100626  -0.100626  0.100626  0  0  0  -1.5  1.5  -1.5  0  0  0  0  0  0  0  0  0 
1700576025.765998000  -0.943447  -0.556553  1.55655  0  0  -0.0813804  0.093126  -0.093126  0.093126  0  0  0  -1.5  1.5  -1.5  0  0  0  0  0  0  0  0  0 
1700576025.770998000  -0.943  -0.557  1.557  0  0  -0.0812298  0.085626  -0.085626  0.085626  0  0  0  -1.5  1.5  -1.5  0  0  0  0  0  0  0  0  0 
1700576025.776016000  -0.942591  -0.557409  1.55741  0  0  -0.0810731  0.078126  -0.078126  0.078126  0  0  0  -1.5  1.5  -1.5  0  0  0  0  0  0  0  0  0 
1700576025.781002000  -0.942219  -0.557781  1.55778  0  0  -0.0809104  0.070626  -0.070626  0.070626  0  0  0  -1.5  1.5  -1.5  0  0  0  0  0  0  0  0  0 
1700576025.785988000  -0.941885  -0.558115  1.55812  0  0  -0.0807418  0.063126  -0.063126  0.063126  0  0  0  -1.5  1.5  -1.5  0  0  0  0  0  0  0  0  0 
1700576025.791006000  -0.941588  -0.558412  1.55841  0  0  -0.0805673  0.055626  -0.055626  0.055626  0  0  0  -1.5  1.5  -1.5  0  0  0  0  0  0  0  0  0 
1700576025.795993000  -0.941328  -0.558672  1.55867  0  0  -0.080387  0.048126  -0.048126  0.048126  0  0  0  -1.5  1.5  -1.5  0  0  0  0  0  0  0  0  0 
1700576025.800998000  -0.941106  -0.558894  1.55889  0  0  -0.0802011  0.040626  -0.040626  0.040626  0  0  0  -1.5  1.5  -1.5  0  0  0  0  0  0  0  0  0 
1700576025.805995000  -0.940922  -0.559078  1.55908  0  0  -0.0800097  0.033126  -0.033126  0.033126  0  0  0  -1.5  1.5  -1.5  0  0  0  0  0  0  0  0  0 
1700576025.811006000  -0.940775  -0.559225  1.55922  0  0  -0.0798128  0.025626  -0.025626  0.025626  0  0  0  -1.5  1.5  -1.5  0  0  0  0  0  0  0  0  0 
1700576025.816011000  -0.940666  -0.559334  1.55933  0  0  -0.0796107  0.018126  -0.018126  0.018126  0  0  0  -1.5  1.5  -1.5  0  0  0  0  0  0  0  0  0 
1700576025.821001000  -0.940594  -0.559406  1.55941  0  0  -0.0794034  0.010626  -0.010626  0.010626  0  0  0  -1.5  1.5  -1.5  0  0  0  0  0  0  0  0  0 
1700576025.826006000  -0.94056  -0.55944  1.55944  0  0  -0.0791912  0.003126  -0.003126  0.003126  0  0  0  -1.5  1.5  -1.5  0  0  0  0  0  0  0  0  0 
1700576025.831002000  -0.940563  -0.559437  1.55944  0  0  -0.0789741  -0.004374  0.004374  -0.004374  0  0  0  -1.5  1.5  -1.5  0  0  0  0  0  0  0  0  0 
1700576025.836005000  -0.940603  -0.559397  1.5594  0  0  -0.0787524  -0.011874  0.011874  -0.011874  0  0  0  -1.5  1.5  -1.5  0  0  0  0  0  0  0  0  0 
1700576025.840992000  -0.940681  -0.559319  1.55932  0  0  -0.0785262  -0.019374  0.019374  -0.019374  0  0  0  -1.5  1.5  -1.5  0  0  0  0  0  0  0  0  0 
1700576025.846000000  -0.940797  -0.559203  1.5592  0  0  -0.0782958  -0.026874  0.026874  -0.026874  0  0  0  -1.5  1.5  -1.5  0  0  0  0  0  0  0  0  0 
1700576025.851006000  -0.94095  -0.55905  1.55905  0  0  -0.0780613  -0.034374  0.034374  -0.034374  0  0  0  -1.5  1.5  -1.5  0  0  0  0  0  0  0  0  0 
1700576025.856017000  -0.941141  -0.558859  1.55886  0  0  -0.077823  -0.041874  0.041874  -0.041874  0  0  0  -1.5  1.5  -1.5  0  0  0  0  0  0  0  0  0 
1700576025.861013000  -0.941369  -0.558631  1.55863  0  0  -0.077581  -0.049374  0.049374  -0.049374  0  0  0  -1.5  1.5  -1.5  0  0  0  0  0  0  0  0  0 
1700576025.866001000  -0.941635  -0.558365  1.55837  0  0  -0.0773357  -0.056874  0.056874  -0.056874  0  0  0  -1.5  1.5  -1.5  0  0  0  0  0  0  0  0  0 
1700576025.871021000  -0.941938  -0.558062  1.55806  0  0  -0.0770872  -0.064374  0.064374  -0.064374  0  0  0  -1.5  1.5  -1.5  0  0  0  0  0  0  0  0  0 
1700576025.876017000  -0.942278  -0.557722  1.55772  0  0  -0.0768358  -0.071874  0.071874  -0.071874  0  0  0  -1.5  1.5  -1.5  0  0  0  0  0  0  0  0  0 
1700576025.881017000  -0.942656  -0.557344  1.55734  0  0  -0.0765817  -0.079374  0.079374  -0.079374  0  0  0  -1.5  1.5  -1.5  0  0  0  0  0  0  0  0  0 
1700576025.886002000  -0.943072  -0.556928  1.55693  0  0  -0.0763252  -0.086874  0.086874  -0.086874  0  0  0  -1.5  1.5  -1.5  0  0  0  0  0  0  0  0  0 
1700576025.891014000  -0.943525  -0.556475  1.55647  0  0  -0.0760665  -0.0943738  0.094374  -0.094374  0  0  0  -1.49986  1.5  -1.5  0  0  0  0  0  0  0  0  0 
1700576025.896003000  -0.944016  -0.555984  1.55598  0  0  -0.0758058  -0.101871  0.101874  -0.101874  0  0  0  -1.49903  1.5  -1.5  0  0  0  0  0  0  0  0  0 
1700576025.901002000  -0.944544  -0.555456  1.55546  0  0  -0.0755432  -0.109363  0.109374  -0.109374  0  0  0  -1.49745  1.5  -1.5  0  0  0  0  0  0  0  0  0 
1700576025.905999000  -0.945109  -0.554891  1.55489  0  0  -0.075279  -0.116845  0.116874  -0.116874  0  0  0  -1.49513  1.5  -1.5  0  0  0  0  0  0  0  0  0 
1700576025.911018000  -0.945712  -0.554287  1.55429  0  0  -0.0750134  -0.124313  0.124374  -0.124374  0  0  0  -1.49205  1.5  -1.5  0  0  0  0  0  0  0  0  0 
1700576025.916009000  -0.946352  -0.553647  1.55365  0  0  -0.0747465  -0.131764  0.131874  -0.131874  0  0  0  -1.48822  1.5  -1.5  0  0  0  0  0  0  0  0  0 
1700576025.921007000  -0.94703  -0.552969  1.55297  0  0  -0.0744784  -0.139194  0.139374  -0.139374  0  0  0  -1.48364  1.5  -1.5  0  0  0  0  0  0  0  0  0 
1700576025.926005000  -0.947744  -0.552253  1.55225  0  0  -0.0742093  -0.146599  0.146874  -0.146874  0  0  0  -1.47831  1.5  -1.5  0  0  0  0  0  0  0  0  0 
1700576025.931016000  -0.948496  -0.5515  1.5515  0  0  -0.0739394  -0.153976  0.154374  -0.154374  0  0  0  -1.47223  1.5  -1.5  0  0  0  0  0  0  0  0  0 
1700576025.936006000  -0.949284  -0.550709  1.55071  0  0  -0.0736687  -0.16132  0.161874  -0.161874  0  0  0  -1.4654  1.5  -1.5  0  0  0  0  0  0  0  0  0 
1700576025.941009000  -0.950109  -0.549881  1.54988  0  0  -0.0733975  -0.168629  0.169374  -0.169374  0  0  0  -1.45782  1.5  -1.5  0  0  0  0  0  0  0  0  0 
1700576025.946007000  -0.95097  -0.549016  1.54902  0  0  -0.0731257  -0.175897  0.176874  -0.176874  0  0  0  -1.44949  1.5  -1.5  0  0  0  0  0  0  0  0  0 
1700576025.951016000  -0.951868  -0.548112  1.54811  0  0  -0.0728535  -0.183122  0.184374  -0.184374  0  0  0  -1.44042  1.5  -1.5  0  0  0  0  0  0  0  0  0 
1700576025.956017000  -0.952801  -0.547172  1.54717  0  0  -0.072581  -0.1903  0.191874  -0.191874  0  0  0  -1.43059  1.5  -1.5  0  0  0  0  0  0  0  0  0 
1700576025.961008000  -0.953771  -0.546194  1.54619  0  0  -0.0723082  -0.197427  0.199374  -0.199374  0  0  0  -1.42001  1.5  -1.5  0  0  0  0  0  0  0  0  0 
1700576025.966006000  -0.954776  -0.545178  1.54518  0  0  -0.0720353  -0.204499  0.206874  -0.206874  0  0  0  -1.40868  1.5  -1.5  0  0  0  0  0  0  0  0  0 
1700576025.971009000  -0.955816  -0.544125  1.54412  0  0  -0.0717622  -0.211512  0.214374  -0.214374  0  0  0  -1.3966  1.5  -1.5  0  0  0  0  0  0  0  0  0 
1700576025.975991000  -0.956891  -0.543034  1.54303  0  0  -0.071489  -0.218464  0.221874  -0.221874  0  0  0  -1.38377  1.5  -1.5  0  0  0  0  0  0  0  0  0 
1700576025.981004000  -0.958  -0.541906  1.54191  0  0  -0.0712158  -0.225349  0.229374  -0.229374  0  0  0  -1.37019  1.5  -1.5  0  0  0  0  0  0  0  0  0 
1700576025.986000000  -0.959144  -0.540741  1.54074  0  0  -0.0709426  -0.232164  0.236874  -0.236874  0  0  0  -1.35586  1.5  -1.5  0  0  0  0  0  0  0  0  0 
1700576025.990999000  -0.960322  -0.539537  1.53954  0  0  -0.0706693  -0.238906  0.244374  -0.244374  0  0  0  -1.34078  1.5  -1.5  0  0  0  0  0  0  0  0  0 
1700576025.995999000  -0.961533  -0.538297  1.5383  0  0  -0.0703961  -0.245571  0.251874  -0.251874  0  0  0  -1.32496  1.5  -1.5  0  0  0  0  0  0  0  0  0 
1700576026.001000000  -0.962777  -0.537019  1.53702  0  0  -0.0701229  -0.252154  0.259374  -0.259374  0  0  0  -1.30838  1.5  -1.5  0  0  0  0  0  0  0  0  0 
1700576026.006013000  -0.964054  -0.535703  1.5357  0  0  -0.0698496  -0.258653  0.266874  -0.266874  0  0  0  -1.29105  1.5  -1.5  0  0  0  0  0  0  0  0  0 
1700576026.011002000  -0.965364  -0.53435  1.53435  0  0  -0.0695764  -0.265064  0.274374  -0.274374  0  0  0  -1.27297  1.5  -1.5  0  0  0  0  0  0  0  0  0 
1700576026.015995000  -0.966705  -0.532959  1.53296  0  0  -0.0693031  -0.271382  0.281874  -0.281874  0  0  0  -1.25414  1.5  -1.5  0  0  0  0  0  0  0  0  0 
1700576026.020997000  -0.968077  -0.531531  1.53153  0  0  -0.0690299  -0.277604  0.289374  -0.289374  0  0  0  -1.23456  1.5  -1.5  0  0  0  0  0  0  0  0  0 
1700576026.026000000  -0.969481  -0.530066  1.53007  0  0  -0.0687566  -0.283726  0.296874  -0.296874  0  0  0  -1.21423  1.5  -1.5  0  0  0  0  0  0  0  0  0 
1700576026.031011000  -0.970914  -0.528563  1.52856  0  0  -0.0684834  -0.289745  0.304374  -0.304374  0  0  0  -1.19315  1.5  -1.49999  0  0  0  0  0  0  0  0  0 
1700576026.036003000  -0.972378  -0.527022  1.52702  0  0  -0.0682102  -0.295656  0.311874  -0.311873  0  0  0  -1.17132  1.5  -1.49948  0  0  0  0  0  0  0  0  0 
1700576026.041000000  -0.973871  -0.525444  1.52544  0  0  -0.0679369  -0.301457  0.319374  -0.319368  0  0  0  -1.14875  1.5  -1.49822  0  0  0  0  0  0  0  0  0 
1700576026.045986000  -0.975392  -0.523828  1.52383  0  0  -0.0676637  -0.307143  0.326874  -0.326854  0  0  0  -1.12542  1.5  -1.49621  0  0  0  0  0  0  0  0  0 
1700576026.051003000  -0.976942  -0.522175  1.52218  0  0  -0.0673904  -0.31271  0.334374  -0.334328  0  0  0  -1.10134  1.5  -1.49346  0  0  0  0  0  0  0  0  0 
1700576026.056034000  -0.978519  -0.520484  1.52048  0  0  -0.0671172  -0.318155  0.341874  -0.341787  0  0  0  -1.07651  1.5  -1.48995  0  0  0  0  0  0  0  0  0 
1700576026.060991000  -0.980123  -0.518756  1.51876  0  0  -0.0668439  -0.323474  0.349374  -0.349227  0  0  0  -1.05093  1.5  -1.48569  0  0  0  0  0  0  0  0  0 
1700576026.066008000  -0.981754  -0.516991  1.51699  0  0  -0.0665707  -0.328663  0.356874  -0.356643  0  0  0  -1.0246  1.5  -1.48068  0  0  0  0  0  0  0  0  0 
1700576026.070998000  -0.98341  -0.515188  1.51519  0  0  -0.0662975  -0.333718  0.364374  -0.364032  0  0  0  -0.997522  1.5  -1.47493  0  0  0  0  0  0  0  0  0 
1700576026.075993000  -0.985091  -0.513347  1.51335  0  0  -0.0660242  -0.338637  0.371874  -0.371391  0  0  0  -0.969693  1.5  -1.46842  0  0  0  0  0  0  0  0  0 
1700576026.080989000  -0.986796  -0.511469  1.51148  0  0  -0.065751  -0.343414  0.379374  -0.378715  0  0  0  -0.941114  1.5  -1.46116  0  0  0  0  0  0  0  0  0 
1700576026.085993000  -0.988525  -0.509553  1.50957  0  0  -0.0654777  -0.348047  0.386874  -0.386001  0  0  0  -0.911785  1.5  -1.45315  0  0  0  0  0  0  0  0  0 
1700576026.090993000  -0.990276  -0.5076  1.50762  0  0  -0.0652045  -0.352531  0.394374  -0.393245  0  0  0  -0.881706  1.5  -1.44439  0  0  0  0  0  0  0  0  0 
1700576026.095992000  -0.99205  -0.505609  1.50563  0  0  -0.0649312  -0.356862  0.401874  -0.400444  0  0  0  -0.850877  1.5  -1.43489  0  0  0  0  0  0  0  0  0 
1700576026.100994000  -0.993844  -0.503581  1.50361  0  0  -0.064658  -0.361038  0.409374  -0.407593  0  0  0  -0.819298  1.5  -1.42463  0  0  0  0  0  0  0  0  0 
1700576026.105987000  -0.99566  -0.501516  1.50156  0  0  -0.0643848  -0.365054  0.416874  -0.414689  0  0  0  -0.786969  1.5  -1.41362  0  0  0  0  0  0  0  0  0 
1700576026.110990000  -0.997495  -0.499413  1.49947  0  0  -0.0641115  -0.368907  0.424374  -0.421728  0  0  0  -0.75389  1.5  -1.40186  0  0  0  0  0  0  0  0  0 
1700576026.115992000  -0.999349  -0.497272  1.49734  0  0  -0.0638383  -0.372593  0.431874  -0.428706  0  0  0  -0.720647  1.5  -1.38936  0  0  0  0  0  0  0  0  0 
1700576026.120993000  -1.00122  -0.495094  1.49518  0  0  -0.063565  -0.376114  0.439374  -0.43562  0  0  0  -0.688144  1.49989  -1.3761  0  0  0  0  0  0  0  0  0 
1700576026.125989000  -1.00311  -0.492878  1.49298  0  0  -0.0632918  -0.379475  0.446872  -0.442466  0  0  0  -0.656391  1.4991  -1.36209  0  0  0  0  0  0  0  0  0 
1700576026.131005000  -1.00501  -0.490625  1.49075  0  0  -0.0630185  -0.38268  0.454364  -0.44924  0  0  0  -0.625388  1.49757  -1.34733  0  0  0  0  0  0  0  0  0 
1700576026.135998000  -1.00694  -0.488335  1.48849  0  0  -0.0627453  -0.385731  0.461846  -0.455938  0  0  0  -0.595135  1.49528  -1.33182  0  0  0  0  0  0  0  0  0 
1700576026.141004000  -1.00887  -0.486007  1.4862  0  0  -0.0624721  -0.388632  0.469315  -0.462557  0  0  0  -0.565632  1.49224  -1.31557  0  0  0  0  0  0  0  0  0 
1700576026.146004000  -1.01082  -0.483642  1.48387  0  0  -0.0621988  -0.391388  0.476767  -0.469093  0  0  0  -0.536878  1.48846  -1.29856  0  0  0  0  0  0  0  0  0 
1700576026.151004000  -1.01279  -0.481239  1.4815  0  0  -0.0619256  -0.394002  0.484199  -0.475541  0  0  0  -0.508875  1.48392  -1.2808  0  0  0  0  0  0  0  0  0 
1700576026.156001000  -1.01476  -0.4788  1.47911  0  0  -0.0616523  -0.396478  0.491605  -0.481899  0  0  0  -0.481622  1.47864  -1.26229  0  0  0  0  0  0  0  0  0 
1700576026.161003000  -1.01675  -0.476323  1.47669  0  0  -0.0613791  -0.39882  0.498984  -0.488163  0  0  0  -0.455119  1.4726  -1.24303  0  0  0  0  0  0  0  0  0 
1700576026.166003000  -1.01875  -0.47381  1.47423  0  0  -0.0611058  -0.401031  0.50633  -0.494328  0  0  0  -0.429366  1.46581  -1.22303  0  0  0  0  0  0  0  0  0 
