ts fx fy fz tx ty tz exfx exfy exfz extx exty extz xd yd zd rolld pitchd yawd vxd vyd vzd wxd wyd wzd axd ayd azd e_x e_y e_z e_vx e_vy e_vz e_rx e_ry e_rz e_wx e_wy e_wz
1700576024.164093000  0  0  14.6218  -0.0117117  0.0655653  0.00425478  nan  nan  nan  nan  nan  nan  -1.5  0  1  -0.0103094  0.00118436  -1.22105e-05  0  0  0  0  0  0  0  0  0  -0.000285449  -0.0148642  -0.00849887  -0.00129  0.0162824  -0.000660963  -0.00342954  -0.00712534  -0.00493471  0.0549753  -0.0655774  -0.00383763 
1700576024.168054000  0  0  14.62  0.000562983  0.0648371  0.00394223  nan  nan  nan  nan  nan  nan  -1.5  0  1  -0.0112542  0.00113556  -1.27804e-05  0  0  0  0  0  0  0  0  0  -0.000277697  -0.0149812  -0.00849036  -0.00122772  0.0150097  -0.000510865  -0.00264851  -0.00730717  -0.00490036  0.0232403  -0.0624482  -0.000274201 
1700576024.173102000  0  0  14.6682  -0.012006  0.0495695  0.00390038  nan  nan  nan  nan  nan  nan  -1.5  0  1  -0.0103058  0.00160069  -1.64969e-05  0  0  0  0  0  0  0  0  0  -0.000290625  -0.0148961  -0.00852667  -0.00196319  0.0163059  -0.00447153  -0.00315191  -0.00763424  -0.00488297  0.0530096  -0.0289039  7.49408e-05 
1700576024.178073000  0  0  14.6354  -0.0220457  0.0628718  0.00390913  nan  nan  nan  nan  nan  nan  -1.5  0  1  -0.01146  0.00117155  -1.34265e-05  0  0  0  0  0  0  0  0  0  -0.000275535  -0.0150002  -0.0085051  -0.001293  0.0146979  -0.00176359  -0.00160728  -0.00767714  -0.00488373  0.0588784  -0.0551139  -2.68236e-05 
1700576024.183074000  0  0  14.6487  -0.00231963  0.0463242  0.00304205  nan  nan  nan  nan  nan  nan  -1.5  0  1  -0.0120664  0.00146343  -1.76592e-05  0  0  0  0  0  0  0  0  0  -0.000275282  -0.0151132  -0.00850767  -0.00177043  0.0139452  -0.00285573  -0.00124351  -0.00780444  -0.00474204  0.0160795  -0.0208476  0.00939477 
1700576024.188085000  0  0  14.6516  -0.0283645  0.0457482  0.00351689  nan  nan  nan  nan  nan  nan  -1.5  0  1  -0.0115644  0.00125282  -1.44887e-05  0  0  0  0  0  0  0  0  0  -0.000279949  -0.0150396  -0.00852349  -0.00141763  0.0145948  -0.00307499  -0.00103534  -0.00764598  -0.00476625  0.0662541  -0.0211534  0.0037014 
1700576024.193072000  0  0  14.635  -0.0107938  0.0459131  0.00354416  nan  nan  nan  nan  nan  nan  -1.5  0  1  -0.0127023  0.00083682  -1.06301e-05  0  0  0  0  0  0  0  0  0  -0.000254878  -0.0151772  -0.00849942  -0.000794516  0.0130716  -0.00172268  -3.90587e-05  -0.00735903  -0.00474555  0.0219469  -0.0241231  0.00315343 
1700576024.198073000  0  0  14.6717  -0.00946963  0.0235802  0.00394895  nan  nan  nan  nan  nan  nan  -1.5  0  1  -0.0116816  0.00118999  -1.39017e-05  0  0  0  0  0  0  0  0  0  -0.000264567  -0.0151011  -0.00853532  -0.00135217  0.0145148  -0.00471828  -0.000910017  -0.00728459  -0.00477367  0.0273114  0.0198579  -0.00162525 
1700576024.203072000  0  0  14.6438  -0.0342043  0.0318723  0.00439304  nan  nan  nan  nan  nan  nan  -1.5  0  1  -0.0127117  0.000580021  -7.37343e-06  0  0  0  0  0  0  0  0  0  -0.000234652  -0.0152652  -0.00850531  -0.000422397  0.0132397  -0.00243935  0.000792574  -0.00681831  -0.00483589  0.0611168  -0.00101619  -0.00655416 
1700576024.208032000  0  0  14.6387  -0.000119076  0.0303092  0.00345803  nan  nan  nan  nan  nan  nan  -1.5  0  1  -0.0123508  0.000566009  -6.99102e-06  0  0  0  0  0  0  0  0  0  -0.000237254  -0.0151995  -0.00851303  -0.000393489  0.0136878  -0.00200326  -5.73009e-05  -0.00680862  -0.0047373  0.00076532  0.00202078  0.00414762 
1700576024.213047000  0  0  14.6643  -0.0169622  0.0152754  0.00369527  nan  nan  nan  nan  nan  nan  -1.5  0  1  -0.0124082  0.000369157  -4.5808e-06  0  0  0  0  0  0  0  0  0  -0.000210631  -0.0153152  -0.00851506  -0.000133484  0.0138163  -0.00412816  0.000410537  -0.00624663  -0.00473109  0.0301474  0.0269182  0.00112008 
1700576024.218095000  0  0  14.6298  -0.00296674  0.0216323  0.00414866  nan  nan  nan  nan  nan  nan  -1.5  0  1  -0.0136125  -0.000257882  3.51065e-06  0  0  0  0  0  0  0  0  0  -0.000170163  -0.0154744  -0.00847679  0.000797382  0.0122604  -0.00130409  0.00136173  -0.00570804  -0.00478657  -0.00659448  0.00924939  -0.00399251 
1700576024.223101000  0  0  14.6491  0.0187111  0.00899892  0.00409164  nan  nan  nan  nan  nan  nan  -1.5  0  1  -0.0124711  0.000104883  -1.30807e-06  0  0  0  0  0  0  0  0  0  -0.000172946  -0.0154021  -0.00849939  0.000213593  0.0139282  -0.00288696  -0.000201734  -0.00571922  -0.00478401  -0.0355663  0.034619  -0.00330543 
1700576024.228118000  0  0  14.636  0.00935934  0.0126383  0.00477405  nan  nan  nan  nan  nan  nan  -1.5  0  1  -0.0131948  -0.000442399  5.83769e-06  0  0  0  0  0  0  0  0  0  -0.000129232  -0.0155575  -0.0084677  0.00100669  0.013115  -0.00184652  0.00056512  -0.00512068  -0.00488208  -0.0239178  0.0218337  -0.0108548 
1700576024.235064000  0  0  14.6271  0.0314521  0.00919135  0.00451298  nan  nan  nan  nan  nan  nan  -1.5  0  1  -0.012375  -0.000612064  7.57465e-06  0  0  0  0  0  0  0  0  0  -0.000121202  -0.015463  -0.00847428  0.00126417  0.0142505  -0.00109831  -0.000884245  -0.00476228  -0.00490257  -0.0547691  0.0254303  -0.00738658 
1700576024.241371000  0  0  14.6133  0.0160743  0.0111718  0.0042243  nan  nan  nan  nan  nan  nan  -1.5  0  1  -0.0135812  -0.00140095  1.90277e-05  0  0  0  0  0  0  0  0  0  -3.20407e-05  -0.0157617  -0.00840809  0.00234615  0.0129747  -6.62017e-05  0.000289947  -0.00387261  -0.00487118  -0.0348161  0.0132845  -0.00409192 
1700576024.246107000  0  0  14.6006  0.0508175  0.0105181  0.00393517  nan  nan  nan  nan  nan  nan  -1.5  0  1  -0.013206  -0.00139898  1.8476e-05  0  0  0  0  0  0  0  0  0  -2.27894e-05  -0.0157021  -0.00840038  0.00232041  0.0134701  0.000972156  -0.0010761  -0.00384269  -0.00484201  -0.0917349  0.0143166  -0.000769549 
1700576024.251103000  0  0  14.6251  0.0316153  0.00155539  0.00451051  nan  nan  nan  nan  nan  nan  -1.5  0  1  -0.0131038  -0.00146682  1.9222e-05  0  0  0  0  0  0  0  0  0  2.35369e-05  -0.0158011  -0.00838335  0.00233152  0.0138203  -0.00110181  -0.00116519  -0.00347719  -0.00490769  -0.0525108  0.0288793  -0.00730444 
1700576024.256132000  0  0  14.6008  0.0439897  0.0129463  0.00408213  nan  nan  nan  nan  nan  nan  -1.5  0  1  -0.0128148  -0.00174589  2.23744e-05  0  0  0  0  0  0  0  0  0  3.90859e-05  -0.0157356  -0.0083672  0.00274576  0.0141789  0.000880868  -0.00190507  -0.00337834  -0.00488367  -0.0704527  0.00518807  -0.00218988 
1700576024.261228000  0  0  14.615  0.0549681  0.0111375  0.00333489  nan  nan  nan  nan  nan  nan  -1.5  0  1  -0.0126688  -0.00154875  1.96219e-05  0  0  0  0  0  0  0  0  0  8.32547e-05  -0.0158279  -0.00834327  0.00233021  0.0146007  -0.000357012  -0.00263073  -0.00347345  -0.00476855  -0.0857335  0.00968064  0.00599943 
1700576024.265076000  0  0  14.6255  0.0440182  0.0175722  0.00360345  nan  nan  nan  nan  nan  nan  -1.5  0  1  -0.0121157  -0.00162503  1.96894e-05  0  0  0  0  0  0  0  0  0  9.38585e-05  -0.015771  -0.00835069  0.00243242  0.0153583  -0.00122858  -0.00318292  -0.00351323  -0.00478443  -0.0587535  -0.00282278  0.00280126 
1700576024.271109000  0  0  14.6141  0.05685  0.0245747  0.00373883  nan  nan  nan  nan  nan  nan  -1.5  0  1  -0.0126316  -0.00192924  2.43708e-05  0  0  0  0  0  0  0  0  0  0.000144827  -0.015829  -0.00832873  0.00281114  0.0146647  -0.000317649  -0.00333573  -0.00344287  -0.00478191  -0.0830112  -0.017475  0.00108373 
1700576024.276116000  0  0  14.6369  0.0461935  0.0191667  0.00372349  nan  nan  nan  nan  nan  nan  -1.5  0  1  -0.0122773  -0.00149685  1.83782e-05  0  0  0  0  0  0  0  0  0  0.000176424  -0.0158885  -0.00832802  0.00204252  0.0153412  -0.00222514  -0.00381967  -0.00374898  -0.00475309  -0.057246  -0.00384288  0.000987366 
1700576024.281100000  0  0  14.6116  0.0453294  0.0429522  0.00306544  nan  nan  nan  nan  nan  nan  -1.5  0  1  -0.0121501  -0.00184079  2.23669e-05  0  0  0  0  0  0  0  0  0  0.000193166  -0.0158181  -0.00831587  0.00255956  0.0154256  -0.000149826  -0.00414475  -0.00397564  -0.00466166  -0.0525271  -0.0493285  0.00829865 
1700576024.286109000  0  0  14.6341  0.0564374  0.0349155  0.00220463  nan  nan  nan  nan  nan  nan  -1.5  0  1  -0.0115343  -0.00137296  1.58369e-05  0  0  0  0  0  0  0  0  0  0.000199439  -0.0157386  -0.00833477  0.00178944  0.0162198  -0.00199675  -0.00521219  -0.00445835  -0.00450383  -0.0649226  -0.0288141  0.0174804 
1700576024.291597000  0  0  14.6424  0.0218718  0.0344212  0.00239382  nan  nan  nan  nan  nan  nan  -1.5  0  1  -0.0125694  -0.00136748  1.71893e-05  0  0  0  0  0  0  0  0  0  0.000250837  -0.015951  -0.00831296  0.0016676  0.0149973  -0.00271168  -0.00379496  -0.00451241  -0.00442233  -0.00882988  -0.0273282  0.0143005 
1700576024.296096000  0  0  14.614  0.0352256  0.06009  0.00242106  nan  nan  nan  nan  nan  nan  -1.5  0  1  -0.0126787  -0.00156458  1.9838e-05  0  0  0  0  0  0  0  0  0  0.000263356  -0.0158909  -0.00829902  0.00195557  0.0147259  -0.000383536  -0.00400856  -0.00506531  -0.00437554  -0.0335723  -0.0735791  0.0134922 
1700576024.301252000  0  0  14.6457  0.014798  0.0455154  0.00252244  nan  nan  nan  nan  nan  nan  -1.5  0  1  -0.0126414  -0.000979528  1.23832e-05  0  0  0  0  0  0  0  0  0  0.000273636  -0.0159721  -0.00830543  0.000986072  0.0149223  -0.00301319  -0.0038045  -0.0055967  -0.00430999  0.0054053  -0.039541  0.0115694 
1700576024.306082000  0  0  14.6362  0.00219021  0.0580987  0.00263611  nan  nan  nan  nan  nan  nan  -1.5  0  1  -0.0127606  -0.00131418  1.67705e-05  0  0  0  0  0  0  0  0  0  0.000285709  -0.0159076  -0.00830807  0.00150249  0.0145985  -0.00221474  -0.00337326  -0.00573204  -0.00427846  0.0266536  -0.0634627  0.00983318 
1700576024.311110000  0  0  14.6479  0.0121518  0.064888  0.00338138  nan  nan  nan  nan  nan  nan  -1.5  0  1  -0.0132072  -0.000927506  1.22504e-05  0  0  0  0  0  0  0  0  0  0.000292706  -0.0159916  -0.00830511  0.000859273  0.0140416  -0.00319277  -0.00310147  -0.00653841  -0.00433773  0.00422997  -0.0696226  0.00111001 
1700576024.315083000  0  0  14.6593  -0.0049327  0.0484679  0.00426135  nan  nan  nan  nan  nan  nan  -1.5  0  1  -0.0124267  -0.000566878  7.0448e-06  0  0  0  0  0  0  0  0  0  0.00029256  -0.0159282  -0.00832254  0.000273303  0.0151552  -0.00412213  -0.00341212  -0.00673141  -0.00445122  0.0412569  -0.0350069  -0.00875476 
1700576024.321208000  0  0  14.6348  -0.0034406  0.0644928  0.00482187  nan  nan  nan  nan  nan  nan  -1.5  0  1  -0.0137963  -0.00112623  1.55388e-05  0  0  0  0  0  0  0  0  0  0.000316194  -0.0160335  -0.00830516  0.00112892  0.0131962  -0.00208804  -0.0019512  -0.00677778  -0.0045853  0.0248322  -0.0666301  -0.0144203 
1700576024.326097000  0  0  14.6714  -0.0109941  0.0511437  0.00451942  nan  nan  nan  nan  nan  nan  -1.5  0  1  -0.0140764  -0.000388031  5.46244e-06  6e-07  6e-07  6e-07  0  0  0  0.000375  0.000375  0.000375  0.00031384  -0.0161459  -0.00831988  -3.62499e-06  0.0129944  -0.00506132  -0.00141691  -0.00740973  -0.00459365  0.0350237  -0.034118  -0.0105562 
1700576024.331097000  0  0  14.6811  -0.0264383  0.0500882  0.00442901  nan  nan  nan  nan  nan  nan  -1.5  0  1  -0.0139815  -0.000478848  6.69544e-06  5e-06  5e-06  5e-06  0  0  0  0.0014996  0.0014996  0.0014996  0.000319143  -0.0160824  -0.0083464  0.000316603  0.0131763  -0.0056744  -0.000953175  -0.00741626  -0.00462764  0.0616458  -0.0319468  -0.00908619 
1700576024.336108000  0  0  14.6692  -0.00786033  0.061909  0.00354855  nan  nan  nan  nan  nan  nan  -1.5  1e-07  1  -0.0151875  -0.000479226  7.27881e-06  1.55e-05  1.55e-05  1.55e-05  0  0  0  0.0025892  0.0025892  0.0025892  0.000326569  -0.016232  -0.00832238  0.000477829  0.0117394  -0.00458448  9.96206e-06  -0.00782589  -0.00454492  0.015629  -0.0518198  0.00109229 
1700576024.341566000  0  0  14.6983  -0.0270448  0.0434354  0.00356246  nan  nan  nan  nan  nan  nan  -1.5  2e-07  1  -0.0152129  -3.64886e-05  6.55139e-07  2.96e-05  2.96e-05  2.96e-05  0  0  0  0.0029289  0.0029289  0.0029289  0.000330484  -0.0163257  -0.00834431  -0.000197069  0.0119123  -0.00692558  0.000566339  -0.00801019  -0.00452537  0.0488793  -0.0131769  0.000722977 
1700576024.346094000  0  0  14.6802  -0.021671  0.051248  0.00384796  nan  nan  nan  nan  nan  nan  -1.5  4e-07  1  -0.0153581  -0.000611164  9.58705e-06  4.36e-05  4.36e-05  4.36e-05  0  0  0  0.0025185  0.0025185  0.0025185  0.000339409  -0.016279  -0.0083555  0.000653598  0.0115355  -0.00543964  0.000808036  -0.00771676  -0.00457061  0.035908  -0.0315019  -0.00239341 
1700576024.351070000  0  0  14.6854  -0.0120732  0.0465531  0.00312303  nan  nan  nan  nan  nan  nan  -1.5  6e-07  1  -0.0154029  -0.000288825  4.84908e-06  5.36e-05  5.36e-05  5.36e-05  0  0  0  0.0013619  0.0013619  0.0013619  0.000339913  -0.0163976  -0.00835278  -6.18601e-05  0.0115282  -0.00602388  0.000801681  -0.00805263  -0.00447188  0.0167708  -0.0190219  0.00568092 
1700576024.356088000  0  0  14.6842  -0.0199518  0.0368058  0.0033701  nan  nan  nan  nan  nan  nan  -1.5  9e-07  1  -0.0146373  -0.000435532  6.97545e-06  5.74e-05  5.74e-05  5.74e-05  0  0  0  0.0003076  0.0003076  0.0003076  0.000341564  -0.0163352  -0.00838101  1.85997e-06  0.0124689  -0.00600345  0.000383335  -0.00776254  -0.00447533  0.0363769  -0.00219628  0.00262706 
1700576024.361085000  0  0  14.6796  -0.000163389  0.0457133  0.00358557  nan  nan  nan  nan  nan  nan  -1.5  1.2e-06  1  -0.0155882  -0.000809486  1.34195e-05  5.79e-05  5.79e-05  5.79e-05  0  0  0  3.3e-06  -3.3e-06  3.3e-06  0.00036049  -0.0164803  -0.00836956  0.000519995  0.0111973  -0.00566215  0.000982859  -0.00762185  -0.00449591  -0.00871553  -0.0213056  0.00013942 
1700576024.366556000  0  0  14.6876  -0.00946064  0.0294597  0.00393712  nan  nan  nan  nan  nan  nan  -1.5  1.5e-06  1  -0.0153046  -0.000429916  7.58019e-06  5.87e-05  5.71e-05  5.87e-05  0  0  0  0.0004491  -0.0004491  0.0004491  0.000378011  -0.0165959  -0.00837499  -6.50399e-05  0.0118304  -0.00626457  0.000915027  -0.00767073  -0.00453248  0.010503  0.0116514  -0.00388924 
1700576024.371083000  0  0  14.6679  0.00341869  0.0332581  0.00398997  nan  nan  nan  nan  nan  nan  -1.5  1.7e-06  1  -0.0150818  -0.00079905  1.3252e-05  6.36e-05  5.22e-05  6.36e-05  0  0  0  0.0016448  -0.0016448  0.0016448  0.000386304  -0.0165475  -0.00838508  0.000712309  0.0119244  -0.00445736  0.000498942  -0.00736723  -0.00455866  -0.0114276  0.00126242  -0.004288 
1700576024.376093000  0  0  14.6775  0.0250364  0.0322497  0.00365411  nan  nan  nan  nan  nan  nan  -1.5  2e-06  1  -0.0149361  -0.000417884  7.64203e-06  7.64e-05  3.94e-05  7.64e-05  0  0  0  0.0035905  -0.0035905  0.0035905  0.000395558  -0.0166507  -0.00838473  0.000388262  0.0120578  -0.0050276  -0.000191812  -0.00767241  -0.00452406  -0.0483081  0.00608684  -0.000435795 
1700576024.381088000  0  0  14.6906  0.0130279  0.0214492  0.00360755  nan  nan  nan  nan  nan  nan  -1.5  2.1e-06  1  -0.0138248  -0.000169772  3.9472e-06  0.0001008  1.5e-05  0.0001008  0  0  0  0.0062863  -0.0062863  0.0062863  0.000398482  -0.0165854  -0.0084166  0.000417037  0.0132652  -0.00573949  -0.00112778  -0.00759522  -0.00450534  -0.0156801  0.0269776  -4.10195e-05 
1700576024.386086000  0  0  14.6661  0.03712  0.0314496  0.00320976  nan  nan  nan  nan  nan  nan  -1.5  2.1e-06  1  -0.0144113  -0.000407733  7.57638e-06  0.0001405  -2.47e-05  0.0001405  0  0  0  0.009732  -0.009732  0.009732  0.000433834  -0.0167261  -0.00837911  0.00128788  0.0120978  -0.00334224  -0.00118259  -0.00747408  -0.00444598  -0.0633601  0.00586227  0.0043378 
1700576024.391553000  0  0  14.6806  0.0368302  0.0166547  0.0027854  nan  nan  nan  nan  nan  nan  -1.5  1.8e-06  1  -0.0136508  0.000380915  -3.40012e-06  0.0001994  -8.36e-05  0.0001994  0  0  0  0.0139277  -0.0139277  0.0139277  0.00046553  -0.0168331  -0.00836908  0.000615871  0.0128683  -0.00408111  -0.00217378  -0.00779232  -0.00433422  -0.0536617  0.03838  0.00852476 
1700576024.396086000  0  0  14.6815  0.0360934  0.026361  0.00265299  nan  nan  nan  nan  nan  nan  -1.49999  1.2e-06  1.00001  -0.0128946  0.000335637  -2.62814e-06  0.0002811  -0.0001653  0.0002811  0  0  0  0.0188734  -0.0188734  0.0188734  0.000468685  -0.0167794  -0.00839208  0.00148939  0.0131743  -0.00351774  -0.00301764  -0.00779358  -0.00427841  -0.0444245  0.0189789  0.00962177 
1700576024.401086000  0  0  14.6927  0.0545259  0.0344849  0.00202139  nan  nan  nan  nan  nan  nan  -1.49999  1e-07  1.00001  -0.0124083  0.000967842  -1.06099e-05  0.0003894  -0.0002735  0.0003894  0  0  0  0.0245692  -0.0245692  0.0245692  0.000496426  -0.0168735  -0.00837051  0.00132416  0.0132321  -0.00381396  -0.00406537  -0.00847123  -0.00414354  -0.0716504  0.00896557  0.0161681 
1700576024.406088000  0  0  14.7129  0.0446697  0.0236185  0.00211195  nan  nan  nan  nan  nan  nan  -1.49999  -1.6e-06  1.00001  -0.0106623  0.00208834  -2.13674e-05  0.000528  -0.0004122  0.000528  0  0  0  0.0310149  -0.0310149  0.0310149  0.000498469  -0.0167996  -0.00839408  0.000536839  0.0148426  -0.00470353  -0.0057252  -0.00916583  -0.00407197  -0.0366676  0.0370885  0.0143204 
1700576024.411088000  0  0  14.7042  0.0558102  0.0472394  0.00247189  nan  nan  nan  nan  nan  nan  -1.49999  -4e-06  1.00001  -0.0106315  0.00232207  -2.46881e-05  0.0007008  -0.0005849  0.0007008  0  0  0  0.0382106  -0.0382106  0.0382106  0.000543548  -0.016912  -0.00835189  0.00123042  0.0139792  -0.00319332  -0.00612914  -0.00972192  -0.00406021  -0.0552322  -0.00503718  0.00970348 
1700576024.416559000  0  0  14.7217  0.0593298  0.0389617  0.0027635  nan  nan  nan  nan  nan  nan  -1.49998  -7.5e-06  1.00002  -0.00944655  0.00363071  -3.55987e-05  0.0009114  -0.0007956  0.0009114  0  0  0  0.0461564  -0.0461564  0.0461564  0.000568717  -0.0170063  -0.00833777  0.000325092  0.01481  -0.0037465  -0.00754755  -0.0107357  -0.00404862  -0.0492223  0.0208453  0.00594246 
1700576024.421080000  0  0  14.742  0.0529117  0.0461912  0.00308668  nan  nan  nan  nan  nan  nan  -1.49998  -1.21e-05  1.00002  -0.00816124  0.00439739  -3.89888e-05  0.0011636  -0.0010478  0.0011636  0  0  0  0.0548521  -0.0548521  0.0548521  0.000579124  -0.0169426  -0.00835502  0.000456119  0.0153342  -0.00436864  -0.00872959  -0.0114636  -0.00406783  -0.0255111  0.0130828  0.0020947 
1700576024.426081000  0  0  14.7571  0.0660972  0.0688587  0.003265  nan  nan  nan  nan  nan  nan  -1.49997  -1.8e-05  1.00003  -0.00759106  0.00538979  -4.64148e-05  0.0014611  -0.0013453  0.0014611  0  0  0  0.0642978  -0.0642978  0.0642978  0.000605063  -0.0170337  -0.00833635  0.000304161  0.0149171  -0.00453985  -0.00964173  -0.0128124  -0.00408747  -0.0434905  -0.0198435  6.21834e-05 
1700576024.431085000  0  0  14.7942  0.0605421  0.0569627  0.00366451  nan  nan  nan  nan  nan  nan  -1.49996  -2.56e-05  1.00004  -0.00541778  0.00709495  -4.71389e-05  0.0018078  -0.001692  0.0018078  0  0  0  0.0744935  -0.0744935  0.0744935  0.000596957  -0.0169505  -0.00837379  -0.000840658  0.0166104  -0.00636138  -0.0116611  -0.0141579  -0.00414149  -0.0138021  0.0163276  -0.00439143 
1700576024.436088000  0  0  14.7962  0.0636946  0.0786124  0.0037509  nan  nan  nan  nan  nan  nan  -1.49995  -3.5e-05  1.00005  -0.00507216  0.00777084  -5.21149e-05  0.0022073  -0.0020915  0.0022073  0  0  0  0.0854393  -0.0854393  0.0854393  0.000631114  -0.0170479  -0.00834535  -0.000244318  0.0156086  -0.00526315  -0.0120731  -0.0151461  -0.00417592  -0.0163166  -0.0178804  -0.00512699 
1700576024.441554000  0  0  14.8094  0.0636688  0.0790257  0.0035082  nan  nan  nan  nan  nan  nan  -1.49994  -4.66e-05  1.00006  -0.00370871  0.00956409  -5.327e-05  0.0026634  -0.0025476  0.0026634  0  0  0  0.097135  -0.097135  0.097135  0.000651089  -0.0171246  -0.00832922  -0.00134431  0.0161076  -0.00501432  -0.0133611  -0.0168746  -0.00416725  -0.00441497  -0.00280538  -0.00217996 
1700576024.446081000  0  0  14.8376  0.0492357  0.0736149  0.00294097  nan  nan  nan  nan  nan  nan  -1.49993  -6.06e-05  1.00007  -0.00197087  0.0108191  -4.53226e-05  0.0031799  -0.0030641  0.0031799  0  0  0  0.109581  -0.109581  0.109581  0.000652283  -0.0170521  -0.00835417  -0.00141663  0.0167703  -0.00581777  -0.0145924  -0.0178639  -0.00409833  0.0357788  0.0171178  0.00422117 
1700576024.451087000  0  0  14.8425  0.0567761  0.0967879  0.00270802  nan  nan  nan  nan  nan  nan  -1.49991  -7.74e-05  1.00009  -0.00101373  0.0121223  -4.37885e-05  0.0037605  -0.0036447  0.0037605  0  0  0  0.122776  -0.122776  0.122776  0.000665125  -0.0171329  -0.0083302  -0.0014494  0.0163756  -0.00470137  -0.0154335  -0.0194639  -0.00405295  0.028436  -0.014508  0.00667916 
1700576024.456231000  0  0  14.8804  0.050276  0.0778124  0.00283857  nan  nan  nan  nan  nan  nan  -1.49989  -9.72e-05  1.00011  0.00143461  0.0142304  -2.00857e-05  0.0044089  -0.0042931  0.0044089  0  0  0  0.136722  -0.136722  0.136722  0.000650707  -0.0170418  -0.00836449  -0.00268111  0.017943  -0.00612144  -0.0173573  -0.0209918  -0.00404196  0.0591351  0.0375002  0.00493755 
1700576024.461092000  0  0  14.899  0.0477866  0.0924325  0.00355366  nan  nan  nan  nan  nan  nan  -1.49987  -0.0001204  1.00013  0.00224752  0.0154914  -1.62841e-05  0.005129  -0.0050132  0.005129  0  0  0  0.151418  -0.151418  0.151418  0.000669817  -0.017139  -0.00834174  -0.00244494  0.0171113  -0.00593992  -0.0177474  -0.0222601  -0.00411517  0.0677029  0.0199278  -0.00326899 
1700576024.465085000  0  0  14.9298  0.0543208  0.0994178  0.00393424  nan  nan  nan  nan  nan  nan  -1.49984  -0.0001474  1.00016  0.00475506  0.0176442  2.03957e-05  0.0059244  -0.0058085  0.0059244  0  0  0  0.166864  -0.166864  0.166864  0.000647118  -0.0170591  -0.00837498  -0.00350292  0.018583  -0.00660721  -0.0198986  -0.024305  -0.00419803  0.0744254  0.0247699  -0.00719765 
1700576024.471212000  0  0  14.9633  0.045113  0.0874932  0.00390986  nan  nan  nan  nan  nan  nan  -1.49981  -0.0001786  1.00019  0.00608773  0.0193951  4.00665e-05  0.0067989  -0.0066831  0.0067989  0  0  0  0.183059  -0.183059  0.183059  0.000659028  -0.0171365  -0.00836722  -0.00386657  0.0183475  -0.00742933  -0.0204138  -0.02538  -0.00423058  0.0975813  0.0585098  -0.00656752 
1700576024.476133000  0  0  14.9767  0.0520253  0.108633  0.00446249  nan  nan  nan  nan  nan  nan  -1.49977  -0.0002144  1.00023  0.00730804  0.0210632  5.91218e-05  0.0077562  -0.0076404  0.0077562  0  0  0  0.200005  -0.200005  0.200005  0.000660103  -0.0172265  -0.00834763  -0.00391247  0.0178242  -0.00653505  -0.0212027  -0.0270635  -0.00434178  0.0910142  0.0317175  -0.0123634 
1700576024.481094000  0  0  15.0236  0.046825  0.0964315  0.00471924  nan  nan  nan  nan  nan  nan  -1.49973  -0.0002552  1.00027  0.0101916  0.0235324  0.00012582  0.0088001  -0.0086844  0.0088001  0  0  0  0.217701  -0.217701  0.217701  0.000634335  -0.0171289  -0.00839122  -0.0052059  0.019574  -0.00820902  -0.0232497  -0.028881  -0.00446243  0.120247  0.0728425  -0.0143663 
1700576024.486222000  0  0  15.0494  0.050774  0.0954424  0.00487681  nan  nan  nan  nan  nan  nan  -1.49968  -0.0003014  1.00032  0.0114318  0.0251468  0.000151655  0.0099345  -0.0098186  0.0099345  0  0  0  0.236147  -0.236147  0.236147  0.000639971  -0.017226  -0.00838332  -0.00497992  0.0188849  -0.00811667  -0.0238552  -0.0299215  -0.00455385  0.11792  0.0843927  -0.0154216 
1700576024.491218000  0  0  15.0812  0.0420118  0.0909671  0.00524362  nan  nan  nan  nan  nan  nan  -1.49963  -0.0003535  1.00037  0.0134576  0.0274138  0.0002083  0.0111629  -0.0110471  0.0111629  0  0  0  0.255342  -0.255342  0.255342  0.000644594  -0.0173153  -0.00836732  -0.00575211  0.019388  -0.008435  -0.0249525  -0.0314836  -0.00468577  0.14554  0.107715  -0.0186876 
1700576024.496222000  0  0  15.1404  0.0417873  0.0707345  0.00481433  nan  nan  nan  nan  nan  nan  -1.49957  -0.000412  1.00043  0.0160678  0.0293829  0.000283491  0.0124891  -0.0123733  0.0124891  0  0  0  0.275288  -0.275288  0.275288  0.000618902  -0.0172189  -0.00842544  -0.00594014  0.0204004  -0.0107762  -0.0266171  -0.0323242  -0.0047319  0.161303  0.155914  -0.0128601 
1700576024.501224000  0  0  15.148  0.0531178  0.0809446  0.00436642  nan  nan  nan  nan  nan  nan  -1.4995  -0.0004774  1.0005  0.0178121  0.0313408  0.000338313  0.013917  -0.0138012  0.013917  0  0  0  0.295984  -0.295984  0.295984  0.000620789  -0.0172869  -0.00840309  -0.00589433  0.0201259  -0.00890329  -0.0277  -0.0335719  -0.00474592  0.148604  0.146973  -0.00712106 
1700576024.505199000  0  0  15.1979  0.0523438  0.0766539  0.00421534  nan  nan  nan  nan  nan  nan  -1.49943  -0.0005502  1.00057  0.0211294  0.0340429  0.000464375  0.0154502  -0.0153344  0.0154502  0  0  0  0.317429  -0.317429  0.317429  0.000581303  -0.0171841  -0.00845746  -0.00705713  0.0221002  -0.0103013  -0.030135  -0.0354172  -0.00479578  0.172554  0.172531  -0.00473393 
1700576024.511218000  0  0  15.2298  0.0599208  0.0623113  0.00334021  nan  nan  nan  nan  nan  nan  -1.49935  -0.000631  1.00065  0.0229124  0.0358993  0.000528706  0.0170925  -0.0169767  0.0170925  0  0  0  0.339625  -0.339625  0.339625  0.000607772  -0.0172665  -0.00843825  -0.00676217  0.0217535  -0.0102001  -0.0309435  -0.0357666  -0.00472236  0.164838  0.20443  0.00547098 
1700576024.516223000  0  0  15.2633  0.0636628  0.0679815  0.00317105  nan  nan  nan  nan  nan  nan  -1.49926  -0.0007202  1.00074  0.0254301  0.0383185  0.000637614  0.0188477  -0.0187319  0.0188477  0  0  0  0.362571  -0.362571  0.362571  0.000622348  -0.017336  -0.00841949  -0.00729872  0.022519  -0.0101633  -0.0325648  -0.0371228  -0.00471359  0.172271  0.205567  0.00749779 
1700576024.521221000  0  0  15.3038  0.0688134  0.064341  0.00300988  nan  nan  nan  nan  nan  nan  -1.49916  -0.0008185  1.00084  0.0286291  0.040948  0.000788297  0.0207195  -0.0206037  0.0207195  0  0  0  0.386267  -0.386267  0.386267  0.000584045  -0.017222  -0.00846851  -0.00800678  0.0239523  -0.0104598  -0.0347663  -0.0385038  -0.00470353  0.182223  0.225553  0.00941178 
1700576024.526218000  0  0  15.3318  0.0814419  0.0680154  0.00321408  nan  nan  nan  nan  nan  nan  -1.49905  -0.0009264  1.00095  0.0309219  0.0433533  0.000904873  0.0227116  -0.0225958  0.0227116  0  0  0  0.410712  -0.410712  0.410712  0.000597415  -0.0172916  -0.00843987  -0.00828568  0.0241115  -0.00976762  -0.0362715  -0.0396932  -0.00472826  0.170813  0.229147  0.0071066 
1700576024.531105000  0  0  15.3709  0.0848779  0.0721413  0.00367631  nan  nan  nan  nan  nan  nan  -1.49893  -0.0010446  1.00107  0.0347975  0.0463949  0.0011224  0.0248279  -0.0247121  0.0248279  0  0  0  0.435908  -0.435908  0.435908  0.000548993  -0.0171618  -0.00848776  -0.00947464  0.0264615  -0.00973839  -0.0390601  -0.0415308  -0.00483603  0.189597  0.237801  0.00240638 
1700576024.536106000  0  0  15.4246  0.0885594  0.0719009  0.00375047  nan  nan  nan  nan  nan  nan  -1.4988  -0.0011738  1.0012  0.0371627  0.0487596  0.00125895  0.027072  -0.0269562  0.027072  0  0  0  0.461854  -0.461854  0.461854  0.000575266  -0.0172343  -0.00846571  -0.00964447  0.0266457  -0.0109529  -0.0403844  -0.0425446  -0.00487304  0.194418  0.247609  0.00184956 
1700576024.541111000  0  0  15.4664  0.099948  0.0781972  0.00460169  nan  nan  nan  nan  nan  nan  -1.49866  -0.0013144  1.00134  0.0408161  0.0517598  0.00149346  0.0294477  -0.0293319  0.0294477  0  0  0  0.48855  -0.48855  0.48855  0.000527404  -0.0170987  -0.00851113  -0.0105932  0.0284325  -0.0109345  -0.0430411  -0.04429  -0.0050648  0.196082  0.251074  -0.00687314 
1700576024.546104000  0  0  15.5076  0.0858657  0.0740775  0.00549439  nan  nan  nan  nan  nan  nan  -1.49851  -0.0014673  1.00149  0.0435998  0.0546556  0.00169249  0.0319587  -0.0318429  0.0319587  0  0  0  0.515995  -0.515995  0.515995  0.000545886  -0.0171625  -0.00845792  -0.011405  0.0290683  -0.0109196  -0.0442558  -0.0456146  -0.00528132  0.235422  0.271499  -0.0158667 
1700576024.550098000  0  0  15.5619  0.101321  0.0809189  0.00595836  nan  nan  nan  nan  nan  nan  -1.49834  -0.0016331  1.00166  0.0474133  0.0579747  0.00198189  0.0346089  -0.0344931  0.0346089  0  0  0  0.544191  -0.544191  0.544191  0.000462776  -0.0170119  -0.00853694  -0.0127285  0.0309781  -0.0116616  -0.04714  -0.0477907  -0.00551191  0.231047  0.277836  -0.0193604 
1700576024.556107000  0  0  15.5838  0.102469  0.0845817  0.00695603  nan  nan  nan  nan  nan  nan  -1.49816  -0.0018125  1.00184  0.0504257  0.0607981  0.00221709  0.0374019  -0.0372861  0.0374019  0  0  0  0.573137  -0.573137  0.573137  0.000504172  -0.0170804  -0.00844537  -0.0131544  0.0317222  -0.00988563  -0.0485731  -0.0488957  -0.00582638  0.241935  0.280678  -0.0286866 
1700576024.561105000  0  0  15.6501  0.096848  0.0823881  0.00696352  nan  nan  nan  nan  nan  nan  -1.49797  -0.0020062  1.00203  0.0530156  0.0637268  0.00244238  0.0403415  -0.0402257  0.0403415  0  0  0  0.602833  -0.602833  0.602833  0.00054077  -0.0171744  -0.00838771  -0.0139581  0.031941  -0.0116309  -0.0495927  -0.0501757  -0.0060176  0.262557  0.29684  -0.0268679 
1700576024.566573000  0  0  15.6803  0.0980882  0.0906403  0.006928  nan  nan  nan  nan  nan  nan  -1.49776  -0.002215  1.00224  0.0557838  0.0665983  0.0026859  0.0434315  -0.0433156  0.0434315  0  0  0  0.633278  -0.633278  0.633278  0.000578303  -0.0172571  -0.00830513  -0.0143192  0.0321352  -0.0103037  -0.050697  -0.0514079  -0.0061949  0.270236  0.291672  -0.0246509 
1700576024.571108000  0  0  15.7329  0.104019  0.0894978  0.00622349  nan  nan  nan  nan  nan  nan  -1.49753  -0.0024396  1.00247  0.0599887  0.0703746  0.00309394  0.0466755  -0.0465597  0.0466755  0  0  0  0.664474  -0.664474  0.664474  0.000484029  -0.0170872  -0.00837075  -0.016069  0.0343118  -0.0104119  -0.0534565  -0.0536268  -0.00635031  0.283761  0.314371  -0.0142906 
1700576024.576102000  0  0  15.7751  0.0976606  0.0851045  0.00511728  nan  nan  nan  nan  nan  nan  -1.49729  -0.0026808  1.00271  0.0626094  0.0733443  0.0033597  0.0500774  -0.0499616  0.0500774  0  0  0  0.69642  -0.69642  0.69642  0.000526534  -0.0172212  -0.00827497  -0.0165168  0.0342389  -0.00985937  -0.054274  -0.0546942  -0.00630451  0.304  0.332977  -0.000920921 
1700576024.581096000  0  0  15.842  0.0989627  0.0977261  0.00483536  nan  nan  nan  nan  nan  nan  -1.49703  -0.0029395  1.00297  0.0670538  0.0769512  0.00381747  0.053641  -0.0535252  0.053641  0  0  0  0.729115  -0.729115  0.729115  0.000441633  -0.0170431  -0.00833036  -0.0179564  0.0367524  -0.0109185  -0.0568738  -0.0567676  -0.00642386  0.325313  0.32681  0.00379662 
1700576024.586094000  0  0  15.8999  0.10477  0.0903638  0.00454722  nan  nan  nan  nan  nan  nan  -1.49676  -0.0032164  1.00324  0.0698026  0.0804134  0.00415419  0.0573698  -0.057254  0.0573698  0  0  0  0.762457  -0.762457  0.762457  0.000462054  -0.0171489  -0.00824119  -0.0192169  0.0367861  -0.0114166  -0.0578965  -0.0581663  -0.00645198  0.323108  0.354403  0.00767956 
1700576024.591103000  0  0  15.97  0.0954249  0.103915  0.0047867  nan  nan  nan  nan  nan  nan  -1.49646  -0.0035123  1.00354  0.0739838  0.0839088  0.00462706  0.0612646  -0.0611488  0.0612646  0  0  0  0.795343  -0.795343  0.795343  0.000364445  -0.016963  -0.00830293  -0.0205337  0.0389102  -0.0126149  -0.0599415  -0.0600281  -0.00659144  0.360612  0.344428  0.00608071 
1700576024.596099000  0  0  16.0245  0.0844308  0.103409  0.00492463  nan  nan  nan  nan  nan  nan  -1.49614  -0.0038281  1.00386  0.0767514  0.0871061  0.00497621  0.065322  -0.0652062  0.065322  0  0  0  0.827479  -0.827479  0.827479  0.000373769  -0.0170696  -0.00821742  -0.0215543  0.0392178  -0.012891  -0.0603921  -0.0613045  -0.00665142  0.386746  0.357184  0.00495632 
1700576024.601079000  0  0  16.0724  0.0868967  0.0952032  0.00478011  nan  nan  nan  nan  nan  nan  -1.49581  -0.0041646  1.00419  0.0795943  0.0903133  0.00534463  0.0695381  -0.0694223  0.0695381  0  0  0  0.858866  -0.858866  0.858866  0.000370118  -0.0171435  -0.00813095  -0.0226603  0.0396773  -0.0126772  -0.0611561  -0.0623426  -0.00668812  0.388843  0.383145  0.00712984 
1700576024.606096000  0  0  16.1366  0.0743311  0.111945  0.00601862  nan  nan  nan  nan  nan  nan  -1.49545  -0.0045226  1.00455  0.083578  0.0934675  0.00582801  0.0739094  -0.0737936  0.0739094  0  0  0  0.889502  -0.889502  0.889502  0.000259944  -0.0169434  -0.00819417  -0.0237877  0.0418643  -0.0135546  -0.0626255  -0.0638847  -0.00694939  0.427493  0.36385  -0.00573895 
1700576024.611106000  0  0  16.1987  0.0709709  0.09125  0.00606188  nan  nan  nan  nan  nan  nan  -1.49507  -0.0049028  1.00493  0.0861003  0.0967643  0.00620067  0.0784319  -0.0783161  0.0784319  0  0  0  0.919388  -0.919388  0.919388  0.000232883  -0.0170181  -0.00811494  -0.0254681  0.0421821  -0.0145928  -0.0627646  -0.0646996  -0.00704326  0.435492  0.412736  -0.00534091 
1700576024.616099000  0  0  16.2472  0.0616452  0.0930818  0.00631582  nan  nan  nan  nan  nan  nan  -1.49466  -0.005306  1.00534  0.0887673  0.0995138  0.0065499  0.083102  -0.0829862  0.083102  0  0  0  0.948525  -0.948525  0.948525  0.000188652  -0.0170541  -0.0080411  -0.0261347  0.0427015  -0.0145921  -0.0629094  -0.0652727  -0.00713675  0.455476  0.414346  -0.00758024 
1700576024.621097000  0  0  16.2953  0.0637968  0.0940704  0.00620378  nan  nan  nan  nan  nan  nan  -1.49423  -0.0057329  1.00577  0.0925361  0.102894  0.00707927  0.0879159  -0.0878001  0.0879159  0  0  0  0.976911  -0.976911  0.976911  5.25899e-05  -0.0168387  -0.00810409  -0.027927  0.0447781  -0.0142765  -0.0642312  -0.0665283  -0.00730831  0.463333  0.423919  -0.00446415 
1700576024.626094000  0  0  16.3608  0.0567127  0.0706135  0.00617914  nan  nan  nan  nan  nan  nan  -1.49378  -0.0061842  1.00622  0.0953433  0.10572  0.00747244  0.0928699  -0.0927541  0.0928699  0  0  0  1.00455  -1.00455  1.00455  -2.18858e-05  -0.0168083  -0.00805872  -0.0291697  0.0458656  -0.0156798  -0.0644232  -0.0665673  -0.007384  0.479268  0.471192  -0.00339922 
1700576024.631245000  0  0  16.4059  0.046921  0.0809449  0.00636639  nan  nan  nan  nan  nan  nan  -1.49331  -0.0066607  1.00669  0.0989357  0.108541  0.00796079  0.0979601  -0.0978443  0.0979601  0  0  0  1.03143  -1.03143  1.03143  -0.000147026  -0.0165851  -0.00810523  -0.0302366  0.0478874  -0.0152653  -0.0651308  -0.0672168  -0.0075314  0.505362  0.456505  -0.00426589 
1700576024.636218000  0  0  16.4426  0.0540475  0.060046  0.00581881  nan  nan  nan  nan  nan  nan  -1.4928  -0.0071629  1.0072  0.101737  0.111718  0.00841078  0.103183  -0.103067  0.103183  0  0  0  1.05757  -1.05757  1.05757  -0.000243306  -0.0165429  -0.00804905  -0.0320457  0.0489154  -0.0144186  -0.0654481  -0.0675367  -0.00757985  0.494028  0.501246  0.00306338 
1700576024.640107000  0  0  16.5183  0.055132  0.0667197  0.0064436  nan  nan  nan  nan  nan  nan  -1.49227  -0.0076916  1.00773  0.105567  0.11483  0.00898463  0.108535  -0.108419  0.108535  0  0  0  1.08296  -1.08296  1.08296  -0.000484717  -0.0162318  -0.00822882  -0.034109  0.0518241  -0.0164429  -0.0671159  -0.0687786  -0.00782148  0.507202  0.499324  -0.00233019 
1700576024.646236000  0  0  16.5307  0.0430098  0.0542751  0.00617962  nan  nan  nan  nan  nan  nan  -1.49172  -0.0082473  1.00828  0.107781  0.117136  0.00929754  0.114011  -0.113895  0.114011  0  0  0  1.10759  -1.10759  1.10759  -0.000474804  -0.0162673  -0.00803062  -0.0344909  0.0519586  -0.013979  -0.0659174  -0.0678339  -0.00780709  0.520421  0.515522  0.000825707 
1700576024.651238000  0  0  16.5646  0.0354297  0.049524  0.00617964  nan  nan  nan  nan  nan  nan  -1.49113  -0.0088307  1.00887  0.110208  0.119414  0.0096372  0.119609  -0.119493  0.119609  0  0  0  1.13148  -1.13148  1.13148  -0.000555623  -0.0162423  -0.00793873  -0.0350541  0.0527438  -0.0132275  -0.0654716  -0.0673715  -0.00781569  0.53148  0.52077  0.000911457 
1700576024.656283000  0  0  16.5894  0.0387072  0.0566561  0.00597674  nan  nan  nan  nan  nan  nan  -1.49052  -0.0094424  1.00948  0.11359  0.122258  0.0101632  0.125325  -0.125209  0.125325  0  0  0  1.15462  -1.15462  1.15462  -0.000725746  -0.0159807  -0.00797837  -0.0365271  0.0547589  -0.0114694  -0.0661065  -0.0677893  -0.00790998  0.530765  0.51035  0.00439056 
1700576024.661233000  0  0  16.6491  0.0352849  0.0389862  0.00582464  nan  nan  nan  nan  nan  nan  -1.48988  -0.010083  1.01012  0.116461  0.124818  0.010605  0.131154  -0.131038  0.131154  0  0  0  1.177  -1.177  1.177  -0.000869779  -0.0158104  -0.00794882  -0.0381277  0.0566202  -0.0127902  -0.0661481  -0.0673774  -0.00796284  0.537993  0.5419  0.00682039 
1700576024.665088000  0  0  16.7175  0.0362118  0.0527798  0.00607521  nan  nan  nan  nan  nan  nan  -1.48921  -0.010753  1.01079  0.120055  0.127683  0.011185  0.137094  -0.136978  0.137094  0  0  0  1.19864  -1.19864  1.19864  -0.0011689  -0.0154359  -0.00815267  -0.0402893  0.0596361  -0.0144905  -0.0674596  -0.0684219  -0.00812242  0.548205  0.523922  0.00528409 
1700576024.671239000  0  0  16.6959  0.0406358  0.0320433  0.00511027  nan  nan  nan  nan  nan  nan  -1.48851  -0.011453  1.01149  0.122188  0.12992  0.0115103  0.143139  -0.143023  0.143139  0  0  0  1.21952  -1.21952  1.21952  -0.00117028  -0.015449  -0.00789083  -0.0406935  0.0597611  -0.00972502  -0.0664  -0.0670769  -0.00799981  0.529608  0.553021  0.0161198 
1700576024.676239000  0  0  16.7293  0.0226883  0.0322842  0.00524745  nan  nan  nan  nan  nan  nan  -1.48778  -0.0121834  1.01222  0.12418  0.131668  0.0117596  0.149288  -0.149172  0.149288  0  0  0  1.23966  -1.23966  1.23966  -0.00126793  -0.0153895  -0.00775606  -0.0408928  0.0603535  -0.00944372  -0.0653171  -0.0661064  -0.00789843  0.55554  0.543611  0.0133912 
1700576024.680043000  0  0  16.7884  0.0326464  0.0376203  0.00538148  nan  nan  nan  nan  nan  nan  -1.48702  -0.0129448  1.01298  0.127849  0.134648  0.0123932  0.155535  -0.155419  0.155535  0  0  0  1.25905  -1.25905  1.25905  -0.00160744  -0.0149723  -0.00797014  -0.0434914  0.0637052  -0.0105342  -0.0668427  -0.0671078  -0.00806051  0.54966  0.542151  0.0133367 
1700576024.686230000  0  0  16.8017  0.0374656  0.0106431  0.00481189  nan  nan  nan  nan  nan  nan  -1.48622  -0.0137377  1.01378  0.129908  0.136301  0.0126467  0.161877  -0.161761  0.161877  0  0  0  1.27768  -1.27768  1.27768  -0.00163782  -0.0149143  -0.00769151  -0.0436133  0.0643964  -0.00893264  -0.0656977  -0.0648513  -0.00793734  0.529487  0.575346  0.0192247 
1700576024.690081000  0  0  16.8541  0.0401791  0.0314778  0.00549674  nan  nan  nan  nan  nan  nan  -1.4854  -0.0145626  1.0146  0.133379  0.139002  0.0132377  0.16831  -0.168194  0.16831  0  0  0  1.29557  -1.29557  1.29557  -0.00199036  -0.0144737  -0.00790382  -0.0458464  0.0675396  -0.00966408  -0.0669586  -0.0657993  -0.00810719  0.53566  0.542398  0.0123627 
1700576024.696264000  0  0  16.8304  0.0398242  0.00485405  0.0049272  nan  nan  nan  nan  nan  nan  -1.48454  -0.0154198  1.01546  0.13478  0.140819  0.0134253  0.174831  -0.174715  0.174831  0  0  0  1.31271  -1.31271  1.31271  -0.0019901  -0.0145528  -0.00747603  -0.0459972  0.067023  -0.00554075  -0.0651348  -0.0637291  -0.00790448  0.519592  0.576599  0.0174549 
1700576024.701238000  0  0  16.8323  0.0273254  0.0177718  0.00568863  nan  nan  nan  nan  nan  nan  -1.48365  -0.0163099  1.01635  0.136511  0.142526  0.0136445  0.181436  -0.18132  0.181436  0  0  0  1.32909  -1.32909  1.32909  -0.00211716  -0.0145049  -0.00723325  -0.0462189  0.0673629  -0.00336286  -0.0639855  -0.0629144  -0.00781262  0.534015  0.543269  0.00701833 
1700576024.705088000  0  0  16.8712  0.0400364  0.0261728  0.00557713  nan  nan  nan  nan  nan  nan  -1.48272  -0.0172332  1.01728  0.140058  0.145443  0.0142982  0.188121  -0.188005  0.188121  0  0  0  1.34473  -1.34473  1.34473  -0.00251881  -0.0140278  -0.00745322  -0.0489471  0.0707351  -0.00313849  -0.0655034  -0.06391  -0.00796726  0.522558  0.535627  0.00995849 
1700576024.711243000  0  0  16.8675  0.033527  0.0129226  0.0056686  nan  nan  nan  nan  nan  nan  -1.48177  -0.0181901  1.01823  0.140981  0.146483  0.0143079  0.194882  -0.194766  0.194882  0  0  0  1.35961  -1.35961  1.35961  -0.00249164  -0.0141151  -0.0069602  -0.0483458  0.0700567  -0.00123218  -0.0632552  -0.0614281  -0.00774948  0.514894  0.539294  0.00663726 
1700576024.715097000  0  0  16.9134  0.035164  0.0259409  0.006102  nan  nan  nan  nan  nan  nan  -1.48078  -0.019181  1.01922  0.144184  0.14907  0.0148773  0.201716  -0.2016  0.201716  0  0  0  1.37375  -1.37375  1.37375  -0.00290647  -0.0136151  -0.00718385  -0.0507897  0.0731349  -0.0017909  -0.0642952  -0.0622308  -0.00790792  0.521188  0.520641  0.00280428 
1700576024.721238000  0  0  16.8988  0.0327466  0.00966665  0.00548914  nan  nan  nan  nan  nan  nan  -1.47975  -0.0202062  1.02025  0.145537  0.150587  0.015017  0.208618  -0.208503  0.208618  0  0  0  1.38714  -1.38714  1.38714  -0.00294887  -0.0136153  -0.00672276  -0.051021  0.0731015  0.000990742  -0.062577  -0.0602622  -0.0076956  0.510215  0.535079  0.0083417 
1700576024.726239000  0  0  16.8928  0.0296114  0.0270929  0.00572612  nan  nan  nan  nan  nan  nan  -1.47869  -0.0212661  1.02131  0.14741  0.152326  0.0152677  0.215586  -0.21547  0.215586  0  0  0  1.39977  -1.39977  1.39977  -0.0031633  -0.0134233  -0.00649543  -0.0516086  0.0738695  0.00340969  -0.061794  -0.0597642  -0.0075797  0.509282  0.495644  0.00422042 
1700576024.730095000  0  0  16.942  0.0433522  0.0256041  0.00557655  nan  nan  nan  nan  nan  nan  -1.47759  -0.022361  1.02241  0.150564  0.154984  0.0158574  0.222615  -0.222499  0.222615  0  0  0  1.41166  -1.41166  1.41166  -0.00362465  -0.0128822  -0.0067366  -0.0545415  0.077201  0.00240231  -0.0630728  -0.06047  -0.00771274  0.493565  0.505116  0.00742052 
1700576024.736238000  0  0  16.9245  0.0233058  0.0244247  0.0059329  nan  nan  nan  nan  nan  nan  -1.47646  -0.0234912  1.02354  0.15151  0.155923  0.0158445  0.229701  -0.229585  0.229701  0  0  0  1.4228  -1.4228  1.4228  -0.00366668  -0.0128747  -0.00620375  -0.053964  0.0767465  0.00485967  -0.0607077  -0.0583871  -0.00744138  0.511899  0.488312  0.00025244 
1700576024.740094000  0  0  16.9549  0.0312027  0.0321109  0.00560882  nan  nan  nan  nan  nan  nan  -1.4753  -0.0246569  1.0247  0.154495  0.158464  0.0163992  0.236842  -0.236726  0.236842  0  0  0  1.43318  -1.43318  1.43318  -0.00413981  -0.0123098  -0.00643113  -0.0565807  0.0796712  0.00516803  -0.0616975  -0.059203  -0.0075043  0.505212  0.480445  0.00493274 
1700576024.746265000  0  0  16.9379  0.0263223  0.0286177  0.00471178  nan  nan  nan  nan  nan  nan  -1.47409  -0.0258585  1.02591  0.155304  0.159672  0.0164  0.244032  -0.243916  0.244032  0  0  0  1.44282  -1.44282  1.44282  -0.00420246  -0.0123044  -0.00588469  -0.0567106  0.0792061  0.00736069  -0.0595818  -0.0574253  -0.00708268  0.495508  0.471078  0.0119295 
1700576024.751246000  0  0  16.917  0.0219062  0.0476862  0.00477707  nan  nan  nan  nan  nan  nan  -1.47286  -0.0270962  1.02714  0.156974  0.161569  0.0166456  0.251268  -0.251153  0.251268  0  0  0  1.45171  -1.45171  1.45171  -0.00447504  -0.0120414  -0.00563901  -0.0578017  0.0797845  0.0104938  -0.0587181  -0.0574827  -0.00687011  0.496394  0.433469  0.00898779 
1700576024.756252000  0  0  16.9552  0.0281178  0.0359279  0.00375138  nan  nan  nan  nan  nan  nan  -1.47158  -0.0283701  1.02842  0.158916  0.16323  0.0168993  0.258548  -0.258432  0.258548  0  0  0  1.45984  -1.45984  1.45984  -0.00477541  -0.0116391  -0.00560554  -0.0595777  0.0816974  0.00919355  -0.0583738  -0.0567542  -0.00666612  0.480803  0.450283  0.019769 
1700576024.761267000  0  0  16.9553  0.011621  0.0555953  0.00482982  nan  nan  nan  nan  nan  nan  -1.47027  -0.0296806  1.02973  0.160601  0.164712  0.0170815  0.265866  -0.26575  0.265866  0  0  0  1.46723  -1.46723  1.46723  -0.00507249  -0.0113186  -0.00543347  -0.0604437  0.0828003  0.0105491  -0.0573343  -0.056518  -0.00651882  0.504234  0.408775  0.0048155 
1700576024.765090000  0  0  16.9857  0.0238841  0.0586294  0.00460818  nan  nan  nan  nan  nan  nan  -1.46892  -0.0310277  1.03108  0.163155  0.167065  0.0175515  0.273219  -0.273103  0.273219  0  0  0  1.47386  -1.47386  1.47386  -0.0056279  -0.0106839  -0.00570244  -0.0631453  0.0854201  0.0104407  -0.0580891  -0.0573428  -0.00651314  0.486651  0.410295  0.00752916 
1700576024.771244000  0  0  16.9556  0.0100101  0.0560034  0.00467808  nan  nan  nan  nan  nan  nan  -1.46754  -0.0324116  1.03246  0.163385  0.167896  0.017378  0.280603  -0.280487  0.280603  0  0  0  1.47975  -1.47975  1.47975  -0.0056785  -0.0106956  -0.00492538  -0.0629059  0.0843348  0.0125695  -0.0552912  -0.0558341  -0.00608921  0.488658  0.401667  0.00241609 
1700576024.776238000  0  0  16.9213  0.0106018  0.0626481  0.00443616  nan  nan  nan  nan  nan  nan  -1.46612  -0.0338326  1.03388  0.164597  0.169965  0.0175706  0.288015  -0.287899  0.288015  0  0  0  1.48489  -1.48489  1.48489  -0.0060492  -0.010422  -0.00456863  -0.0644186  0.0843929  0.0160685  -0.0540878  -0.0561815  -0.00576372  0.476405  0.391573  0.00218528 
1700576024.780095000  0  0  16.9757  0.0219936  0.0568227  0.00395217  nan  nan  nan  nan  nan  nan  -1.46466  -0.0352907  1.03534  0.16687  0.17192  0.0179295  0.295451  -0.295335  0.295451  0  0  0  1.48927  -1.48927  1.48927  -0.00663802  -0.00975785  -0.00485205  -0.0670982  0.0872555  0.0136968  -0.0546748  -0.0564814  -0.00570371  0.459021  0.405984  0.00763494 
1700576024.786239000  0  0  16.9302  0.00184632  0.0658619  0.00407365  nan  nan  nan  nan  nan  nan  -1.46316  -0.036786  1.03684  0.167196  0.172584  0.0177308  0.302906  -0.302791  0.302906  0  0  0  1.49291  -1.49291  1.49291  -0.00677861  -0.00968415  -0.00424556  -0.0664008  0.0862545  0.0171049  -0.0521077  -0.0550859  -0.00523712  0.475699  0.375066  0.00145054 
1700576024.790096000  0  0  16.9753  0.0144669  0.0610916  0.00354614  nan  nan  nan  nan  nan  nan  -1.46163  -0.0383186  1.03837  0.16928  0.17448  0.0180448  0.310378  -0.310263  0.310378  0  0  0  1.4958  -1.4958  1.4958  -0.00738828  -0.00899764  -0.00453238  -0.0689888  0.0888124  0.015287  -0.0525587  -0.0554117  -0.00513682  0.454606  0.387604  0.00704141 
1700576024.796256000  0  0  16.9638  0.000200021  0.0575159  0.00376053  nan  nan  nan  nan  nan  nan  -1.46006  -0.0398886  1.03994  0.16952  0.174672  0.0177412  0.317863  -0.317747  0.317863  0  0  0  1.49793  -1.49793  1.49793  -0.00751149  -0.00887639  -0.00396939  -0.0683159  0.0884482  0.0157489  -0.0500569  -0.0532834  -0.00466633  0.460123  0.375176  -0.000343342 
1700576024.801231000  0  0  16.95  0.0101351  0.0508434  0.00266343  nan  nan  nan  nan  nan  nan  -1.45845  -0.0414961  1.04155  0.170546  0.17601  0.0177661  0.325357  -0.325241  0.325357  0  0  0  1.49932  -1.49932  1.49932  -0.00791848  -0.00848443  -0.00381042  -0.0693276  0.0889316  0.0173765  -0.0491957  -0.0526961  -0.00430266  0.43233  0.383117  0.00973376 
1700576024.805040000  0  0  17.004  0.0140451  0.0454782  0.00218777  nan  nan  nan  nan  nan  nan  -1.45681  -0.043141  1.04319  0.17249  0.177434  0.017969  0.332855  -0.332739  0.332855  0  0  0  1.49995  -1.49995  1.49995  -0.00857192  -0.00774795  -0.00414263  -0.0714672  0.0917124  0.0145706  -0.0495317  -0.052548  -0.00414099  0.427601  0.392486  0.0140627 
1700576024.811244000  0  0  16.9628  0.00215314  0.0390075  0.00213202  nan  nan  nan  nan  nan  nan  -1.45512  -0.0448235  1.04488  0.172399  0.177433  0.0175545  0.340355  -0.340239  0.340355  0  0  0  1.5  -1.5  1.5  -0.00868309  -0.00763627  -0.00355863  -0.0701859  0.0905737  0.0170128  -0.0468694  -0.050197  -0.00359668  0.426893  0.383797  0.00931648 
1700576024.816130000  0  0  16.9748  0.00794612  0.0247517  0.00104226  nan  nan  nan  nan  nan  nan  -1.4534  -0.0465434  1.0466  0.173359  0.178609  0.0175276  0.347855  -0.347739  0.347855  0  0  0  1.5  -1.5  1.5  -0.00916339  -0.00719109  -0.0034202  -0.0714474  0.0915398  0.0163988  -0.0460261  -0.0492455  -0.00317356  0.407548  0.403555  0.0187074 
1700576024.821235000  0  0  16.981  -0.0003272  0.0254131  0.00140985  nan  nan  nan  nan  nan  nan  -1.45164  -0.0483009  1.04836  0.174169  0.17859  0.0172622  0.355355  -0.355239  0.355355  0  0  0  1.5  -1.5  1.5  -0.00948531  -0.00675962  -0.00330389  -0.0706645  0.0922503  0.0160447  -0.0447417  -0.0473462  -0.00284279  0.412278  0.384759  0.0108048 
1700576024.826240000  0  0  16.986  0.0195065  0.00683661  -0.000302362  nan  nan  nan  nan  nan  nan  -1.44985  -0.0500958  1.05015  0.174945  0.179563  0.0171569  0.362855  -0.362739  0.362855  0  0  0  1.5  -1.5  1.5  -0.00994324  -0.00632985  -0.00312089  -0.0714434  0.0928116  0.0158167  -0.0441058  -0.0460587  -0.00235601  0.36676  0.410066  0.0273396 
1700576024.831521000  0  0  16.9956  0.00455886  0.00964364  0.00120669  nan  nan  nan  nan  nan  nan  -1.44801  -0.0519283  1.05199  0.175561  0.179927  0.0169111  0.370355  -0.370239  0.370355  0  0  0  1.5  -1.5  1.5  -0.0103087  -0.0059786  -0.00287172  -0.071348  0.0933917  0.0149419  -0.0427099  -0.0444683  -0.00204967  0.383813  0.389821  0.00541309 
1700576024.836195000  0  0  17.0068  0.0219424  6.03468e-05  0.000815016  nan  nan  nan  nan  nan  nan  -1.44614  -0.0537982  1.05386  0.176576  0.180593  0.0167861  0.377855  -0.377739  0.377855  0  0  0  1.5  -1.5  1.5  -0.0107638  -0.00542178  -0.00291508  -0.071689  0.0942588  0.0146381  -0.0423836  -0.0432181  -0.00182273  0.346045  0.397486  0.00803964 
1700576024.841524000  0  0  17.0091  0.0238658  -0.000101132  0.0014564  nan  nan  nan  nan  nan  nan  -1.44424  -0.0557057  1.05576  0.17705  0.18104  0.0165173  0.385355  -0.385239  0.385355  0  0  0  1.5  -1.5  1.5  -0.0111326  -0.00508473  -0.00257342  -0.0715956  0.0944799  0.0141196  -0.0412961  -0.0417061  -0.00150378  0.332192  0.383899  -0.00316726 
1700576024.846236000  0  0  17.0078  0.0256976  0.00908564  0.00197625  nan  nan  nan  nan  nan  nan  -1.44229  -0.0576506  1.05771  0.177909  0.181557  0.0163267  0.392855  -0.392739  0.392855  0  0  0  1.5  -1.5  1.5  -0.0115836  -0.00453195  -0.0026084  -0.0714043  0.0948562  0.0147279  -0.0406956  -0.0407362  -0.00132727  0.323004  0.356602  -0.0114304 
1700576024.851245000  0  0  17.017  0.0335716  -0.000161391  0.00117406  nan  nan  nan  nan  nan  nan  -1.44031  -0.059633  1.05969  0.178809  0.18211  0.0161449  0.400355  -0.400239  0.400355  0  0  0  1.5  -1.5  1.5  -0.0119989  -0.00406412  -0.00242016  -0.071567  0.095694  0.0140598  -0.0402081  -0.0393042  -0.00104984  0.302771  0.361921  -0.00417736 
1700576024.856228000  0  0  17.0274  0.0256198  0.00162759  0.00110813  nan  nan  nan  nan  nan  nan  -1.43829  -0.061653  1.06171  0.179578  0.182088  0.0158307  0.407855  -0.407739  0.407855  0  0  0  1.5  -1.5  1.5  -0.0123571  -0.0035791  -0.00235754  -0.0707788  0.0963296  0.0134048  -0.0394149  -0.0376448  -0.000761812  0.311377  0.343077  -0.00623347 
1700576024.861192000  0  0  17.0258  0.0447917  -0.00764864  7.56766e-05  nan  nan  nan  nan  nan  nan  -1.43623  -0.0637104  1.06377  0.180211  0.182939  0.0156412  0.415355  -0.415239  0.415355  0  0  0  1.5  -1.5  1.5  -0.0128023  -0.00310623  -0.00223563  -0.0712161  0.0964518  0.0137262  -0.0390931  -0.0366385  -0.000406945  0.270073  0.352372  0.00312349 
1700576024.866236000  0  0  17.0515  0.0321217  0.001194  0.00132722  nan  nan  nan  nan  nan  nan  -1.43413  -0.0658054  1.06587  0.180813  0.18269  0.0152432  0.422855  -0.422739  0.422855  0  0  0  1.5  -1.5  1.5  -0.0131428  -0.00263471  -0.00216662  -0.0703351  0.0971431  0.0117315  -0.0382004  -0.0349288  -0.000195173  0.2872  0.318957  -0.0146386 
1700576024.871243000  0  0  17.0298  0.0500604  0.00123709  0.00087302  nan  nan  nan  nan  nan  nan  -1.432  -0.0679378  1.068  0.181431  0.183541  0.0150398  0.430355  -0.430239  0.430355  0  0  0  1.5  -1.5  1.5  -0.0135796  -0.00216307  -0.00202686  -0.0703857  0.0968566  0.0136071  -0.0379204  -0.0342836  7.5074e-05  0.248747  0.312935  -0.0116635 
1700576024.875096000  0  0  17.0856  0.0560922  0.000618389  0.000638074  nan  nan  nan  nan  nan  nan  -1.42983  -0.0701078  1.07017  0.183065  0.184601  0.0150615  0.437855  -0.437739  0.437855  0  0  0  1.5  -1.5  1.5  -0.0143509  -0.00128614  -0.00248408  -0.0717071  0.0990376  0.0107148  -0.0386488  -0.0341301  0.000188482  0.243385  0.31276  -0.00986075 
1700576024.881241000  0  0  17.0369  0.0493707  0.0122995  0.000794712  nan  nan  nan  nan  nan  nan  -1.42762  -0.0723152  1.07238  0.182561  0.184081  0.0143864  0.445355  -0.445239  0.445355  0  0  0  1.5  -1.5  1.5  -0.0143783  -0.0012067  -0.00181957  -0.0694443  0.0971528  0.0131752  -0.0367941  -0.0321787  0.000686392  0.239764  0.271445  -0.0167978 
1700576024.886235000  0  0  17.0471  0.0580859  0.00529724  0.000690632  nan  nan  nan  nan  nan  nan  -1.42538  -0.0745602  1.07462  0.183198  0.184862  0.0141576  0.452855  -0.452739  0.452855  0  0  0  1.5  -1.5  1.5  -0.0148254  -0.000720307  -0.0017011  -0.0699784  0.097512  0.0125112  -0.0365861  -0.0314908  0.000946382  0.220421  0.279121  -0.0180967 
1700576024.890080000  0  0  17.0252  0.0441409  0.00591852  0.00101089  nan  nan  nan  nan  nan  nan  -1.42415  -0.0758489  1.07585  0.182549  0.183712  0.0133282  0.456943  -0.456943  0.456943  0  0  0  1.5  -1.5  1.5  -0.01457  -0.00080616  -0.00114033  -0.0676953  0.0963306  0.0128141  -0.0350615  -0.0293896  0.00142219  0.234284  0.258547  -0.0268579 
1700576024.896245000  0  0  16.7918  0.0293163  -0.0152552  -0.000217625  nan  nan  nan  nan  nan  nan  -1.42415  -0.0758489  1.07585  0.176605  0.17874  0.0110683  0.456943  -0.456943  0.456943  0  0  0  1.5  -1.5  1.5  -0.0122635  -0.00307129  0.0018903  -0.0584632  0.0865329  0.0231423  -0.0285374  -0.0228913  0.00263465  0.203911  0.24111  -0.0236262 
1700576024.901233000  0  0  16.8096  0.0163773  -0.00469307  0.000176968  nan  nan  nan  nan  nan  nan  -1.42185  -0.0781523  1.07815  0.177018  0.179089  0.0106981  0.464442  -0.464442  0.464442  0  0  0  1.49962  -1.49962  1.49962  -0.0126642  -0.00263049  0.00205102  -0.0584703  0.0868247  0.0215472  -0.027867  -0.0223439  0.00294451  0.223621  0.21495  -0.0316572 
1700576024.905088000  0  0  16.8323  0.0177389  0.00383984  -0.00015274  nan  nan  nan  nan  nan  nan  -1.41951  -0.0804933  1.08049  0.178254  0.180163  0.0106018  0.471938  -0.471938  0.471938  0  0  0  1.4985  -1.4985  1.4985  -0.0134241  -0.00176285  0.00161125  -0.0592837  0.0878134  0.0210345  -0.0282313  -0.0227164  0.00316519  0.22425  0.201312  -0.0297427 
1700576024.911244000  0  0  16.7929  0.0163926  -0.00527413  -0.0013184  nan  nan  nan  nan  nan  nan  -1.41713  -0.0828717  1.08287  0.177209  0.179493  0.00977125  0.479426  -0.479426  0.479426  0  0  0  1.49662  -1.49662  1.49662  -0.0133396  -0.00179029  0.00234347  -0.0575238  0.0857483  0.0221765  -0.026282  -0.020707  0.00381471  0.209009  0.201052  -0.021667 
1700576024.915097000  0  0  16.8364  0.012179  0.00518383  -0.000990763  nan  nan  nan  nan  nan  nan  -1.41471  -0.0852875  1.08529  0.178374  0.180269  0.00959742  0.486903  -0.486903  0.486903  0  0  0  1.494  -1.494  1.494  -0.0141197  -0.00090296  0.00186412  -0.0583817  0.0872438  0.0197984  -0.0265348  -0.0208898  0.00403969  0.219762  0.181819  -0.0280124 
1700576024.921234000  0  0  16.8025  0.0176205  0.00530089  -0.00144746  nan  nan  nan  nan  nan  nan  -1.41226  -0.0877407  1.08774  0.177202  0.180101  0.0088192  0.494365  -0.494365  0.494365  0  0  0  1.49062  -1.49062  1.49062  -0.014119  -0.000915154  0.00260793  -0.0577314  0.085243  0.0203399  -0.0246592  -0.0197656  0.00469512  0.191624  0.171242  -0.0288579 
1700576024.926236000  0  0  16.8231  0.00688249  0.0256547  -0.000545486  nan  nan  nan  nan  nan  nan  -1.40977  -0.0902312  1.09023  0.17713  0.180279  0.00829889  0.501808  -0.501808  0.501808  0  0  0  1.4865  -1.4865  1.4865  -0.0145452  -0.000462481  0.00276375  -0.0580102  0.0853367  0.0179118  -0.0235374  -0.0197002  0.00512686  0.202779  0.129932  -0.04445 
1700576024.931242000  0  0  16.8201  0.0185403  0.0215913  -0.00124042  nan  nan  nan  nan  nan  nan  -1.40724  -0.0927588  1.09276  0.17676  0.179988  0.00763525  0.509228  -0.509228  0.509228  0  0  0  1.48162  -1.48162  1.48162  -0.014834  -4.25779e-05  0.00285949  -0.0573629  0.0846716  0.0172542  -0.0226011  -0.0187132  0.00556077  0.17085  0.128979  -0.0401024 
1700576024.936238000  0  0  16.8346  0.0104958  0.0240594  -0.00111459  nan  nan  nan  nan  nan  nan  -1.40468  -0.0953234  1.09532  0.176367  0.179689  0.00696  0.516623  -0.516623  0.516623  0  0  0  1.476  -1.476  1.476  -0.0151678  0.000350034  0.00299573  -0.0570662  0.084488  0.0149942  -0.0215385  -0.0179658  0.00605049  0.177163  0.117167  -0.0465726 
1700576024.940095000  0  0  16.865  0.0134342  0.0338918  -0.00120136  nan  nan  nan  nan  nan  nan  -1.40208  -0.0979249  1.09792  0.177109  0.180344  0.00665603  0.523987  -0.523987  0.523987  0  0  0  1.46962  -1.46962  1.46962  -0.0159816  0.00127014  0.00246538  -0.0579571  0.0855398  0.0131918  -0.0216692  -0.0183107  0.00633061  0.172488  0.100675  -0.048289 
1700576024.946267000  0  0  16.8428  0.0134451  0.0281061  -0.00173505  nan  nan  nan  nan  nan  nan  -1.39944  -0.100563  1.10056  0.175188  0.179038  0.00551157  0.531318  -0.531318  0.531318  0  0  0  1.4625  -1.4625  1.4625  -0.0158178  0.00115782  0.00315817  -0.0563632  0.0833427  0.012001  -0.0192663  -0.0163526  0.00701488  0.150359  0.0942317  -0.0484606 
1700576024.951242000  0  0  16.837  0.00138102  0.0352285  -0.00158187  nan  nan  nan  nan  nan  nan  -1.39676  -0.103238  1.10324  0.174516  0.178986  0.0048115  0.538611  -0.538611  0.538611  0  0  0  1.45462  -1.45462  1.45462  -0.0162475  0.00157493  0.00325607  -0.0562835  0.0825718  0.0111666  -0.0178299  -0.0159854  0.00751674  0.161273  0.0766091  -0.0553941 
1700576024.956258000  0  0  16.837  0.0103195  0.0255388  -0.00342702  nan  nan  nan  nan  nan  nan  -1.39405  -0.105949  1.10595  0.173765  0.178284  0.00397944  0.545863  -0.545863  0.545863  0  0  0  1.446  -1.446  1.446  -0.0165196  0.00197901  0.00331831  -0.0555679  0.0819634  0.00968199  -0.0167181  -0.0146954  0.00813244  0.133167  0.0841202  -0.0384866 
1700576024.961212000  0  0  16.8323  0.0021412  0.0402704  -0.00299327  nan  nan  nan  nan  nan  nan  -1.3913  -0.108697  1.1087  0.172934  0.178187  0.0032321  0.55307  -0.55307  0.55307  0  0  0  1.43662  -1.43662  1.43662  -0.0169902  0.00236876  0.00339626  -0.055578  0.0812443  0.00856418  -0.0153847  -0.0145288  0.00871534  0.137257  0.0531243  -0.0497375 
1700576024.965092000  0  0  16.8476  0.0107723  0.0438796  -0.00346101  nan  nan  nan  nan  nan  nan  -1.38852  -0.11148  1.11148  0.173287  0.178577  0.00277922  0.560228  -0.560228  0.560228  0  0  0  1.4265  -1.4265  1.4265  -0.0178266  0.00330573  0.00281784  -0.0562127  0.0819011  0.00747271  -0.015437  -0.0147159  0.00909063  0.120476  0.0476269  -0.0476437 
1700576024.971241000  0  0  16.8201  0.00488631  0.0366083  -0.00373061  nan  nan  nan  nan  nan  nan  -1.3857  -0.114299  1.1143  0.170876  0.176969  0.00147602  0.567333  -0.567333  0.567333  0  0  0  1.41562  -1.41562  1.41562  -0.017676  0.0031278  0.00349824  -0.0545601  0.0795183  0.00606611  -0.0128205  -0.0128045  0.00987452  0.108176  0.0445843  -0.0521125 
1700576024.976238000  0  0  16.8034  0.00409467  0.0441856  -0.00362664  nan  nan  nan  nan  nan  nan  -1.38285  -0.117153  1.11715  0.169676  0.176387  0.000565862  0.574383  -0.574383  0.574383  0  0  0  1.404  -1.404  1.404  -0.0180483  0.00350529  0.00353108  -0.0540208  0.078339  0.00553775  -0.0113904  -0.0122445  0.010439  0.0966023  0.0242779  -0.0590565 
