ts fx fy fz tx ty tz exfx exfy exfz extx exty extz xd yd zd rolld pitchd yawd vxd vyd vzd wxd wyd wzd axd ayd azd e_x e_y e_z e_vx e_vy e_vz e_rx e_ry e_rz e_wx e_wy e_wz
1701770804.330905000  0  0  11.9464  0.024161  -0.0344257  0.00729161  nan  nan  nan  nan  nan  nan  -2  -1  1.5  -0.0186202  0.00910779  -0.000169606  0  0  0  0  0  0  0  0  0  0.0119499  -0.00651011  -0.0203882  -0.0386469  -0.0102459  -0.00209965  -0.00353562  3.02263e-06  -0.0104407  -0.0157942  0.0688236  0.0132622 
1701770804.334879000  0  0  11.9282  0.00876786  -0.0234292  0.00790721  nan  nan  nan  nan  nan  nan  -2  -1  1.5  -0.0186669  0.00890553  -0.000166256  0  0  0  0  0  0  0  0  0  0.0118076  -0.00667003  -0.0204022  -0.038044  -0.00991476  -0.000555198  -0.00323852  0.000232283  -0.0104747  0.0122586  0.0447213  0.00590724 
1701770804.339894000  0  0  11.9113  0.019718  -0.0338772  0.00825917  nan  nan  nan  nan  nan  nan  -2  -1  1.5  -0.0188313  0.00846904  -0.0001595  0  0  0  0  0  0  0  0  0  0.0116415  -0.00683923  -0.020382  -0.0370805  -0.00972141  0.000814535  -0.00326934  0.00103081  -0.010505  -0.00935801  0.0582711  0.00181039 
1701770804.344867000  0  0  11.9382  0.00927378  -0.0383872  0.0086842  nan  nan  nan  nan  nan  nan  -2  -1  1.5  -0.0179671  0.00845641  -0.000151952  0  0  0  0  0  0  0  0  0  0.0114563  -0.00688294  -0.020404  -0.0366774  -0.00853457  -0.00140155  -0.0038599  0.00140023  -0.0105617  0.0169635  0.0638923  -0.00293509 
1701770804.349889000  0  0  11.905  -0.00500729  -0.0253286  0.00881262  nan  nan  nan  nan  nan  nan  -2  -1  1.5  -0.0179408  0.00822084  -0.000147502  0  0  0  0  0  0  0  0  0  0.0112854  -0.00704417  -0.0204083  -0.0359547  -0.00807531  0.00136864  -0.00349018  0.00165428  -0.0106047  0.0421242  0.0354378  -0.0041107 
1701770804.354862000  0  0  11.9127  -0.00412305  -0.0295146  0.0083894  nan  nan  nan  nan  nan  nan  -2  -1  1.5  -0.0182291  0.00793518  -0.000144666  0  0  0  0  0  0  0  0  0  0.0111153  -0.00721036  -0.0204429  -0.0352056  -0.00810286  0.000807849  -0.00308314  0.00214573  -0.0106057  0.036611  0.0392884  0.00118972 
1701770804.359832000  0  0  11.9519  -0.0277538  -0.0283424  0.00793275  nan  nan  nan  nan  nan  nan  -2  -1  1.5  -0.0172967  0.00808643  -0.000139881  0  0  0  0  0  0  0  0  0  0.0109376  -0.00724501  -0.020469  -0.0350461  -0.00686729  -0.00242182  -0.00326056  0.0021627  -0.0105419  0.0855047  0.0367879  0.0062592 
1701770804.364894000  0  0  11.9199  -0.0291701  -0.0221327  0.00757395  nan  nan  nan  nan  nan  nan  -2  -1  1.5  -0.0173512  0.00769005  -0.000133443  0  0  0  0  0  0  0  0  0  0.010791  -0.00739975  -0.0204448  -0.0341665  -0.00653419  0.000193133  -0.00279357  0.0025602  -0.0104766  0.0840411  0.0207115  0.0100917 
1701770804.369852000  0  0  11.9283  -0.0216056  -0.0226255  0.00725229  nan  nan  nan  nan  nan  nan  -2  -1  1.5  -0.0168898  0.00749811  -0.000126652  0  0  0  0  0  0  0  0  0  0.0106236  -0.00743204  -0.020451  -0.0335471  -0.0058673  -0.000503482  -0.00301667  0.00283168  -0.0103922  0.0709645  0.0191996  0.0132684 
1701770804.374871000  0  0  11.9471  -0.0389402  -0.0185944  0.00763089  nan  nan  nan  nan  nan  nan  -2  -1  1.5  -0.0167713  0.00754013  -0.000126469  0  0  0  0  0  0  0  0  0  0.0104622  -0.0075818  -0.0204745  -0.03326  -0.00541268  -0.00202655  -0.00244381  0.00282265  -0.0103941  0.100363  0.0112205  0.00855442 
1701770804.378803000  0  0  11.927  -0.0366142  -0.0121828  0.00769974  nan  nan  nan  nan  nan  nan  -2  -1  1.5  -0.0162603  0.0074959  -0.000121895  0  0  0  0  0  0  0  0  0  0.0103322  -0.00760126  -0.0204654  -0.0328954  -0.0046548  -0.000374913  -0.00259756  0.0027557  -0.0103767  0.0971261  -0.000986879  0.00751973 
1701770804.388904000  0  0  11.9493  -0.0343041  -0.00402513  0.00764659  nan  nan  nan  nan  nan  nan  -2  -1  1.5  -0.0160175  0.00745611  -0.000119437  0  0  0  0  0  0  0  0  0  0.01002  -0.00789481  -0.0204903  -0.0321674  -0.00372046  -0.00218858  -0.00210185  0.0025523  -0.0103342  0.0879452  -0.0154309  0.00775946 
1701770804.394823000  0  0  11.9017  -0.0258933  0.00551934  0.00768119  nan  nan  nan  nan  nan  nan  -2  -1  1.5  -0.0153474  0.00696456  -0.000106896  0  0  0  0  0  0  0  0  0  0.00983716  -0.00791485  -0.0204624  -0.0310714  -0.00270539  0.00170872  -0.00242951  0.00268582  -0.0102981  0.0741381  -0.0357483  0.00696663 
1701770804.399901000  0  0  11.9173  -0.0169986  0.000426353  0.00793284  nan  nan  nan  nan  nan  nan  -2  -1  1.5  -0.0152271  0.00683362  -0.000104064  0  0  0  0  0  0  0  0  0  0.00968991  -0.00804772  -0.0204588  -0.0305829  -0.0022775  0.000399156  -0.00241307  0.00273232  -0.0103193  0.0561973  -0.02599  0.00403255 
1701770804.404815000  0  0  11.9333  -0.0177179  -0.00490653  0.00780445  nan  nan  nan  nan  nan  nan  -2  -1  1.5  -0.0149924  0.00688944  -0.000103296  -6e-07  -6e-07  6e-07  0  0  0  -0.000375  -0.000375  0.000375  0.00953708  -0.00818171  -0.0204814  -0.0303779  -0.00174402  -0.000854345  -0.00236711  0.00269476  -0.0103009  0.0572131  -0.0149787  0.00545353 
1701770804.409868000  0  0  11.8703  -0.00748803  0.00840386  0.00870633  nan  nan  nan  nan  nan  nan  -2  -1  1.5  -0.014308  0.00610849  -8.74057e-05  -5e-06  -5e-06  5e-06  0  0  0  -0.0015  -0.0015  0.0014996  0.00939174  -0.00818925  -0.0204376  -0.0291218  -0.000865438  0.00439612  -0.00295152  0.00302607  -0.0103946  0.04213  -0.0446476  -0.00488318 
1701770804.414864000  0  0  11.9166  0.00424226  -0.00712054  0.00922826  nan  nan  nan  nan  nan  nan  -2  -1  1.5  -0.0137096  0.00598796  -8.2097e-05  -1.69e-05  -1.69e-05  1.55e-05  0  0  0  -0.003375  -0.003375  0.0025892  0.00923715  -0.00830823  -0.0204816  -0.0288924  -0.000124754  0.000722576  -0.00352242  0.00322292  -0.0105091  0.0239218  -0.0154098  -0.0102624 
1701770804.418879000  0  0  11.8972  0.0135962  -0.0049297  0.00916505  nan  nan  nan  nan  nan  nan  -2  -1  1.5  -0.0128568  0.00565739  -7.26396e-05  -4e-05  -4e-05  2.96e-05  0  0  0  -0.006  -0.006  0.0029289  0.0091211  -0.00830767  -0.0204644  -0.0285237  0.000691296  0.00231637  -0.00440146  0.00343813  -0.0105509  0.013301  -0.0217714  -0.009054 
1701770804.424811000  0  0  11.8483  0.018837  0.00440675  0.00890205  nan  nan  nan  nan  nan  nan  -2  -1  1.5  -0.0122918  0.00472609  -5.7895e-05  -7.81e-05  -7.81e-05  4.36e-05  0  0  0  -0.009375  -0.009375  0.0025185  0.00896531  -0.00842236  -0.0204193  -0.0273567  0.00132347  0.00624687  -0.00496602  0.00389571  -0.0105994  0.00801342  -0.044654  -0.005282 
1701770804.429870000  0  0  11.9068  0.0315664  -0.0175951  0.0083523  nan  nan  nan  nan  nan  nan  -2  -1  1.5  -0.0115339  0.00436087  -4.98999e-05  -0.000135  -0.000135  5.36e-05  0  0  0  -0.0135  -0.0135  0.0013619  0.00881434  -0.00853292  -0.0204671  -0.0271018  0.00195867  0.00134015  -0.00588268  0.00446334  -0.0105852  -0.00901223  -0.00587254  0.00144812 
1701770804.434872000  0  0  11.8506  0.0343433  -0.0181588  0.00731117  nan  nan  nan  nan  nan  nan  -2  -1  1.5  -0.0103554  0.00349255  -3.55681e-05  -0.0002144  -0.0002144  5.74e-05  0  0  0  -0.018375  -0.018375  0.0003076  0.00868117  -0.00852243  -0.0204188  -0.0262651  0.0029288  0.00579135  -0.0070586  0.00524563  -0.0104438  -0.00374747  -0.0119423  0.0130488 
1701770804.439864000  0  0  11.8412  0.0329791  -0.0203176  0.0072812  nan  nan  nan  nan  nan  nan  -2  -1  1.5  -0.00953378  0.00242597  -2.23294e-05  -0.00032  -0.00032  5.79e-05  0  0  0  -0.024  -0.024  -3.3e-06  0.00854543  -0.00862072  -0.0204168  -0.0252833  0.00351199  0.00652186  -0.00779343  0.00616432  -0.0104092  0.0057413  -0.0160765  0.0130769 
1701770804.444812000  0  0  11.8892  0.0445107  -0.0382079  0.00736581  nan  nan  nan  nan  nan  nan  -2.00001  -1.00001  1.5  -0.00779161  0.00154922  -1.10711e-05  -0.0004549  -0.0004556  5.71e-05  0  0  0  -0.0298319  -0.030375  -0.0004491  0.00842865  -0.00859038  -0.0204291  -0.024632  0.0048711  0.00246292  -0.00959805  0.00726608  -0.01037  -0.000719411  0.00956789  0.0116276 
1701770804.449879000  0  0  11.8453  0.0524255  -0.0394186  0.0081597  nan  nan  nan  nan  nan  nan  -2.00001  -1.00001  1.5  -0.00632276  0.000392962  -1.28463e-06  -0.0006171  -0.000625  5.22e-05  0  0  0  -0.0349304  -0.0375  -0.0016448  0.00830601  -0.00856766  -0.020383  -0.0234888  0.00587097  0.0058702  -0.011113  0.00839142  -0.0104135  -0.00261134  0.00163612  0.00213871 
1701770804.454880000  0  0  11.8567  0.0421111  -0.0466095  0.00905002  nan  nan  nan  nan  nan  nan  -2.00001  -1.00001  1.5  -0.00471291  -0.000520395  3.85259e-06  -0.0008029  -0.0008318  3.94e-05  0  0  0  -0.0392789  -0.0452796  -0.0035905  0.00818696  -0.00854005  -0.0203678  -0.0225833  0.00691719  0.00467198  -0.0123733  0.00933393  -0.0105238  0.0296124  0.00734688  -0.00788769 
1701770804.458825000  0  0  11.889  0.0509168  -0.0587613  0.0089101  nan  nan  nan  nan  nan  nan  -2.00002  -1.00002  1.5  -0.00310036  -0.00126596  5.62492e-06  -0.0010086  -0.0010769  1.5e-05  0  0  0  -0.0428774  -0.0526197  -0.0062863  0.00810503  -0.00850348  -0.0203754  -0.0218793  0.00800082  0.00169563  -0.0139202  0.0102852  -0.0105362  0.0262319  0.0228984  -0.00601384 
1701770804.464824000  0  0  11.8396  0.0421427  -0.0490955  0.00876326  nan  nan  nan  nan  nan  nan  -2.00002  -1.00002  1.5  -0.00335619  -0.00167349  7.61658e-06  -0.0012224  -0.0013394  -1.7e-05  0  0  0  -0.0425024  -0.0522447  -0.0066612  0.00795873  -0.0087102  -0.0203834  -0.0209765  0.0081891  0.00580251  -0.0133659  0.010577  -0.0105872  0.0386805  0.000882414  -0.00366844 
1701770804.469880000  0  0  11.8354  0.0283881  -0.0407689  0.00896648  nan  nan  nan  nan  nan  nan  -2.00003  -1.00003  1.5  -0.00277526  -0.00198501  7.80893e-06  -0.0014324  -0.0015981  -5.29e-05  0  0  0  -0.0413774  -0.0511197  -0.0077862  0.00785737  -0.0086665  -0.0203569  -0.0201969  0.00900298  0.00598398  -0.0133909  0.0106428  -0.0106451  0.0664197  -0.0163761  -0.00563041 
1701770804.474878000  0  0  11.8747  0.025329  -0.0551469  0.00870636  nan  nan  nan  nan  nan  nan  -2.00004  -1.00004  1.5  -0.00250819  -0.00186444  7.37639e-06  -0.0016349  -0.0018493  -9.62e-05  0  0  0  -0.0395024  -0.0492447  -0.0096612  0.00775158  -0.00873371  -0.0203868  -0.01987  0.00973494  0.00259019  -0.0132751  0.0107818  -0.0106781  0.0714732  0.0111009  -0.00204886 
1701770804.479881000  0  0  11.8314  0.0117899  -0.0313461  0.00823083  nan  nan  nan  nan  nan  nan  -2.00004  -1.00005  1.5  -0.00291504  -0.0021954  9.69969e-06  -0.0018262  -0.0020893  -0.0001507  0  0  0  -0.0368774  -0.0466197  -0.0122863  0.00765751  -0.00881086  -0.0203505  -0.0188956  0.00972279  0.00588306  -0.0123335  0.0106497  -0.0106476  0.0898881  -0.0352855  0.00359038 
1701770804.484823000  0  0  11.8136  0.00440493  -0.0239072  0.00747747  nan  nan  nan  nan  nan  nan  -2.00005  -1.00006  1.5  -0.00250522  -0.00219577  9.40089e-06  -0.0020024  -0.0023142  -0.0002203  0  0  0  -0.0335024  -0.0432447  -0.0156613  0.00756567  -0.00876167  -0.0203172  -0.0182592  0.0105934  0.00697298  -0.0121273  0.0103147  -0.0105277  0.102761  -0.0470812  0.0118082 
1701770804.489879000  0  0  11.8534  -0.00335674  -0.0317646  0.006983  nan  nan  nan  nan  nan  nan  -2.00006  -1.00007  1.5  -0.00290852  -0.00180276  9.94337e-06  -0.0021599  -0.0025205  -0.0003086  0  0  0  -0.0293774  -0.0391197  -0.0197863  0.00746593  -0.00882239  -0.02035  -0.0180126  0.0107191  0.00334319  -0.011145  0.00996756  -0.0104479  0.109248  -0.0281723  0.0171917 
1701770804.494834000  0  0  11.8118  -0.0149842  -0.0119298  0.00735793  nan  nan  nan  nan  nan  nan  -2.00008  -1.00008  1.5  -0.00283045  -0.00179195  1.0872e-05  -0.0022949  -0.0027042  -0.0004194  0  0  0  -0.0245024  -0.0342447  -0.0246613  0.00738906  -0.00877147  -0.0203066  -0.0172343  0.0113519  0.00625622  -0.0104777  0.0093974  -0.0104219  0.126363  -0.0625965  0.0122447 
1701770804.499880000  0  0  11.8448  -0.0302473  0.00107941  0.00750966  nan  nan  nan  nan  nan  nan  -2.00009  -1.0001  1.49999  -0.00336328  -0.00122503  1.12201e-05  -0.0024037  -0.0028617  -0.0005564  0  0  0  -0.0188774  -0.0286197  -0.0302863  0.00729338  -0.008822  -0.0203255  -0.0170345  0.0114795  0.00302585  -0.00905246  0.00829838  -0.010426  0.143777  -0.0785039  0.0103892 
1701770804.504821000  0  0  11.8758  -0.0268546  -0.00393341  0.00714774  nan  nan  nan  nan  nan  nan  -2.0001  -1.00011  1.49999  -0.00363253  -0.000614936  1.11338e-05  -0.0024825  -0.0029891  -0.0007235  0  0  0  -0.0125024  -0.0222447  -0.0366613  0.0072064  -0.00877082  -0.0203374  -0.0168183  0.0118227  -0.000132439  -0.00824806  0.00752456  -0.0103362  0.129591  -0.0613591  0.0140152 
1701770804.509879000  0  0  11.8056  -0.0586362  0.0292251  0.0075736  nan  nan  nan  nan  nan  nan  -2.00011  -1.00013  1.49999  -0.0043219  -0.00012103  1.15231e-05  -0.0025275  -0.0030829  -0.0009243  0  0  0  -0.0053774  -0.0151197  -0.0437863  0.00711157  -0.00881375  -0.0202956  -0.0163395  0.0119629  0.00496612  -0.00635666  0.00610145  -0.0103386  0.175754  -0.114583  0.00871583 
1701770804.514829000  0  0  11.8195  -0.0597064  0.0316225  0.00795463  nan  nan  nan  nan  nan  nan  -2.00012  -1.00014  1.49998  -0.00534955  0.000558373  1.08129e-05  -0.002535  -0.0031391  -0.0011626  0  0  0  0.0024976  -0.0072447  -0.0516613  0.00701939  -0.00887559  -0.0202949  -0.0160091  0.0117618  0.00306297  -0.00461153  0.00494587  -0.0103599  0.161839  -0.108747  0.00416603 
1701770804.519879000  0  0  11.7696  -0.0628084  0.0382597  0.00812519  nan  nan  nan  nan  nan  nan  -2.00014  -1.00016  1.49998  -0.00584875  0.00145729  8.57661e-06  -0.0025013  -0.0031541  -0.0014422  0  0  0  0.0111226  0.0013803  -0.0602863  0.00694462  -0.0088116  -0.0202607  -0.0159009  0.012111  0.00632371  -0.00338267  0.00354825  -0.0103633  0.156737  -0.109163  0.00206838 
1701770804.524822000  0  0  11.733  -0.0827333  0.0546179  0.00765698  nan  nan  nan  nan  nan  nan  -2.00015  -1.00018  1.49997  -0.00696371  0.00239759  4.60359e-06  -0.0024225  -0.003124  -0.0017667  0  0  0  0.0204976  0.0107553  -0.0696613  0.00685267  -0.00886945  -0.0202158  -0.015705  0.0120214  0.0083882  -0.00120441  0.00186849  -0.0102997  0.176547  -0.126426  0.00728451 
1701770804.529891000  0  0  11.7631  -0.0646977  0.0417294  0.00685675  nan  nan  nan  nan  nan  nan  -2.00016  -1.00019  1.49996  -0.00819243  0.00346044  -2.04997e-06  -0.002295  -0.0030453  -0.00214  0  0  0  0.0306226  0.0208803  -0.0797863  0.00675764  -0.00893879  -0.020214  -0.0155826  0.0118547  0.00490927  0.000339466  0.000640408  -0.010163  0.126272  -0.0893505  0.0159202 
1701770804.534890000  0  0  11.7219  -0.0605839  0.0451739  0.00722996  nan  nan  nan  nan  nan  nan  -2.00017  -1.00021  1.49995  -0.00894288  0.00454022  -8.20355e-06  -0.002115  -0.002914  -0.0025658  0  0  0  0.0414976  0.0317553  -0.0906613  0.00667975  -0.00887384  -0.0201711  -0.0153946  0.0121759  0.00721601  0.0014787  -0.000746638  -0.0101339  0.107564  -0.0834786  0.0109645 
1701770804.539887000  0  0  11.6804  -0.0712314  0.0585104  0.00794606  nan  nan  nan  nan  nan  nan  -2.00018  -1.00022  1.49993  -0.0102259  0.00571865  -1.878e-05  -0.0018788  -0.0027265  -0.0030479  0  0  0  0.0531226  0.0433803  -0.102286  0.00659045  -0.0089388  -0.0201215  -0.0152025  0.0121986  0.00945304  0.00337928  -0.00245779  -0.0101965  0.111373  -0.0944092  0.00263958 
1701770804.544822000  0  0  11.7179  -0.050542  0.0450114  0.00782901  nan  nan  nan  nan  nan  nan  -2.00019  -1.00023  1.49992  -0.0108093  0.00687783  -2.60468e-05  -0.0015826  -0.0024789  -0.00359  0  0  0  0.0654976  0.0557553  -0.114661  0.00651821  -0.00887779  -0.0201282  -0.0149759  0.01286  0.00514792  0.00395545  -0.00362286  -0.0101716  0.0646939  -0.0566924  0.00385335 
1701770804.549887000  0  0  11.6794  -0.0437092  0.0386301  0.00749975  nan  nan  nan  nan  nan  nan  -2.0002  -1.00024  1.4999  -0.0126492  0.00841094  -4.80963e-05  -0.0012226  -0.0021677  -0.0041958  0  0  0  0.0786226  0.0688803  -0.127786  0.00643019  -0.00893624  -0.0200942  -0.0150446  0.0123446  0.00702807  0.00576132  -0.00505176  -0.0101163  0.0344143  -0.030784  0.00741637 
1701770804.554837000  0  0  11.6324  -0.0557937  0.0473524  0.00764337  nan  nan  nan  nan  nan  nan  -2.0002  -1.00025  1.49987  -0.0140943  0.00985818  -6.88511e-05  -0.0007951  -0.0017889  -0.0048691  0  0  0  0.0924976  0.0827553  -0.141661  0.0063435  -0.00898699  -0.020045  -0.014886  0.0124487  0.00950969  0.00751055  -0.00665808  -0.0101148  0.0424902  -0.0334504  0.00560603 
1701770804.559881000  0  0  11.6987  -0.0117647  0.00707125  0.00774718  nan  nan  nan  nan  nan  nan  -2.00021  -1.00026  1.49985  -0.0150289  0.0111351  -8.36562e-05  -0.0002963  -0.0013388  -0.0056136  0  0  0  0.107123  0.0973803  -0.156286  0.00627825  -0.00892049  -0.0200686  -0.0145834  0.0128726  0.00264489  0.00759862  -0.00708764  -0.0101016  -0.046378  0.0510638  0.004176 
1701770804.564829000  0  0  11.6619  -0.0210645  0.0177571  0.00789426  nan  nan  nan  nan  nan  nan  -2.00021  -1.00027  1.49982  -0.0169065  0.0129005  -0.000118718  0.0002774  -0.0008138  -0.0064332  0  0  0  0.122498  0.112755  -0.171661  0.00619818  -0.00897207  -0.0200425  -0.0146615  0.0126026  0.00418323  0.00930582  -0.00863975  -0.0101127  -0.0434845  0.0439715  0.00244877 
1701770804.569886000  0  0  11.617  -0.0278792  0.0188621  0.00842284  nan  nan  nan  nan  nan  nan  -2.0002  -1.00027  1.49978  -0.0178096  0.0144525  -0.000140111  0.0009299  -0.00021  -0.0073315  0  0  0  0.138623  0.12888  -0.187786  0.00612054  -0.00890481  -0.0199935  -0.0143444  0.0134559  0.0062833  0.0101245  -0.00988585  -0.0101866  -0.037387  0.0532257  -0.00341905 
1701770804.574886000  0  0  11.6616  0.00861605  -0.0139936  0.00833999  nan  nan  nan  nan  nan  nan  -2.0002  -1.00027  1.49974  -0.019858  0.0162242  -0.000184507  0.0016649  0.0004762  -0.0083123  0  0  0  0.155498  0.145755  -0.204661  0.00605073  -0.00895014  -0.0200287  -0.0143765  0.012996  0.00105276  0.0109986  -0.010466  -0.0101957  -0.118419  0.124274  -0.00229296 
1701770804.579888000  0  0  11.6201  -0.00752132  0.00623604  0.00880318  nan  nan  nan  nan  nan  nan  -2.00019  -1.00027  1.4997  -0.0214436  0.0180594  -0.000226598  0.0024861  0.0012488  -0.0093793  0  0  0  0.173123  0.16338  -0.222286  0.00598131  -0.00888055  -0.020004  -0.0142403  0.0131639  0.00278429  0.0122323  -0.0119648  -0.0102604  -0.0974945  0.0976042  -0.00743541 
1701770804.584825000  0  0  11.5722  -0.0176913  0.0112257  0.00891007  nan  nan  nan  nan  nan  nan  -2.00017  -1.00026  1.49965  -0.0234553  0.0202056  -0.000287282  0.0033973  0.0021113  -0.0105364  0  0  0  0.191498  0.181755  -0.240661  0.00590698  -0.00891631  -0.0199901  -0.0143657  0.0131467  0.00500942  0.0138552  -0.0135292  -0.0103179  -0.0920852  0.102017  -0.00819701 
1701770804.589881000  0  0  11.6162  0.00769727  -0.0181615  0.00853648  nan  nan  nan  nan  nan  nan  -2.00015  -1.00024  1.49959  -0.0258003  0.022177  -0.000356453  0.0044023  0.0030676  -0.0117872  0  0  0  0.210623  0.20088  -0.259786  0.00584024  -0.00895839  -0.0200325  -0.0143907  0.0125724  -0.000350536  0.0149621  -0.0140817  -0.0102948  -0.153045  0.165875  -0.00375761 
1701770804.594813000  0  0  11.56  -0.015234  0.00669229  0.00906056  nan  nan  nan  nan  nan  nan  -2.00013  -1.00023  1.49953  -0.0279406  0.0245468  -0.000437861  0.0055048  0.0041213  -0.0131355  0  0  0  0.230498  0.220755  -0.279661  0.00577389  -0.00888982  -0.0200034  -0.014583  0.0124024  0.00239954  0.016741  -0.0160106  -0.0103647  -0.123549  0.133913  -0.00960995 
1701770804.599879000  0  0  11.5473  -0.0241524  0.00274774  0.00877337  nan  nan  nan  nan  nan  nan  -2.0001  -1.0002  1.49946  -0.0303752  0.0268968  -0.000533248  0.0067086  0.0052764  -0.0145851  0  0  0  0.251123  0.24138  -0.300286  0.00571358  -0.00892157  -0.0200222  -0.0147676  0.0120567  0.00156646  0.0186271  -0.0174138  -0.0103677  -0.123065  0.154711  -0.00598992 
1701770804.604821000  0  0  11.5411  -0.016359  -0.00355196  0.00826449  nan  nan  nan  nan  nan  nan  -2.00006  -1.00017  1.49939  -0.0325727  0.0295053  -0.000637966  0.0080173  0.0065364  -0.0161396  0  0  0  0.272498  0.262755  -0.321661  0.00563631  -0.0088627  -0.020033  -0.0151636  0.011895  0.000121182  0.019878  -0.0188922  -0.0102989  -0.150159  0.180912  -0.000317123 
1701770804.609876000  0  0  11.4748  -0.0461745  0.0270605  0.00875878  nan  nan  nan  nan  nan  nan  -2.00002  -1.00014  1.4993  -0.0357321  0.0321499  -0.000782574  0.0094348  0.0079052  -0.0178029  0  0  0  0.294623  0.28488  -0.343786  0.00557829  -0.00888667  -0.0200257  -0.0153369  0.0110231  0.00356346  0.022691  -0.021078  -0.0103369  -0.116408  0.139797  -0.00611603 
1701770804.613889000  0  0  11.4575  -0.0539412  0.0289343  0.00851315  nan  nan  nan  nan  nan  nan  -1.99997  -1.00009  1.49921  -0.0382771  0.0351039  -0.000930452  0.0109648  0.0093864  -0.0195787  0  0  0  0.317498  0.307755  -0.366661  0.00550748  -0.00885574  -0.020011  -0.0159293  0.0107449  0.00285426  0.0247625  -0.0232617  -0.0102866  -0.119932  0.156139  -0.00354886 
1701770804.619830000  0  0  11.4566  -0.0456625  0.0176462  0.00821924  nan  nan  nan  nan  nan  nan  -1.99991  -1.00004  1.4991  -0.0414702  0.037801  -0.00110344  0.012611  0.010984  -0.0214708  0  0  0  0.341123  0.33138  -0.390286  0.00544106  -0.00887207  -0.0200555  -0.0161665  0.00978131  0.000871696  0.0267436  -0.0244855  -0.0102127  -0.154716  0.189974  -0.000613689 
1701770804.624826000  0  0  11.3913  -0.0735549  0.047668  0.00835752  nan  nan  nan  nan  nan  nan  -1.99984  -0.999984  1.49899  -0.0447986  0.0409107  -0.00131336  0.0143772  0.0127015  -0.0234829  0  0  0  0.365498  0.355755  -0.414661  0.00538162  -0.00889936  -0.020061  -0.0165593  0.00908722  0.00406212  0.0296498  -0.0270396  -0.0101778  -0.125668  0.153428  -0.00269121 
1701770804.628910000  0  0  11.3724  -0.0719772  0.0457352  0.00795925  nan  nan  nan  nan  nan  nan  -1.99976  -0.999916  1.49887  -0.0480386  0.0443564  -0.00155196  0.0162672  0.0145428  -0.0256187  0  0  0  0.390623  0.38088  -0.439786  0.00529574  -0.00887547  -0.020041  -0.0174047  0.00829206  0.00330068  0.032148  -0.0295614  -0.0100596  -0.151807  0.180495  0.00110535 
1701770804.634834000  0  0  11.3823  -0.0601106  0.0340799  0.00807587  nan  nan  nan  nan  nan  nan  -1.99968  -0.999838  1.49874  -0.0514343  0.0476157  -0.00180651  0.0182847  0.0165116  -0.027882  0  0  0  0.416498  0.406755  -0.465661  0.00523461  -0.00889676  -0.0201067  -0.0181105  0.00735149  0.000303309  0.0340521  -0.031156  -0.00999619  -0.193059  0.218476  -0.000986513 
1701770804.639885000  0  0  11.3012  -0.0887296  0.0620278  0.00837069  nan  nan  nan  nan  nan  nan  -1.99958  -0.99975  1.49859  -0.0552593  0.0511756  -0.00211717  0.0204335  0.0186116  -0.0302763  0  0  0  0.443123  0.43338  -0.492044  0.00517482  -0.00893879  -0.0200904  -0.0186014  0.00656085  0.00462607  0.0372454  -0.0339213  -0.00994303  -0.165199  0.18802  -0.00520334 
1701770804.644915000  0  0  11.2946  -0.0751718  0.0550961  0.00831111  nan  nan  nan  nan  nan  nan  -1.99947  -0.999652  1.49843  -0.0588814  0.0546907  -0.00243677  0.0227172  0.0208466  -0.0328013  0  0  0  0.470498  0.460755  -0.517817  0.00508052  -0.00890801  -0.0200901  -0.0192507  0.00554603  0.00289638  0.0394825  -0.0360607  -0.00985084  -0.212895  0.221566  -0.00538048 
1701770804.649888000  0  0  11.2761  -0.0824947  0.0541507  0.00825799  nan  nan  nan  nan  nan  nan  -1.99935  -0.999542  1.49826  -0.0629471  0.0584992  -0.00282171  0.0251397  0.0232204  -0.0354532  0  0  0  0.498623  0.48888  -0.542839  0.00502646  -0.00897268  -0.0200998  -0.0201856  0.00437706  0.00227532  0.0422617  -0.0383976  -0.00973099  -0.223819  0.244957  -0.00591497 
1701770804.654888000  0  0  11.2124  -0.0916509  0.0679282  0.00819484  nan  nan  nan  nan  nan  nan  -1.99922  -0.999419  1.49808  -0.0667679  0.0626462  -0.00324022  0.0277047  0.0257367  -0.0382284  0  0  0  0.527498  0.517755  -0.567112  0.00492793  -0.00894996  -0.0200671  -0.0210226  0.00377279  0.00540107  0.0449387  -0.0413315  -0.00960666  -0.230135  0.244393  -0.00636897 
1701770804.658836000  0  0  11.1862  -0.0782707  0.0617721  0.00766121  nan  nan  nan  nan  nan  nan  -1.99908  -0.999284  1.49788  -0.071052  0.0669537  -0.00372822  0.0304159  0.0283992  -0.0411231  0  0  0  0.557123  0.54738  -0.590635  0.0048199  -0.00896455  -0.0200126  -0.0221686  0.00254141  0.00548943  0.0477458  -0.0442278  -0.00938445  -0.28272  0.283351  -0.00192063 
1701770804.664820000  0  0  11.2084  -0.0794389  0.0564088  0.0083956  nan  nan  nan  nan  nan  nan  -1.99892  -0.999135  1.49767  -0.0754283  0.0702763  -0.00418088  0.0332772  0.0312117  -0.0441335  0  0  0  0.587498  0.577755  -0.613407  0.0048215  -0.00909116  -0.0200928  -0.0225892  0.00116442  0.00195169  0.0500386  -0.0454877  -0.00934433  -0.301477  0.305669  -0.0115017 
1701770804.669873000  0  0  11.1456  -0.0834677  0.0735018  0.0091874  nan  nan  nan  nan  nan  nan  -1.99874  -0.998972  1.49744  -0.0793979  0.0746574  -0.00471174  0.0362921  0.034178  -0.0472559  0  0  0  0.618623  0.60888  -0.63543  0.00470558  -0.0090784  -0.0200519  -0.0232938  0.000817432  0.00529307  0.0523705  -0.0484058  -0.00932872  -0.314873  0.298329  -0.0215552 
1701770804.674820000  0  0  11.1191  -0.0556964  0.0473322  0.00896805  nan  nan  nan  nan  nan  nan  -1.99855  -0.998793  1.49719  -0.0843891  0.0785521  -0.005313  0.0394646  0.0373018  -0.0504865  0  0  0  0.650498  0.640755  -0.656702  0.0046565  -0.00915542  -0.0200571  -0.0237122  -0.000761738  0.00590254  0.0548074  -0.0500098  -0.00919349  -0.392835  0.365426  -0.0201658 
1701770804.679874000  0  0  11.1272  -0.0718507  0.0448065  0.00892152  nan  nan  nan  nan  nan  nan  -1.99835  -0.998598  1.49693  -0.0888968  0.0828324  -0.00594273  0.0427984  0.0405868  -0.0538217  0  0  0  0.683123  0.67338  -0.677225  0.00458628  -0.00920875  -0.0201274  -0.0247652  -0.00200469  0.0038437  0.0573337  -0.0520739  -0.00906051  -0.383768  0.389467  -0.0209139 
1701770804.684810000  0  0  11.0667  -0.0755844  0.0600806  0.0091722  nan  nan  nan  nan  nan  nan  -1.99812  -0.998387  1.49666  -0.093319  0.0878183  -0.00666465  0.0462971  0.0440368  -0.0572575  0  0  0  0.716498  0.706755  -0.696998  0.00445409  -0.00921553  -0.0200841  -0.0258062  -0.00243314  0.00734104  0.0596825  -0.0551685  -0.00893465  -0.39791  0.387389  -0.025306 
1701770804.689877000  0  0  11.0583  -0.038992  0.0341984  0.00937756  nan  nan  nan  nan  nan  nan  -1.99788  -0.998158  1.49636  -0.0982458  0.0919497  -0.00738943  0.0499643  0.0476554  -0.0607904  0  0  0  0.750312  0.740692  -0.71602  0.00439943  -0.00927255  -0.0201083  -0.0263779  -0.00378623  0.0068525  0.0614181  -0.0564939  -0.00884017  -0.487062  0.451347  -0.0288178 
1701770804.694861000  0  0  11.0418  -0.051352  0.0353658  0.00955019  nan  nan  nan  nan  nan  nan  -1.99762  -0.99791  1.49605  -0.102598  0.0967426  -0.00816263  0.053799  0.0514426  -0.0644165  0  0  0  0.783471  0.774066  -0.734293  0.00426486  -0.00929029  -0.0200815  -0.0275856  -0.00448343  0.00697352  0.0633813  -0.0588128  -0.00869526  -0.480404  0.470346  -0.0324248 
1701770804.699868000  0  0  11.0304  -0.0459878  0.0342434  0.00930582  nan  nan  nan  nan  nan  nan  -1.99735  -0.997643  1.49572  -0.106939  0.101031  -0.00891796  0.0577977  0.0553948  -0.0681321  0  0  0  0.81588  0.806689  -0.751815  0.00418305  -0.00936352  -0.0200828  -0.0284245  -0.00517575  0.00684867  0.0649252  -0.0604882  -0.00854278  -0.505337  0.488005  -0.030895 
1701770804.704820000  0  0  11.0104  -0.0250111  0.0200029  0.0084781  nan  nan  nan  nan  nan  nan  -1.99705  -0.997356  1.49537  -0.112328  0.105323  -0.00981806  0.0619566  0.0595083  -0.0719334  0  0  0  0.847539  0.838563  -0.768588  0.00410639  -0.00947694  -0.0200474  -0.0292838  -0.00701512  0.00755279  0.0668719  -0.0617903  -0.00820501  -0.5652  0.528465  -0.0239261 
1701770804.709869000  0  0  11.0256  -0.0291338  0.0173776  0.00835496  nan  nan  nan  nan  nan  nan  -1.99673  -0.997048  1.495  -0.116451  0.109724  -0.0106326  0.0662719  0.0637792  -0.0758167  0  0  0  0.878448  0.869686  -0.784611  0.00396012  -0.00950915  -0.0200367  -0.0306172  -0.00800976  0.00543032  0.0680288  -0.0633062  -0.00799255  -0.567597  0.547661  -0.0245116 
1701770804.714825000  0  0  11.0156  -0.0299094  0.0138699  0.00830506  nan  nan  nan  nan  nan  nan  -1.99638  -0.996718  1.49461  -0.120947  0.11398  -0.0115048  0.0707398  0.0682039  -0.0797783  0  0  0  0.908607  0.90006  -0.799883  0.00386265  -0.00960757  -0.0200081  -0.0316809  -0.00907573  0.00547645  0.0694513  -0.0646241  -0.00777315  -0.579133  0.566802  -0.0260818 
1701770804.719873000  0  0  11.0013  0.00338929  -0.00986302  0.00879288  nan  nan  nan  nan  nan  nan  -1.99602  -0.996365  1.4942  -0.125791  0.118101  -0.0124357  0.0753567  0.0727786  -0.0838143  0  0  0  0.938016  0.929683  -0.814406  0.00371471  -0.00965622  -0.0199771  -0.0324966  -0.0106751  0.00607113  0.0703609  -0.0652368  -0.00759851  -0.654099  0.619905  -0.033926 
1701770804.724813000  0  0  11.0095  -0.0165755  -0.00088215  0.00871271  nan  nan  nan  nan  nan  nan  -1.99563  -0.99599  1.49377  -0.130334  0.122099  -0.0133497  0.0801187  0.0774995  -0.0879211  0  0  0  0.966675  0.958557  -0.828179  0.00360296  -0.00975065  -0.019997  -0.0336464  -0.0122161  0.00490857  0.0718671  -0.0662765  -0.0073874  -0.628027  0.611508  -0.0350349 
1701770804.728816000  0  0  11.0012  -0.0279069  0.00526684  0.00882155  nan  nan  nan  nan  nan  nan  -1.99522  -0.99559  1.49332  -0.135133  0.127334  -0.0144955  0.0850222  0.0823629  -0.0920948  0  0  0  0.994584  0.98668  -0.841201  0.00338381  -0.00987791  -0.0198922  -0.0359849  -0.0138166  0.00496977  0.0740921  -0.068975  -0.00710144  -0.625833  0.624036  -0.039255 
1701770804.734819000  0  0  11.0026  0.0107779  -0.0193984  0.00845331  nan  nan  nan  nan  nan  nan  -1.99478  -0.995166  1.49285  -0.139156  0.130275  -0.015265  0.0900633  0.087365  -0.0963318  0  0  0  1.02174  1.01405  -0.853474  0.00331618  -0.00991189  -0.0200053  -0.0359833  -0.0149215  0.0048922  0.073278  -0.0676495  -0.00697561  -0.695714  0.661172  -0.0359103 
1701770804.739855000  0  0  11.003  -0.0130021  -0.00350882  0.00880962  nan  nan  nan  nan  nan  nan  -1.99432  -0.994716  1.49236  -0.143064  0.133956  -0.0161445  0.0952384  0.0925022  -0.100628  0  0  0  1.04815  1.04068  -0.864996  0.00322973  -0.0100015  -0.0200449  -0.0369749  -0.0158471  0.00467545  0.0740043  -0.0683633  -0.00688548  -0.654835  0.63596  -0.0412655 
1701770804.743856000  0  0  11.008  -0.0172902  0.00241381  0.00854077  nan  nan  nan  nan  nan  nan  -1.99383  -0.994241  1.49184  -0.147803  0.138784  -0.0173346  0.100544  0.0977706  -0.104981  0  0  0  1.07381  1.06655  -0.875769  0.00297988  -0.0101603  -0.0199318  -0.0392388  -0.0177513  0.00393586  0.0759274  -0.0706271  -0.00656129  -0.663952  0.644942  -0.0411468 
1701770804.749873000  0  0  11.0095  0.00194354  -0.0138232  0.00880425  nan  nan  nan  nan  nan  nan  -1.99331  -0.993738  1.49131  -0.151395  0.141498  -0.0180805  0.105975  0.103166  -0.109385  0  0  0  1.09872  1.09167  -0.885792  0.00293227  -0.0101706  -0.0201014  -0.0392951  -0.0186569  0.00418878  0.0749632  -0.0691846  -0.00656017  -0.693548  0.664145  -0.0444514 
1701770804.754825000  0  0  11.0074  -0.0125654  -0.00257418  0.00921605  nan  nan  nan  nan  nan  nan  -1.99277  -0.993209  1.49075  -0.155528  0.145143  -0.0190663  0.11153  0.108686  -0.113837  0  0  0  1.12288  1.11605  -0.895064  0.00280304  -0.0102795  -0.0201396  -0.0404178  -0.0200153  0.00449987  0.0757543  -0.0697843  -0.00646263  -0.671808  0.647164  -0.0505743 
1701770804.759856000  0  0  11.0372  -0.00229638  -0.0101486  0.00876448  nan  nan  nan  nan  nan  nan  -1.99219  -0.992651  1.49017  -0.158974  0.148929  -0.0199971  0.117203  0.114326  -0.118334  0  0  0  1.14629  1.13967  -0.903587  0.00259035  -0.0103769  -0.0201442  -0.0421279  -0.0211945  0.00223155  0.0755431  -0.0701689  -0.00632327  -0.690403  0.665851  -0.0463232 
1701770804.764821000  0  0  11.0219  -0.00133278  -0.0127031  0.00822422  nan  nan  nan  nan  nan  nan  -1.99159  -0.992065  1.48957  -0.163775  0.152515  -0.0211299  0.122991  0.120082  -0.122872  0  0  0  1.16895  1.16254  -0.911359  0.00244562  -0.0105209  -0.0201821  -0.0431437  -0.0232084  0.00392174  0.0765301  -0.070412  -0.00601977  -0.701411  0.673196  -0.0426051 
1701770804.769879000  0  0  11.0203  -0.0282092  0.00661601  0.00855285  nan  nan  nan  nan  nan  nan  -1.99096  -0.99145  1.48894  -0.167296  0.156355  -0.0221327  0.128891  0.12595  -0.127446  0  0  0  1.19086  1.18467  -0.918382  0.00223215  -0.0106277  -0.0201642  -0.0446179  -0.024088  0.00431355  0.0770114  -0.0713166  -0.0059096  -0.652087  0.642881  -0.0478146 
1701770804.774827000  0  0  11.036  -0.0189003  -0.00519206  0.00807713  nan  nan  nan  nan  nan  nan  -1.99031  -0.990806  1.48829  -0.171177  0.159461  -0.0230938  0.134898  0.131927  -0.132054  0  0  0  1.21202  1.20604  -0.924655  0.00208911  -0.0107842  -0.0202081  -0.0457447  -0.0257111  0.00355605  0.0772426  -0.0710623  -0.00570905  -0.672832  0.664157  -0.0438736 
1701770804.779878000  0  0  11.0252  -0.020046  -0.00625897  0.00793968  nan  nan  nan  nan  nan  nan  -1.98962  -0.990131  1.48762  -0.175421  0.162858  -0.0241878  0.14101  0.138009  -0.136692  0  0  0  1.23242  1.22667  -0.930177  0.00192815  -0.0109267  -0.0202656  -0.0468398  -0.0273753  0.00513434  0.0778013  -0.0711435  -0.00547967  -0.67568  0.667038  -0.0444493 
1701770804.784899000  0  0  11.0374  -0.0454121  0.0132153  0.00887686  nan  nan  nan  nan  nan  nan  -1.98889  -0.989425  1.48692  -0.178479  0.166374  -0.0251278  0.147221  0.144192  -0.141355  0  0  0  1.25208  1.24654  -0.93495  0.00168399  -0.0110579  -0.020248  -0.0483841  -0.0281794  0.00460497  0.0779885  -0.0718028  -0.00550055  -0.62667  0.634155  -0.0559553 
1701770804.789869000  0  0  11.0656  -0.0183194  -0.00571821  0.00833407  nan  nan  nan  nan  nan  nan  -1.98814  -0.988689  1.48621  -0.181963  0.168958  -0.0259925  0.153529  0.150473  -0.14604  0  0  0  1.27099  1.26566  -0.938973  0.00149251  -0.0112451  -0.0202842  -0.049288  -0.0298007  0.00304267  0.077609  -0.0709301  -0.00533761  -0.677364  0.663993  -0.0507997 
1701770804.794886000  0  0  11.0575  -0.0260843  -0.00226801  0.00871902  nan  nan  nan  nan  nan  nan  -1.98736  -0.98792  1.48546  -0.185749  0.172474  -0.0270991  0.15993  0.156848  -0.150743  0  0  0  1.28915  1.28404  -0.942245  0.00124948  -0.011395  -0.02025  -0.0506858  -0.0311964  0.00444585  0.0779501  -0.0712319  -0.00520352  -0.664972  0.65987  -0.0569525 
1701770804.799879000  0  0  11.0619  -0.0374616  0.00294721  0.00921022  nan  nan  nan  nan  nan  nan  -1.98654  -0.98712  1.4847  -0.188795  0.175349  -0.0279761  0.16642  0.163312  -0.155461  0  0  0  1.30656  1.30166  -0.944768  0.00105449  -0.0115805  -0.0203106  -0.0516969  -0.0320071  0.00496226  0.0778105  -0.0710643  -0.00523548  -0.640934  0.647897  -0.0627729 
1701770804.804822000  0  0  11.0812  -0.0232928  -0.00974166  0.00890808  nan  nan  nan  nan  nan  nan  -1.9857  -0.986287  1.48391  -0.192307  0.177993  -0.0289111  0.172995  0.169863  -0.16019  0  0  0  1.32322  1.31853  -0.94654  0.000852883  -0.0118138  -0.02031  -0.0528165  -0.0336647  0.00431517  0.0776605  -0.0703934  -0.00513405  -0.667891  0.667103  -0.0600105 
1701770804.808816000  0  0  11.0614  -0.0234824  -0.00271561  0.00834953  nan  nan  nan  nan  nan  nan  -1.98481  -0.985421  1.4831  -0.197222  0.18238  -0.0304669  0.179651  0.176496  -0.164925  0  0  0  1.33913  1.33466  -0.947563  0.000453671  -0.0121262  -0.0201187  -0.0550995  -0.0359993  0.00674969  0.0794613  -0.0722477  -0.00467299  -0.684079  0.67011  -0.0576391 
1701770804.813819000  0  0  11.0811  -0.0262862  -0.00178731  0.00925644  nan  nan  nan  nan  nan  nan  -1.9839  -0.984522  1.48226  -0.199545  0.184834  -0.0311821  0.186385  0.183208  -0.169664  0  0  0  1.35429  1.35003  -0.947836  0.000229019  -0.0123446  -0.020149  -0.0560955  -0.0364825  0.00614366  0.0784426  -0.0715243  -0.00484937  -0.6691  0.661598  -0.0672118 
1701770804.819868000  0  0  11.1117  0.0150092  -0.0294595  0.00884734  nan  nan  nan  nan  nan  nan  -1.98295  -0.983589  1.4814  -0.200635  0.185819  -0.0313753  0.193192  0.189995  -0.174402  0  0  0  1.3687  1.36465  -0.947358  9.35838e-05  -0.0123684  -0.0203004  -0.0556657  -0.0363215  0.00485559  0.074883  -0.0681857  -0.00516235  -0.718942  0.686228  -0.0589683 
1701770804.824813000  0  0  11.1205  0.0177427  -0.0314229  0.00867651  nan  nan  nan  nan  nan  nan  -1.98197  -0.982622  1.48052  -0.203775  0.188452  -0.0323  0.20007  0.196854  -0.179137  0  0  0  1.38236  1.37853  -0.946131  -0.000158544  -0.0126257  -0.0203256  -0.0568508  -0.0376324  0.00541642  0.0742862  -0.0675748  -0.00507223  -0.718919  0.684534  -0.0577341 
1701770804.828892000  0  0  11.1053  0.00692733  -0.0218595  0.00874807  nan  nan  nan  nan  nan  nan  -1.98095  -0.98162  1.47961  -0.207228  0.192173  -0.0335267  0.207015  0.203779  -0.183863  0  0  0  1.39527  1.39165  -0.944153  -0.000580317  -0.0129587  -0.0201233  -0.0586572  -0.0386496  0.00759288  0.0748202  -0.0687379  -0.00488463  -0.7022  0.676107  -0.0605047 
1701770804.834818000  0  0  11.1351  0.0439551  -0.0499418  0.00893285  nan  nan  nan  nan  nan  nan  -1.9799  -0.980584  1.47868  -0.208115  0.192782  -0.0336143  0.214022  0.210769  -0.188577  0  0  0  1.40742  1.40402  -0.941426  -0.000674626  -0.0130592  -0.020291  -0.0581374  -0.0383962  0.00655175  0.0710126  -0.0650721  -0.00528011  -0.741226  0.698547  -0.0588594 
1701770804.839861000  0  0  11.1689  0.0517615  -0.0591609  0.00886615  nan  nan  nan  nan  nan  nan  -1.97881  -0.979513  1.47772  -0.210285  0.194635  -0.0342192  0.221088  0.217818  -0.193276  0  0  0  1.41883  1.41565  -0.937949  -0.000943179  -0.0133084  -0.0203258  -0.0590943  -0.0394647  0.00518302  0.0692858  -0.0634465  -0.00534526  -0.740952  0.70203  -0.0573743 
1701770804.844900000  0  0  11.1552  0.0584027  -0.0616149  0.00883013  nan  nan  nan  nan  nan  nan  -1.97769  -0.978406  1.47674  -0.211806  0.196962  -0.0347995  0.228209  0.224924  -0.197955  0  0  0  1.42949  1.42652  -0.933721  -0.00122662  -0.0134892  -0.0202841  -0.0596441  -0.0389093  0.0075052  0.0671093  -0.0623738  -0.00550647  -0.734211  0.697068  -0.0553118 
1701770804.849869000  0  0  11.1897  0.0818486  -0.0768948  0.00856942  nan  nan  nan  nan  nan  nan  -1.97653  -0.977263  1.47574  -0.21384  0.198052  -0.0352295  0.235381  0.232082  -0.202612  0  0  0  1.4394  1.43664  -0.928744  -0.00150439  -0.013776  -0.0203241  -0.0598344  -0.0400066  0.00614798  0.0650533  -0.05997  -0.00558213  -0.762188  0.705514  -0.0512965 
1701770804.854996000  0  0  11.2122  0.0668578  -0.0748839  0.00862416  nan  nan  nan  nan  nan  nan  -1.97533  -0.976085  1.47472  -0.214993  0.199721  -0.0356051  0.242602  0.239289  -0.207241  0  0  0  1.44856  1.44602  -0.923017  -0.00178839  -0.0139496  -0.0203272  -0.0605412  -0.0401042  0.00566036  0.0627394  -0.0582875  -0.0057794  -0.710918  0.686013  -0.050008 
1701770804.858932000  0  0  11.1984  0.0529402  -0.0626508  0.00825173  nan  nan  nan  nan  nan  nan  -1.9741  -0.97487  1.47367  -0.21908  0.203101  -0.0369712  0.249866  0.246541  -0.21184  0  0  0  1.45697  1.45464  -0.916539  -0.00225635  -0.0144443  -0.0200896  -0.0624937  -0.0421063  0.00819884  0.0639303  -0.0593679  -0.00538576  -0.694039  0.671486  -0.049289 
1701770804.864810000  0  0  11.2331  0.0742586  -0.0763818  0.00905732  nan  nan  nan  nan  nan  nan  -1.97283  -0.973619  1.4726  -0.219308  0.202818  -0.0367386  0.25717  0.253834  -0.216405  0  0  0  1.46463  1.46251  -0.909312  -0.00238216  -0.0145588  -0.0202855  -0.0614923  -0.0418734  0.00695221  0.0600426  -0.0552568  -0.00590754  -0.700909  0.661126  -0.0541412 
1701770804.869868000  0  0  11.26  0.0609533  -0.0701353  0.0086616  nan  nan  nan  nan  nan  nan  -1.97153  -0.972332  1.47151  -0.220439  0.204003  -0.0370173  0.264511  0.261165  -0.220932  0  0  0  1.47154  1.46964  -0.901334  -0.00267475  -0.0147568  -0.0202737  -0.0619892  -0.0423467  0.00619301  0.0581034  -0.0534858  -0.00607903  -0.656458  0.63234  -0.0474797 
1701770804.874818000  0  0  11.258  0.0537546  -0.0701026  0.00797061  nan  nan  nan  nan  nan  nan  -1.97019  -0.971008  1.47039  -0.222475  0.205825  -0.0376332  0.271884  0.26853  -0.225417  0  0  0  1.4777  1.47601  -0.892607  -0.00300091  -0.0150755  -0.0202596  -0.0627175  -0.0429925  0.00802497  0.0570495  -0.0524251  -0.00600829  -0.632365  0.622516  -0.0395497 
1701770804.878806000  0  0  11.2596  0.0391979  -0.0500822  0.00787443  nan  nan  nan  nan  nan  nan  -1.96881  -0.969647  1.46925  -0.225518  0.208382  -0.0386392  0.279286  0.275924  -0.229857  0  0  0  1.48311  1.48164  -0.88313  -0.00353156  -0.0155246  -0.0199934  -0.0641923  -0.0446696  0.00930622  0.0576706  -0.0530428  -0.0057801  -0.608966  0.588158  -0.0406293 
1701770804.884810000  0  0  11.3209  0.0410565  -0.0461393  0.0082411  nan  nan  nan  nan  nan  nan  -1.96739  -0.968248  1.46809  -0.224942  0.207579  -0.038115  0.286714  0.283345  -0.234248  0  0  0  1.48776  1.48651  -0.872902  -0.00363842  -0.0156309  -0.0202413  -0.0635827  -0.0446362  0.0060141  0.0539397  -0.0493124  -0.00632664  -0.578358  0.545953  -0.0397474 
1701770804.889867000  0  0  11.3038  0.0276592  -0.0473323  0.00803533  nan  nan  nan  nan  nan  nan  -1.96594  -0.966813  1.46691  -0.226632  0.208959  -0.0385716  0.294163  0.290788  -0.238585  0  0  0  1.49167  1.49063  -0.861925  -0.00395094  -0.015959  -0.0202356  -0.0637185  -0.0448285  0.00913468  0.0530646  -0.0481683  -0.00634002  -0.543513  0.537813  -0.0370414 
1701770804.894817000  0  0  11.3026  0.0134366  -0.0269242  0.00860225  nan  nan  nan  nan  nan  nan  -1.96445  -0.965341  1.46571  -0.227843  0.209593  -0.0387592  0.301629  0.29825  -0.242866  0  0  0  1.49483  1.49401  -0.850197  -0.0042757  -0.0161963  -0.0201733  -0.0633268  -0.0452109  0.0107147  0.0520316  -0.0467903  -0.00655952  -0.505564  0.48432  -0.0419329 
1701770804.899817000  0  0  11.3632  0.0162227  -0.0319248  0.00864057  nan  nan  nan  nan  nan  nan  -1.96293  -0.963831  1.46448  -0.228247  0.210441  -0.0388197  0.30911  0.305727  -0.247086  0  0  0  1.49724  1.49663  -0.83772  -0.00462432  -0.0165422  -0.0201706  -0.0646547  -0.04597  0.00749523  0.0500406  -0.0453639  -0.00683128  -0.492819  0.481197  -0.0396943 
1701770804.904811000  0  0  11.3476  0.00775675  -0.0289753  0.00793709  nan  nan  nan  nan  nan  nan  -1.96136  -0.962283  1.46324  -0.229837  0.211713  -0.0392396  0.316601  0.313215  -0.251241  0  0  0  1.4989  1.4985  -0.824493  -0.00498367  -0.0168979  -0.0201281  -0.0648803  -0.046326  0.0105759  0.0494203  -0.044548  -0.00678315  -0.47018  0.467792  -0.0313821 
1701770804.909866000  0  0  11.3359  9.88742e-05  -0.015911  0.00868176  nan  nan  nan  nan  nan  nan  -1.95976  -0.960698  1.46197  -0.230192  0.211793  -0.0391164  0.324098  0.32071  -0.255329  0  0  0  1.49981  1.49963  -0.810515  -0.00528134  -0.0171103  -0.0200662  -0.0638397  -0.0458462  0.0129577  0.0478098  -0.0427646  -0.00716089  -0.440048  0.425256  -0.0369132 
1701770804.914817000  0  0  11.4029  0.0115107  -0.0306898  0.00854767  nan  nan  nan  nan  nan  nan  -1.95812  -0.959076  1.46068  -0.230466  0.212137  -0.0390362  0.331597  0.32821  -0.259345  0  0  0  1.5  1.5  -0.795788  -0.0056619  -0.0175024  -0.0200374  -0.0649069  -0.0468666  0.00927581  0.0458891  -0.0409628  -0.00742911  -0.445201  0.438237  -0.0325548 
1701770804.919868000  0  0  11.3528  0.0192026  -0.0337285  0.00841126  nan  nan  nan  nan  nan  nan  -1.95644  -0.957416  1.45938  -0.230822  0.212778  -0.0390419  0.339097  0.33571  -0.263286  0  0  0  1.5  1.5  -0.780311  -0.00596568  -0.0177111  -0.019957  -0.0637675  -0.0455405  0.0149199  0.0440323  -0.0394348  -0.00766457  -0.443502  0.430258  -0.028495 
1701770804.924810000  0  0  11.3532  0.00944315  -0.0201327  0.00915952  nan  nan  nan  nan  nan  nan  -1.95473  -0.955719  1.45805  -0.231805  0.212881  -0.0390644  0.346597  0.34321  -0.267147  0  0  0  1.5  1.5  -0.764083  -0.00634038  -0.0181127  -0.0198631  -0.0630359  -0.0458308  0.0165807  0.0432154  -0.0380458  -0.00790296  -0.416468  0.390287  -0.0354643 
1701770804.929872000  0  0  11.4722  0.0305482  -0.0504648  0.00884743  nan  nan  nan  nan  nan  nan  -1.95298  -0.953984  1.4567  -0.230987  0.212686  -0.0386177  0.354097  0.35071  -0.270926  0  0  0  1.5  1.5  -0.747106  -0.00671349  -0.0185104  -0.0198755  -0.0646372  -0.0469345  0.00878127  0.0402568  -0.035553  -0.00833065  -0.431459  0.428018  -0.0272864 
1701770804.934817000  0  0  11.4739  0.0404482  -0.0561186  0.00900177  nan  nan  nan  nan  nan  nan  -1.95119  -0.952212  1.45534  -0.230887  0.212897  -0.0384238  0.361597  0.35821  -0.274617  0  0  0  1.5  1.5  -0.729378  -0.00704744  -0.0187568  -0.0197939  -0.0640961  -0.0463043  0.0103537  0.0380696  -0.0336619  -0.00866969  -0.431137  0.421927  -0.0258252 
1701770804.939868000  0  0  11.4786  0.0319394  -0.0424651  0.00971959  nan  nan  nan  nan  nan  nan  -1.94936  -0.950402  1.45396  -0.230191  0.21225  -0.0379015  0.369097  0.36571  -0.278218  0  0  0  1.5  1.5  -0.710901  -0.00734369  -0.0189654  -0.0197386  -0.0625843  -0.0452176  0.0115251  0.0357765  -0.0313879  -0.00920514  -0.393022  0.373699  -0.0294434 
1701770804.944888000  0  0  11.5501  0.0589377  -0.0751348  0.00939216  nan  nan  nan  nan  nan  nan  -1.9475  -0.948555  1.45256  -0.228909  0.212003  -0.0373415  0.376597  0.37321  -0.281772  0  0  0  1.5  1.5  -0.710526  -0.00765485  -0.0191867  -0.0197355  -0.0630959  -0.0449822  0.00573543  0.032361  -0.0286768  -0.00970138  -0.415597  0.414096  -0.0203882 
1701770804.949867000  0  0  11.5275  0.0583103  -0.0709046  0.00962156  nan  nan  nan  nan  nan  nan  -1.9456  -0.94667  1.45114  -0.228793  0.212101  -0.0371181  0.384097  0.38071  -0.285322  0  0  0  1.5  1.5  -0.709401  -0.00796596  -0.0194111  -0.0196686  -0.0618961  -0.0438119  0.0075975  0.0304243  -0.0269138  -0.0100259  -0.396524  0.389416  -0.0200103 
1701770804.954817000  0  0  11.5006  0.0540412  -0.0574931  0.00967432  nan  nan  nan  nan  nan  nan  -1.94366  -0.944748  1.4497  -0.228503  0.212076  -0.0368282  0.391597  0.38821  -0.288865  0  0  0  1.5  1.5  -0.707526  -0.00828286  -0.0196382  -0.0195886  -0.0604204  -0.0423449  0.00976759  0.0285617  -0.0254018  -0.0103629  -0.37085  0.348682  -0.0173003 
1701770804.959869000  0  0  11.5471  0.0817863  -0.0859638  0.00891461  nan  nan  nan  nan  nan  nan  -1.94168  -0.942788  1.44825  -0.227249  0.211744  -0.036256  0.399097  0.39571  -0.292396  0  0  0  1.5  1.5  -0.704901  -0.00857649  -0.0198329  -0.0195929  -0.0602825  -0.0416019  0.00614433  0.0252224  -0.0228233  -0.0107517  -0.395619  0.381902  -0.00391585 
1701770804.964887000  0  0  11.5104  0.0540357  -0.0609137  0.00859585  nan  nan  nan  nan  nan  nan  -1.93967  -0.940791  1.44678  -0.230334  0.21288  -0.0369779  0.406597  0.40321  -0.295912  0  0  0  1.5  1.5  -0.701526  -0.00908974  -0.0205611  -0.0195185  -0.0598244  -0.0427106  0.0100674  0.0268071  -0.0230473  -0.0103107  -0.354696  0.333863  -0.00434073 
1701770804.969866000  0  0  11.5043  0.0463559  -0.0474272  0.00910426  nan  nan  nan  nan  nan  nan  -1.93761  -0.938756  1.44529  -0.229396  0.212298  -0.0364175  0.414097  0.41071  -0.29941  0  0  0  1.5  1.5  -0.697401  -0.00939614  -0.0207749  -0.0194591  -0.0581229  -0.0410694  0.0105967  0.0246931  -0.0212716  -0.0107554  -0.319889  0.290553  -0.00624937 
1701770804.974817000  0  0  11.5511  0.0642884  -0.0659839  0.00878893  nan  nan  nan  nan  nan  nan  -1.93553  -0.936684  1.44379  -0.229666  0.21283  -0.0363793  0.421597  0.41821  -0.302885  0  0  0  1.5  1.5  -0.692526  -0.00981791  -0.0212099  -0.0194198  -0.0589126  -0.0415539  0.00749442  0.0231626  -0.0201341  -0.0108412  -0.341673  0.317201  -0.00144941 
1701770804.979868000  0  0  11.5128  0.0226464  -0.0367807  0.00912282  nan  nan  nan  nan  nan  nan  -1.9334  -0.934574  1.44226  -0.233337  0.214312  -0.0373198  0.429097  0.42571  -0.306334  0  0  0  1.5  1.5  -0.686901  -0.0103904  -0.0220173  -0.0193591  -0.058765  -0.0431006  0.0119539  0.0257323  -0.0211876  -0.0103316  -0.28203  0.268487  -0.0107189 
1701770804.984886000  0  0  11.5284  0.00542546  -0.0202758  0.00974498  nan  nan  nan  nan  nan  nan  -1.93123  -0.932426  1.44072  -0.231915  0.213528  -0.0366019  0.436597  0.43321  -0.309753  0  0  0  1.5  1.5  -0.680526  -0.0106785  -0.0222205  -0.0193197  -0.0573365  -0.041469  0.0108721  0.023723  -0.0195413  -0.0109109  -0.229103  0.220331  -0.0127034 
1701770804.989866000  0  0  11.5598  0.0288672  -0.0469728  0.00872307  nan  nan  nan  nan  nan  nan  -1.92903  -0.930242  1.43917  -0.232247  0.2134  -0.036428  0.444097  0.44071  -0.313138  0  0  0  1.5  1.5  -0.673401  -0.0110177  -0.0226002  -0.0192493  -0.0571044  -0.0418536  0.00902483  0.0225373  -0.0179567  -0.0109383  -0.265078  0.259147  0.000344421 
1701770804.994825000  0  0  11.5322  0.0118556  -0.0305117  0.00898223  nan  nan  nan  nan  nan  nan  -1.92679  -0.928019  1.43759  -0.231771  0.213414  -0.0361073  0.451597  0.44821  -0.316486  0  0  0  1.5  1.5  -0.665526  -0.0113144  -0.0228186  -0.0191599  -0.055712  -0.0401684  0.0117231  0.0213344  -0.0170999  -0.0112414  -0.219988  0.218342  0.000135859 
1701770804.999870000  0  0  11.5549  -0.00649531  -0.0160776  0.00882577  nan  nan  nan  nan  nan  nan  -1.92452  -0.92576  1.436  -0.232471  0.213352  -0.0360317  0.459097  0.45571  -0.319792  0  0  0  1.5  1.5  -0.656901  -0.0116941  -0.0233564  -0.0190786  -0.0552981  -0.0404326  0.0107315  0.0214931  -0.0167319  -0.0112606  -0.184746  0.186089  0.0022842 
1701770805.004893000  0  0  11.5912  0.0225103  -0.0443807  0.0077735  nan  nan  nan  nan  nan  nan  -1.9222  -0.923462  1.43439  -0.232675  0.213372  -0.0358653  0.466597  0.46321  -0.323053  0  0  0  1.5  1.5  -0.647526  -0.0120694  -0.0237416  -0.019016  -0.0552881  -0.0407619  0.00872702  0.0202617  -0.0154193  -0.0112159  -0.231428  0.230619  0.0149906 
1701770805.009871000  0  0  11.5591  -0.0042145  -0.0215933  0.00877698  nan  nan  nan  nan  nan  nan  -1.91985  -0.921127  1.43277  -0.23174  0.212989  -0.0353526  0.474097  0.47071  -0.326266  0  0  0  1.5  1.5  -0.637401  -0.0123421  -0.0239419  -0.0189352  -0.0533078  -0.0384966  0.0118432  0.0190239  -0.01442  -0.0116268  -0.166591  0.175851  0.00655582 
1701770805.014869000  0  0  11.592  0.00527699  -0.020199  0.00870752  nan  nan  nan  nan  nan  nan  -1.91746  -0.918755  1.43113  -0.231698  0.212767  -0.0350775  0.481597  0.47821  -0.329426  0  0  0  1.5  1.5  -0.626526  -0.0127136  -0.0243158  -0.0188436  -0.0529067  -0.0385032  0.0100701  0.0181657  -0.0136092  -0.0117686  -0.177678  0.165603  0.00884207 
1701770805.019870000  0  0  11.6289  0.0255806  -0.038235  0.00892571  nan  nan  nan  nan  nan  nan  -1.91503  -0.916345  1.42948  -0.230339  0.211887  -0.0343605  0.489097  0.48571  -0.33253  0  0  0  1.5  1.5  -0.614901  -0.0129801  -0.0245075  -0.0188151  -0.0519107  -0.0374934  0.00780156  0.0157922  -0.0115451  -0.0121811  -0.196449  0.182685  0.0102401 
1701770805.024814000  0  0  11.5873  -0.0012128  -0.0192607  0.0101857  nan  nan  nan  nan  nan  nan  -1.91257  -0.913898  1.42781  -0.230281  0.211821  -0.03412  0.496597  0.49321  -0.335574  0  0  0  1.5  1.5  -0.602526  -0.0133028  -0.0248618  -0.0186457  -0.0500621  -0.035679  0.0119234  0.015596  -0.0111896  -0.0124959  -0.141058  0.141465  -0.00236255 
1701770805.029871000  0  0  11.6263  0.0124783  -0.0276953  0.00979193  nan  nan  nan  nan  nan  nan  -1.91007  -0.911413  1.42612  -0.230032  0.211311  -0.0337375  0.504097  0.50071  -0.338554  0  0  0  1.5  1.5  -0.589401  -0.0136489  -0.025235  -0.0185727  -0.0494753  -0.0356126  0.00981998  0.0146569  -0.0101103  -0.0126775  -0.1598  0.148405  0.00437559 
1701770805.034817000  0  0  11.6616  0.0295219  -0.0409892  0.00947881  nan  nan  nan  nan  nan  nan  -1.90753  -0.908891  1.42442  -0.228633  0.210348  -0.0330004  0.511597  0.50821  -0.341467  0  0  0  1.5  1.5  -0.575526  -0.0139202  -0.0254372  -0.0185188  -0.0483186  -0.0344912  0.00780161  0.012424  -0.00816975  -0.0130453  -0.173344  0.15714  0.0119678 
1701770805.039869000  0  0  11.6337  0.00306728  -0.0227549  0.00942225  nan  nan  nan  nan  nan  nan  -1.90495  -0.906331  1.42271  -0.228172  0.210341  -0.0326896  0.519097  0.51571  -0.344308  0  0  0  1.5  1.5  -0.560901  -0.0142577  -0.0257656  -0.0184202  -0.0468247  -0.0325799  0.0111401  0.0119363  -0.00798055  -0.0132249  -0.115948  0.118931  0.0144713 
1701770805.043927000  0  0  11.6607  0.0205217  -0.0310446  0.00946003  nan  nan  nan  nan  nan  nan  -1.90234  -0.903734  1.42098  -0.229022  0.211016  -0.0328231  0.526597  0.52321  -0.347075  0  0  0  1.5  1.5  -0.545526  -0.0149355  -0.0263902  -0.018061  -0.0468048  -0.0328611  0.0100517  0.0119161  -0.00800016  -0.0131981  -0.150671  0.135691  0.0137305 
1701770805.048888000  0  0  11.7147  0.035677  -0.0445568  0.0100733  nan  nan  nan  nan  nan  nan  -1.89969  -0.901099  1.41924  -0.227359  0.209691  -0.0319527  0.534097  0.53071  -0.349762  0  0  0  1.5  1.5  -0.529401  -0.0151868  -0.0265768  -0.0180264  -0.0456445  -0.0319354  0.00667653  0.00952162  -0.00576001  -0.0136969  -0.158953  0.142106  0.0110528 
1701770805.054821000  0  0  11.7217  0.0245601  -0.0438698  0.0108569  nan  nan  nan  nan  nan  nan  -1.897  -0.898427  1.41748  -0.225539  0.208435  -0.0310705  0.541597  0.53821  -0.352367  0  0  0  1.5  1.5  -0.512526  -0.0152055  -0.0266595  -0.0181814  -0.0439911  -0.0298942  0.00745627  0.00762165  -0.00417523  -0.0142153  -0.119239  0.126152  0.00644144 
1701770805.059870000  0  0  11.7169  0.0483013  -0.047174  0.00976171  nan  nan  nan  nan  nan  nan  -1.89427  -0.895717  1.41571  -0.223986  0.206854  -0.0301801  0.549097  0.54571  -0.354886  0  0  0  1.5  1.5  -0.494901  -0.0153907  -0.0267779  -0.0181411  -0.0412799  -0.0278359  0.00884525  0.00534798  -0.00201207  -0.014492  -0.145804  0.112859  0.022899 
1701770805.064814000  0  0  11.7622  0.0572928  -0.0533019  0.00923051  nan  nan  nan  nan  nan  nan  -1.89151  -0.89297  1.41393  -0.223375  0.206412  -0.029751  0.556597  0.55321  -0.357315  0  0  0  1.5  1.5  -0.476526  -0.0157423  -0.0271261  -0.0180577  -0.0408787  -0.0274999  0.00664013  0.00407053  -0.00107974  -0.0145811  -0.152034  0.116537  0.0304299 
1701770805.069869000  0  0  11.7759  0.0388939  -0.0449028  0.0102229  nan  nan  nan  nan  nan  nan  -1.8887  -0.890185  1.41214  -0.220712  0.205127  -0.0286994  0.564097  0.56071  -0.35965  0  0  0  1.5  1.5  -0.457401  -0.0159215  -0.0272203  -0.0180411  -0.0389499  -0.024544  0.00656417  0.00159329  0.000550969  -0.0152203  -0.092446  0.0847367  0.0244169 
1701770805.074819000  0  0  11.7642  0.0551581  -0.0424592  0.00986133  nan  nan  nan  nan  nan  nan  -1.88587  -0.887363  1.41034  -0.220706  0.204895  -0.0284514  0.571597  0.56821  -0.361888  0  0  0  1.5  1.5  -0.437526  -0.0162795  -0.0275951  -0.0178987  -0.0375288  -0.0235016  0.00907639  0.000956571  0.000911772  -0.0152028  -0.119117  0.0765301  0.0287619 
1701770805.078813000  0  0  11.8018  0.0522725  -0.0429989  0.009595  nan  nan  nan  nan  nan  nan  -1.88299  -0.884503  1.40852  -0.221376  0.205919  -0.0286259  0.579097  0.57571  -0.364024  0  0  0  1.5  1.5  -0.416901  -0.0170169  -0.0282681  -0.0175087  -0.0380633  -0.0236727  0.00760872  0.00115008  0.00027599  -0.0151123  -0.115126  0.0834587  0.0311859 
1701770805.084892000  0  0  11.8311  0.0320804  -0.0393666  0.00987993  nan  nan  nan  nan  nan  nan  -1.88007  -0.881605  1.4067  -0.217077  0.202668  -0.0268125  0.586597  0.58321  -0.366056  0  0  0  1.5  1.5  -0.395526  -0.016693  -0.0279395  -0.0178001  -0.0349622  -0.0201793  0.00641144  -0.00246184  0.00359085  -0.0158801  -0.0415119  0.0456973  0.035302 
1701770805.089864000  0  0  11.8379  0.0519044  -0.0429712  0.00902279  nan  nan  nan  nan  nan  nan  -1.87712  -0.878671  1.40486  -0.216699  0.202085  -0.0264174  0.594097  0.59071  -0.367978  0  0  0  1.5  1.5  -0.373401  -0.0169889  -0.0282543  -0.0176538  -0.0336245  -0.0192773  0.00751549  -0.0032698  0.00425831  -0.0158274  -0.0737266  0.046766  0.0454894 
1701770805.094821000  0  0  11.8622  0.0519149  -0.0476286  0.00871245  nan  nan  nan  nan  nan  nan  -1.87413  -0.875698  1.40302  -0.214818  0.200882  -0.0255777  0.601597  0.59821  -0.369788  0  0  0  1.5  1.5  -0.350526  -0.0171796  -0.0283728  -0.0176057  -0.0320438  -0.0174224  0.00705954  -0.00516234  0.00576228  -0.0160687  -0.0563362  0.0422442  0.0517809 
1701770805.099870000  0  0  11.8969  0.0299246  -0.0313739  0.00888509  nan  nan  nan  nan  nan  nan  -1.87111  -0.872689  1.40116  -0.213564  0.200494  -0.0250475  0.609097  0.60571  -0.371482  0  0  0  1.5  1.5  -0.326901  -0.0174549  -0.0286237  -0.0175228  -0.0316001  -0.0162016  0.0060627  -0.00589064  0.00583883  -0.0162272  -0.00565529  0.0090305  0.0512081 
1701770805.104903000  0  0  11.9156  0.0413791  -0.0303188  0.00905588  nan  nan  nan  nan  nan  nan  -1.86804  -0.869641  1.3993  -0.211659  0.198841  -0.0241193  0.616597  0.61321  -0.373056  0  0  0  1.5  1.5  -0.302526  -0.0175908  -0.0286832  -0.0174985  -0.0294144  -0.0143337  0.00615352  -0.0077389  0.00745701  -0.0164997  -0.0115603  -0.00796694  0.0517988 
1701770805.109871000  0  0  11.9395  0.032456  -0.0250728  0.00891748  nan  nan  nan  nan  nan  nan  -1.86494  -0.866556  1.39743  -0.21073  0.198433  -0.0236596  0.624097  0.62071  -0.374506  0  0  0  1.5  1.5  -0.277401  -0.017845  -0.0289346  -0.0173794  -0.0287558  -0.0132491  0.00615734  -0.00833399  0.00759536  -0.0165512  0.0117607  -0.0197317  0.0540435 
1701770805.114819000  0  0  11.9707  0.0188477  -0.0115367  0.00868151  nan  nan  nan  nan  nan  nan  -1.8618  -0.863434  1.39556  -0.209944  0.198042  -0.0232352  0.631597  0.62821  -0.375829  0  0  0  1.5  1.5  -0.251526  -0.0181611  -0.0292221  -0.0172713  -0.0281433  -0.0124199  0.0057119  -0.00854942  0.00746196  -0.0165535  0.0409593  -0.0455768  0.0570165 
1701770805.119870000  0  0  12.0018  0.0194211  -0.00768572  0.0087587  nan  nan  nan  nan  nan  nan  -1.85862  -0.860274  1.39367  -0.207791  0.196266  -0.0222474  0.639097  0.63571  -0.37702  0  0  0  1.5  1.5  -0.224901  -0.0182667  -0.0292496  -0.0172534  -0.0261106  -0.0105688  0.00496732  -0.0101669  0.00885839  -0.0168208  0.0546932  -0.0661258  0.0587248 
1701770805.124813000  0  0  12.025  0.0124211  -0.00905628  0.00867904  nan  nan  nan  nan  nan  nan  -1.85541  -0.857077  1.39179  -0.207057  0.196162  -0.021899  0.646597  0.64321  -0.378077  0  0  0  1.5  1.5  -0.197629  -0.0185695  -0.0295213  -0.0171162  -0.0257323  -0.00961935  0.00530136  -0.0102537  0.0086055  -0.0168068  0.0694917  -0.061058  0.0595801 
1701770805.129870000  0  0  12.0196  -0.00325467  0.0145801  0.00899902  nan  nan  nan  nan  nan  nan  -1.85216  -0.853842  1.38989  -0.206775  0.195662  -0.0215627  0.654097  0.65071  -0.378997  0  0  0  1.5  1.5  -0.17081  -0.0188341  -0.029772  -0.016992  -0.0242996  -0.00867203  0.00793093  -0.00967505  0.00811741  -0.0167469  0.0955198  -0.10384  0.0549814 
1701770805.134820000  0  0  12.0678  -0.00225632  0.0123716  0.00885962  nan  nan  nan  nan  nan  nan  -1.84887  -0.85057  1.388  -0.20479  0.194212  -0.0206905  0.661597  0.65821  -0.379786  0  0  0  1.5  1.5  -0.144741  -0.0189882  -0.0298476  -0.0169613  -0.0229544  -0.00724602  0.00583907  -0.0109219  0.00910605  -0.0169658  0.104994  -0.108519  0.0589123 
