ts fx fy fz tx ty tz exfx exfy exfz extx exty extz xd yd zd rolld pitchd yawd vxd vyd vzd wxd wyd wzd axd ayd azd e_x e_y e_z e_vx e_vy e_vz e_rx e_ry e_rz e_wx e_wy e_wz
1701447720.557944000  0  0  11.9406  0.00369274  -0.136734  0.0109835  nan  nan  nan  nan  nan  nan  -2  -1  1.5  -0.00659816  -0.0213123  0.000140613  0  0  0  0  0  0  0  0  0  0.0127111  -0.00871585  -0.0215792  3.48697e-05  0.0106163  0.000642219  0.00626752  0.0221539  -0.0136956  -0.0650466  0.0696524  -0.000338659 
1701447720.561927000  0  0  11.8895  -0.0194661  -0.117885  0.0112657  nan  nan  nan  nan  nan  nan  -2  -1  1.5  -0.00689638  -0.0214613  0.000147996  0  0  0  0  0  0  0  0  0  0.0127179  -0.00877509  -0.0215745  9.55236e-05  0.0103915  0.00489337  0.00675121  0.0221984  -0.0137369  -0.023179  0.0315456  -0.00345154 
1701447720.566941000  0  0  11.8772  -0.0229822  -0.120047  0.0106213  nan  nan  nan  nan  nan  nan  -2  -1  1.5  -0.00671672  -0.0217481  0.000146066  0  0  0  0  0  0  0  0  0  0.0127209  -0.0087237  -0.0215441  0.000438435  0.0105238  0.00584982  0.00658236  0.0226009  -0.0136759  -0.0145933  0.032166  0.00399221 
1701447720.571937000  0  0  11.95  -0.0174164  -0.141966  0.0100047  nan  nan  nan  nan  nan  nan  -2  -1  1.5  -0.00687741  -0.0215992  0.000148538  0  0  0  0  0  0  0  0  0  0.0127264  -0.00875951  -0.021604  0.000404899  0.0103356  -0.000104762  0.00651917  0.0230919  -0.013579  -0.0251436  0.0714874  0.0107315 
1701447720.576940000  0  0  11.8943  -0.0366213  -0.117836  0.0101782  nan  nan  nan  nan  nan  nan  -2  -1  1.5  -0.00727035  -0.0219326  0.000159448  0  0  0  0  0  0  0  0  0  0.0127376  -0.00879659  -0.0215922  0.000687163  0.00994139  0.00451278  0.00715486  0.0232716  -0.0135615  0.00741775  0.0215722  0.00838803 
1701447720.581948000  0  0  11.8839  -0.0348233  -0.124292  0.00968768  nan  nan  nan  nan  nan  nan  -2  -1  1.5  -0.00709509  -0.0220176  0.000156207  0  0  0  0  0  0  0  0  0  0.012741  -0.00874666  -0.0215658  0.000766562  0.0100702  0.00532332  0.0069941  0.0235438  -0.0134638  0.00530088  0.0319818  0.0135422 
1701447720.586948000  0  0  11.9358  -0.0477495  -0.127032  0.00976267  nan  nan  nan  nan  nan  nan  -2  -1  1.5  -0.00725709  -0.0219486  0.000159273  0  0  0  0  0  0  0  0  0  0.0127489  -0.00878409  -0.0216136  0.000784693  0.00989761  0.00109155  0.0073865  0.0237218  -0.0134132  0.0275432  0.0358226  0.0120991 
1701447720.592263000  0  0  11.8731  -0.0537865  -0.104053  0.0102908  nan  nan  nan  nan  nan  nan  -2  -1  1.5  -0.00765161  -0.0221758  0.00016967  0  0  0  0  0  0  0  0  0  0.0127691  -0.00881661  -0.0215772  0.000886815  0.00950016  0.00624653  0.0080347  0.0236493  -0.0134341  0.0336538  -0.00946882  0.00570498 
1701447720.596930000  0  0  11.8848  -0.0545903  -0.112412  0.0108307  nan  nan  nan  nan  nan  nan  -2  -1  1.5  -0.0074975  -0.0221237  0.000165862  0  0  0  0  0  0  0  0  0  0.0127727  -0.00877196  -0.0215622  0.000838951  0.0095944  0.00523553  0.00803966  0.0237254  -0.0134745  0.0352157  0.00655083  -0.000638612 
1701447720.602012000  0  0  11.9287  -0.0652064  -0.100684  0.0113459  nan  nan  nan  nan  nan  nan  -2  -1  1.5  -0.00765802  -0.0218465  0.000167291  0  0  0  0  0  0  0  0  0  0.0127799  -0.00881536  -0.0216043  0.000563447  0.00944146  0.00166164  0.00856955  0.0232946  -0.01355  0.0515731  -0.0129419  -0.00632354 
1701447720.607025000  0  0  11.8319  -0.0578283  -0.081558  0.0112554  nan  nan  nan  nan  nan  nan  -2  -1  1.5  -0.00798395  -0.0220771  0.000176252  0  0  0  0  0  0  0  0  0  0.0127835  -0.00877217  -0.0215291  0.000623578  0.00899953  0.00957864  0.00895442  0.0230862  -0.0135753  0.0332759  -0.0492768  -0.00493969 
1701447720.611934000  0  0  11.8646  -0.0711642  -0.0803325  0.0114688  nan  nan  nan  nan  nan  nan  -2  -1  1.5  -0.00822329  -0.0218597  0.000179749  6e-07  6e-07  -6e-07  0  0  0  0.000375  0.000375  -0.000375  0.0127883  -0.0088224  -0.0215512  0.000454864  0.00881513  0.00686645  0.00959018  0.0226485  -0.0136412  0.0540987  -0.0477015  -0.00694781 
1701447720.616940000  0  0  11.9212  -0.0715321  -0.0768503  0.0107584  nan  nan  nan  nan  nan  nan  -2  -1  1.5  -0.0079146  -0.0212886  0.000168482  5e-06  5e-06  -5e-06  0  0  0  0.0015  0.0015  -0.0015  0.0127871  -0.00877484  -0.0215656  -1.67971e-05  0.00921188  0.00207816  0.00959127  0.0218472  -0.0135793  0.0548246  -0.0472939  0.00131306 
1701447720.621589000  0  0  11.8107  -0.0519327  -0.0631619  0.0100135  nan  nan  nan  nan  nan  nan  -2  -1  1.5  -0.00899117  -0.0214515  0.000192864  1.69e-05  1.69e-05  -1.69e-05  0  0  0  0.003375  0.003375  -0.003375  0.0127918  -0.00883362  -0.0215027  0.000167557  0.00826953  0.0109854  0.0103983  0.0215385  -0.0134975  0.00820143  -0.0718303  0.0098064 
1701447720.626916000  0  0  11.8525  -0.0727016  -0.0716283  0.00938365  nan  nan  nan  nan  nan  nan  -2  -1  1.5  -0.00925524  -0.0207641  0.000192269  4e-05  4e-05  -4e-05  0  0  0  0.006  0.006  -0.006  0.0127867  -0.00887957  -0.0215206  -0.000287528  0.00832109  0.00727581  0.0110996  0.0207074  -0.0133901  0.0432872  -0.0472518  0.0166051 
1701447720.631923000  0  0  11.9098  -0.0553601  -0.0815533  0.00932643  nan  nan  nan  nan  nan  nan  -2  -1  1.5  -0.00912252  -0.0202564  0.000185082  7.81e-05  7.81e-05  -7.81e-05  0  0  0  0.009375  0.009375  -0.009375  0.0127867  -0.00883445  -0.02153  -0.000391544  0.00877361  0.00220033  0.010849  0.0202549  -0.0133018  0.010909  -0.0232382  0.0164372 
1701447720.636933000  0  0  11.7885  -0.0455958  -0.0640072  0.00975961  nan  nan  nan  nan  nan  nan  -2  -0.999999  1.5  -0.0102676  -0.0200071  0.000205918  0.000135  0.000135  -0.000135  0  0  0  0.0135  0.0135  -0.0135  0.0127838  -0.00889057  -0.0214572  -0.000451477  0.00805463  0.0117643  0.0117066  0.0195807  -0.0132953  -0.0165091  -0.0521279  0.0109576 
1701447720.641929000  0  0  11.8589  -0.0624587  -0.0709603  0.010434  nan  nan  nan  nan  nan  nan  -2  -0.999998  1.5  -0.010023  -0.0192057  0.000193492  0.0002144  0.0002144  -0.0002144  0  0  0  0.018375  0.018375  -0.018375  0.0127813  -0.00884427  -0.0214701  -0.000716067  0.00882344  0.00544753  0.0117909  0.0187343  -0.0133332  0.0164415  -0.0304352  0.00290712 
1701447720.646928000  0  0  11.8675  -0.0365442  -0.0851902  0.0101228  nan  nan  nan  nan  nan  nan  -2  -0.999997  1.5  -0.0109416  -0.0186478  0.000205733  0.00032  0.00032  -0.00032  0  0  0  0.024  0.024  -0.024  0.0127784  -0.00889518  -0.0214834  -0.000699987  0.00844252  0.00421836  0.0121812  0.0184096  -0.0132956  -0.0389784  0.00101182  0.00642091 
1701447720.651934000  0  0  11.8021  -0.0403092  -0.0702949  0.0103856  nan  nan  nan  nan  nan  nan  -1.99999  -0.999995  1.49999  -0.0120116  -0.0180777  0.000219841  0.0004556  0.0004556  -0.0004556  0  0  0  0.030375  0.030375  -0.030375  0.0127656  -0.00894749  -0.0214391  -0.000730693  0.00805885  0.00896007  0.0130193  0.0176205  -0.0133169  -0.0391587  -0.0215189  0.00334892 
1701447720.656929000  0  0  11.8653  -0.056485  -0.0791999  0.0105504  nan  nan  nan  nan  nan  nan  -1.99999  -0.999992  1.49999  -0.0120757  -0.017125  0.000210997  0.000625  0.000625  -0.000625  0  0  0  0.0375  0.0375  -0.0375  0.0127638  -0.00890261  -0.0214563  -0.000935259  0.00871067  0.00303359  0.0132863  0.0168221  -0.0133253  -0.0092644  0.00363687  0.00137236 
1701447720.661928000  0  0  11.8473  -0.0250851  -0.0930906  0.0107501  nan  nan  nan  nan  nan  nan  -1.99999  -0.999989  1.49999  -0.0133669  -0.0164397  0.000225852  0.0008319  0.0008319  -0.0008319  0  0  0  0.045375  0.045375  -0.045375  0.0127656  -0.00895325  -0.0214631  -0.00085772  0.00816509  0.00378689  0.0137628  0.0165467  -0.0133547  -0.0764474  0.0339516  -0.000828555 
1701447720.666929000  0  0  11.8082  -0.0438926  -0.0804887  0.0119658  nan  nan  nan  nan  nan  nan  -1.99998  -0.999984  1.49998  -0.0139675  -0.01562  0.000226777  0.00108  0.00108  -0.00108  0  0  0  0.054  0.054  -0.054  0.0127571  -0.00891108  -0.0214134  -0.000871355  0.00845586  0.00610615  0.0143223  0.0157051  -0.0135102  -0.0439797  0.0164901  -0.0144696 
1701447720.671929000  0  0  11.8681  -0.0455432  -0.0988427  0.0119775  nan  nan  nan  nan  nan  nan  -1.99998  -0.999978  1.49998  -0.0148525  -0.0144489  0.00022651  0.0013731  0.0013731  -0.0013731  0  0  0  0.063375  0.063375  -0.063375  0.0127608  -0.00895267  -0.0214769  -0.00110845  0.00849922  0.000332981  0.0150269  0.0150993  -0.0135978  -0.0471615  0.0587714  -0.0137408 
1701447720.676929000  0  0  11.8096  -0.0245244  -0.0973191  0.0114859  nan  nan  nan  nan  nan  nan  -1.99997  -0.99997  1.49997  -0.0160875  -0.0135046  0.000233268  0.001715  0.001715  -0.001715  0  0  0  0.0735  0.0735  -0.0735  0.0127544  -0.00891419  -0.021431  -0.00111879  0.00819773  0.0041384  0.0154769  0.0145281  -0.0135984  -0.093339  0.0609801  -0.00759038 
1701447720.681933000  0  0  11.8011  -0.0532321  -0.0805842  0.0117249  nan  nan  nan  nan  nan  nan  -1.99996  -0.99996  1.49996  -0.0174211  -0.0122825  0.00023509  0.0021094  0.0021094  -0.0021094  0  0  0  0.084375  0.084375  -0.084375  0.0127516  -0.0089588  -0.0214474  -0.00132232  0.00796811  0.00382754  0.0168491  0.0133615  -0.0136796  -0.0485473  0.0382423  -0.00976483 
1701447720.686929000  0  0  11.8385  -0.0364298  -0.100064  0.0110406  nan  nan  nan  nan  nan  nan  -1.99995  -0.999949  1.49995  -0.0188047  -0.0109358  0.000232965  0.00256  0.00256  -0.00256  0  0  0  0.096  0.096  -0.096  0.0127546  -0.00900314  -0.0215017  -0.00154702  0.00767581  -0.00029945  0.0176045  0.012729  -0.0136461  -0.0891022  0.0830202  -0.00154706 
1701447720.692406000  0  0  11.7546  -0.0397981  -0.0925464  0.0109922  nan  nan  nan  nan  nan  nan  -1.99993  -0.999935  1.49993  -0.0208503  -0.00969508  0.000236971  0.0030706  0.0030706  -0.0030706  0  0  0  0.108375  0.108375  -0.108375  0.0127524  -0.00904584  -0.0214733  -0.001665  0.00687246  0.00544342  0.0190294  0.0119417  -0.0136461  -0.0954743  0.0752295  -0.000941694 
1701447720.696928000  0  0  11.7497  -0.0754967  -0.0786493  0.011776  nan  nan  nan  nan  nan  nan  -1.99992  -0.999918  1.49992  -0.0219529  -0.00811992  0.000221983  0.003645  0.003645  -0.003645  0  0  0  0.1215  0.1215  -0.1215  0.0127493  -0.00901342  -0.021469  -0.0020241  0.00706737  0.00457322  0.0203924  0.0105232  -0.0137497  -0.0366169  0.0604854  -0.00970263 
1701447720.701928000  0  0  11.7578  -0.0563597  -0.0950458  0.0111454  nan  nan  nan  nan  nan  nan  -1.9999  -0.999898  1.4999  -0.0239899  -0.00663432  0.000213486  0.0042869  0.0042869  -0.0042869  0  0  0  0.135375  0.135375  -0.135375  0.0127581  -0.00905647  -0.0214822  -0.00218397  0.00627409  0.00259885  0.0217356  0.00982326  -0.0137188  -0.0872486  0.0997177  -0.00213009 
1701447720.706928000  0  0  11.673  -0.0731964  -0.0777138  0.0112206  nan  nan  nan  nan  nan  nan  -1.99988  -0.999875  1.49988  -0.0259175  -0.00471085  0.000188821  0.005  0.005  -0.005  0  0  0  0.15  0.15  -0.15  0.0127476  -0.00902719  -0.0214236  -0.00282862  0.00582332  0.00813612  0.0233846  0.00822341  -0.0137299  -0.0687459  0.0797723  -0.00295944 
1701447720.711937000  0  0  11.688  -0.101949  -0.068557  0.01132  nan  nan  nan  nan  nan  nan  -1.99985  -0.999848  1.49985  -0.027701  -0.0028283  0.000159366  0.0057881  0.0057881  -0.0057881  0  0  0  0.165375  0.165375  -0.165375  0.0127512  -0.00907282  -0.0214307  -0.00328721  0.00555044  0.00541509  0.0253298  0.00669284  -0.0137585  -0.0291372  0.0755398  -0.00391515 
1701447720.716928000  0  0  11.6609  -0.0788936  -0.0745455  0.0106072  nan  nan  nan  nan  nan  nan  -1.99982  -0.999817  1.49982  -0.0298657  -0.000887603  0.000124117  0.006655  0.006655  -0.006655  0  0  0  0.1815  0.1815  -0.1815  0.0127365  -0.00904911  -0.0214015  -0.00369486  0.00485875  0.00607721  0.0267208  0.00543525  -0.0136704  -0.0880439  0.0990867  0.00411452 
1701447720.721877000  0  0  11.609  -0.110158  -0.0553345  0.011129  nan  nan  nan  nan  nan  nan  -1.99978  -0.999781  1.49978  -0.0323557  0.00123972  7.6474e-05  0.0076044  0.0076044  -0.0076044  0  0  0  0.198375  0.198375  -0.198375  0.0127332  -0.00910835  -0.0213638  -0.00425724  0.00412915  0.00870939  0.0292311  0.00360944  -0.0137012  -0.0486094  0.0774621  -0.00210079 
1701447720.727397000  0  0  11.643  -0.117503  -0.0579049  0.0103693  nan  nan  nan  nan  nan  nan  -1.99974  -0.999741  1.49974  -0.0346833  0.00331149  2.33007e-05  0.00864  0.00864  -0.00864  0  0  0  0.216  0.216  -0.216  0.0127386  -0.00916209  -0.021383  -0.00467844  0.00339025  0.00422398  0.0313198  0.00218131  -0.013607  -0.0531372  0.0957418  0.00645369 
1701447720.731945000  0  0  11.6013  -0.100301  -0.053292  0.00937656  nan  nan  nan  nan  nan  nan  -1.99969  -0.999695  1.49969  -0.0372109  0.0059468  -5.85868e-05  0.0097656  0.0097656  -0.0097656  0  0  0  0.234375  0.234375  -0.234375  0.0127062  -0.00915315  -0.021339  -0.00561677  0.00264585  0.00587427  0.0330328  0.000147745  -0.0134115  -0.103299  0.105225  0.0169078 
1701447720.736929000  0  0  11.5368  -0.131405  -0.023537  0.0101349  nan  nan  nan  nan  nan  nan  -1.99964  -0.999643  1.49964  -0.0401283  0.00825307  -0.000140956  0.010985  0.010985  -0.0109839  0  0  0  0.2535  0.2535  -0.252793  0.0127041  -0.00922063  -0.0212971  -0.00605824  0.0017908  0.00940402  0.0358708  -0.00205225  -0.0134056  -0.0672001  0.0659546  0.00737052 
1701447720.742398000  0  0  11.5724  -0.115816  -0.0394949  0.0102355  nan  nan  nan  nan  nan  nan  -1.99958  -0.999585  1.49958  -0.0427581  0.0109524  -0.000247181  0.0123019  0.0123019  -0.0122923  0  0  0  0.273375  0.273375  -0.270462  0.0126919  -0.00928834  -0.0213158  -0.00697151  0.000968571  0.00483233  0.0376322  -0.00380624  -0.0133454  -0.114583  0.114007  0.00551029 
1701447720.746927000  0  0  11.5266  -0.11628  -0.0258814  0.0109995  nan  nan  nan  nan  nan  nan  -1.99952  -0.99952  1.49952  -0.0455164  0.0138118  -0.000373079  0.01372  0.01372  -0.0136872  0  0  0  0.294  0.294  -0.287381  0.0126588  -0.00929032  -0.0212722  -0.0078456  0.000322104  0.00698373  0.0396722  -0.00613928  -0.013366  -0.132424  0.108244  -0.00383312 
1701447720.751954000  0  0  11.4919  -0.127436  -0.00728404  0.0121769  nan  nan  nan  nan  nan  nan  -1.99945  -0.999447  1.49945  -0.0486193  0.0165122  -0.00050891  0.0152431  0.0152431  -0.0151649  0  0  0  0.315375  0.315375  -0.30355  0.0126466  -0.00937186  -0.0212503  -0.00845952  -0.00052359  0.00831961  0.0421609  -0.00844873  -0.0134903  -0.133009  0.0922964  -0.0173086 
1701447720.756939000  0  0  11.5125  -0.113334  -0.0299029  0.0111045  nan  nan  nan  nan  nan  nan  -1.99937  -0.999367  1.49937  -0.0511083  0.0196928  -0.000670277  0.016875  0.016875  -0.0167215  0  0  0  0.3375  0.3375  -0.318969  0.0126006  -0.00937326  -0.0212405  -0.00961377  -0.000954499  0.0051894  0.0435454  -0.0104146  -0.0133587  -0.173949  0.15562  -0.00521925 
1701447720.761927000  0  0  11.4665  -0.119056  -0.0137899  0.0111764  nan  nan  nan  nan  nan  nan  -1.99928  -0.999278  1.49928  -0.0545521  0.0226099  -0.000850835  0.0186194  0.0186194  -0.0183533  0  0  0  0.360375  0.360375  -0.333638  0.012576  -0.00945889  -0.0212104  -0.0102309  -0.00193406  0.00764689  0.0460035  -0.0126073  -0.0133244  -0.185119  0.143567  -0.00646136 
1701447720.767305000  0  0  11.4616  -0.115343  -0.0141286  0.0111989  nan  nan  nan  nan  nan  nan  -1.99918  -0.999181  1.49918  -0.0576627  0.0259679  -0.00106397  0.02048  0.02048  -0.0200566  0  0  0  0.384  0.384  -0.347557  0.0125356  -0.00954023  -0.0212222  -0.0113671  -0.00262865  0.00685835  0.0478718  -0.0149252  -0.0132827  -0.209735  0.165569  -0.00715943 
1701447720.771937000  0  0  11.4789  -0.0953266  -0.0336747  0.0102942  nan  nan  nan  nan  nan  nan  -1.99907  -0.999073  1.49908  -0.0608642  0.0292319  -0.00129042  0.0224606  0.0224606  -0.0218276  0  0  0  0.408375  0.408375  -0.360726  0.0124727  -0.00956401  -0.0212116  -0.0123061  -0.00361355  0.00428503  0.0495155  -0.0167422  -0.0130943  -0.264889  0.221377  0.0022657 
1701447720.776918000  0  0  11.4384  -0.105934  -0.0191821  0.0109275  nan  nan  nan  nan  nan  nan  -1.99896  -0.998956  1.49897  -0.0642033  0.0325955  -0.00154395  0.024565  0.024565  -0.0236626  0  0  0  0.4335  0.4335  -0.373145  0.012428  -0.00963632  -0.0212178  -0.0131227  -0.00416981  0.00662079  0.0515691  -0.0190206  -0.0130576  -0.262568  0.213353  -0.00601788 
1701447720.781944000  0  0  11.4612  -0.0884877  -0.030685  0.010877  nan  nan  nan  nan  nan  nan  -1.99883  -0.998828  1.49884  -0.0671391  0.0359594  -0.00180049  0.0267969  0.0267969  -0.0255578  0  0  0  0.459375  0.459375  -0.384814  0.0123607  -0.00965559  -0.0212059  -0.0140146  -0.00467227  0.00376779  0.0527237  -0.020861  -0.0129801  -0.308083  0.253292  -0.00616106 
1701447720.786922000  0  0  11.4714  -0.0835286  -0.037201  0.0106967  nan  nan  nan  nan  nan  nan  -1.99869  -0.998688  1.49871  -0.0706795  0.0396513  -0.00211887  0.02916  0.02916  -0.0275095  0  0  0  0.486  0.486  -0.395732  0.0123031  -0.00973755  -0.0212445  -0.0152174  -0.00562236  0.00217897  0.0544207  -0.0228513  -0.0128421  -0.333613  0.284634  -0.00528771 
1701447720.792310000  0  0  11.3981  -0.0855102  -0.0236859  0.0114562  nan  nan  nan  nan  nan  nan  -1.99854  -0.998536  1.49857  -0.0745446  0.0430278  -0.00244884  0.0316581  0.0316581  -0.0295139  0  0  0  0.513375  0.513375  -0.405901  0.0122693  -0.00981899  -0.0212421  -0.0155845  -0.00620574  0.00754816  0.056338  -0.0247193  -0.0128325  -0.347289  0.27479  -0.0148775 
1701447720.796914000  0  0  11.4591  -0.0661926  -0.0494611  0.0110442  nan  nan  nan  nan  nan  nan  -1.99837  -0.998371  1.49842  -0.0777078  0.0467071  -0.00279049  0.034295  0.034295  -0.0315673  0  0  0  0.5415  0.5415  -0.41532  0.0121768  -0.00986139  -0.0212559  -0.0167483  -0.00698379  0.001881  0.0573692  -0.0263931  -0.0126997  -0.395411  0.341739  -0.0110552 
1701447720.801945000  0  0  11.4907  -0.0693642  -0.0643186  0.011918  nan  nan  nan  nan  nan  nan  -1.99819  -0.998193  1.49825  -0.0815887  0.0505569  -0.00320036  0.0370744  0.0370744  -0.0336659  0  0  0  0.570375  0.570375  -0.423989  0.0121262  -0.00996098  -0.0213038  -0.0180189  -0.0082274  -0.00114772  0.0591219  -0.0279151  -0.0126696  -0.405193  0.385456  -0.0222798 
1701447720.806930000  0  0  11.396  -0.0767142  -0.0415613  0.0120983  nan  nan  nan  nan  nan  nan  -1.998  -0.998  1.49808  -0.085917  0.05476  -0.00368953  0.04  0.04  -0.0358059  0  0  0  0.6  0.6  -0.431908  0.012041  -0.0100017  -0.0212386  -0.0188364  -0.00889693  0.00616861  0.0614127  -0.0304141  -0.012604  -0.411568  0.362932  -0.0251888 
1701447720.811926000  0  0  11.4623  -0.0649828  -0.0646247  0.0108734  nan  nan  nan  nan  nan  nan  -1.99779  -0.997792  1.49789  -0.0896309  0.0585427  -0.00413548  0.0430756  0.0430756  -0.0379837  0  0  0  0.630375  0.630306  -0.439077  0.0119893  -0.0101063  -0.0212969  -0.0200573  -0.0100649  0.000495235  0.0626431  -0.0317151  -0.0123716  -0.446351  0.421029  -0.012202 
1701447720.816937000  0  0  11.4965  -0.0749228  -0.0635825  0.0101129  nan  nan  nan  nan  nan  nan  -1.99757  -0.997569  1.4977  -0.0935138  0.0626265  -0.00464276  0.0463048  0.0463022  -0.0401954  0  0  0  0.661272  0.660227  -0.445496  0.0118915  -0.0101596  -0.0213208  -0.0213357  -0.0113296  -0.00250361  0.0643328  -0.0334675  -0.0121121  -0.442016  0.435066  -0.00529075 
1701447720.821922000  0  0  11.4079  -0.0817995  -0.0520842  0.00983364  nan  nan  nan  nan  nan  nan  -1.99733  -0.997329  1.49749  -0.0981436  0.0665302  -0.00520864  0.0496872  0.0496766  -0.0424374  0  0  0  0.691571  0.689397  -0.451165  0.0118497  -0.0102616  -0.0213029  -0.0217155  -0.0122273  0.0047249  0.0666658  -0.0352249  -0.0118561  -0.449726  0.428238  -0.00435928 
1701447720.826928000  0  0  11.5041  -0.0723412  -0.0791046  0.00895472  nan  nan  nan  nan  nan  nan  -1.99707  -0.997072  1.49727  -0.101733  0.0703079  -0.00571826  0.0532192  0.053195  -0.0447058  0  0  0  0.721119  0.717818  -0.456084  0.0117905  -0.0103777  -0.0213926  -0.0233546  -0.0138628  -0.00304901  0.0676395  -0.0361246  -0.0115265  -0.477601  0.490556  0.00333101 
1701447720.831927000  0  0  11.4984  -0.0892005  -0.0603786  0.0094023  nan  nan  nan  nan  nan  nan  -1.9968  -0.996797  1.49704  -0.105707  0.0744668  -0.00631835  0.0568972  0.0568535  -0.046997  0  0  0  0.749918  0.745488  -0.460253  0.0116783  -0.0104485  -0.0213933  -0.0247154  -0.0150693  -0.00248041  0.0694043  -0.0380101  -0.0113165  -0.460119  0.47045  -0.00436411 
1701447720.836944000  0  0  11.4277  -0.0923967  -0.0560012  0.00901049  nan  nan  nan  nan  nan  nan  -1.9965  -0.996503  1.4968  -0.110292  0.0783179  -0.00696049  0.0607172  0.0606486  -0.0493071  0  0  0  0.777966  0.772409  -0.463672  0.0116135  -0.0105498  -0.0214038  -0.0253198  -0.0162776  0.00362878  0.0715019  -0.0394392  -0.010995  -0.473024  0.474844  -0.00268066 
1701447720.842401000  0  0  11.5244  -0.086209  -0.081888  0.00885573  nan  nan  nan  nan  nan  nan  -1.99619  -0.99619  1.49655  -0.113243  0.0817084  -0.00744405  0.0646756  0.0645764  -0.0516324  0  0  0  0.805265  0.79858  -0.466341  0.0115591  -0.0106399  -0.0215296  -0.0268965  -0.0175648  -0.00381839  0.0716228  -0.0395742  -0.0107601  -0.486512  0.527858  -0.00309531 
1701447720.846932000  0  0  11.497  -0.102092  -0.0483055  0.00986975  nan  nan  nan  nan  nan  nan  -1.99586  -0.995857  1.49629  -0.117381  0.0859413  -0.00814302  0.0687686  0.0686331  -0.0539693  0  0  0  0.831813  0.824  -0.46826  0.0114105  -0.0107502  -0.0214994  -0.0283757  -0.0188797  -0.00124041  0.0737099  -0.0419005  -0.010628  -0.473947  0.482096  -0.0170917 
1701447720.851889000  0  0  11.4293  -0.0933128  -0.046229  0.00945831  nan  nan  nan  nan  nan  nan  -1.9955  -0.995504  1.49601  -0.121947  0.0898843  -0.00887501  0.0729924  0.0728151  -0.0563138  0  0  0  0.857612  0.848671  -0.469428  0.0113182  -0.0108797  -0.021471  -0.0292772  -0.020209  0.004854  0.0754887  -0.0433568  -0.0103436  -0.50787  0.49134  -0.014793 
1701447720.856932000  0  0  11.5509  -0.102418  -0.0673508  0.00972882  nan  nan  nan  nan  nan  nan  -1.99513  -0.995129  1.49572  -0.124641  0.0933193  -0.00939585  0.0773434  0.0771186  -0.0586623  0  0  0  0.88266  0.872591  -0.469847  0.011171  -0.0109843  -0.0215417  -0.031389  -0.0218746  -0.00451557  0.0757544  -0.0437962  -0.010237  -0.492104  0.537627  -0.0192403 
1701447720.861878000  0  0  11.5252  -0.106898  -0.0479088  0.0101289  nan  nan  nan  nan  nan  nan  -1.99473  -0.994732  1.49543  -0.128636  0.0969972  -0.0100882  0.0818178  0.0815398  -0.061011  0  0  0  0.906958  0.895762  -0.469516  0.0110763  -0.0111351  -0.0215505  -0.0325594  -0.0231821  -0.00168141  0.0772094  -0.0450802  -0.0100889  -0.496531  0.510555  -0.0257222 
1701447720.866935000  0  0  11.4741  -0.092181  -0.0427831  0.00958433  nan  nan  nan  nan  nan  nan  -1.99431  -0.994313  1.49511  -0.132668  0.101009  -0.0108525  0.0864118  0.086075  -0.0633562  0  0  0  0.930507  0.918183  -0.468435  0.0109176  -0.0112472  -0.0215059  -0.0338067  -0.024302  0.0032952  0.0782575  -0.0465274  -0.00984371  -0.535607  0.513619  -0.0213669 
1701447720.871929000  0  0  11.5868  -0.101009  -0.0575592  0.00979135  nan  nan  nan  nan  nan  nan  -1.99386  -0.993871  1.49479  -0.135431  0.103796  -0.011342  0.0911216  0.0907204  -0.0656941  0  0  0  0.953305  0.939853  -0.466604  0.010813  -0.011421  -0.0215872  -0.0355304  -0.026203  -0.00503745  0.0784577  -0.0463982  -0.00975844  -0.519794  0.541981  -0.0248075 
1701447720.876876000  0  0  11.5457  -0.0994103  -0.0477373  0.0101088  nan  nan  nan  nan  nan  nan  -1.9934  -0.993406  1.49446  -0.139281  0.107166  -0.01204  0.0959436  0.0954722  -0.068021  0  0  0  0.975354  0.960774  -0.464023  0.0107153  -0.0115928  -0.0215807  -0.0363886  -0.0272945  -0.000688489  0.0795141  -0.0471922  -0.00962399  -0.532709  0.529642  -0.0301204 
1701447720.881874000  0  0  11.5032  -0.095122  -0.0477148  0.00948597  nan  nan  nan  nan  nan  nan  -1.9929  -0.992916  1.49411  -0.143168  0.111054  -0.0128366  0.100874  0.100327  -0.0703331  0  0  0  0.996652  0.980944  -0.460692  0.0105245  -0.0117309  -0.0215422  -0.0377596  -0.0285195  0.00385999  0.0804767  -0.0483481  -0.00936793  -0.550142  0.540232  -0.0248953 
1701447720.886934000  0  0  11.5628  -0.0976934  -0.0513854  0.00997103  nan  nan  nan  nan  nan  nan  -1.99239  -0.992402  1.49375  -0.145905  0.113845  -0.0133632  0.105909  0.10528  -0.0726267  0  0  0  1.0172  1.00036  -0.456611  0.0104088  -0.0119201  -0.0215769  -0.0392147  -0.029901  0.000108748  0.0804514  -0.0483146  -0.00933623  -0.544766  0.547265  -0.0312756 
1701447720.891947000  0  0  11.511  -0.0795063  -0.0462712  0.00970825  nan  nan  nan  nan  nan  nan  -1.99184  -0.991864  1.49339  -0.149519  0.11734  -0.0141086  0.111045  0.110329  -0.074898  0  0  0  1.037  1.01904  -0.45178  0.0102093  -0.0120657  -0.0215424  -0.0400983  -0.0307669  0.00558683  0.0808304  -0.04912  -0.00917337  -0.584627  0.544447  -0.0296194 
1701447720.896941000  0  0  11.5336  -0.0845508  -0.0569626  0.00945213  nan  nan  nan  nan  nan  nan  -1.99128  -0.991299  1.49301  -0.152441  0.120269  -0.0147019  0.116278  0.11547  -0.0771432  0  0  0  1.05605  1.03696  -0.446199  0.0100766  -0.0122598  -0.0215548  -0.0414383  -0.0319652  0.00505227  0.080845  -0.0490897  -0.00903022  -0.574672  0.56555  -0.0278494 
1701447720.900942000  0  0  11.5882  -0.0883251  -0.052611  0.00959209  nan  nan  nan  nan  nan  nan  -1.99068  -0.990709  1.49261  -0.155501  0.124043  -0.0154556  0.121604  0.120698  -0.0793587  0  0  0  1.07435  1.05413  -0.439868  0.00977975  -0.0125079  -0.0214838  -0.0440925  -0.0338568  0.00179794  0.0815809  -0.0505729  -0.0088962  -0.573894  0.570493  -0.0309391 
1701447720.906922000  0  0  11.5337  -0.0547915  -0.0578007  0.00931248  nan  nan  nan  nan  nan  nan  -1.99006  -0.990092  1.49221  -0.158232  0.126109  -0.0159131  0.12702  0.12601  -0.0815406  0  0  0  1.09189  1.07055  -0.432787  0.0097177  -0.0126087  -0.0215198  -0.0435826  -0.0339013  0.0078641  0.0801262  -0.0492256  -0.00885029  -0.627578  0.568477  -0.027903 
1701447720.911919000  0  0  11.5923  -0.0653274  -0.0746983  0.00946079  nan  nan  nan  nan  nan  nan  -1.98941  -0.989448  1.4918  -0.160281  0.128666  -0.0163654  0.132522  0.131402  -0.0836853  0  0  0  1.10869  1.08622  -0.424955  0.00954462  -0.012806  -0.0215405  -0.0451583  -0.0349266  0.00457806  0.0792565  -0.0486298  -0.00883953  -0.598505  0.596791  -0.0298646 
1701447720.916935000  0  0  11.6405  -0.0489587  -0.0802454  0.00978938  nan  nan  nan  nan  nan  nan  -1.98873  -0.988778  1.49138  -0.162246  0.131175  -0.0168029  0.138105  0.13687  -0.0857889  0  0  0  1.12474  1.10114  -0.416374  0.00931547  -0.012979  -0.0215436  -0.0465175  -0.0358278  0.00220115  0.0779994  -0.0480698  -0.00891034  -0.619677  0.602733  -0.0332638 
1701447720.921922000  0  0  11.5751  -0.0293244  -0.0777881  0.00993406  nan  nan  nan  nan  nan  nan  -1.98803  -0.98808  1.49094  -0.165657  0.133868  -0.0174728  0.143768  0.142412  -0.0878478  0  0  0  1.14004  1.11531  -0.407043  0.00915136  -0.0131868  -0.0214835  -0.0467293  -0.0365399  0.00923759  0.0777644  -0.0478356  -0.00881559  -0.656783  0.595664  -0.0360199 
1701447720.926940000  0  0  11.6622  -0.0452466  -0.0973507  0.0108916  nan  nan  nan  nan  nan  nan  -1.9873  -0.987354  1.4905  -0.167068  0.135723  -0.0177355  0.149505  0.148022  -0.0898581  0  0  0  1.15459  1.12873  -0.396962  0.00898794  -0.0134078  -0.0215247  -0.0481654  -0.0375784  0.0038178  0.0762194  -0.0464308  -0.00902226  -0.610725  0.621864  -0.0459225 
1701447720.931923000  0  0  11.6964  -0.0194088  -0.108085  0.01076  nan  nan  nan  nan  nan  nan  -1.98653  -0.986599  1.49004  -0.168866  0.137885  -0.0181037  0.155312  0.153698  -0.0918162  0  0  0  1.16839  1.1414  -0.386131  0.0087386  -0.0135978  -0.0215021  -0.0491384  -0.0383044  0.00276778  0.0745724  -0.0453577  -0.00914672  -0.647249  0.633461  -0.0430329 
1701447720.936880000  0  0  11.6417  -0.00957829  -0.10571  0.0103537  nan  nan  nan  nan  nan  nan  -1.98574  -0.985816  1.48958  -0.171894  0.140442  -0.0187181  0.161187  0.159435  -0.0937182  0  0  0  1.18144  1.15332  -0.37455  0.00854808  -0.0138312  -0.0214459  -0.049524  -0.0389263  0.00913635  0.0740739  -0.0448877  -0.00906056  -0.662323  0.624386  -0.038816 
1701447720.941925000  0  0  11.7399  -0.0340434  -0.109169  0.0107959  nan  nan  nan  nan  nan  nan  -1.98492  -0.985005  1.48911  -0.172622  0.142213  -0.0188695  0.167125  0.16523  -0.0955604  0  0  0  1.19373  1.16449  -0.362219  0.00829851  -0.0140222  -0.0214723  -0.05118  -0.03973  0.00292286  0.0722265  -0.0435662  -0.00934431  -0.596397  0.619148  -0.041506 
1701447720.946878000  0  0  11.7543  -0.00515159  -0.119225  0.0100235  nan  nan  nan  nan  nan  nan  -1.98407  -0.984164  1.48862  -0.174542  0.143785  -0.0191582  0.173123  0.171079  -0.0973391  0  0  0  1.20528  1.17491  -0.349138  0.00808858  -0.0142549  -0.0214599  -0.0514752  -0.040485  0.00369699  0.0706497  -0.0420057  -0.00934785  -0.639674  0.624902  -0.0318157 
1701447720.951932000  0  0  11.7502  -0.00943117  -0.1171  0.00977278  nan  nan  nan  nan  nan  nan  -1.98319  -0.983294  1.48813  -0.176555  0.145734  -0.0195276  0.179177  0.176978  -0.0990506  0  0  0  1.21608  1.18458  -0.335307  0.00787826  -0.014471  -0.0214588  -0.0520754  -0.0411261  0.00610809  0.0695121  -0.0409366  -0.00934243  -0.620649  0.610816  -0.0287355 
1701447720.957056000  0  0  11.8272  -0.0212633  -0.118699  0.0100258  nan  nan  nan  nan  nan  nan  -1.98228  -0.982394  1.48763  -0.176934  0.147228  -0.0195703  0.185283  0.182923  -0.100691  0  0  0  1.22613  1.1935  -0.320726  0.00762942  -0.0146584  -0.0214805  -0.0533618  -0.0414383  0.00177968  0.067287  -0.0394193  -0.00963101  -0.576514  0.600056  -0.0290129 
1701447720.961876000  0  0  11.83  0.00582789  -0.127092  0.00939644  nan  nan  nan  nan  nan  nan  -1.98134  -0.981465  1.48713  -0.178965  0.148801  -0.0198746  0.191437  0.188912  -0.102257  0  0  0  1.23543  1.20167  -0.305395  0.00739592  -0.0149296  -0.0214708  -0.0537319  -0.0423393  0.00372451  0.0659661  -0.03807  -0.00958377  -0.618544  0.604427  -0.0216177 
1701447720.966931000  0  0  11.8384  -0.00800491  -0.127011  0.00969318  nan  nan  nan  nan  nan  nan  -1.98037  -0.980505  1.48661  -0.180213  0.150534  -0.020087  0.197636  0.194939  -0.103744  0  0  0  1.24398  1.20909  -0.289314  0.00713724  -0.0151316  -0.0214393  -0.0544246  -0.0425961  0.00514328  0.0645294  -0.0368582  -0.00974024  -0.577661  0.593117  -0.0237623 
1701447720.971928000  0  0  11.9369  -0.0230688  -0.128478  0.00968546  nan  nan  nan  nan  nan  nan  -1.97936  -0.979515  1.48609  -0.180577  0.151484  -0.0200177  0.203876  0.201001  -0.105148  0  0  0  1.25177  1.21576  -0.272482  0.00688987  -0.0153959  -0.0214928  -0.0556962  -0.0435021  -0.000730006  0.0625638  -0.0349946  -0.00997559  -0.529449  0.578905  -0.0213123 
1701447720.976932000  0  0  11.9042  -0.000316362  -0.123136  0.00955848  nan  nan  nan  nan  nan  nan  -1.97833  -0.978495  1.48556  -0.182685  0.152965  -0.0203133  0.210152  0.207095  -0.106467  0  0  0  1.25882  1.22169  -0.254901  0.00665572  -0.0156763  -0.021462  -0.0556477  -0.0440961  0.00425894  0.0615256  -0.0338376  -0.00996842  -0.565403  0.557578  -0.0197969 
1701447720.981926000  0  0  11.9449  -0.0341634  -0.110232  0.0100092  nan  nan  nan  nan  nan  nan  -1.97726  -0.977444  1.48502  -0.18323  0.154226  -0.0203205  0.216463  0.213217  -0.107696  0  0  0  1.26512  1.22686  -0.23657  0.00637041  -0.0158972  -0.0214481  -0.0564967  -0.0443968  0.00310847  0.0601597  -0.0326871  -0.0102549  -0.485142  0.521184  -0.022566 
1701447720.986924000  0  0  11.9999  -0.0320193  -0.117819  0.00982112  nan  nan  nan  nan  nan  nan  -1.97616  -0.976363  1.48448  -0.184115  0.155049  -0.0202967  0.222802  0.219362  -0.108833  0  0  0  1.27067  1.23128  -0.218113  0.00610441  -0.0161917  -0.0214617  -0.0571601  -0.0453821  0.000880428  0.0587454  -0.0309325  -0.0104149  -0.476419  0.520217  -0.018615 
1701447720.991932000  0  0  12.0002  -0.0264746  -0.110565  0.010044  nan  nan  nan  nan  nan  nan  -1.97503  -0.975251  1.48394  -0.184975  0.156257  -0.0203352  0.229168  0.225528  -0.109879  0  0  0  1.27547  1.23495  -0.2004  0.00582254  -0.0164144  -0.0214405  -0.0574584  -0.0454779  0.00299428  0.0572023  -0.0297732  -0.010645  -0.473312  0.495043  -0.0191 
1701447720.997036000  0  0  12.0529  -0.0576996  -0.0946721  0.0110635  nan  nan  nan  nan  nan  nan  -1.97387  -0.974107  1.48338  -0.18532  0.156893  -0.0201804  0.235556  0.231711  -0.110838  0  0  0  1.27952  1.23787  -0.183438  0.00556042  -0.0166956  -0.0214616  -0.0580365  -0.0459819  0.000674533  0.0560026  -0.028358  -0.0110323  -0.399825  0.450238  -0.027971 
1701447721.001903000  0  0  12.0681  -0.0458508  -0.103257  0.0109403  nan  nan  nan  nan  nan  nan  -1.97268  -0.972933  1.48283  -0.186261  0.157979  -0.0202  0.241962  0.237906  -0.111714  0  0  0  1.28282  1.24004  -0.167225  0.00525067  -0.0169529  -0.0214379  -0.0585766  -0.0466226  0.00140034  0.0548787  -0.0271596  -0.0112576  -0.413182  0.456383  -0.0241786 
1701447721.006928000  0  0  12.0774  -0.0587586  -0.0957396  0.0114589  nan  nan  nan  nan  nan  nan  -1.97145  -0.971728  1.48227  -0.186915  0.158743  -0.0201084  0.248383  0.24411  -0.112511  0  0  0  1.28536  1.24146  -0.151762  0.00496375  -0.0172593  -0.0214368  -0.0587205  -0.0467882  0.0024727  0.0538067  -0.0259287  -0.0115673  -0.377505  0.430023  -0.0275633 
1701447721.011936000  0  0  12.1103  -0.0678485  -0.0958592  0.0116576  nan  nan  nan  nan  nan  nan  -1.97019  -0.970492  1.4817  -0.187272  0.159406  -0.0199438  0.254814  0.250319  -0.113233  0  0  0  1.28716  1.24213  -0.137049  0.0046628  -0.0175752  -0.0214357  -0.0592031  -0.0471369  0.00149292  0.0526475  -0.0245922  -0.0118972  -0.34866  0.417966  -0.0267487 
1701447721.016931000  0  0  12.1153  -0.0537045  -0.104689  0.010789  nan  nan  nan  nan  nan  nan  -1.9689  -0.969225  1.48113  -0.187632  0.159976  -0.0197568  0.261253  0.25653  -0.113883  0  0  0  1.28821  1.24205  -0.123086  0.00436907  -0.0178116  -0.0214134  -0.0591718  -0.047196  0.0026739  0.0511426  -0.0229823  -0.0121299  -0.363103  0.420814  -0.013564 
1701447721.021937000  0  0  12.117  -0.0714875  -0.0910355  0.0106624  nan  nan  nan  nan  nan  nan  -1.96758  -0.967927  1.48056  -0.188138  0.160651  -0.0196074  0.267695  0.262738  -0.114465  0  0  0  1.28851  1.24122  -0.109873  0.00405626  -0.0181346  -0.0213901  -0.0592933  -0.0472899  0.00402787  0.0503337  -0.0219805  -0.0123529  -0.320095  0.384291  -0.00975094 
1701447721.026928000  0  0  12.1443  -0.0630975  -0.101953  0.0104793  nan  nan  nan  nan  nan  nan  -1.96623  -0.966598  1.47999  -0.188488  0.160933  -0.0193529  0.274137  0.268941  -0.114983  0  0  0  1.28806  1.23964  -0.0974106  0.00374706  -0.0184779  -0.0213739  -0.059433  -0.0477791  0.00319806  0.0490875  -0.0203137  -0.0125802  -0.32541  0.390793  -0.00518969 
1701447721.031937000  0  0  12.1512  -0.0548512  -0.104948  0.0107032  nan  nan  nan  nan  nan  nan  -1.96484  -0.965238  1.47941  -0.188072  0.16122  -0.0189657  0.280575  0.275134  -0.115441  0  0  0  1.28686  1.23731  -0.0856977  0.00345014  -0.01871  -0.0213492  -0.0593095  -0.047198  0.0038168  0.0471066  -0.0186541  -0.0129794  -0.323679  0.381514  -0.00399618 
1701447721.036928000  0  0  12.1507  -0.0550243  -0.096268  0.0108992  nan  nan  nan  nan  nan  nan  -1.96342  -0.963847  1.47884  -0.188342  0.161527  -0.0186902  0.287004  0.281313  -0.115841  0  0  0  1.2849  1.23423  -0.0747349  0.0031309  -0.0190541  -0.0213121  -0.0591565  -0.0472125  0.00502035  0.0459388  -0.0174054  -0.0132562  -0.312588  0.352666  -0.00367786 
1701447721.041927000  0  0  12.1622  -0.041034  -0.107518  0.0108734  nan  nan  nan  nan  nan  nan  -1.96197  -0.962425  1.47826  -0.187846  0.161263  -0.018174  0.293422  0.287475  -0.116189  0  0  0  1.2822  1.2304  -0.0645221  0.00284011  -0.0192896  -0.0212894  -0.0585723  -0.0468489  0.00502194  0.0438527  -0.0152722  -0.0136538  -0.321377  0.35554  0.00062044 
1701447721.046927000  0  0  12.1738  -0.0427822  -0.113571  0.0111127  nan  nan  nan  nan  nan  nan  -1.96049  -0.960972  1.47767  -0.187479  0.161383  -0.0177447  0.299825  0.293615  -0.116488  0  0  0  1.27875  1.22582  -0.0550592  0.00251123  -0.0196391  -0.0212462  -0.0585306  -0.0464788  0.00495791  0.0421662  -0.0136342  -0.0140087  -0.302365  0.352576  0.00117872 
1701447721.051938000  0  0  12.1632  -0.0275987  -0.115255  0.0112631  nan  nan  nan  nan  nan  nan  -1.95897  -0.959488  1.47709  -0.187682  0.161476  -0.017399  0.306209  0.299732  -0.116741  0  0  0  1.27455  1.22049  -0.0463464  0.00216208  -0.0200253  -0.0211806  -0.0581228  -0.0464164  0.00665323  0.0407427  -0.0121516  -0.0142811  -0.319636  0.342304  0.00202248 
1701447721.056942000  0  0  12.1733  -0.0186941  -0.124456  0.0116575  nan  nan  nan  nan  nan  nan  -1.95742  -0.957975  1.47651  -0.186531  0.160983  -0.0167127  0.312569  0.305819  -0.116953  0  0  0  1.2696  1.21441  -0.0383835  0.00187173  -0.0202522  -0.021157  -0.057475  -0.0455029  0.00638608  0.0381342  -0.0098716  -0.0148213  -0.313446  0.339731  0.00249457 
1701447721.061924000  0  0  12.1953  -0.0168862  -0.131133  0.0123467  nan  nan  nan  nan  nan  nan  -1.95585  -0.95643  1.47592  -0.185555  0.160689  -0.016087  0.318903  0.311874  -0.117126  0  0  0  1.2639  1.20759  -0.0311707  0.00155237  -0.0205966  -0.0211112  -0.0573479  -0.0448807  0.00508709  0.0359164  -0.00791403  -0.0153462  -0.296659  0.335076  -0.000871988 
1701447721.066925000  0  0  12.1638  0.00941816  -0.139012  0.0125772  nan  nan  nan  nan  nan  nan  -1.95424  -0.954856  1.47534  -0.184564  0.159928  -0.0153673  0.325207  0.317894  -0.117265  0  0  0  1.25745  1.20001  -0.0247079  0.00127579  -0.0208151  -0.0210649  -0.0558249  -0.0435646  0.00797025  0.0332186  -0.00545256  -0.0158723  -0.324448  0.328188  0.00150887 
1701447721.071929000  0  0  12.1942  0.000522825  -0.143881  0.013309  nan  nan  nan  nan  nan  nan  -1.95259  -0.953251  1.47475  -0.183176  0.159245  -0.0145921  0.331477  0.323873  -0.117374  0  0  0  1.25024  1.19168  -0.018995  0.000960853  -0.0211244  -0.0210229  -0.0555161  -0.0428745  0.00569604  0.0307565  -0.00321445  -0.016494  -0.284006  0.317335  -0.00142175 
1701447721.076938000  0  0  12.2054  0.0126179  -0.149117  0.0138985  nan  nan  nan  nan  nan  nan  -1.95092  -0.951617  1.47416  -0.182129  0.158705  -0.0138943  0.337708  0.329809  -0.117457  0  0  0  1.24229  1.1826  -0.0140322  0.000603022  -0.0214867  -0.020981  -0.0550686  -0.0422104  0.00498295  0.0284141  -0.00121543  -0.0170414  -0.286646  0.309416  -0.00331701 
1701447721.081922000  0  0  12.1625  0.0308646  -0.149755  0.0142536  nan  nan  nan  nan  nan  nan  -1.94922  -0.949953  1.47357  -0.18079  0.157596  -0.0130413  0.343898  0.335698  -0.117516  0  0  0  1.23359  1.17277  -0.0098193  0.000338025  -0.0216965  -0.0209179  -0.0531998  -0.0405637  0.00839138  0.0256  0.00130344  -0.0176651  -0.29725  0.287519  -0.00151986 
1701447721.086926000  0  0  12.2069  0.0135327  -0.14892  0.0141492  nan  nan  nan  nan  nan  nan  -1.94748  -0.94826  1.47299  -0.17925  0.15701  -0.0122464  0.350043  0.341536  -0.117556  0  0  0  1.22414  1.16219  -0.0063565  -1.90094e-05  -0.0220665  -0.020862  -0.0534607  -0.0400967  0.00469135  0.0233229  0.00309008  -0.0182402  -0.241636  0.269412  0.00553717 
1701447721.091928000  0  0  12.1904  0.0355054  -0.153951  0.0138596  nan  nan  nan  nan  nan  nan  -1.94572  -0.946538  1.4724  -0.177477  0.155563  -0.0112573  0.356138  0.347319  -0.117581  0  0  0  1.21394  1.15086  -0.0036437  -0.000272042  -0.022263  -0.0208233  -0.0518154  -0.0386522  0.00572797  0.0203102  0.00584508  -0.0188162  -0.257865  0.254127  0.0149167 
1701447721.096935000  0  0  12.1661  0.0242372  -0.145223  0.0137151  nan  nan  nan  nan  nan  nan  -1.94392  -0.944787  1.47181  -0.176231  0.154645  -0.0104439  0.362181  0.353043  -0.117594  0  0  0  1.20299  1.13878  -0.0016808  -0.000598529  -0.0225713  -0.0207528  -0.0507112  -0.0375732  0.0074074  0.0182959  0.00765149  -0.0192732  -0.216796  0.220052  0.0212935 
1701447721.101868000  0  0  12.2069  0.0104594  -0.148899  0.0141877  nan  nan  nan  nan  nan  nan  -1.94209  -0.943008  1.47122  -0.174456  0.153848  -0.009564  0.368167  0.358705  -0.117599  0  0  0  1.19128  1.12595  -0.000468  -0.00097966  -0.0229258  -0.0207098  -0.0508517  -0.0370489  0.00371185  0.0161895  0.00939557  -0.0198455  -0.169862  0.211358  0.0211085 
1701447721.106922000  0  0  12.1467  0.0374957  -0.142107  0.0140492  nan  nan  nan  nan  nan  nan  -1.94024  -0.9412  1.47063  -0.172694  0.152182  -0.00853326  0.374093  0.364301  -0.1176  0  0  0  1.17883  1.11237  -5.1e-06  -0.00119949  -0.0230886  -0.0206559  -0.0485617  -0.0351743  0.00798586  0.0133642  0.0118554  -0.0203798  -0.197942  0.175145  0.0281833 
1701447721.111929000  0  0  12.1615  -0.00155371  -0.117651  0.0148349  nan  nan  nan  nan  nan  nan  -1.93835  -0.939365  1.47005  -0.170803  0.151249  -0.00760733  0.379954  0.369828  -0.1176  0  0  0  1.16563  1.09804  -0  -0.00154922  -0.0234161  -0.0206158  -0.048342  -0.0342565  0.00624548  0.0116646  0.0129311  -0.0210115  -0.104207  0.116335  0.0246785 
1701447721.116923000  0  0  12.2245  0.00174308  -0.130612  0.0144462  nan  nan  nan  nan  nan  nan  -1.93644  -0.937502  1.46946  -0.168072  0.14937  -0.00639078  0.385748  0.37528  -0.1176  0  0  0  1.15168  1.08296  -0  -0.00179333  -0.0235953  -0.0206318  -0.0479565  -0.0335965  0.00040377  0.00885269  0.0155366  -0.0216639  -0.0849309  0.118286  0.0360608 
1701447721.121923000  0  0  12.1346  0.0105789  -0.113947  0.0143016  nan  nan  nan  nan  nan  nan  -1.9345  -0.935612  1.46887  -0.166889  0.148122  -0.00551779  0.39147  0.380656  -0.1176  0  0  0  1.13698  1.06713  -0  -0.00212689  -0.0238948  -0.0205197  -0.0458349  -0.0319269  0.00708479  0.00731406  0.0168439  -0.0220226  -0.0884472  0.0729309  0.0414554 
1701447721.127393000  0  0  12.156  -0.00924759  -0.113083  0.0149886  nan  nan  nan  nan  nan  nan  -1.93252  -0.933696  1.46828  -0.163727  0.146066  -0.00421204  0.397116  0.385951  -0.1176  0  0  0  1.12153  1.05055  -0  -0.00229595  -0.0240142  -0.0205332  -0.0448919  -0.0302584  0.00452713  0.00462918  0.0190099  -0.022749  -0.0240933  0.0512742  0.0401325 
1701447721.131947000  0  0  12.19  -0.0112987  -0.122431  0.0147808  nan  nan  nan  nan  nan  nan  -1.93053  -0.931753  1.46769  -0.162046  0.144231  -0.00316733  0.402684  0.39116  -0.1176  0  0  0  1.10533  1.03322  -0  -0.00266783  -0.0243345  -0.0204857  -0.0440994  -0.0303725  0.00108631  0.00318479  0.0211846  -0.0232245  -0.00670276  0.0499649  0.0474854 
1701447721.136937000  0  0  12.1009  -0.0313177  -0.105719  0.0153815  nan  nan  nan  nan  nan  nan  -1.9285  -0.929784  1.46711  -0.160238  0.142642  -0.0021436  0.408168  0.396282  -0.1176  0  0  0  1.08837  1.01514  -0  -0.00297517  -0.0246335  -0.0203833  -0.0419446  -0.0282567  0.00758637  0.0020583  0.0224899  -0.0237545  0.043699  0.00453045  0.0452761 
1701447721.141887000  0  0  12.1326  -0.0390081  -0.11575  0.0156922  nan  nan  nan  nan  nan  nan  -1.92644  -0.92779  1.46652  -0.157019  0.140234  -0.000787904  0.413566  0.40131  -0.1176  0  0  0  1.07067  0.996314  -0  -0.00321199  -0.0247944  -0.0203783  -0.0408403  -0.0268792  0.0040864  -0.00033637  0.0249854  -0.0244854  0.0811108  0.00163456  0.0487018 
1701447721.146930000  0  0  12.0997  -0.0341765  -0.121101  0.0155375  nan  nan  nan  nan  nan  nan  -1.92436  -0.925771  1.46593  -0.154825  0.137965  0.000392384  0.418874  0.406243  -0.1176  0  0  0  1.05222  0.976735  -0  -0.00348225  -0.0250705  -0.0202887  -0.0389607  -0.0255392  0.00587016  -0.00193171  0.027166  -0.0249639  0.0861248  -0.00772487  0.0554202 
1701447721.151941000  0  0  12.0557  -0.0535233  -0.115614  0.0163538  nan  nan  nan  nan  nan  nan  -1.92225  -0.923728  1.46534  -0.152467  0.136105  0.00152914  0.424087  0.411077  -0.1176  0  0  0  1.03302  0.956405  -0  -0.00379664  -0.0253687  -0.0201925  -0.0374812  -0.023838  0.008611  -0.00310613  0.0286314  -0.0255782  0.135623  -0.0321811  0.0513594 
1701447721.156940000  0  0  12.0869  -0.042978  -0.13782  0.0163155  nan  nan  nan  nan  nan  nan  -1.92012  -0.921661  1.46475  -0.148965  0.133042  0.00299852  0.429203  0.415806  -0.1176  0  0  0  1.01307  0.935326  -0  -0.00398156  -0.0254911  -0.0201867  -0.035909  -0.0224395  0.00500766  -0.00575423  0.0318068  -0.0262782  0.138895  -0.016982  0.0588385 
1701447721.161883000  0  0  12.0624  -0.039188  -0.135428  0.0164738  nan  nan  nan  nan  nan  nan  -1.91796  -0.91957  1.46417  -0.146674  0.130863  0.0041625  0.434217  0.420429  -0.1176  0  0  0  0.992366  0.913497  -0  -0.00432714  -0.0258228  -0.0200943  -0.0344455  -0.0212842  0.00613268  -0.00712219  0.0335985  -0.0267779  0.1439  -0.0382513  0.0618568 
1701447721.166923000  0  0  12.0463  -0.0340675  -0.139886  0.0165246  nan  nan  nan  nan  nan  nan  -1.91578  -0.917457  1.46358  -0.142824  0.127493  0.0056965  0.439125  0.42494  -0.1176  0  0  0  0.970915  0.890917  -0  -0.00447367  -0.0259064  -0.0200623  -0.0320782  -0.0189149  0.00626802  -0.00993028  0.036617  -0.0274885  0.159494  -0.0571044  0.0683274 
1701447721.171927000  0  0  12.0509  -0.0272671  -0.146604  0.0158268  nan  nan  nan  nan  nan  nan  -1.91357  -0.915321  1.46299  -0.140336  0.125382  0.0068617  0.443924  0.429336  -0.1176  0  0  0  0.948713  0.867588  -0  -0.00485701  -0.0262313  -0.0199682  -0.0312531  -0.0181718  0.00500404  -0.0114317  0.0382891  -0.027838  0.159706  -0.0590524  0.0805449 
1701447721.176922000  0  0  12.0235  -0.0364678  -0.137908  0.0163665  nan  nan  nan  nan  nan  nan  -1.91134  -0.913163  1.4624  -0.137152  0.122854  0.0081667  0.448611  0.433615  -0.1176  0  0  0  0.925762  0.843508  -0  -0.00516936  -0.0265097  -0.0198778  -0.0297061  -0.0162264  0.00621512  -0.0132492  0.0400458  -0.0284035  0.194828  -0.0926054  0.0794535 
1701447721.181890000  0  0  11.9969  -0.0145149  -0.145342  0.0164812  nan  nan  nan  nan  nan  nan  -1.90909  -0.910985  1.46181  -0.133119  0.119125  0.00972486  0.453181  0.43777  -0.1176  0  0  0  0.90206  0.818679  -0  -0.00531945  -0.0265986  -0.0198326  -0.0270668  -0.0137332  0.00714197  -0.0163733  0.0432037  -0.029045  0.179664  -0.10679  0.0844347 
1701447721.186880000  0  0  11.995  -0.0135045  -0.148172  0.0167521  nan  nan  nan  nan  nan  nan  -1.90681  -0.908786  1.46123  -0.129907  0.116342  0.0110398  0.45763  0.4418  -0.1176  0  0  0  0.877609  0.793099  -0  -0.00563418  -0.0268709  -0.0197571  -0.0257435  -0.0123426  0.00627509  -0.0183723  0.0452206  -0.0295641  0.196034  -0.119685  0.0862397 
1701447721.191932000  0  0  11.9769  -0.0127293  -0.151049  0.0166953  nan  nan  nan  nan  nan  nan  -1.90451  -0.906567  1.46064  -0.125061  0.112346  0.0126823  0.461956  0.4457  -0.1176  0  0  0  0.852407  0.76677  -0  -0.00573648  -0.0269012  -0.0197272  -0.0232167  -0.00922934  0.00643041  -0.0217701  0.0483809  -0.03025  0.225744  -0.143007  0.0938081 
1701447721.196935000  0  0  11.9393  0.0192932  -0.153817  0.0166274  nan  nan  nan  nan  nan  nan  -1.90219  -0.904329  1.46005  -0.121783  0.10912  0.0140258  0.466153  0.449467  -0.1176  0  0  0  0.826455  0.739691  -0  -0.00602419  -0.0271453  -0.0196336  -0.0211653  -0.00750238  0.00840986  -0.0242784  0.0506163  -0.0306627  0.184775  -0.158036  0.0987847 
1701447721.201939000  0  0  11.9426  0.00661358  -0.142754  0.0170135  nan  nan  nan  nan  nan  nan  -1.89985  -0.902073  1.45946  -0.118019  0.10633  0.0153548  0.470219  0.453096  -0.1176  0  0  0  0.799754  0.711861  -0  -0.00635594  -0.0274046  -0.0195426  -0.0201989  -0.00575498  0.00707667  -0.0264645  0.0520244  -0.0311781  0.230246  -0.193116  0.0991125 
1701447721.206923000  0  0  11.9316  0.0260201  -0.155418  0.0173184  nan  nan  nan  nan  nan  nan  -1.89749  -0.899798  1.45887  -0.112996  0.101908  0.0169847  0.474149  0.456584  -0.1176  0  0  0  0.772302  0.683282  -0  -0.00645815  -0.0274349  -0.0195067  -0.0175639  -0.0027798  0.0065923  -0.0302861  0.0554176  -0.0318452  0.226592  -0.199005  0.101972 
1701447721.211946000  0  0  11.883  0.0427802  -0.149676  0.017363  nan  nan  nan  nan  nan  nan  -1.89511  -0.897507  1.45829  -0.109093  0.0982831  0.0183785  0.477941  0.459927  -0.1176  0  0  0  0.744101  0.653952  -0  -0.00670016  -0.0276132  -0.0194143  -0.015359  -0.000550908  0.00942094  -0.0330599  0.0575464  -0.0322883  0.21859  -0.230075  0.105846 
1701447721.216934000  0  0  11.9191  0.0273703  -0.148811  0.0177419  nan  nan  nan  nan  nan  nan  -1.89271  -0.895199  1.4577  -0.103562  0.0938953  0.0199844  0.481589  0.463122  -0.1176  0  0  0  0.715149  0.623873  -0  -0.00678718  -0.0276176  -0.0194056  -0.0135483  0.00229472  0.00513046  -0.0366947  0.0604408  -0.0329795  0.28285  -0.258434  0.108021 
1701447721.221883000  0  0  11.8953  0.0463856  -0.155172  0.01747  nan  nan  nan  nan  nan  nan  -1.89029  -0.892876  1.45711  -0.0992818  0.0897727  0.0214081  0.485091  0.466166  -0.1176  0  0  0  0.685448  0.593663  -0  -0.00699998  -0.0277635  -0.0193269  -0.011268  0.0045403  0.00586097  -0.0396233  0.0630376  -0.0333856  0.271763  -0.269602  0.115481 
1701447721.227345000  0  0  11.8821  0.0382467  -0.149688  0.0175165  nan  nan  nan  nan  nan  nan  -1.88786  -0.890538  1.45652  -0.0942919  0.0852874  0.0228977  0.488442  0.46906  -0.1176  0  0  0  0.654996  0.564197  -0  -0.00702938  -0.0277135  -0.0193065  -0.00916045  0.0072709  0.00577817  -0.0425713  0.0654275  -0.0338203  0.315163  -0.302556  0.119247 
1701447721.231925000  0  0  11.9458  0.0147127  -0.145285  0.0169574  nan  nan  nan  nan  nan  nan  -1.88541  -0.888186  1.45593  -0.0898613  0.0814287  0.0242467  0.49164  0.471809  -0.1176  0  0  0  0.624115  0.535481  -0  -0.00728292  -0.0278801  -0.0192772  -0.00811767  0.00906551  -0.000524703  -0.0447223  0.0675581  -0.0342396  0.38202  -0.330965  0.130428 
1701447721.236938000  0  0  11.8798  0.0289668  -0.139793  0.0160863  nan  nan  nan  nan  nan  nan  -1.88294  -0.88582  1.45535  -0.0862463  0.077182  0.0255371  0.494685  0.474416  -0.1176  0  0  0  0.593893  0.507515  -0  -0.0074877  -0.0279958  -0.0192143  -0.00542616  0.0111313  0.0039505  -0.0465099  0.06966  -0.0343487  0.369958  -0.361286  0.142408 
1701447721.241938000  0  0  11.8973  0.00671178  -0.134401  0.0164512  nan  nan  nan  nan  nan  nan  -1.88046  -0.883442  1.45476  -0.0812268  0.072506  0.0269408  0.49758  0.476885  -0.1176  0  0  0  0.564421  0.480298  -0  -0.0075145  -0.0279348  -0.0192128  -0.0032418  0.0139343  0.00144595  -0.0489445  0.0720884  -0.0347644  0.436866  -0.394411  0.142005 
1701447721.246930000  0  0  11.9363  0.00125929  -0.132991  0.0160639  nan  nan  nan  nan  nan  nan  -1.87797  -0.881052  1.45417  -0.077882  0.0687817  0.0281152  0.50033  0.47922  -0.1176  0  0  0  0.535699  0.453832  -0  -0.00772722  -0.0280644  -0.0192037  -0.00188949  0.0148912  -0.00248656  -0.0498047  0.0735107  -0.0348981  0.455685  -0.410317  0.148182 
1701447721.251940000  0  0  11.8805  -0.00974969  -0.114129  0.0166997  nan  nan  nan  nan  nan  nan  -1.87546  -0.87865  1.45358  -0.0742656  0.0651262  0.0292834  0.502938  0.481425  -0.1176  0  0  0  0.507727  0.428116  -0  -0.0079691  -0.0281994  -0.0191392  0.000213751  0.0171678  0.00139694  -0.050736  0.0743612  -0.035135  0.48627  -0.455865  0.142604 
1701447721.256938000  0  0  11.9105  -0.0262557  -0.114437  0.0167107  nan  nan  nan  nan  nan  nan  -1.87294  -0.876237  1.45299  -0.0695714  0.0605882  0.0305592  0.505409  0.483503  -0.1176  0  0  0  0.480505  0.40315  -0  -0.00796892  -0.0281121  -0.0191579  0.00237792  0.0197653  -0.00191668  -0.0524547  0.076346  -0.0354533  0.535095  -0.473509  0.14565 
1701447721.261923000  0  0  11.916  -0.0329854  -0.107982  0.0169616  nan  nan  nan  nan  nan  nan  -1.8704  -0.873815  1.45241  -0.0664243  0.0567068  0.0316678  0.507745  0.485458  -0.1176  0  0  0  0.454033  0.378934  -0  -0.00813592  -0.0281962  -0.0191556  0.00437935  0.0210195  -0.0029187  -0.0527003  0.0774836  -0.0356204  0.550813  -0.496885  0.144185 
1701447721.266927000  0  0  11.8995  -0.0621099  -0.0960849  0.0178811  nan  nan  nan  nan  nan  nan  -1.86786  -0.871383  1.45182  -0.0614961  0.0518989  0.0329094  0.50995  0.487293  -0.1176  0  0  0  0.428311  0.355468  -0  -0.00810168  -0.0280775  -0.0191578  0.00729895  0.0244773  -0.00232752  -0.0541737  0.0792788  -0.0360441  0.622618  -0.537195  0.136927 
1701447721.271951000  0  0  11.9355  -0.0621975  -0.102081  0.0173245  nan  nan  nan  nan  nan  nan  -1.8653  -0.868942  1.45123  -0.0585277  0.0487423  0.0339206  0.512029  0.489014  -0.1176  0  0  0  0.403339  0.332751  -0  -0.0082675  -0.0281408  -0.0191756  0.00836916  0.0254476  -0.00564714  -0.0539321  0.0796205  -0.0361422  0.62057  -0.528347  0.144865 
1701447721.276933000  0  0  11.8954  -0.0770405  -0.0873963  0.0165802  nan  nan  nan  nan  nan  nan  -1.86274  -0.866493  1.45064  -0.0556551  0.0451203  0.0349407  0.513985  0.490622  -0.1176  0  0  0  0.379117  0.310785  -0  -0.00842893  -0.0282298  -0.0191328  0.0105376  0.0269852  -0.00273085  -0.0533966  0.0800897  -0.0361697  0.64533  -0.562033  0.154444 
1701447721.281922000  0  0  11.8923  -0.0919651  -0.0845551  0.0160676  nan  nan  nan  nan  nan  nan  -1.86017  -0.864036  1.45005  -0.0513352  0.0405569  0.0360547  0.515821  0.492123  -0.1176  0  0  0  0.355645  0.289569  -0  -0.00837319  -0.0280938  -0.0191461  0.0132923  0.0298264  -0.00302493  -0.0541021  0.0815309  -0.0363111  0.681669  -0.580974  0.162265 
1701447721.286933000  0  0  11.925  -0.0787493  -0.0965065  0.0149293  nan  nan  nan  nan  nan  nan  -1.85758  -0.861572  1.44947  -0.0487969  0.0374168  0.0370018  0.517543  0.493519  -0.1176  0  0  0  0.332923  0.269103  -0  -0.00853334  -0.0281543  -0.0191701  0.0146759  0.0306027  -0.00594744  -0.0534872  0.0818214  -0.0361916  0.649581  -0.559744  0.175299 
1701447721.291944000  0  0  11.8799  -0.102528  -0.0823791  0.0151838  nan  nan  nan  nan  nan  nan  -1.85499  -0.859101  1.44888  -0.04464  0.032785  0.0380613  0.519152  0.494815  -0.1176  0  0  0  0.310951  0.249387  -0  -0.00844436  -0.0279862  -0.0191633  0.017793  0.0336128  -0.00266912  -0.0538719  0.0831367  -0.036308  0.700677  -0.600099  0.173283 
1701447721.296923000  0  0  11.8958  -0.0995183  -0.0812268  0.0148354  nan  nan  nan  nan  nan  nan  -1.85239  -0.856624  1.44829  -0.0417022  0.0299916  0.0389773  0.520653  0.496014  -0.1176  0  0  0  0.28973  0.230421  -0  -0.00860633  -0.0280623  -0.0191615  0.0189586  0.035255  -0.00415827  -0.0533231  0.0827244  -0.0362818  0.689609  -0.598611  0.177375 
1701447721.301887000  0  0  11.8893  -0.0874159  -0.0856237  0.014453  nan  nan  nan  nan  nan  nan  -1.84978  -0.854141  1.4477  -0.0390967  0.0267761  0.0398907  0.522051  0.49712  -0.1176  0  0  0  0.269258  0.212205  -0  -0.00875449  -0.0281132  -0.0191527  0.0208338  0.0366351  -0.00380789  -0.0527767  0.0828726  -0.0361832  0.660378  -0.59118  0.181169 
1701447721.306945000  0  0  11.8877  -0.113204  -0.0715656  0.0147883  nan  nan  nan  nan  nan  nan  -1.84717  -0.851653  1.44711  -0.0351059  0.0225269  0.0408625  0.523347  0.498137  -0.1176  0  0  0  0.249536  0.194738  -0  -0.00861208  -0.0278929  -0.019176  0.0234314  0.0393785  -0.00395102  -0.0528722  0.0836641  -0.0362647  0.712832  -0.626579  0.177793 
1701447721.312081000  0  0  11.8992  -0.0783196  -0.0793441  0.0145131  nan  nan  nan  nan  nan  nan  -1.84455  -0.84916  1.44653  -0.0324906  0.019621  0.0417378  0.524547  0.499069  -0.1176  0  0  0  0.230564  0.178022  -0  -0.00864474  -0.0278471  -0.0192169  0.0247752  0.0406782  -0.00493605  -0.0525214  0.0833841  -0.0361646  0.639836  -0.608446  0.180232 
1701447721.316929000  0  0  11.8848  -0.0718975  -0.074941  0.0151928  nan  nan  nan  nan  nan  nan  -1.84192  -0.846662  1.44594  -0.0288831  0.0156565  0.0426513  0.525654  0.499919  -0.1176  0  0  0  0.212342  0.162056  -0  -0.00860303  -0.0277196  -0.0192105  0.0274418  0.043364  -0.00402172  -0.0531939  0.0841561  -0.0362633  0.633179  -0.624355  0.172723 
1701447721.321878000  0  0  11.9116  -0.0864631  -0.0706232  0.0156627  nan  nan  nan  nan  nan  nan  -1.83929  -0.844161  1.44535  -0.0261795  0.0129613  0.0434986  0.526672  0.500691  -0.1176  0  0  0  0.19487  0.14684  -0  -0.00867971  -0.0277053  -0.0192351  0.028768  0.0450115  -0.00623688  -0.0524414  0.0835518  -0.0363374  0.655387  -0.62743  0.16759 
1701447721.326931000  0  0  11.8936  -0.0574868  -0.0852011  0.0150249  nan  nan  nan  nan  nan  nan  -1.83666  -0.841656  1.44476  -0.0228989  0.00854883  0.0443828  0.527604  0.501389  -0.1176  0  0  0  0.178148  0.132374  -0  -0.00849164  -0.0274496  -0.0192582  0.0319003  0.0472201  -0.00495597  -0.0530553  0.084944  -0.0362574  0.603082  -0.611083  0.174762 
1701447721.331931000  0  0  11.91  -0.071286  -0.0756065  0.0152802  nan  nan  nan  nan  nan  nan  -1.83402  -0.839147  1.44417  -0.0203286  0.00609313  0.0452016  0.528455  0.502016  -0.1176  0  0  0  0.162176  0.118658  -0  -0.00855487  -0.0274238  -0.0192902  0.0330961  0.0489044  -0.00622455  -0.0523371  0.0840284  -0.0362747  0.624073  -0.621848  0.171745 
1701447721.336940000  0  0  11.9384  -0.0748313  -0.075007  0.0148183  nan  nan  nan  nan  nan  nan  -1.83137  -0.836636  1.44359  -0.0181335  0.00353609  0.0460145  0.529227  0.502576  -0.1176  0  0  0  0.146954  0.105691  -0  -0.00859073  -0.027376  -0.0193438  0.0344845  0.0501336  -0.00843478  -0.0513257  0.0833585  -0.0362095  0.621859  -0.616885  0.176866 
1701447721.341929000  0  0  11.8905  -0.0570445  -0.0822126  0.0148614  nan  nan  nan  nan  nan  nan  -1.82873  -0.834122  1.443  -0.0151277  -0.000606714  0.0468472  0.529925  0.503074  -0.1176  0  0  0  0.132482  0.0934753  -0  -0.00840733  -0.0271289  -0.0193423  0.0375476  0.0523413  -0.00459513  -0.0516916  0.0844286  -0.0361607  0.589651  -0.612318  0.175839 
1701447721.346940000  0  0  11.9522  -0.0874547  -0.0762355  0.0155743  nan  nan  nan  nan  nan  nan  -1.82607  -0.831605  1.44241  -0.0131167  -0.00254177  0.0476369  0.530553  0.503512  -0.1176  0  0  0  0.11876  0.0820091  -0  -0.00845821  -0.0270844  -0.0194141  0.0383632  0.0534651  -0.00944048  -0.0501734  0.0831084  -0.0362355  0.636505  -0.612126  0.167677 
1701447721.351935000  0  0  11.9716  -0.073622  -0.0781055  0.0154457  nan  nan  nan  nan  nan  nan  -1.82342  -0.829086  1.44182  -0.0110335  -0.00485998  0.0484291  0.531114  0.503895  -0.1176  0  0  0  0.105788  0.071293  -0  -0.00842278  -0.0269764  -0.0194677  0.0395878  0.0547475  -0.0108736  -0.0494094  0.0823579  -0.0362297  0.60181  -0.601481  0.169226 
1701447721.356886000  0  0  11.904  -0.0699095  -0.0655618  0.0149787  nan  nan  nan  nan  nan  nan  -1.82076  -0.826566  1.44123  -0.00835094  -0.0086509  0.0492258  0.531612  0.504227  -0.1176  0  0  0  0.0935664  0.0613268  -0  -0.00824698  -0.0267271  -0.0194569  0.0424447  0.0568004  -0.00526978  -0.049313  0.0828034  -0.0361532  0.593498  -0.630668  0.174298 
1701447721.361921000  0  0  11.9747  -0.0945114  -0.0624047  0.0147736  nan  nan  nan  nan  nan  nan  -1.8181  -0.824044  1.44065  -0.00656386  -0.0104656  0.0500067  0.532051  0.50451  -0.1176  0  0  0  0.0820945  0.0521107  -0  -0.00821115  -0.0266026  -0.0195688  0.0432628  0.0577885  -0.0107516  -0.0476768  0.0813495  -0.0361227  0.627649  -0.623606  0.176557 
