ts fx fy fz tx ty tz exfx exfy exfz extx exty extz xd yd zd rolld pitchd yawd vxd vyd vzd wxd wyd wzd axd ayd azd e_x e_y e_z e_vx e_vy e_vz e_rx e_ry e_rz e_wx e_wy e_wz
1704191252.326138000  0  0  12.1405  -0.012956  -0.0609621  0.0247447  nan  nan  nan  nan  nan  nan  -2.5  -0.3  1  -0.00565552  -0.0212158  0.000119978  0  0  0  0  0  0  0  0  0  0.0198581  -0.00584294  -0.0357393  -0.0155076  0.00535767  -0.00438942  -0.000568956  0.0170376  -0.0290084  0.0311464  -0.0348222  -0.0192243 
1704191252.330665000  0  0  12.1772  0.00811069  -0.0793138  0.0247706  nan  nan  nan  nan  nan  nan  -2.5  -0.3  1  -0.00524728  -0.0225491  0.000118312  0  0  0  0  0  0  0  0  0  0.0199204  -0.00589233  -0.0357936  -0.013755  0.00599678  -0.00733473  -0.00126422  0.0184554  -0.0291162  -0.00459058  -0.0111617  -0.0184701 
1704191252.335149000  0  0  12.2906  0.0291114  -0.100509  0.0215011  nan  nan  nan  nan  nan  nan  -2.5  -0.3  1  -0.00506371  -0.0207629  0.000105131  0  0  0  0  0  0  0  0  0  0.0198404  -0.00586789  -0.0359061  -0.0157329  0.0061266  -0.016566  -0.00185029  0.0172593  -0.0287542  -0.0412001  0.0422317  0.0187788 
1704191252.340309000  0  0  12.1701  -0.0126928  -0.0646262  0.0254754  nan  nan  nan  nan  nan  nan  -2.5  -0.3  1  -0.00681352  -0.0228784  0.000155872  0  0  0  0  0  0  0  0  0  0.0203491  -0.0062134  -0.0356889  -0.01428  0.00459742  -0.00693788  0.000118503  0.0185223  -0.0292221  0.0242953  -0.0411526  -0.0262217 
1704191252.345854000  0  0  12.2103  0.0262674  -0.102097  0.0234278  nan  nan  nan  nan  nan  nan  -2.5  -0.3  1  -0.00591043  -0.0239578  0.000141589  0  0  0  0  0  0  0  0  0  0.0203772  -0.00624054  -0.0357647  -0.0127751  0.0058522  -0.0101456  -0.00132683  0.0199643  -0.0291426  -0.040328  0.0205218  -0.0014214 
1704191252.351084000  0  0  12.2583  0.0307623  -0.0974679  0.0209165  nan  nan  nan  nan  nan  nan  -2.5  -0.3  1  -0.00639008  -0.0216835  0.00013855  0  0  0  0  0  0  0  0  0  0.0202854  -0.00622148  -0.0358497  -0.0155418  0.00512473  -0.0139774  -0.00115408  0.0179949  -0.0287888  -0.050907  0.0293828  0.0264313 
1704191252.361131000  0  0  12.1906  0.0111323  -0.0693236  0.0248852  nan  nan  nan  nan  nan  nan  -2.5  -0.3  1  -0.00580434  -0.0219365  0.000127318  0  0  0  0  0  0  0  0  0  0.020282  -0.00625385  -0.0358901  -0.0153552  0.00603804  -0.00823796  -0.00145792  0.0175652  -0.029298  -0.00885174  -0.0229531  -0.0180846 
1704191252.370615000  0  0  12.1298  -0.0235981  -0.049982  0.0272734  nan  nan  nan  nan  nan  nan  -2.5  -0.3  1  -0.00741806  -0.0241238  0.000178937  0  0  0  0  0  0  0  0  0  0.0208417  -0.00661112  -0.0357254  -0.0137982  0.00469773  -0.00348294  0.000114872  0.0189542  -0.0296525  0.0461394  -0.0744143  -0.0443922 
1704191252.375134000  0  0  12.1461  0.0448837  -0.0972053  0.0216533  nan  nan  nan  nan  nan  nan  -2.5  -0.3  1  -0.0057238  -0.0243227  0.000139206  0  0  0  0  0  0  0  0  0  0.0207851  -0.006575  -0.0357618  -0.0133602  0.00688952  -0.00479117  -0.00265475  0.0197592  -0.029088  -0.0653437  0.012626  0.0202139 
1704191252.380218000  0  0  12.0424  0.0211914  -0.0788951  0.0199174  nan  nan  nan  nan  nan  nan  -2.5  -0.3  0.995  -0.00792929  -0.0232224  0.000184125  2e-07  2e-07  2e-07  0  0  0  0.000125  0.000125  0.000125  0.0207831  -0.00662351  -0.0308095  -0.0150925  0.004129  -0.00644142  -0.000594023  0.0186653  -0.028696  -0.0369178  -0.0139303  0.0379925 
1704191252.385141000  0  0  12.0421  -0.0198377  -0.0533854  0.0246845  nan  nan  nan  nan  nan  nan  -2.5  -0.3  0.995  -0.00688568  -0.0224179  0.000154352  1.7e-06  1.7e-06  1.7e-06  0  0  0  0.0005  0.0005  0.0005  0.0207063  -0.00658921  -0.0308393  -0.0159524  0.00549625  -0.00632134  -0.000843987  0.0173028  -0.0291224  0.0474401  -0.0524154  -0.0173322 
1704191252.390154000  0  0  11.9838  0.0400907  -0.096013  0.0195488  nan  nan  nan  nan  nan  nan  -2.5  -0.3  0.995  -0.00601501  -0.0236309  0.000142128  5.6e-06  5.6e-06  5.6e-06  0  0  0  0.001125  0.001125  0.001125  0.020769  -0.00662971  -0.0308151  -0.0145418  0.00686914  -0.00146757  -0.00267788  0.0190134  -0.0285831  -0.0555449  0.0171031  0.0414711 
1704191252.395080000  0  0  12.0374  0.0175991  -0.0839075  0.0190524  nan  nan  nan  nan  nan  nan  -2.5  -0.3  0.995  -0.00756976  -0.0223237  0.000168874  1.33e-05  1.33e-05  1.33e-05  0  0  0  0.002  0.002  0.002  0.0206869  -0.00661805  -0.03087  -0.0158564  0.00483938  -0.00572943  -0.00109662  0.0177536  -0.0282954  -0.0251092  0.00448166  0.0447997 
1704191252.400127000  0  0  12.0218  -0.0165464  -0.0546691  0.0240398  nan  nan  nan  nan  nan  nan  -2.5  -0.3  0.995  -0.00643056  -0.0213063  0.000136703  2.6e-05  2.6e-05  2.6e-05  0  0  0  0.003125  0.003125  0.003125  0.0206962  -0.00663111  -0.030884  -0.0171331  0.00654512  -0.00429811  -0.00149242  0.0162144  -0.0287568  0.0468231  -0.0398348  -0.0129288 
1704191252.405747000  0  0  11.9539  0.0295787  -0.0855737  0.020965  nan  nan  nan  nan  nan  nan  -2.5  -0.3  0.995  -0.00679927  -0.0230824  0.000156432  4.5e-05  4.5e-05  4.5e-05  0  0  0  0.0045  0.0045  0.0045  0.0207883  -0.00671068  -0.0308362  -0.0149643  0.00645562  0.00140203  -0.00193575  0.0182737  -0.0284545  -0.0413485  0.00302975  0.022483 
1704191252.410136000  0  0  12.0835  0.00251584  -0.0792613  0.0219853  nan  nan  nan  nan  nan  nan  -2.5  -0.299999  0.995  -0.00784499  -0.0215412  0.000167981  7.15e-05  7.15e-05  7.15e-05  0  0  0  0.006125  0.006125  0.006125  0.0207103  -0.00669646  -0.0309316  -0.0163221  0.00512822  -0.00904705  -0.00061419  0.0168231  -0.0284602  0.000618863  0.00375033  0.00978485 
1704191252.415131000  0  0  12.0363  -0.0169439  -0.0456483  0.0252682  nan  nan  nan  nan  nan  nan  -2.5  -0.299999  0.995  -0.00679996  -0.0206391  0.000138637  0.0001067  0.0001067  0.0001067  0  0  0  0.008  0.008  0.008  0.020737  -0.00671458  -0.0309293  -0.0174641  0.0068443  -0.00494137  -0.00109905  0.0153165  -0.0288532  0.0439991  -0.0496153  -0.0273208 
1704191252.420143000  0  0  12.0242  0.0116578  -0.0771267  0.0208597  nan  nan  nan  nan  nan  nan  -2.5  -0.299998  0.995  -0.00757061  -0.0214406  0.000159609  0.0001519  0.0001519  0.0001519  0  0  0  0.010125  0.010125  0.010125  0.0206663  -0.00668977  -0.0309413  -0.0159941  0.00603862  -0.00369906  -0.000802553  0.0164101  -0.0284559  -0.015932  0.0032801  0.023812 
1704191252.425148000  0  0  12.1693  -0.0141187  -0.0843055  0.0212463  nan  nan  nan  nan  nan  nan  -2.5  -0.299997  0.995  -0.00958757  -0.0225478  0.000211966  0.0002083  0.0002083  0.0002083  0  0  0  0.0125  0.0125  0.0125  0.02132  -0.00713056  -0.0307339  -0.0153019  0.00447133  -0.0159726  0.00119832  0.0173572  -0.0284869  0.0172127  0.00892463  0.0192905 
1704191252.430706000  0  0  12.0189  -0.0243036  -0.0511366  0.023188  nan  nan  nan  nan  nan  nan  -2.5  -0.299996  0.995  -0.00937774  -0.0216914  0.000197307  0.0002773  0.0002773  0.0002773  0  0  0  0.015125  0.015125  0.015125  0.0213074  -0.00714401  -0.0306907  -0.0164621  0.00527404  -0.003279  0.00136554  0.0158745  -0.0286605  0.0360442  -0.0437727  -0.00324573 
1704191252.435142000  0  0  12.0643  -0.00450366  -0.0903915  0.0212976  nan  nan  nan  nan  nan  nan  -2.49999  -0.299995  0.99501  -0.00996827  -0.022777  0.000218435  0.00036  0.00036  0.00036  0  0  0  0.018  0.018  0.018  0.0212462  -0.00712612  -0.030749  -0.0143964  0.00476047  -0.006659  0.0016001  0.0174288  -0.0284405  -0.00571357  0.0204376  0.0181853 
1704191252.440084000  0  0  12.195  -0.00989097  -0.0760441  0.020734  nan  nan  nan  nan  nan  nan  -2.49999  -0.299993  0.99501  -0.00973468  -0.0201565  0.00018431  0.0004577  0.0004577  0.0004577  0  0  0  0.021125  0.021125  0.021125  0.0212764  -0.00717775  -0.0308629  -0.0172883  0.00544196  -0.0170389  0.0015228  0.0149236  -0.0282959  0.00577219  0.014791  0.0237846 
1704191252.445868000  0  0  12.0656  -0.0238085  -0.0502176  0.0239695  nan  nan  nan  nan  nan  nan  -2.49999  -0.29999  0.99501  -0.0104114  -0.0203319  0.000195677  0.0005717  0.0005717  0.0005717  0  0  0  0.0245  0.0245  0.0245  0.0212771  -0.00720234  -0.0308408  -0.0169164  0.00515754  -0.00596904  0.00247155  0.0145565  -0.0286041  0.0248789  -0.0334849  -0.0135774 
1704191252.450154000  0  0  12.1514  0.00393164  -0.0798016  0.0230897  nan  nan  nan  nan  nan  nan  -2.49999  -0.299987  0.99501  -0.0101229  -0.0198836  0.000180174  0.0007031  0.0007031  0.0007031  0  0  0  0.028125  0.028125  0.028125  0.0212107  -0.00717529  -0.0309279  -0.0167211  0.00584676  -0.0126024  0.00178463  0.0145552  -0.0285512  -0.0242819  0.0256953  -0.00310949 
1704191252.455844000  0  0  12.1785  -0.00444893  -0.0563152  0.0222573  nan  nan  nan  nan  nan  nan  -2.49998  -0.299983  0.99502  -0.0120492  -0.0198654  0.000212058  0.0008533  0.0008533  0.0008533  0  0  0  0.0319374  0.032  0.032  0.0218037  -0.00756407  -0.0307598  -0.01752  0.00456566  -0.0148165  0.0031952  0.0140003  -0.0285505  -0.0204979  -0.0161724  0.0072896 
1704191252.460273000  0  0  12.1244  -0.0235985  -0.0489867  0.0251545  nan  nan  nan  nan  nan  nan  -2.49998  -0.299978  0.99502  -0.0127202  -0.0204613  0.000225467  0.0010221  0.0010235  0.0010235  0  0  0  0.0355621  0.036125  0.036125  0.0217473  -0.00754869  -0.0307697  -0.0162514  0.00422342  -0.00988151  0.00410068  0.0142842  -0.0288863  0.0094708  -0.0334413  -0.0255681 
1704191252.465145000  0  0  12.1914  0.0075322  -0.073087  0.0220467  nan  nan  nan  nan  nan  nan  -2.49997  -0.299973  0.99503  -0.0121426  -0.0191456  0.000188774  0.0012085  0.001215  0.001215  0  0  0  0.0389369  0.0405  0.0405  0.0217163  -0.0075513  -0.0308768  -0.0173853  0.0054705  -0.0148433  0.0030775  0.0133599  -0.0286436  -0.0433774  0.0232632  0.0108518 
1704191252.470168000  0  0  12.2173  0.00449478  -0.0448868  0.0209754  nan  nan  nan  nan  nan  nan  -2.49997  -0.299966  0.99503  -0.0127578  -0.0164055  0.000155  0.0014111  0.001429  0.001429  0  0  0  0.0420616  0.045125  0.045125  0.0216143  -0.00753027  -0.03095  -0.0204279  0.00513909  -0.0164165  0.00354496  0.010493  -0.0284178  -0.0416032  -0.00676216  0.0219854 
1704191252.475298000  0  0  12.1552  -0.0204844  -0.0324807  0.0251823  nan  nan  nan  nan  nan  nan  -2.49996  -0.299958  0.99504  -0.0135631  -0.017027  0.000164241  0.0016287  0.0016667  0.0016667  0  0  0  0.0449364  0.05  0.05  0.0216069  -0.00752848  -0.0309304  -0.0193208  0.00475403  -0.0107988  0.00462827  0.0106603  -0.0288439  -0.00161136  -0.0331129  -0.026339 
1704191252.479114000  0  0  12.1957  0.00579191  -0.0447766  0.0233275  nan  nan  nan  nan  nan  nan  -2.49995  -0.299949  0.99505  -0.012864  -0.0159248  0.00012386  0.00186  0.0019294  0.0019294  0  0  0  0.0475611  0.055125  0.055125  0.0215253  -0.00750025  -0.031002  -0.0202244  0.00622628  -0.0135554  0.00352844  0.00974009  -0.0287039  -0.0440454  -5.55396e-05  -0.00455518 
1704191252.485145000  0  0  12.1991  0.0093126  -0.0351772  0.0208829  nan  nan  nan  nan  nan  nan  -2.49994  -0.299939  0.99506  -0.0139508  -0.014196  0.000100552  0.0021039  0.0022183  0.0022183  0  0  0  0.0499359  0.0605  0.0605  0.0214877  -0.00751034  -0.0310505  -0.0221775  0.00545167  -0.0132276  0.00417684  0.00805812  -0.0283624  -0.0570522  -0.0037802  0.0225878 
1704191252.490140000  0  0  12.1859  -0.021911  -0.0291097  0.0247795  nan  nan  nan  nan  nan  nan  -2.49993  -0.299927  0.99507  -0.0147071  -0.0142176  9.29072e-05  0.002359  0.0025348  0.0025348  0  0  0  0.0520606  0.066125  0.066125  0.0215041  -0.00754967  -0.0311149  -0.0219364  0.00524862  -0.0114471  0.00529495  0.00797659  -0.0287807  -0.00489161  -0.0151652  -0.0219361 
1704191252.495137000  0  0  12.1767  0.0238185  -0.0455501  0.0218415  nan  nan  nan  nan  nan  nan  -2.49992  -0.299914  0.99509  -0.0136085  -0.0134133  4.51406e-05  0.0026241  0.00288  0.00288  0  0  0  0.0539354  0.072  0.072  0.0213974  -0.00750431  -0.0311701  -0.0225651  0.00739313  -0.010023  0.00337989  0.00746358  -0.0284975  -0.078732  0.0224352  0.0119568 
1704191252.500273000  0  0  12.2316  0.0092055  -0.0379758  0.0214411  nan  nan  nan  nan  nan  nan  -2.4999  -0.299898  0.9951  -0.0156152  -0.0124947  3.39172e-05  0.0028979  0.0032552  0.0032552  0  0  0  0.0555601  0.078125  0.078125  0.0213934  -0.00754446  -0.0312239  -0.0235171  0.00544855  -0.0138893  0.0050788  0.00668508  -0.0283305  -0.0651359  0.0144489  0.0152919 
1704191252.505753000  0  0  12.2169  -0.0125201  -0.0259376  0.0247744  nan  nan  nan  nan  nan  nan  -2.49989  -0.299881  0.99512  -0.015692  -0.0122579  4.66187e-06  0.0031792  0.0036617  0.0036617  0  0  0  0.0569349  0.0845  0.0845  0.0214399  -0.00760176  -0.0312526  -0.0237887  0.00630498  -0.0119949  0.00529197  0.00633667  -0.0286932  -0.0236459  -0.00642221  -0.0227487 
1704191252.510137000  0  0  12.1984  0.0293291  -0.0527636  0.0221398  nan  nan  nan  nan  nan  nan  -2.49987  -0.299862  0.99514  -0.0153492  -0.0122035  -2.95759e-05  0.0034668  0.0041006  0.0041006  0  0  0  0.0580596  0.091125  0.091125  0.0213384  -0.00756628  -0.0312876  -0.0235201  0.00756232  -0.0097534  0.00404039  0.00675247  -0.028439  -0.0958298  0.0434044  0.00764192 
1704191252.515820000  0  0  12.2751  0.0150792  -0.053815  0.0217894  nan  nan  nan  nan  nan  nan  -2.49985  -0.29984  0.99516  -0.0172014  -0.0114463  -5.21932e-05  0.0037594  0.0045733  0.0045733  0  0  0  0.0589343  0.098  0.098  0.0213862  -0.00761006  -0.0313418  -0.0244452  0.00587406  -0.0153607  0.00551558  0.00639473  -0.028272  -0.0809018  0.0487984  0.0103525 
1704191252.520812000  0  0  12.1939  -0.00588933  -0.041148  0.0260343  nan  nan  nan  nan  nan  nan  -2.49983  -0.299816  0.99518  -0.0177765  -0.0131812  -4.99654e-05  0.0040558  0.005081  0.005081  0  0  0  0.0595591  0.105125  0.105125  0.0217321  -0.00778038  -0.0311147  -0.0228875  0.00653145  -0.00837232  0.00603  0.00773273  -0.0287442  -0.0436974  0.0111549  -0.0379871 
1704191252.525152000  0  0  12.2032  0.0247754  -0.0880083  0.0227615  nan  nan  nan  nan  nan  nan  -2.49981  -0.299789  0.99521  -0.0183151  -0.0134235  -7.6627e-05  0.0043546  0.005625  0.005625  0  0  0  0.0599338  0.1125  0.1125  0.0216392  -0.00775622  -0.0311626  -0.0222922  0.00666347  -0.00834123  0.00572384  0.00889398  -0.0284717  -0.10221  0.0941919  0.000198743 
1704191252.530160000  0  0  12.2807  0.00671681  -0.0828225  0.0219649  nan  nan  nan  nan  nan  nan  -2.49979  -0.299759  0.99524  -0.0196443  -0.0119872  -0.000128394  0.0046547  0.0062065  0.0062065  0  0  0  0.0600586  0.120125  0.120125  0.0216614  -0.00778569  -0.0312191  -0.0241716  0.00572379  -0.0139453  0.00681995  0.00799723  -0.0282701  -0.0761772  0.0920704  0.00814022 
1704191252.535166000  0  0  12.1983  -0.0183699  -0.0620858  0.0255149  nan  nan  nan  nan  nan  nan  -2.49977  -0.299727  0.99527  -0.01986  -0.0117918  -0.00017439  0.0049548  0.0068267  0.0068267  0  0  0  0.0599333  0.128  0.128  0.0215479  -0.00774951  -0.0312113  -0.024311  0.00652864  -0.00634982  0.00723415  0.00777536  -0.028656  -0.0298145  0.0526384  -0.0323769 
1704191252.540276000  0  0  12.256  0.0192851  -0.126526  0.0208166  nan  nan  nan  nan  nan  nan  -2.49974  -0.299691  0.99531  -0.0207572  -0.0128169  -0.000190425  0.0052536  0.0074869  0.0074869  0  0  0  0.0595581  0.136125  0.136125  0.0215531  -0.00776953  -0.0312569  -0.0228996  0.00625296  -0.0102812  0.00709794  0.0102215  -0.0281847  -0.103871  0.159014  0.0216388 
1704191252.545184000  0  0  12.3031  -0.00168504  -0.0948103  0.0216302  nan  nan  nan  nan  nan  nan  -2.49971  -0.299652  0.99535  -0.0216929  -0.0106207  -0.000277274  0.0055499  0.0081883  0.0081883  0  0  0  0.0589328  0.1445  0.144461  0.0214134  -0.00774295  -0.0313306  -0.0256062  0.00586779  -0.0132522  0.00793598  0.00835934  -0.028111  -0.0696409  0.112715  0.0107319 
1704191252.550168000  0  0  12.229  -0.0223593  -0.0799646  0.0253394  nan  nan  nan  nan  nan  nan  -2.49968  -0.299609  0.99539  -0.0228636  -0.01201  -0.000287668  0.0058425  0.0089323  0.0089312  0  0  0  0.0580576  0.153125  0.15264  0.021434  -0.00780533  -0.0313263  -0.0239639  0.00568677  -0.00628899  0.00913453  0.00981707  -0.0285373  -0.0393191  0.0696122  -0.0313695 
1704191252.555719000  0  0  12.2887  0.0072278  -0.143732  0.0209485  nan  nan  nan  nan  nan  nan  -2.49965  -0.299563  0.99544  -0.024237  -0.0136826  -0.00028862  0.0061301  0.00972  0.0097143  0  0  0  0.0569323  0.162  0.160568  0.0215716  -0.00796762  -0.0313712  -0.02205  0.00514396  -0.0103999  0.00950139  0.013059  -0.0281187  -0.101868  0.167322  0.0193309 
1704191252.560143000  0  0  12.3047  -0.019743  -0.0942288  0.0223363  nan  nan  nan  nan  nan  nan  -2.49962  -0.299512  0.99549  -0.0253183  -0.0115803  -0.000388349  0.0064114  0.0105527  0.0105364  0  0  0  0.0555571  0.171125  0.168246  0.0214467  -0.00795408  -0.031425  -0.0248003  0.00474912  -0.0108823  0.0106114  0.0109185  -0.0281193  -0.0581388  0.0880078  0.00198924 
1704191252.565334000  0  0  12.259  -0.0267164  -0.101273  0.0252313  nan  nan  nan  nan  nan  nan  -2.49959  -0.299457  0.99554  -0.0265868  -0.0140555  -0.000372634  0.0066853  0.0114317  0.0113963  0  0  0  0.0539318  0.1805  0.175674  0.0214949  -0.00802219  -0.0314343  -0.0218018  0.00448759  -0.00632676  0.0116893  0.0136614  -0.0285056  -0.054109  0.0768606  -0.0303348 
1704191252.570846000  0  0  12.346  -0.000542798  -0.147542  0.0201002  nan  nan  nan  nan  nan  nan  -2.49956  -0.299398  0.9956  -0.0280344  -0.014321  -0.000412928  0.0069503  0.0123581  0.0122928  0  0  0  0.0520566  0.190125  0.182852  0.0216529  -0.00820282  -0.0314907  -0.0218932  0.00386461  -0.0127649  0.0121679  0.0153515  -0.0279753  -0.110859  0.153852  0.0285002 
1704191252.575166000  0  0  12.3398  -0.0282202  -0.100301  0.0221993  nan  nan  nan  nan  nan  nan  -2.49952  -0.299333  0.99567  -0.0295058  -0.0125719  -0.000514957  0.0072054  0.0133333  0.0132244  0  0  0  0.0499313  0.2  0.189781  0.0215293  -0.00820117  -0.031539  -0.0243011  0.00311489  -0.0114574  0.0136366  0.0134794  -0.0280417  -0.0690168  0.0765905  0.00292588 
1704191252.580817000  0  0  12.3333  -0.0225334  -0.126972  0.0235314  nan  nan  nan  nan  nan  nan  -2.49948  -0.299264  0.99573  -0.0304602  -0.0150731  -0.000501544  0.0074492  0.0143585  0.0141901  0  0  0  0.0475561  0.210125  0.196459  0.0215809  -0.00826865  -0.031581  -0.0212991  0.00325831  -0.0101884  0.0140529  0.0166888  -0.0282157  -0.0842195  0.100406  -0.0119852 
1704191252.585186000  0  0  12.3704  0.000405672  -0.145297  0.0201885  nan  nan  nan  nan  nan  nan  -2.49945  -0.29919  0.99581  -0.0313202  -0.014325  -0.000590207  0.0076806  0.015435  0.0151886  0  0  0  0.0449308  0.2205  0.202887  0.0214807  -0.00826248  -0.0316588  -0.0223801  0.00325138  -0.0124889  0.0140509  0.0168079  -0.0277654  -0.13008  0.135961  0.0252979 
1704191252.590152000  0  0  12.3769  -0.0361175  -0.108789  0.023776  nan  nan  nan  nan  nan  nan  -2.49941  -0.29911  0.99589  -0.0336679  -0.0147859  -0.000622419  0.0078981  0.016564  0.0162186  0  0  0  0.0420556  0.231125  0.209065  0.0216314  -0.00843441  -0.0317138  -0.0224395  0.00172709  -0.0122884  0.0163015  0.0172626  -0.0280255  -0.0777388  0.0587617  -0.0169453 
1704191252.595158000  0  0  12.3576  -0.0344863  -0.118924  0.0251816  nan  nan  nan  nan  nan  nan  -2.49937  -0.299024  0.99597  -0.0345221  -0.0156478  -0.000664614  0.0081007  0.0177467  0.0172788  0  0  0  0.0389303  0.242  0.214994  0.0215304  -0.00842189  -0.03175  -0.0214629  0.00197489  -0.0100229  0.0167114  0.0184927  -0.0282439  -0.0847727  0.0677154  -0.0323315 
1704191252.600165000  0  0  12.3739  -0.00867292  -0.134274  0.0221501  nan  nan  nan  nan  nan  nan  -2.49933  -0.298932  0.99606  -0.0357184  -0.0159946  -0.000721278  0.008287  0.0189844  0.0183681  0  0  0  0.0355551  0.253125  0.220672  0.0215895  -0.00851978  -0.031817  -0.0215217  0.00189344  -0.0106726  0.0168355  0.0195335  -0.0279233  -0.137541  0.0888404  0.00235696 
1704191252.605156000  0  0  12.4128  -0.0241015  -0.0997046  0.0241565  nan  nan  nan  nan  nan  nan  -2.49928  -0.298834  0.99615  -0.0372514  -0.0152722  -0.000814449  0.0084558  0.0202783  0.0194851  0  0  0  0.0319298  0.2645  0.2261  0.0215614  -0.00858303  -0.0318756  -0.022853  0.00120652  -0.0132349  0.017939  0.0186405  -0.0280776  -0.116836  0.0279164  -0.0211803 
1704191252.610149000  0  0  12.3647  -0.022938  -0.103622  0.024264  nan  nan  nan  nan  nan  nan  -2.49924  -0.298729  0.99625  -0.0387019  -0.0162729  -0.000847224  0.0086059  0.0216298  0.0206287  0  0  0  0.0281174  0.276125  0.231278  0.0214632  -0.00857916  -0.031896  -0.0218294  0.000875349  -0.00865416  0.0187163  0.0197684  -0.0281372  -0.126314  0.0253734  -0.0219282 
1704191252.615156000  0  0  12.4063  -0.00595605  -0.114825  0.0223225  nan  nan  nan  nan  nan  nan  -2.4992  -0.298618  0.99636  -0.0394854  -0.016718  -0.000913569  0.0087374  0.02304  0.0217975  0  0  0  0.0244929  0.288  0.236207  0.0215488  -0.00869204  -0.0319817  -0.0217955  0.00137018  -0.0114471  0.0184973  0.0205823  -0.0279105  -0.158263  0.040292  7.41985e-05 
1704191252.620759000  0  0  12.3955  -0.0110638  -0.0879234  0.0232606  nan  nan  nan  nan  nan  nan  -2.49915  -0.298499  0.99647  -0.0412577  -0.0160757  -0.0010098  0.0088513  0.0245102  0.0229903  0  0  0  0.0211184  0.300125  0.240885  0.0215264  -0.00875226  -0.0320068  -0.0230873  0.000647505  -0.00998545  0.0193838  0.019741  -0.0279208  -0.156203  -0.00577001  -0.01155 
1704191252.625171000  0  0  12.3573  -0.020423  -0.0871918  0.0251511  nan  nan  nan  nan  nan  nan  -2.49911  -0.298372  0.99659  -0.0431147  -0.017458  -0.00102238  0.008949  0.0260417  0.0242059  0  0  0  0.017994  0.3125  0.245313  0.0214404  -0.00876899  -0.0320383  -0.0214673  -0.000125011  -0.00626875  0.020608  0.0209973  -0.0281276  -0.148748  -0.0187911  -0.033113 
1704191252.630822000  0  0  12.4666  0.0128249  -0.112507  0.0208802  nan  nan  nan  nan  nan  nan  -2.49907  -0.298238  0.99671  -0.043302  -0.0169077  -0.00114754  0.0090316  0.0276356  0.0254431  0  0  0  0.0151195  0.325125  0.249491  0.0215435  -0.008884  -0.0321459  -0.0226198  0.000947255  -0.0147261  0.0194041  0.0209885  -0.0276779  -0.204167  0.0319197  0.015776 
1704191252.635272000  0  0  12.4146  -0.00425961  -0.0720464  0.022018  nan  nan  nan  nan  nan  nan  -2.49902  -0.298096  0.99684  -0.0457257  -0.0161529  -0.00124802  0.0091006  0.0292933  0.0267004  0  0  0  0.012495  0.338  0.253419  0.0214251  -0.00890648  -0.0321729  -0.0238397  -0.000463175  -0.0098763  0.0210782  0.0196987  -0.0276346  -0.1854  -0.0371354  0.00112153 
1704191252.640277000  0  0  12.4404  -0.000438556  -0.0869465  0.025461  nan  nan  nan  nan  nan  nan  -2.49897  -0.297945  0.99698  -0.0471739  -0.0175173  -0.00126937  0.009157  0.031016  0.0279768  0  0  0  0.0101205  0.351125  0.257098  0.0214299  -0.00897762  -0.0322241  -0.0222254  -0.000777638  -0.0115064  0.0214918  0.0210637  -0.0279717  -0.196847  -0.0198927  -0.0385453 
1704191252.645354000  0  0  12.5119  0.0390157  -0.0957393  0.0213337  nan  nan  nan  nan  nan  nan  -2.49893  -0.297786  0.99712  -0.0468652  -0.0155568  -0.00147812  0.0092022  0.032805  0.029271  0  0  0  0.007996  0.3645  0.260526  0.0213004  -0.00896167  -0.0323201  -0.024806  0.000939758  -0.0169138  0.0195808  0.0193738  -0.0275339  -0.258175  0.0132397  0.0086682 
1704191252.650164000  0  0  12.4603  0.0132216  -0.0654982  0.022716  nan  nan  nan  nan  nan  nan  -2.49888  -0.297617  0.99727  -0.0502757  -0.0162152  -0.00150502  0.0092374  0.0346615  0.0305817  0  0  0  0.0061215  0.378125  0.263704  0.0214027  -0.00911523  -0.0323674  -0.0244603  -0.00144617  -0.0120857  0.0220418  0.0195891  -0.0275946  -0.229228  -0.049223  -0.00800354 
1704191252.655164000  0  0  12.4753  -0.00404623  -0.0808528  0.0259874  nan  nan  nan  nan  nan  nan  -2.49884  -0.297439  0.99743  -0.0522407  -0.0183941  -0.00147416  0.0092638  0.0365867  0.0319076  0  0  0  0.004497  0.391986  0.266632  0.0214489  -0.00921328  -0.0324208  -0.0217276  -0.00228498  -0.0128721  0.0231319  0.0216666  -0.0280145  -0.204721  -0.0376271  -0.0446983 
1704191252.660163000  0  0  12.5153  0.0349233  -0.0968277  0.022544  nan  nan  nan  nan  nan  nan  -2.49879  -0.297251  0.99759  -0.0523785  -0.016741  -0.00167487  0.0092828  0.0385811  0.0332476  0  0  0  0.0031225  0.40574  0.269311  0.0213153  -0.00920849  -0.0325081  -0.0238362  -0.000972647  -0.0157273  0.0215815  0.0203507  -0.0276628  -0.268397  0.00642899  -0.00517194 
1704191252.665150000  0  0  12.4502  0.00170931  -0.0698396  0.02468  nan  nan  nan  nan  nan  nan  -2.49874  -0.297053  0.99776  -0.0563818  -0.018512  -0.00162561  0.0092955  0.0406436  0.0346003  0  0  0  0.001998  0.419245  0.271739  0.0215586  -0.00940195  -0.0325609  -0.0222013  -0.00399395  -0.00980628  0.0245519  0.021676  -0.0278154  -0.229296  -0.0597399  -0.0303453 
1704191252.670144000  0  0  12.5244  0.00474688  -0.099686  0.0264997  nan  nan  nan  nan  nan  nan  -2.4987  -0.296844  0.99794  -0.0566226  -0.0188589  -0.00172068  0.0093032  0.0427731  0.0359646  0  0  0  0.0011235  0.4325  0.273917  0.0214613  -0.00940837  -0.0326701  -0.0214707  -0.00310179  -0.0155188  0.0237261  0.0222628  -0.0281272  -0.227774  -0.00544587  -0.0499743 
1704191252.675143000  0  0  12.471  0.0229387  -0.150631  0.0205006  nan  nan  nan  nan  nan  nan  -2.49865  -0.296625  0.99812  -0.0621083  -0.0260816  -0.00128811  0.0093071  0.0449682  0.0373391  0  0  0  0.000499  0.445505  0.275845  0.0232517  -0.0105496  -0.0322567  -0.0156233  -0.00619622  -0.0115079  0.026367  0.0295163  -0.0276973  -0.288454  0.029712  0.0207158 
1704191252.680659000  0  0  12.4668  -0.0294233  -0.127897  0.0248381  nan  nan  nan  nan  nan  nan  -2.4986  -0.296395  0.99831  -0.0648969  -0.0268664  -0.00128531  0.0093086  0.0472277  0.0387226  0  0  0  0.0001245  0.45826  0.277524  0.0232033  -0.0105841  -0.0324184  -0.0144979  -0.00834001  -0.0105413  0.0284607  0.0301704  -0.0279786  -0.202992  -0.0217731  -0.0306901 
1704191252.685163000  0  0  12.5568  -0.0174105  -0.151452  0.0250513  nan  nan  nan  nan  nan  nan  -2.49856  -0.296153  0.99851  -0.064474  -0.0267199  -0.00142818  0.0093088  0.0495504  0.0401139  0  0  0  0  0.470764  0.278952  0.0231417  -0.0106251  -0.0325505  -0.0143259  -0.00672572  -0.0176146  0.0270769  0.0304084  -0.0280514  -0.214286  0.0231462  -0.0326282 
1704191252.690165000  0  0  12.5287  0.00733834  -0.151823  0.0210803  nan  nan  nan  nan  nan  nan  -2.49851  -0.295899  0.99871  -0.0660125  -0.0259566  -0.00156004  0.0093088  0.051935  0.0415117  0  0  0  0  0.483019  0.28013  0.0231145  -0.0107064  -0.0327138  -0.0154288  -0.00693051  -0.0147237  0.0270476  0.0300339  -0.0275575  -0.263515  0.0273345  0.012071 
1704191252.695144000  0  0  12.5802  -0.0368379  -0.129354  0.0252777  nan  nan  nan  nan  nan  nan  -2.49846  -0.295633  0.99892  -0.0682769  -0.0258783  -0.00162966  0.0093088  0.0543802  0.0429148  0  0  0  0  0.495024  0.281058  0.0230393  -0.0107585  -0.0328183  -0.0152389  -0.00883768  -0.0185889  0.0287743  0.02967  -0.027925  -0.191048  -0.014255  -0.0367216 
1704191252.700164000  0  0  12.5727  -0.00218443  -0.139324  0.0230347  nan  nan  nan  nan  nan  nan  -2.49842  -0.295355  0.99914  -0.0686416  -0.0261373  -0.00172608  0.0093088  0.0568848  0.0443219  0  0  0  0  0.506779  0.281736  0.0230125  -0.0107939  -0.0330864  -0.0148511  -0.0077231  -0.0172913  0.0276158  0.0302036  -0.0276917  -0.249697  0.00077574  -0.0110164 
1704191252.705847000  0  0  12.5639  -0.00482546  -0.126025  0.0209447  nan  nan  nan  nan  nan  nan  -2.49837  -0.295064  0.99937  -0.070409  -0.0251345  -0.00187446  0.0093088  0.0594476  0.0457317  0  0  0  0  0.518283  0.282165  0.0229635  -0.0108394  -0.0332054  -0.0161889  -0.00856015  -0.0161441  0.0279601  0.0291638  -0.0272931  -0.247582  -0.0162562  0.0111223 
1704191252.710162000  0  0  12.5833  -0.0365036  -0.105398  0.0251955  nan  nan  nan  nan  nan  nan  -2.49832  -0.294761  0.9996  -0.0718743  -0.0247172  -0.00199189  0.0093088  0.0620672  0.0471431  0  0  0  0  0.529538  0.282343  0.0228842  -0.010917  -0.0333158  -0.0165601  -0.00916154  -0.017421  0.0289134  0.0283669  -0.0276422  -0.192996  -0.0501796  -0.0385216 
1704191252.715162000  0  0  12.5536  -0.0101768  -0.113707  0.0236335  nan  nan  nan  nan  nan  nan  -2.49828  -0.294444  0.99984  -0.0729924  -0.0255748  -0.00202612  0.0093088  0.0647425  0.0485547  0  0  0  0  0.540543  0.282271  0.0229371  -0.0110014  -0.0334459  -0.0155742  -0.00890255  -0.0145862  0.0285894  0.0291115  -0.0275499  -0.242669  -0.0404116  -0.0199205 
1704191252.720164000  0  0  12.5913  -0.00652902  -0.097842  0.0213905  nan  nan  nan  nan  nan  nan  -2.49823  -0.294113  1.00009  -0.0740708  -0.023866  -0.00224995  0.0093088  0.0674722  0.0499654  0  0  0  0  0.551298  0.281949  0.0228397  -0.0110483  -0.0335525  -0.0176677  -0.00924371  -0.0174342  0.0284159  0.0271347  -0.027184  -0.248369  -0.0539549  0.00445978 
1704191252.725155000  0  0  12.5797  -0.0340464  -0.0568736  0.025273  nan  nan  nan  nan  nan  nan  -2.49818  -0.293769  1.00034  -0.0761801  -0.0240878  -0.00230721  0.0093088  0.0702551  0.0513738  0  0  0  0  0.561803  0.281378  0.0229916  -0.0112244  -0.0336103  -0.0177442  -0.0103707  -0.0162391  0.0297798  0.0261423  -0.027599  -0.205881  -0.126762  -0.0399226 
1704191252.730806000  0  0  12.5854  -0.00454282  -0.0856239  0.0230352  nan  nan  nan  nan  nan  nan  -2.49814  -0.29341  1.0006  -0.077161  -0.025021  -0.00233632  0.0093088  0.0730898  0.0527788  0  0  0  0  0.572057  0.280556  0.0229948  -0.0112942  -0.0338362  -0.0164426  -0.0103382  -0.016235  0.0291746  0.0271878  -0.0274435  -0.25932  -0.07888  -0.0135055 
1704191252.735164000  0  0  12.6383  0.00349068  -0.0700227  0.0214048  nan  nan  nan  nan  nan  nan  -2.49809  -0.293038  1.00087  -0.078046  -0.0225698  -0.00263069  0.0093088  0.0759752  0.054179  0  0  0  0  0.582062  0.279484  0.0228898  -0.0113848  -0.0339779  -0.0195374  -0.0105545  -0.0203406  0.0288565  0.0243766  -0.0271353  -0.272462  -0.0842197  0.00379249 
1704191252.740163000  0  0  12.5748  -0.0175804  -0.0430476  0.0246752  nan  nan  nan  nan  nan  nan  -2.49805  -0.292651  1.00114  -0.0799547  -0.0231296  -0.0026676  0.0093088  0.07891  0.0555732  0  0  0  0  0.591817  0.278162  0.0228621  -0.0114736  -0.0340451  -0.0188686  -0.0112344  -0.0148897  0.02975  0.023913  -0.0274744  -0.238539  -0.133904  -0.0336954 
1704191252.745223000  0  0  12.6103  0.0110825  -0.0873649  0.0236438  nan  nan  nan  nan  nan  nan  -2.498  -0.292249  1.00142  -0.0806615  -0.0238637  -0.00271682  0.0093088  0.081893  0.0569602  0  0  0  0  0.601322  0.276591  0.0227776  -0.0115233  -0.0341456  -0.0175754  -0.011226  -0.0176956  0.0287091  0.0248558  -0.0274095  -0.286289  -0.0539441  -0.0214523 
1704191252.750163000  0  0  12.6405  0.0104988  -0.0654657  0.0234373  nan  nan  nan  nan  nan  nan  -2.49795  -0.291832  1.00171  -0.081432  -0.0221588  -0.00296242  0.0093088  0.0849228  0.0583387  0  0  0  0  0.610577  0.274769  0.0227626  -0.011665  -0.0344142  -0.0198854  -0.0110828  -0.0197381  0.0282948  0.0229595  -0.0272851  -0.28131  -0.0802964  -0.0201151 
1704191252.755669000  0  0  12.5667  -0.0124378  -0.0504915  0.0271418  nan  nan  nan  nan  nan  nan  -2.49791  -0.291399  1.00201  -0.0842024  -0.024306  -0.00284443  0.0093088  0.0879983  0.0597074  0  0  0  0  0.619581  0.272697  0.0228333  -0.0117921  -0.0344743  -0.0172349  -0.0128626  -0.0134671  0.0299584  0.0242906  -0.0278564  -0.250742  -0.122491  -0.0607084 
1704191252.760164000  0  0  12.6225  0.0188567  -0.0935896  0.0245281  nan  nan  nan  nan  nan  nan  -2.49786  -0.290952  1.00231  -0.0848414  -0.0237553  -0.00300071  0.0093088  0.0911182  0.0610652  0  0  0  0  0.628336  0.270375  0.0227428  -0.011889  -0.0346123  -0.0176791  -0.0129521  -0.0179571  0.0289032  0.0241886  -0.0276678  -0.303623  -0.0353556  -0.0299232 
1704191252.765166000  0  0  12.5768  0.020731  -0.0616621  0.0233093  nan  nan  nan  nan  nan  nan  -2.49781  -0.290488  1.00262  -0.0859417  -0.0227469  -0.00318623  0.0093088  0.0942813  0.0624108  0  0  0  0  0.636841  0.267804  0.022845  -0.0121126  -0.0346479  -0.0194611  -0.0124756  -0.0142129  0.0287078  0.022631  -0.0275481  -0.305574  -0.0848811  -0.0158852 
1704191252.770168000  0  0  12.5581  0.0176103  -0.0800299  0.0253994  nan  nan  nan  nan  nan  nan  -2.49777  -0.290009  1.00293  -0.088018  -0.0240128  -0.00315197  0.0093088  0.0974862  0.0637428  0  0  0  0  0.645096  0.264982  0.0227759  -0.012188  -0.0347046  -0.0176032  -0.0139808  -0.0126351  0.0292312  0.0237416  -0.0278268  -0.304148  -0.058363  -0.0392248 
1704191252.775162000  0  0  12.6348  0.0362571  -0.117279  0.0234699  nan  nan  nan  nan  nan  nan  -2.49772  -0.289513  1.00325  -0.0889396  -0.0246005  -0.00320238  0.0093088  0.100732  0.0650602  0  0  0  0  0.653101  0.26191  0.0229459  -0.0124388  -0.0348881  -0.01697  -0.0144539  -0.0188239  0.0286096  0.0250883  -0.027676  -0.335723  0.00374567  -0.0166137 
1704191252.780636000  0  0  12.6011  0.0324002  -0.099843  0.023042  nan  nan  nan  nan  nan  nan  -2.49767  -0.289001  1.00358  -0.0899143  -0.0246842  -0.00329567  0.0093088  0.104017  0.0663615  0  0  0  0  0.660855  0.258588  0.0230187  -0.0125761  -0.0349705  -0.0171254  -0.0141946  -0.0160617  0.0280788  0.0249817  -0.0276023  -0.323125  -0.0301453  -0.0120024 
1704191252.785327000  0  0  12.6318  0.0286875  -0.13386  0.0242051  nan  nan  nan  nan  nan  nan  -2.49763  -0.288473  1.00392  -0.0920519  -0.0259667  -0.00324911  0.0093088  0.10734  0.0676456  0  0  0  0  0.66836  0.255016  0.0229622  -0.0126921  -0.0350897  -0.0151321  -0.016294  -0.0185256  0.0286461  0.0266844  -0.0277192  -0.320919  0.0222223  -0.0253713 
1704191252.790167000  0  0  12.6373  0.035971  -0.128055  0.024364  nan  nan  nan  nan  nan  nan  -2.49758  -0.287928  1.00426  -0.0925473  -0.0255877  -0.0033964  0.0093088  0.1107  0.0689113  0  0  0  0  0.675615  0.251195  0.0230248  -0.0128828  -0.0352176  -0.0158099  -0.0156996  -0.0190101  0.0277149  0.0264893  -0.027736  -0.326919  0.0124085  -0.0271895 
1704191252.795166000  0  0  12.6145  0.0415479  -0.111916  0.0241737  nan  nan  nan  nan  nan  nan  -2.49753  -0.287366  1.00461  -0.0927747  -0.024869  -0.00358239  0.0093088  0.114096  0.0701572  0  0  0  0  0.68262  0.247123  0.0229363  -0.0129531  -0.0352961  -0.0167088  -0.0147329  -0.0172715  0.0263553  0.0255419  -0.0276927  -0.325565  -0.0111543  -0.0252443 
1704191252.800164000  0  0  12.6218  0.0238932  -0.138474  0.0250285  nan  nan  nan  nan  nan  nan  -2.49749  -0.286787  1.00496  -0.095709  -0.0271759  -0.00341238  0.0093088  0.117526  0.0713821  0  0  0  0  0.689374  0.242801  0.0231611  -0.0132215  -0.0354169  -0.0139638  -0.0174769  -0.0178125  0.0280753  0.0284423  -0.0278389  -0.306079  0.0152792  -0.0344664 
1704191252.805241000  0  0  12.6227  0.0221038  -0.135203  0.0247257  nan  nan  nan  nan  nan  nan  -2.49744  -0.286191  1.00532  -0.0960595  -0.0274734  -0.00349921  0.0093088  0.120989  0.0725848  0  0  0  0  0.695879  0.238229  0.0234306  -0.0135316  -0.0354692  -0.0141595  -0.0164659  -0.0181592  0.0271978  0.0288453  -0.0278976  -0.294427  0.00502943  -0.0300947 
1704191252.810156000  0  0  12.5979  0.0374495  -0.124925  0.0236172  nan  nan  nan  nan  nan  nan  -2.49739  -0.285577  1.00569  -0.0970869  -0.0269451  -0.00364716  0.0093088  0.124484  0.073764  0  0  0  0  0.702134  0.233408  0.0233555  -0.0136277  -0.0355528  -0.0148338  -0.0166249  -0.0162567  0.0265379  0.0281998  -0.0277708  -0.319048  -0.00958721  -0.0175067 
1704191252.815155000  0  0  12.5788  0.00487048  -0.128601  0.0260641  nan  nan  nan  nan  nan  nan  -2.49735  -0.284946  1.00606  -0.101089  -0.0297877  -0.00337503  0.0093088  0.12801  0.0749184  0  0  0  0  0.708139  0.228336  0.0236452  -0.0139619  -0.0355693  -0.0115696  -0.0205124  -0.0147949  0.0294532  0.0310382  -0.0281277  -0.280711  -0.0283496  -0.0445249 
1704191252.820149000  0  0  12.6249  0.0189765  -0.124215  0.0250661  nan  nan  nan  nan  nan  nan  -2.4973  -0.284297  1.00644  -0.100106  -0.0281561  -0.00369344  0.0093088  0.131565  0.0760469  0  0  0  0  0.713894  0.223014  0.0235657  -0.0140442  -0.0356878  -0.0135618  -0.0187318  -0.0189084  0.0270951  0.0292855  -0.0280822  -0.287228  -0.0209962  -0.0325044 
1704191252.825107000  0  0  12.5422  0.0248539  -0.105605  0.0224949  nan  nan  nan  nan  nan  nan  -2.49725  -0.28363  1.00682  -0.102923  -0.0290355  -0.0036476  0.0093088  0.135148  0.0771481  0  0  0  0  0.719398  0.217442  0.023831  -0.0143767  -0.0357024  -0.0132034  -0.0202935  -0.0122679  0.028285  0.0297272  -0.0278302  -0.30993  -0.062281  -0.0028846 
1704191252.830661000  0  0  12.5464  -0.00774309  -0.107173  0.0263274  nan  nan  nan  nan  nan  nan  -2.49721  -0.282945  1.00721  -0.104578  -0.0304232  -0.00357845  0.0093088  0.138759  0.0782209  0  0  0  0  0.724653  0.211621  0.0238687  -0.0144744  -0.0357448  -0.0113522  -0.0217653  -0.0129085  0.0288918  0.0307106  -0.0282803  -0.250319  -0.0681928  -0.0462893 
1704191252.835165000  0  0  12.5972  0.0227614  -0.110144  0.0234301  nan  nan  nan  nan  nan  nan  -2.49716  -0.282242  1.0076  -0.103167  -0.028124  -0.00398478  0.0093088  0.142395  0.0792639  0  0  0  0  0.729658  0.205549  0.0237836  -0.014615  -0.0358827  -0.0142483  -0.0194249  -0.0174751  0.0260612  0.028343  -0.0279675  -0.285286  -0.0404672  -0.0132012 
1704191252.840145000  0  0  12.4755  0.00847912  -0.0722027  0.0237494  nan  nan  nan  nan  nan  nan  -2.49711  -0.281521  1.008  -0.106112  -0.0285131  -0.00398463  0.0093088  0.146055  0.080276  0  0  0  0  0.734413  0.199227  0.0237855  -0.014788  -0.0359287  -0.0141158  -0.0211131  -0.00759624  0.0277047  0.0279086  -0.0279511  -0.271841  -0.112354  -0.0173563 
1704191252.845143000  0  0  12.5518  -0.0166538  -0.0797823  0.0273451  nan  nan  nan  nan  nan  nan  -2.49707  -0.280782  1.0084  -0.106819  -0.0295626  -0.00397685  0.0093088  0.149738  0.0812558  0  0  0  0  0.738918  0.192655  0.0237385  -0.0148985  -0.0360391  -0.0123238  -0.0221841  -0.0142153  0.0276188  0.0284607  -0.0284397  -0.220786  -0.102274  -0.0574159 
1704191252.850092000  0  0  12.56  0.0180886  -0.0825395  0.0238191  nan  nan  nan  nan  nan  nan  -2.49702  -0.280024  1.00881  -0.106396  -0.0280571  -0.00427522  0.0093088  0.153444  0.0822021  0  0  0  0  0.743172  0.185833  0.0237311  -0.0150505  -0.0361325  -0.0144149  -0.0208048  -0.0153362  0.0256022  0.0266812  -0.028111  -0.271718  -0.0803883  -0.0166287 
1704191252.855613000  0  0  12.4404  -0.000969395  -0.0338295  0.0247996  nan  nan  nan  nan  nan  nan  -2.49697  -0.279247  1.00923  -0.108897  -0.0289346  -0.00423333  0.0093088  0.15717  0.0831137  0  0  0  0  0.747177  0.178762  0.0237514  -0.0151575  -0.0361041  -0.0136368  -0.0220918  -0.00586962  0.0268211  0.0261032  -0.0282062  -0.244815  -0.17249  -0.0279335 
1704191252.860142000  0  0  12.5473  0.00460226  -0.0698268  0.0256797  nan  nan  nan  nan  nan  nan  -2.49693  -0.278452  1.00964  -0.108421  -0.0286891  -0.00439908  0.0093088  0.160915  0.0839893  0  0  0  0  0.750932  0.17144  0.0236927  -0.0153245  -0.0362547  -0.0135323  -0.0218755  -0.0151228  0.0253156  0.0258356  -0.0283463  -0.242108  -0.0980341  -0.0375331 
1704191252.865155000  0  0  12.5213  0.0368437  -0.0592135  0.02096  nan  nan  nan  nan  nan  nan  -2.49688  -0.277638  1.01006  -0.108673  -0.0272041  -0.00467874  0.0093088  0.164679  0.0848277  0  0  0  0  0.754437  0.163868  0.0238246  -0.015582  -0.0362907  -0.016009  -0.0208813  -0.0135357  0.0238811  0.0238368  -0.0277657  -0.293394  -0.100871  0.0156573 
1704191252.870693000  0  0  12.5044  0.00838296  -0.0373912  0.0244787  nan  nan  nan  nan  nan  nan  -2.49683  -0.276805  1.01049  -0.109703  -0.0279033  -0.0046984  0.0093088  0.168459  0.0856276  0  0  0  0  0.757692  0.156046  0.0238473  -0.0156797  -0.0363204  -0.015158  -0.0214751  -0.0126712  0.0239041  0.0234774  -0.0280298  -0.236684  -0.141209  -0.0256862 
1704191252.875141000  0  0  12.5571  0.0271185  -0.0752822  0.0237354  nan  nan  nan  nan  nan  nan  -2.49679  -0.275953  1.01092  -0.109624  -0.0277505  -0.00484254  0.0093088  0.172255  0.0863877  0  0  0  0  0.760696  0.147975  0.0237851  -0.0158644  -0.0364625  -0.0150944  -0.0212158  -0.0174894  0.0225318  0.0234838  -0.0279418  -0.261529  -0.0654864  -0.0172738 
1704191252.880766000  0  0  12.4926  0.0311153  -0.0428029  0.0217371  nan  nan  nan  nan  nan  nan  -2.49674  -0.275083  1.01135  -0.109658  -0.0259896  -0.00516039  0.0093088  0.176065  0.0871069  0  0  0  0  0.763451  0.139661  0.0237796  -0.0159401  -0.036465  -0.0177577  -0.0199472  -0.0128926  0.0211632  0.0209248  -0.0276116  -0.256932  -0.106903  0.00440216 
1704191252.885156000  0  0  12.495  0.0167313  -0.0374676  0.0256602  nan  nan  nan  nan  nan  nan  -2.4967  -0.274193  1.01179  -0.110654  -0.0262385  -0.00523155  0.0093088  0.179889  0.0877845  0  0  0  0  0.765956  0.13143  0.0237132  -0.0161412  -0.0365858  -0.017282  -0.0205904  -0.0134979  0.0213147  0.0206078  -0.0279956  -0.229558  -0.114656  -0.0407966 
1704191252.890114000  0  0  12.5045  0.0251757  -0.060988  0.0253881  nan  nan  nan  nan  nan  nan  -2.49665  -0.273284  1.01223  -0.111236  -0.0269021  -0.00526709  0.0093088  0.183725  0.0884216  0  0  0  0  0.768211  0.123448  0.0237345  -0.0163132  -0.0366863  -0.0163981  -0.0208497  -0.0147494  0.0206452  0.0212379  -0.0280458  -0.240288  -0.0734123  -0.0368942 
1704191252.895146000  0  0  12.4816  0.031974  -0.0593814  0.0234652  nan  nan  nan  nan  nan  nan  -2.4966  -0.272356  1.01268  -0.110774  -0.0249306  -0.00562389  0.0093088  0.187571  0.0890194  0  0  0  0  0.770215  0.115717  0.0236294  -0.0164015  -0.0367514  -0.0190009  -0.0194645  -0.0134759  0.0190192  0.0190887  -0.0277852  -0.238925  -0.0568529  -0.0154627 
1704191252.900163000  0  0  12.4848  0.0269932  -0.0564946  0.0257999  nan  nan  nan  nan  nan  nan  -2.49656  -0.271408  1.01312  -0.111159  -0.0251633  -0.0057132  0.0093088  0.191426  0.0895792  0  0  0  0  0.77197  0.108235  0.0236776  -0.0165924  -0.0368265  -0.0187973  -0.0193923  -0.0142364  0.0184256  0.0189866  -0.0280679  -0.223502  -0.0616875  -0.0418203 
1704191252.905795000  0  0  12.4811  0.0439917  -0.100912  0.0241153  nan  nan  nan  nan  nan  nan  -2.49651  -0.270441  1.01357  -0.11154  -0.0258467  -0.00575197  0.0093088  0.19529  0.0901022  0  0  0  0  0.773475  0.101004  0.0237173  -0.0166816  -0.0368574  -0.0179642  -0.0194893  -0.0144885  0.0172857  0.0202227  -0.0279803  -0.247012  0.015774  -0.0216382 
1704191252.910143000  0  0  12.5163  0.0423157  -0.0889021  0.0242139  nan  nan  nan  nan  nan  nan  -2.49646  -0.269455  1.01402  -0.110901  -0.024203  -0.00607676  0.0093088  0.199161  0.0905897  0  0  0  0  0.77473  0.0940222  0.0236152  -0.0168841  -0.0370041  -0.0199554  -0.0184221  -0.0178233  0.0158166  0.018517  -0.0279336  -0.230144  0.00744768  -0.0233367 
1704191252.915150000  0  0  12.435  0.0440364  -0.0838861  0.0249854  nan  nan  nan  nan  nan  nan  -2.49642  -0.26845  1.01448  -0.111992  -0.0254308  -0.00603701  0.0093088  0.203037  0.0910428  0  0  0  0  0.775735  0.0872908  0.0236836  -0.0170812  -0.037049  -0.0186393  -0.0183647  -0.0114984  0.0157267  0.0195719  -0.0280445  -0.232759  -0.0122896  -0.0318731 
1704191252.920738000  0  0  12.4931  0.0446328  -0.125761  0.0241733  nan  nan  nan  nan  nan  nan  -2.49637  -0.267425  1.01493  -0.111604  -0.0257995  -0.00613069  0.0093088  0.206918  0.091463  0  0  0  0  0.776489  0.0808093  0.0236878  -0.0171165  -0.0371001  -0.0179909  -0.0183836  -0.0168504  0.0141845  0.020654  -0.0279582  -0.219763  0.0615053  -0.022585 
1704191252.925318000  0  0  12.5015  0.0483499  -0.105098  0.0235989  nan  nan  nan  nan  nan  nan  -2.49632  -0.26638  1.01539  -0.110218  -0.0233974  -0.00655774  0.0093088  0.210801  0.0918513  0  0  0  0  0.776994  0.0745778  0.0235693  -0.0172671  -0.0372225  -0.0210712  -0.0161573  -0.0180302  0.012005  0.0182744  -0.0278307  -0.207146  0.0420719  -0.0166792 
1704191252.930659000  0  0  12.419  0.0500426  -0.100516  0.0244002  nan  nan  nan  nan  nan  nan  -2.49628  -0.265317  1.01585  -0.1113  -0.0247948  -0.00650098  0.0093088  0.214687  0.0922092  0  0  0  0  0.777249  0.0685964  0.0236437  -0.0173913  -0.0372311  -0.019531  -0.0163387  -0.0116172  0.0119251  0.0196799  -0.0279066  -0.209796  0.0199759  -0.0259365 
1704191252.935275000  0  0  12.5078  0.045851  -0.138382  0.0246457  nan  nan  nan  nan  nan  nan  -2.49623  -0.264234  1.01631  -0.111148  -0.0250322  -0.0066033  0.0093088  0.218574  0.0925377  0  0  0  0  0.777254  0.0628649  0.0235528  -0.0175545  -0.0373893  -0.0187788  -0.0168696  -0.0192032  0.0109966  0.020719  -0.0279557  -0.19287  0.0861496  -0.0285147 
1704191252.940153000  0  0  12.4679  0.0544052  -0.114522  0.022513  nan  nan  nan  nan  nan  nan  -2.49618  -0.263131  1.01678  -0.110737  -0.0242458  -0.00682612  0.0093088  0.222459  0.0928382  0  0  0  0  0.777009  0.0573834  0.0236404  -0.0177902  -0.0374783  -0.0201927  -0.0153143  -0.0162739  0.00967855  0.0199486  -0.0276951  -0.197853  0.045516  -0.00446084 
1704191252.945151000  0  0  12.3544  0.0399085  -0.104057  0.0244281  nan  nan  nan  nan  nan  nan  -2.49614  -0.262009  1.01724  -0.112617  -0.026261  -0.00667726  0.0093088  0.226343  0.093112  0  0  0  0  0.776513  0.052152  0.0235669  -0.0178771  -0.0374763  -0.0175753  -0.016373  -0.00715764  0.0106558  0.0217237  -0.0278766  -0.17785  0.0082558  -0.0265853 
1704191252.950149000  0  0  12.4651  0.0464715  -0.137855  0.0243255  nan  nan  nan  nan  nan  nan  -2.49609  -0.260868  1.01771  -0.111598  -0.0260837  -0.0068492  0.0093088  0.230224  0.0933602  0  0  0  0  0.775768  0.0471705  0.0236391  -0.0180546  -0.0376019  -0.0176812  -0.0160594  -0.016651  0.00884993  0.0222472  -0.0278503  -0.174362  0.0710363  -0.0255651 
1704191252.955150000  0  0  12.4034  0.0566515  -0.0979917  0.0223196  nan  nan  nan  nan  nan  nan  -2.49604  -0.259707  1.01818  -0.110435  -0.0244953  -0.00718099  0.0093088  0.2341  0.0935841  0  0  0  0  0.774773  0.0424391  0.0237264  -0.0182503  -0.0376445  -0.0202601  -0.0133787  -0.0120194  0.0068806  0.0203245  -0.027532  -0.176605  0.00899832  -0.00367542 
1704191252.960150000  0  0  12.3359  0.038197  -0.0972888  0.0247702  nan  nan  nan  nan  nan  nan  -2.496  -0.258527  1.01864  -0.111904  -0.0261068  -0.00708862  0.0093088  0.237971  0.093785  0  0  0  0  0.773528  0.0379576  0.0236545  -0.0183324  -0.0376533  -0.0180865  -0.0145468  -0.00666747  0.00771403  0.0217712  -0.0277845  -0.147363  -0.00571768  -0.0317832 
1704191252.965150000  0  0  12.4514  0.0425651  -0.123617  0.0237104  nan  nan  nan  nan  nan  nan  -2.49595  -0.257327  1.01911  -0.110585  -0.0256759  -0.00729632  0.0093088  0.241835  0.0939641  0  0  0  0  0.772033  0.0337261  0.0237662  -0.0185541  -0.0377775  -0.0186183  -0.0138665  -0.0165284  0.00583046  0.0219243  -0.0276946  -0.13877  0.0455306  -0.0194339 
1704191252.970151000  0  0  12.3707  0.0484786  -0.0801517  0.0224844  nan  nan  nan  nan  nan  nan  -2.4959  -0.256108  1.01958  -0.109665  -0.0239335  -0.00763701  0.0093088  0.245691  0.0941227  0  0  0  0  0.770287  0.0297447  0.0236481  -0.0186061  -0.037795  -0.0209984  -0.0117085  -0.0102759  0.00428103  0.0196137  -0.0274621  -0.136343  -0.0201423  -0.00643386 
1704191252.975271000  0  0  12.3882  0.0116704  -0.10691  0.0258907  nan  nan  nan  nan  nan  nan  -2.49586  -0.25487  1.02006  -0.112214  -0.027606  -0.00728656  0.0093088  0.249538  0.094262  0  0  0  0  0.768292  0.0260132  0.0240569  -0.0189312  -0.0377608  -0.016818  -0.0149803  -0.0118621  0.00672422  0.0234213  -0.0278282  -0.0852037  -0.00165642  -0.0453512 
1704191252.980230000  0  0  12.4123  0.0169318  -0.102146  0.024193  nan  nan  nan  nan  nan  nan  -2.49581  -0.253613  1.02053  -0.111147  -0.0268198  -0.00752921  0.0093088  0.253374  0.0943832  0  0  0  0  0.766047  0.0225317  0.0241591  -0.0191562  -0.0378285  -0.0180743  -0.0135987  -0.0141671  0.00534125  0.0226342  -0.0277018  -0.0830032  -0.00394305  -0.0253944 
1704191252.985317000  0  0  12.3419  0.014026  -0.0736639  0.0223648  nan  nan  nan  nan  nan  nan  -2.49576  -0.252336  1.021  -0.110975  -0.0258747  -0.00776413  0.0093088  0.257198  0.0944877  0  0  0  0  0.763552  0.0193003  0.0240565  -0.0191997  -0.0378387  -0.0193706  -0.0127084  -0.00863201  0.0048676  0.021162  -0.0274646  -0.0728338  -0.0473626  -0.00491437 
1704191252.990296000  0  0  12.3691  -0.0121725  -0.0927417  0.0251044  nan  nan  nan  nan  nan  nan  -2.49572  -0.251041  1.02147  -0.111991  -0.0275885  -0.00766984  0.0093088  0.261009  0.0945766  0  0  0  0  0.760807  0.0163188  0.0242103  -0.0194571  -0.0378952  -0.0172958  -0.0142296  -0.0109319  0.00595466  0.0229366  -0.0277195  -0.0304379  -0.0255329  -0.0366098 
1704191252.995767000  0  0  12.3851  -0.00191733  -0.0940389  0.023405  nan  nan  nan  nan  nan  nan  -2.49567  -0.249726  1.02194  -0.11001  -0.0265464  -0.00796535  0.0093088  0.264805  0.0946513  0  0  0  0  0.757811  0.0135873  0.0242826  -0.0195219  -0.0378923  -0.0188512  -0.0119489  -0.0127463  0.0039098  0.0218532  -0.0275584  -0.0321355  -0.0129714  -0.0169793 
1704191253.000246000  0  0  12.3489  -0.0080837  -0.0758487  0.0228137  nan  nan  nan  nan  nan  nan  -2.49562  -0.248393  1.02242  -0.110281  -0.0256002  -0.0081878  0.0093088  0.268587  0.0947129  0  0  0  0  0.754566  0.0111059  0.0241838  -0.0197155  -0.0379767  -0.0200631  -0.01185  -0.00977094  0.00413721  0.02058  -0.0274271  -0.021895  -0.0376388  -0.0109007 
1704191253.005651000  0  0  12.3391  -0.0403181  -0.0738732  0.0258982  nan  nan  nan  nan  nan  nan  -2.49558  -0.247041  1.02289  -0.111029  -0.0276085  -0.0080696  0.0093088  0.272351  0.0947628  0  0  0  0  0.751071  0.0088744  0.0243164  -0.019835  -0.0379837  -0.0176403  -0.0129505  -0.00905892  0.00536346  0.0222228  -0.027769  0.0312923  -0.0567031  -0.0460373 
1704191253.010282000  0  0  12.3871  -0.00772967  -0.0901293  0.0224742  nan  nan  nan  nan  nan  nan  -2.49553  -0.245669  1.02337  -0.109059  -0.0255447  -0.00847562  0.0093088  0.276097  0.0948021  0  0  0  0  0.747326  0.0068929  0.0242061  -0.0199787  -0.0381067  -0.0201094  -0.0109876  -0.0132  0.00315881  0.0203508  -0.0274623  -0.0136017  -0.00696875  -0.00630432 
1704191253.015291000  0  0  12.3067  -0.0199374  -0.05428  0.0225686  nan  nan  nan  nan  nan  nan  -2.49549  -0.24428  1.02384  -0.109964  -0.0252064  -0.00861458  0.0093088  0.279824  0.0948321  0  0  0  0  0.74333  0.0051615  0.0242881  -0.0201791  -0.0381077  -0.0210052  -0.0113019  -0.00659408  0.00416562  0.019372  -0.0273579  0.00155106  -0.0696625  -0.00852866 
1704191253.020135000  0  0  12.2955  -0.03518  -0.0514381  0.0257063  nan  nan  nan  nan  nan  nan  -2.49544  -0.242871  1.02431  -0.109637  -0.0257174  -0.00869167  0.0093088  0.28353  0.0948541  0  0  0  0  0.739085  0.00368  0.0241936  -0.0202786  -0.038155  -0.020138  -0.0110471  -0.00572903  0.00417148  0.0194294  -0.0277027  0.0319824  -0.0758745  -0.0443018 
1704191253.025318000  0  0  12.3589  0.0192807  -0.0921974  0.0205174  nan  nan  nan  nan  nan  nan  -2.49539  -0.241444  1.02479  -0.107327  -0.024472  -0.00901093  0.0093088  0.287214  0.0948693  0  0  0  0  0.73459  0.0024485  0.0242511  -0.0204032  -0.038236  -0.021804  -0.00895058  -0.0111941  0.00121644  0.0187297  -0.0271693  -0.0497526  0.0120819  0.0152264 
1704191253.030264000  0  0  12.2762  0.00460883  -0.0510317  0.0224662  nan  nan  nan  nan  nan  nan  -2.49535  -0.239999  1.02526  -0.107314  -0.0235443  -0.00923627  0.0093088  0.290875  0.094879  0  0  0  0  0.729845  0.0014671  0.0241421  -0.0204631  -0.0382295  -0.023068  -0.00840577  -0.00444689  0.00125847  0.0170915  -0.0272075  -0.0207956  -0.0551785  -0.00875259 
1704191253.035090000  0  0  12.3127  -0.00862579  -0.0675906  0.0258741  nan  nan  nan  nan  nan  nan  -2.4953  -0.238536  1.02574  -0.107201  -0.0259321  -0.00910709  0.0093088  0.294512  0.0948844  0  0  0  0  0.72485  0.0007356  0.0242755  -0.0207459  -0.038284  -0.0200042  -0.00872342  -0.00741858  0.00135488  0.0193386  -0.0275606  0.00478672  -0.042734  -0.0478197 
1704191253.040221000  0  0  12.3244  0.0368668  -0.0893919  0.020777  nan  nan  nan  nan  nan  nan  -2.49525  -0.237054  1.02621  -0.105512  -0.0248769  -0.00938808  0.0093088  0.298123  0.0948868  0  0  0  0  0.719604  0.0002541  0.0243538  -0.0209067  -0.03828  -0.0215964  -0.00686586  -0.00864317  -0.000977952  0.0186806  -0.0270368  -0.0647365  0.00692243  0.0106552 
1704191253.045740000  0  0  12.2411  -0.0123048  -0.0652418  0.0258215  nan  nan  nan  nan  nan  nan  -2.49521  -0.235554  1.02669  -0.110019  -0.0308253  -0.00874295  0.0093088  0.301708  0.0948874  0  0  0  0  0.714109  2.27e-05  0.0254981  -0.0218247  -0.037995  -0.0162912  -0.0107089  -0.00182741  0.00409647  0.0242683  -0.027564  -0.0130781  -0.0927852  -0.0471288 
1704191253.050231000  0  0  12.2877  0.0203812  -0.112173  0.0253819  nan  nan  nan  nan  nan  nan  -2.49516  -0.234037  1.02716  -0.108578  -0.0313566  -0.00885498  0.0093088  0.305264  0.0948874  0  0  0  0  0.708364  0  0.0254265  -0.02202  -0.0380887  -0.01525  -0.00963083  -0.00564739  0.00215347  0.025176  -0.0276423  -0.0605744  -0.00727439  -0.0408502 
1704191253.055246000  0  0  12.2778  0.0437006  -0.120187  0.0202213  nan  nan  nan  nan  nan  nan  -2.49511  -0.232502  1.02764  -0.107793  -0.0304388  -0.00910416  0.0093088  0.308791  0.0948874  0  0  0  0  0.702369  0  0.0255782  -0.0222837  -0.0380696  -0.016889  -0.00861688  -0.00496895  0.00086861  0.0245811  -0.0270703  -0.0953924  0.014228  0.0179374 
1704191253.060228000  0  0  12.2636  0.0178018  -0.0878593  0.0237868  nan  nan  nan  nan  nan  nan  -2.49507  -0.230949  1.02811  -0.10678  -0.0302283  -0.0092829  0.0093088  0.312287  0.0948874  0  0  0  0  0.696124  0  0.0255045  -0.022334  -0.0380827  -0.0170666  -0.00775501  -0.00385797  3.75717e-05  0.023732  -0.0273014  -0.0359493  -0.0426159  -0.0243207 
1704191253.065313000  0  0  12.2794  0.0386796  -0.136163  0.0222779  nan  nan  nan  nan  nan  nan  -2.49502  -0.229379  1.02858  -0.10595  -0.0322695  -0.0092164  0.0093088  0.315752  0.0948874  0  0  0  0  0.689628  0  0.0257461  -0.02258  -0.0379942  -0.0147572  -0.00712604  -0.00544718  -0.00109308  0.0263219  -0.0271724  -0.0673028  0.0301648  -0.00674909 
1704191253.070111000  0  0  12.2745  0.051973  -0.130337  0.0199993  nan  nan  nan  nan  nan  nan  -2.49497  -0.227792  1.02906  -0.104441  -0.0308922  -0.00953492  0.0093089  0.319183  0.0948874  0  0  0  0.0001052  0.682883  0  0.0256558  -0.0226734  -0.0380392  -0.0164486  -0.00566051  -0.00512471  -0.0029911  0.0250396  -0.026766  -0.0764279  0.0303092  0.0176689 
1704191253.075150000  0  0  12.2803  0.0227621  -0.0904295  0.0245544  nan  nan  nan  nan  nan  nan  -2.49493  -0.226187  1.02953  -0.103414  -0.0306705  -0.00971499  0.0093103  0.32258  0.0948874  0  0  0  0.0004596  0.675888  0  0.0256774  -0.0227719  -0.0380411  -0.0167419  -0.00500282  -0.0056968  -0.00362128  0.0240964  -0.0271244  -0.0122084  -0.0408283  -0.035686 
1704191253.080221000  0  0  12.2759  0.044514  -0.116693  0.0219728  nan  nan  nan  nan  nan  nan  -2.49488  -0.224566  1.03001  -0.102032  -0.0313373  -0.00981468  0.0093139  0.325942  0.0948874  0  0  0  0.001064  0.668643  0  0.0256931  -0.0228347  -0.0380469  -0.0157986  -0.00387231  -0.00547006  -0.00532924  0.0250285  -0.0268401  -0.039999  0.00312482  -0.00625882 
1704191253.085108000  0  0  12.2811  0.045436  -0.100168  0.020922  nan  nan  nan  nan  nan  nan  -2.49483  -0.222928  1.03048  -0.0999661  -0.0295364  -0.0101856  0.0093213  0.329266  0.0948874  0  0  0  0.0019184  0.661148  0  0.0255959  -0.0228826  -0.0380835  -0.0179171  -0.00195564  -0.00606108  -0.00736668  0.0230338  -0.0265862  -0.0230985  -0.0115754  0.00433671 
1704191253.090272000  0  0  12.2798  0.0418604  -0.0865432  0.0224667  nan  nan  nan  nan  nan  nan  -2.49479  -0.221273  1.03096  -0.0987885  -0.0296704  -0.0103325  0.0093335  0.332553  0.0948874  0  0  0  0.0030228  0.653402  0  0.0256359  -0.0229356  -0.0380784  -0.0176869  -0.00121354  -0.0060791  -0.00838681  0.0227717  -0.0266455  -0.00656208  -0.0364131  -0.0143787 
1704191253.095650000  0  0  12.2407  0.0404391  -0.108416  0.0215011  nan  nan  nan  nan  nan  nan  -2.49474  -0.219602  1.03143  -0.0991412  -0.0321656  -0.0101989  0.0093519  0.3358  0.0948874  0  0  0  0.0043771  0.645407  0  0.0260487  -0.023179  -0.0378624  -0.0151661  -0.0017711  -0.00323324  -0.00782891  0.0253891  -0.0264812  -0.00885209  -0.0167481  -0.00395217 
1704191253.100224000  0  0  12.2948  0.0388473  -0.0828581  0.0210367  nan  nan  nan  nan  nan  nan  -2.49469  -0.217915  1.03191  -0.0965082  -0.029648  -0.010653  0.0093777  0.339006  0.0948874  0  0  0  0.0059815  0.637162  0  0.0259509  -0.0233177  -0.0379632  -0.0179957  0.000498738  -0.00780445  -0.0101619  0.0224545  -0.0262949  0.0157945  -0.0408657  -9.29333e-06 
1704191253.105110000  0  0  12.2785  0.0397276  -0.0713747  0.020934  nan  nan  nan  nan  nan  nan  -2.49465  -0.216212  1.03238  -0.096133  -0.0299007  -0.0107649  0.0094122  0.342171  0.0948874  0  0  0  0.0078359  0.628667  0  0.0261064  -0.0235596  -0.0379786  -0.0178224  0.000635845  -0.00645013  -0.0103025  0.0223407  -0.0261722  0.0153278  -0.0627852  4.67496e-05 
1704191253.110222000  0  0  12.2757  0.0327864  -0.0772563  0.0219682  nan  nan  nan  nan  nan  nan  -2.4946  -0.214494  1.03285  -0.0945241  -0.0299804  -0.0109309  0.0094565  0.345292  0.0948874  0  0  0  0.0099403  0.619921  0  0.0260257  -0.0235195  -0.0379907  -0.0172684  0.00164411  -0.00635591  -0.011545  0.0221702  -0.0261727  0.0406413  -0.0494533  -0.0128757 
1704191253.115093000  0  0  12.3443  0.0384905  -0.0734532  0.0202297  nan  nan  nan  nan  nan  nan  -2.49455  -0.21276  1.03333  -0.0917367  -0.0277172  -0.0113484  0.009512  0.34837  0.0948874  0  0  0  0.0122947  0.610926  0  0.0261257  -0.0237211  -0.0380755  -0.0200642  0.00405856  -0.0121794  -0.0137932  0.0198254  -0.0258993  0.0499168  -0.0354876  0.0061214 
1704191253.120742000  0  0  12.2507  0.025834  -0.0427303  0.0224249  nan  nan  nan  nan  nan  nan  -2.4945  -0.21101  1.0338  -0.0910872  -0.0280277  -0.0114632  0.0095799  0.351401  0.0948874  0  0  0  0.014899  0.601681  0  0.026113  -0.0235613  -0.0379798  -0.0195636  0.00436068  -0.00465337  -0.0139031  0.0192294  -0.0259902  0.0762404  -0.0914502  -0.0204089 
1704191253.125105000  0  0  12.305  0.0113273  -0.0582421  0.0241179  nan  nan  nan  nan  nan  nan  -2.49446  -0.209246  1.03428  -0.090406  -0.0284504  -0.0115691  0.0096614  0.354386  0.0948874  0  0  0  0.0177534  0.592186  0  0.0260423  -0.0237722  -0.0381089  -0.0183071  0.00399117  -0.00894583  -0.0139431  0.0194978  -0.0261832  0.105622  -0.0628954  -0.0396417 
1704191253.130746000  0  0  12.3066  0.0405304  -0.0343841  0.0199462  nan  nan  nan  nan  nan  nan  -2.49441  -0.207466  1.03475  -0.0868044  -0.0255137  -0.012053  0.0097578  0.357323  0.0948874  0  0  0  0.0208578  0.582441  0  0.0259931  -0.0235643  -0.0380862  -0.0217879  0.00721511  -0.00952662  -0.0171268  0.0160095  -0.0257245  0.0765058  -0.078519  0.00791685 
1704191253.135225000  0  0  12.2049  0.0055444  -0.0191175  0.0218369  nan  nan  nan  nan  nan  nan  -2.49436  -0.205673  1.03523  -0.087547  -0.0259445  -0.0121211  0.0098704  0.36021  0.0948874  0  0  0  0.0242122  0.572445  0  0.0258997  -0.0237292  -0.0381121  -0.0208721  0.00628878  -0.000919057  -0.0155401  0.0157149  -0.0258083  0.13188  -0.106342  -0.0148775 
