ts x y z roll pitch yaw vx vy vz wx wy wz ax ay az dwx dwy dwz jx jy jz ddwx ddwy ddwz
1704461090.719062000  -2.5  -0.3  1  0  0  0  2e-07  -2e-07  2e-07  0  0  0  0.000125  -0.000125  0.000125  0  0  0  0  0  0  0  0  0 
1704461090.724062000  -2.5  -0.3  1  0  0  0  1.7e-06  -1.7e-06  1.7e-06  0  0  0  0.0005  -0.0005  0.0005  0  0  0  0  0  0  0  0  0 
1704461090.729040000  -2.5  -0.3  1  0  0  0  5.6e-06  -5.6e-06  5.6e-06  0  0  0  0.001125  -0.001125  0.001125  0  0  0  0  0  0  0  0  0 
1704461090.734053000  -2.5  -0.3  1  0  0  -1e-07  1.33e-05  -1.33e-05  1.33e-05  0  0  0  0.002  -0.002  0.002  0  0  0  0  0  0  0  0  0 
1704461090.739037000  -2.5  -0.3  1  0  0  -3e-07  2.6e-05  -2.6e-05  2.6e-05  0  0  0  0.003125  -0.003125  0.003125  0  0  0  0  0  0  0  0  0 
1704461090.744039000  -2.5  -0.3  1  0  0  -5e-07  4.5e-05  -4.5e-05  4.5e-05  0  0  0  0.0045  -0.0045  0.0045  0  0  0  0  0  0  0  0  0 
1704461090.749033000  -2.5  -0.300001  1  0  0  -1e-06  7.15e-05  -7.15e-05  7.15e-05  0  0  0  0.006125  -0.006125  0.006125  0  0  0  0  0  0  0  0  0 
1704461090.754061000  -2.5  -0.300001  1  0  0  -1.7e-06  0.0001067  -0.0001067  0.0001067  0  0  0  0.008  -0.008  0.008  0  0  0  0  0  0  0  0  0 
1704461090.759038000  -2.5  -0.300002  1  0  0  -2.7e-06  0.0001519  -0.0001519  0.0001519  0  0  0  0.010125  -0.010125  0.010125  0  0  0  0  0  0  0  0  0 
1704461090.764070000  -2.5  -0.300003  1  0  0  -4.2e-06  0.0002083  -0.0002083  0.0002083  0  0  0  0.0125  -0.0125  0.0125  0  0  0  0  0  0  0  0  0 
1704461090.769022000  -2.5  -0.300004  1  0  0  -6.1e-06  0.0002773  -0.0002773  0.0002773  0  0  0  0.015125  -0.015125  0.015125  0  0  0  0  0  0  0  0  0 
1704461090.774076000  -2.49999  -0.300005  1.00001  0  0  -8.6e-06  0.00036  -0.00036  0.00036  0  0  0  0.018  -0.018  0.018  0  0  0  0  0  0  0  0  0 
1704461090.779058000  -2.49999  -0.300007  1.00001  0  0  -1.19e-05  0.0004577  -0.0004577  0.0004577  0  0  0  0.021125  -0.021125  0.021125  0  0  0  0  0  0  0  0  0 
1704461090.784118000  -2.49999  -0.30001  1.00001  0  0  -1.6e-05  0.0005717  -0.0005717  0.0005717  0  0  0  0.0245  -0.0245  0.0245  0  0  0  0  0  0  0  0  0 
1704461090.789078000  -2.49999  -0.300013  1.00001  0  0  -2.11e-05  0.0007031  -0.0007031  0.0007031  0  0  0  0.028125  -0.028125  0.028125  0  0  0  0  0  0  0  0  0 
1704461090.794088000  -2.49998  -0.300017  1.00002  0  0  -2.73e-05  0.0008533  -0.0008533  0.0008533  0  0  0  0.032  -0.032  0.032  0  0  0  0  0  0  0  0  0 
1704461090.799089000  -2.49998  -0.300022  1.00002  0  0  -3.48e-05  0.0010235  -0.0010235  0.0010235  0  0  0  0.036125  -0.036125  0.036125  0  0  0  0  0  0  0  0  0 
1704461090.804044000  -2.49997  -0.300027  1.00003  0  0  -4.37e-05  0.001215  -0.001215  0.001215  0  0  0  0.0405  -0.0405  0.0405  0  0  0  0  0  0  0  0  0 
1704461090.809039000  -2.49997  -0.300034  1.00003  0  0  -5.43e-05  0.001429  -0.001429  0.001429  0  0  0  0.045125  -0.045125  0.045125  0  0  0  0  0  0  0  0  0 
1704461090.814051000  -2.49996  -0.300042  1.00004  0  0  -6.67e-05  0.0016667  -0.0016667  0.0016667  0  0  0  0.05  -0.05  0.05  0  0  0  0  0  0  0  0  0 
1704461090.819058000  -2.49995  -0.300051  1.00005  0  0  -8.1e-05  0.0019294  -0.0019294  0.0019294  0  0  0  0.055125  -0.055125  0.055125  0  0  0  0  0  0  0  0  0 
1704461090.824086000  -2.49994  -0.300061  1.00006  0  0  -9.76e-05  0.0022183  -0.0022183  0.0022183  0  0  0  0.0605  -0.0605  0.0605  0  0  0  0  0  0  0  0  0 
1704461090.829055000  -2.49993  -0.300073  1.00007  0  0  -0.0001166  0.0025348  -0.0025348  0.0025348  0  0  0  0.066125  -0.066125  0.066125  0  0  0  0  0  0  0  0  0 
1704461090.834054000  -2.49991  -0.300086  1.00009  0  0  -0.0001382  0.00288  -0.00288  0.0028796  0  0  0  0.072  -0.072  0.0717479  0  0  0  0  0  0  0  0  0 
1704461090.839047000  -2.4999  -0.300102  1.0001  0  0  -0.0001627  0.0032552  -0.0032552  0.0032519  0  0  0  0.0781249  -0.078125  0.0771208  0  0  0  0  0  0  0  0  0 
1704461090.844045000  -2.49988  -0.300119  1.00012  0  0  -0.0001903  0.0036612  -0.0036617  0.0036504  0  0  0  0.0842401  -0.0845  0.0822438  0  0  0  0  0  0  0  0  0 
1704461090.849054000  -2.49986  -0.300138  1.00014  0  0  -0.0002212  0.0040972  -0.0041006  0.0040739  0  0  0  0.0901054  -0.091125  0.0871167  0  0  0  0  0  0  0  0  0 
1704461090.854065000  -2.49984  -0.30016  1.00016  0  0  -0.0002556  0.0045619  -0.0045733  0.0045211  0  0  0  0.0957206  -0.098  0.0917396  0  0  0  0  0  0  0  0  0 
1704461090.859048000  -2.49982  -0.300184  1.00018  0  0  -0.0002936  0.005054  -0.005081  0.0049908  0  0  0  0.101086  -0.105125  0.0961125  0  0  0  0  0  0  0  0  0 
1704461090.864055000  -2.49979  -0.300211  1.00021  0  0  -0.0003355  0.0055723  -0.005625  0.0054818  0  0  0  0.106201  -0.1125  0.100235  0  0  0  0  0  0  0  0  0 
1704461090.869047000  -2.49976  -0.300241  1.00024  0  0  -0.0003814  0.0061156  -0.0062065  0.0059928  0  0  0  0.111066  -0.120125  0.104108  0  0  0  0  0  0  0  0  0 
1704461090.874060000  -2.49973  -0.300273  1.00027  0  0  -0.0004314  0.0066825  -0.0068267  0.0065225  0  0  0  0.115682  -0.128  0.107731  0  0  0  0  0  0  0  0  0 
1704461090.879043000  -2.49969  -0.300309  1.0003  0  0  -0.0004858  0.007272  -0.0074869  0.0070697  0  0  0  0.120047  -0.136125  0.111104  0  0  0  0  0  0  0  0  0 
1704461090.884051000  -2.49966  -0.300348  1.00034  0  0  -0.0005446  0.0078826  -0.0081883  0.0076331  0  0  0  0.124162  -0.1445  0.114227  0  0  0  0  0  0  0  0  0 
1704461090.889040000  -2.49961  -0.300391  1.00038  0  0  -0.0006079  0.0085132  -0.0089323  0.0082115  0  0  0  0.128027  -0.153125  0.1171  0  0  0  0  0  0  0  0  0 
1704461090.894042000  -2.49957  -0.300437  1.00042  0  0  -0.000676  0.0091625  -0.00972  0.0088037  0  0  0  0.131642  -0.162  0.119723  0  0  0  0  0  0  0  0  0 
1704461090.899047000  -2.49952  -0.300488  1.00047  0  0  -0.0007488  0.0098292  -0.0105527  0.0094084  0  0  0  0.135008  -0.171125  0.122096  0  0  0  0  0  0  0  0  0 
1704461090.904052000  -2.49947  -0.300543  1.00052  0  0  -0.0008265  0.0105121  -0.0114317  0.0100242  0  0  0  0.138123  -0.1805  0.124219  0  0  0  0  0  0  0  0  0 
1704461090.909040000  -2.49942  -0.300602  1.00057  0  0  -0.0009092  0.01121  -0.0123581  0.0106501  0  0  0  0.140988  -0.190125  0.126092  0  0  0  0  0  0  0  0  0 
1704461090.914054000  -2.49936  -0.300667  1.00062  0  0  -0.0009969  0.0119216  -0.0133333  0.0112847  0  0  0  0.143603  -0.2  0.127715  0  0  0  0  0  0  0  0  0 
1704461090.919051000  -2.4993  -0.300736  1.00068  0  0  -0.0010897  0.0126456  -0.0143585  0.0119269  0  0  0  0.145969  -0.210125  0.129088  0  0  0  0  0  0  0  0  0 
1704461090.924058000  -2.49923  -0.30081  1.00074  0  0  -0.0011877  0.0133809  -0.015435  0.0125752  0  0  0  0.148084  -0.2205  0.13021  0  0  0  0  0  0  0  0  0 
1704461090.929038000  -2.49916  -0.30089  1.00081  0  0  -0.0012909  0.014126  -0.016564  0.0132285  0  0  0  0.149949  -0.231125  0.131083  0  0  0  0  0  0  0  0  0 
1704461090.934046000  -2.49909  -0.300976  1.00087  0  0  -0.0013993  0.0148799  -0.0177467  0.0138856  0  0  0  0.151564  -0.242  0.131706  0  0  0  0  0  0  0  0  0 
1704461090.939047000  -2.49902  -0.301068  1.00095  0  0  -0.001513  0.0156413  -0.0189844  0.0145452  0  0  0  0.15293  -0.253125  0.132079  0  0  0  0  0  0  0  0  0 
1704461090.944048000  -2.49894  -0.301166  1.00102  0  0  -0.001632  0.0164088  -0.0202783  0.015206  0  0  0  0.154045  -0.2645  0.132202  0  0  0  0  0  0  0  0  0 
1704461090.949049000  -2.49885  -0.301271  1.0011  0  0  -0.0017563  0.0171813  -0.0216298  0.0158668  0  0  0  0.15491  -0.276125  0.132075  0  0  0  0  0  0  0  0  0 
1704461090.954069000  -2.49876  -0.301382  1.00118  0  0  -0.0018858  0.0179575  -0.02304  0.0165263  0  0  0  0.155525  -0.287987  0.131698  0  0  0  0  0  0  0  0  0 
1704461090.959042000  -2.49867  -0.301501  1.00126  0  0  -0.0020206  0.0187361  -0.0245094  0.0171834  0  0  0  0.15589  -0.299748  0.131071  0  0  0  0  0  0  0  0  0 
1704461090.964052000  -2.49858  -0.301628  1.00135  0  0  -0.0021607  0.019516  -0.0260371  0.0178366  0  0  0  0.156006  -0.31126  0.130194  0  0  0  0  0  0  0  0  0 
1704461090.969045000  -2.49848  -0.301762  1.00144  0  0  -0.0023059  0.0202958  -0.0276216  0.0184849  0  0  0  0.155871  -0.322521  0.129067  0  0  0  0  0  0  0  0  0 
1704461090.974054000  -2.49837  -0.301904  1.00154  0  0  -0.0024563  0.0210743  -0.0292619  0.0191269  0  0  0  0.155486  -0.333532  0.12769  0  0  0  0  0  0  0  0  0 
1704461090.979048000  -2.49827  -0.302054  1.00163  0  0  -0.0026119  0.0218502  -0.0309565  0.0197614  0  0  0  0.154851  -0.344294  0.126063  0  0  0  0  0  0  0  0  0 
1704461090.984054000  -2.49816  -0.302214  1.00173  0  0  -0.0027724  0.0226224  -0.0327044  0.0203871  0  0  0  0.153967  -0.354805  0.124185  0  0  0  0  0  0  0  0  0 
1704461090.989048000  -2.49804  -0.302382  1.00184  0  0  -0.0029379  0.0233895  -0.0345042  0.0210028  0  0  0  0.152832  -0.365066  0.122058  0  0  0  0  0  0  0  0  0 
1704461090.994057000  -2.49792  -0.302559  1.00194  0  0  -0.0031083  0.0241503  -0.0363546  0.0216073  0  0  0  0.151447  -0.375078  0.119681  0  0  0  0  0  0  0  0  0 
1704461090.999041000  -2.4978  -0.302745  1.00205  0  0  -0.0032835  0.0249035  -0.0382545  0.0221992  0  0  0  0.149812  -0.384839  0.117054  0  0  0  0  0  0  0  0  0 
1704461091.004057000  -2.49767  -0.302941  1.00217  0  0  -0.0034633  0.025648  -0.0402026  0.0227774  0  0  0  0.147928  -0.39435  0.114177  0  0  0  0  0  0  0  0  0 
1704461091.009048000  -2.49754  -0.303147  1.00228  0  0  -0.0036477  0.0263824  -0.0421976  0.0233405  0  0  0  0.145793  -0.403612  0.11105  0  0  0  0  0  0  0  0  0 
1704461091.014064000  -2.49741  -0.303363  1.0024  0  0  -0.0038366  0.0271055  -0.0442383  0.0238875  0  0  0  0.143408  -0.412623  0.107673  0  0  0  0  0  0  0  0  0 
1704461091.019040000  -2.49727  -0.30359  1.00252  0  0  -0.0040298  0.027816  -0.0463234  0.0244169  0  0  0  0.140773  -0.421384  0.104046  0  0  0  0  0  0  0  0  0 
1704461091.024050000  -2.49713  -0.303827  1.00264  0  0  -0.0042271  0.0285128  -0.0484517  0.0249275  0  0  0  0.137888  -0.429896  0.100169  0  0  0  0  0  0  0  0  0 
1704461091.029046000  -2.49699  -0.304074  1.00277  0  0  -0.0044284  0.0291945  -0.050622  0.0254181  0  0  0  0.134754  -0.438157  0.0960418  0  0  0  0  0  0  0  0  0 
1704461091.034048000  -2.49684  -0.304333  1.0029  0  0  -0.0046335  0.0298599  -0.0528329  0.0258875  0  0  0  0.131369  -0.446168  0.0916647  0  0  0  0  0  0  0  0  0 
1704461091.039039000  -2.49669  -0.304603  1.00303  0  0  -0.0048423  0.0305078  -0.0550832  0.0263344  0  0  0  0.127734  -0.45393  0.0870376  0  0  0  0  0  0  0  0  0 
1704461091.044044000  -2.49653  -0.304884  1.00316  0  0  -0.0050546  0.0311368  -0.0573718  0.0267575  0  0  0  0.123849  -0.461441  0.0821605  0  0  0  0  0  0  0  0  0 
1704461091.049033000  -2.49638  -0.305177  1.00329  0  0  -0.0052702  0.0317459  -0.0596972  0.0271556  0  0  0  0.119715  -0.468702  0.0770334  0  0  0  0  0  0  0  0  0 
1704461091.054050000  -2.49622  -0.305481  1.00343  0  0  -0.0054888  0.0323336  -0.0620584  0.0275274  0  0  0  0.11533  -0.475714  0.0716564  0  0  0  0  0  0  0  0  0 
1704461091.059053000  -2.49605  -0.305797  1.00357  0  0  -0.0057104  0.0328987  -0.0644539  0.0278717  0  0  0  0.110695  -0.482475  0.0660293  0  0  0  0  0  0  0  0  0 
1704461091.064062000  -2.49589  -0.306125  1.00371  0  0  -0.0059345  0.0334401  -0.0668827  0.0281877  0  0  0  0.10581  -0.488986  0.0604085  0  0  0  0  0  0  0  0  0 
1704461091.069056000  -2.49572  -0.306466  1.00385  0  0  -0.006161  0.0339564  -0.0693434  0.0284762  0  0  0  0.100676  -0.495248  0.0550376  0  0  0  0  0  0  0  0  0 
1704461091.074073000  -2.49555  -0.306819  1.00399  0  0  -0.0063898  0.0344464  -0.0718348  0.0287385  0  0  0  0.0952907  -0.501259  0.0499168  0  0  0  0  0  0  0  0  0 
1704461091.079044000  -2.49537  -0.307184  1.00414  0  0  -0.0066205  0.0349089  -0.0743556  0.0289758  0  0  0  0.089656  -0.50702  0.045046  0  0  0  0  0  0  0  0  0 
1704461091.084067000  -2.4952  -0.307563  1.00428  0  0  -0.0068531  0.0353426  -0.0769045  0.0291894  0  0  0  0.0837712  -0.512532  0.0404251  0  0  0  0  0  0  0  0  0 
1704461091.089052000  -2.49502  -0.307954  1.00443  0  0  -0.0070872  0.0357462  -0.0794805  0.0293805  0  0  0  0.0776373  -0.517793  0.0360543  0  0  0  0  0  0  0  0  0 
1704461091.094058000  -2.49484  -0.308357  1.00458  0  0  -0.0073228  0.036119  -0.0820821  0.0295503  0  0  0  0.0715318  -0.522804  0.0319335  0  0  0  0  0  0  0  0  0 
1704461091.099046000  -2.49466  -0.308774  1.00473  0  0  -0.0075597  0.0364619  -0.0847081  0.0297002  0  0  0  0.0656764  -0.527566  0.0280626  0  0  0  0  0  0  0  0  0 
1704461091.104067000  -2.49448  -0.309205  1.00488  0  0  -0.0077977  0.0367762  -0.0873573  0.0298314  0  0  0  0.0600709  -0.532077  0.0244418  0  0  0  0  0  0  0  0  0 
1704461091.109051000  -2.49429  -0.309648  1.00502  0  0  -0.0080367  0.0370631  -0.0900284  0.029945  0  0  0  0.0547154  -0.536338  0.0210709  0  0  0  0  0  0  0  0  0 
1704461091.114068000  -2.49411  -0.310105  1.00517  0  0  -0.0082765  0.0373238  -0.0927203  0.0300425  0  0  0  0.04961  -0.54035  0.0179501  0  0  0  0  0  0  0  0  0 
1704461091.119038000  -2.49392  -0.310575  1.00533  0  0  -0.008517  0.0375596  -0.0954315  0.030125  0  0  0  0.0447545  -0.544111  0.0150793  0  0  0  0  0  0  0  0  0 
1704461091.124049000  -2.49373  -0.311059  1.00548  0  0  -0.0087581  0.0377717  -0.098161  0.0301937  0  0  0  0.0401491  -0.547622  0.0124584  0  0  0  0  0  0  0  0  0 
1704461091.129073000  -2.49354  -0.311557  1.00563  0  0  -0.0089998  0.0379615  -0.100907  0.03025  0  0  0  0.0357936  -0.550884  0.0100876  0  0  0  0  0  0  0  0  0 
1704461091.134021000  -2.49335  -0.312068  1.00578  0  0  -0.0092418  0.0381301  -0.103669  0.030295  0  0  0  0.0316881  -0.553895  0.0079667  0  0  0  0  0  0  0  0  0 
1704461091.139075000  -2.49316  -0.312594  1.00593  0  0  -0.0094841  0.0382788  -0.106446  0.03033  0  0  0  0.0278327  -0.556656  0.0060959  0  0  0  0  0  0  0  0  0 
1704461091.144051000  -2.49297  -0.313133  1.00608  0  0  -0.0097267  0.0384088  -0.109236  0.0303564  0  0  0  0.0242272  -0.559168  0.0044751  0  0  0  0  0  0  0  0  0 
1704461091.149036000  -2.49278  -0.313686  1.00623  0  0  -0.0099695  0.0385215  -0.112037  0.0303752  0  0  0  0.0208718  -0.561429  0.0031042  0  0  0  0  0  0  0  0  0 
1704461091.154069000  -2.49258  -0.314253  1.00639  0  0  -0.0102124  0.038618  -0.114849  0.0303878  0  0  0  0.0177663  -0.56344  0.0019834  0  0  0  0  0  0  0  0  0 
1704461091.159036000  -2.49239  -0.314834  1.00654  0  0  -0.0104553  0.0386996  -0.117671  0.0303955  0  0  0  0.0149108  -0.565202  0.0011125  0  0  0  0  0  0  0  0  0 
1704461091.164052000  -2.4922  -0.31543  1.00669  0  0  -0.0106983  0.0387675  -0.120501  0.0303994  0  0  0  0.0123054  -0.566713  0.0004917  0  0  0  0  0  0  0  0  0 
1704461091.169035000  -2.492  -0.316039  1.00684  0  0  -0.0109414  0.038823  -0.123338  0.0304008  0  0  0  0.0099499  -0.567974  0.0001209  0  0  0  0  0  0  0  0  0 
1704461091.174060000  -2.49181  -0.316663  1.00699  0  0  -0.0111844  0.0388674  -0.12618  0.030401  0  0  0  0.0078444  -0.568985  -0  0  0  0  0  0  0  0  0  0 
1704461091.179050000  -2.49161  -0.317301  1.00715  0  0  -0.0114275  0.0389019  -0.129027  0.030401  0  0  0  0.005989  -0.569747  -0  0  0  0  0  0  0  0  0  0 
1704461091.184057000  -2.49142  -0.317954  1.0073  0  0  -0.0116705  0.0389277  -0.131877  0.030401  0  0  0  0.0043835  -0.570258  -0  0  0  0  0  0  0  0  0  0 
1704461091.189051000  -2.49122  -0.31862  1.00745  0  0  -0.0119135  0.0389461  -0.134729  0.030401  0  0  0  0.0030281  -0.570519  -0  0  0  0  0  0  0  0  0  0 
1704461091.194063000  -2.49103  -0.319301  1.0076  0  0  -0.0121566  0.0389584  -0.137582  0.030401  0  0  0  0.0019226  -0.570531  -0  0  0  0  0  0  0  0  0  0 
1704461091.199050000  -2.49083  -0.319996  1.00775  0  0  -0.0123996  0.0389658  -0.140434  0.030401  0  0  0  0.0010671  -0.570292  -0  0  0  0  0  0  0  0  0  0 
1704461091.204069000  -2.49064  -0.320705  1.00791  0  0  -0.0126427  0.0389695  -0.143285  0.030401  0  0  0  0.0004617  -0.569803  -0  0  0  0  0  0  0  0  0  0 
1704461091.209053000  -2.49044  -0.321429  1.00806  0  0  -0.0128857  0.0389708  -0.146132  0.030401  0  0  0  0.0001062  -0.569065  -0  0  0  0  0  0  0  0  0  0 
1704461091.214070000  -2.49025  -0.322166  1.00821  0  0  -0.0131287  0.038971  -0.148975  0.030401  0  0  0  -0  -0.568076  -0  0  0  0  0  0  0  0  0  0 
1704461091.219046000  -2.49005  -0.322918  1.00836  0  0  -0.0133718  0.038971  -0.151812  0.030401  0  0  0  -0  -0.566837  -0  0  0  0  0  0  0  0  0  0 
1704461091.224067000  -2.48986  -0.323685  1.00851  0  0  -0.0136148  0.038971  -0.154643  0.030401  0  0  0  -0  -0.565349  -0  0  0  0  0  0  0  0  0  0 
1704461091.229053000  -2.48967  -0.324465  1.00867  0  0  -0.0138579  0.038971  -0.157465  0.030401  0  0  0  -0  -0.56361  -0  0  0  0  0  0  0  0  0  0 
1704461091.234074000  -2.48947  -0.325259  1.00882  0  0  -0.0141009  0.038971  -0.160279  0.030401  0  0  0  -0  -0.561621  -0  0  0  0  0  0  0  0  0  0 
1704461091.239049000  -2.48928  -0.326068  1.00897  0  0  -0.0143439  0.038971  -0.163081  0.030401  0  0  0  -0  -0.559383  -0  0  0  0  0  0  0  0  0  0 
1704461091.244059000  -2.48908  -0.32689  1.00912  0  0  -0.014587  0.038971  -0.165872  0.030401  0  0  0  -0  -0.556894  -0  0  0  0  0  0  0  0  0  0 
1704461091.249050000  -2.48889  -0.327726  1.00927  0  0  -0.01483  0.038971  -0.16865  0.030401  0  0  0  -0  -0.554155  -0  0  0  0  0  0  0  0  0  0 
1704461091.254066000  -2.48869  -0.328577  1.00943  0  0  -0.0150731  0.038971  -0.171413  0.030401  0  0  0  -0  -0.551167  -0  0  0  0  0  0  0  0  0  0 
1704461091.259036000  -2.4885  -0.32944  1.00958  0  0  -0.0153161  0.038971  -0.174161  0.030401  0  0  0  -0  -0.547928  -0  0  0  0  0  0  0  0  0  0 
1704461091.264054000  -2.4883  -0.330318  1.00973  0  0  -0.0155591  0.038971  -0.176892  0.030401  0  0  0  -0  -0.544439  -0  0  0  0  0  0  0  0  0  0 
1704461091.269054000  -2.48811  -0.331209  1.00988  0  0  -0.0158022  0.038971  -0.179605  0.030401  0  0  0  -0  -0.540701  -0  0  0  0  0  0  0  0  0  0 
1704461091.274066000  -2.48791  -0.332114  1.01003  0  0  -0.0160452  0.038971  -0.182299  0.030401  0  0  0  -0  -0.536712  -0  0  0  0  0  0  0  0  0  0 
1704461091.279043000  -2.48772  -0.333032  1.01019  0  0  -0.0162883  0.038971  -0.184972  0.030401  0  0  0  -0  -0.532473  -0  0  0  0  0  0  0  0  0  0 
1704461091.284052000  -2.48752  -0.333964  1.01034  0  0  -0.0165313  0.038971  -0.187623  0.030401  0  0  0  -0  -0.527985  -0  0  0  0  0  0  0  0  0  0 
1704461091.289053000  -2.48733  -0.334908  1.01049  0  0  -0.0167743  0.038971  -0.190251  0.030401  0  0  0  -0  -0.523246  -0  0  0  0  0  0  0  0  0  0 
1704461091.294059000  -2.48713  -0.335866  1.01064  0  0  -0.0170174  0.038971  -0.192855  0.030401  0  0  0  -0  -0.518257  -0  0  0  0  0  0  0  0  0  0 
1704461091.299050000  -2.48694  -0.336837  1.01079  0  0  -0.0172604  0.038971  -0.195433  0.030401  0  0  0  -0  -0.513019  -0  0  0  0  0  0  0  0  0  0 
1704461091.304040000  -2.48674  -0.337821  1.01095  0  0  -0.0175034  0.038971  -0.197985  0.030401  0  0  0  -0  -0.50753  -0  0  0  0  0  0  0  0  0  0 
1704461091.309038000  -2.48655  -0.338817  1.0111  0  0  -0.0177465  0.038971  -0.200508  0.030401  0  0  0  -0  -0.501791  -0  0  0  0  0  0  0  0  0  0 
1704461091.314045000  -2.48635  -0.339826  1.01125  0  0  -0.0179895  0.038971  -0.203002  0.030401  0  0  0  -0  -0.495803  -0  0  0  0  0  0  0  0  0  0 
1704461091.319036000  -2.48616  -0.340847  1.0114  0  0  -0.0182326  0.038971  -0.205466  0.030401  0  0  0  -0  -0.489564  -0  0  0  0  0  0  0  0  0  0 
1704461091.324057000  -2.48596  -0.34188  1.01155  0  0  -0.0184756  0.038971  -0.207897  0.030401  0  0  0  -0  -0.483075  -0  0  0  0  0  0  0  0  0  0 
1704461091.329037000  -2.48577  -0.342926  1.01171  0  0  -0.0187186  0.038971  -0.210296  0.030401  0  0  0  -0  -0.476337  -0  0  0  0  0  0  0  0  0  0 
1704461091.334055000  -2.48557  -0.343983  1.01186  0  0  -0.0189617  0.038971  -0.21266  0.030401  0  0  0  -0  -0.469348  -0  0  0  0  0  0  0  0  0  0 
1704461091.339051000  -2.48538  -0.345052  1.01201  0  0  -0.0192047  0.038971  -0.214989  0.030401  0  0  0  -0  -0.462109  -0  0  0  0  0  0  0  0  0  0 
1704461091.344061000  -2.48518  -0.346133  1.01216  0  0  -0.0194478  0.038971  -0.217281  0.030401  0  0  0  -0  -0.454621  -0  0  0  0  0  0  0  0  0  0 
1704461091.349054000  -2.48499  -0.347225  1.01231  0  0  -0.0196908  0.038971  -0.219535  0.030401  0  0  0  -0  -0.446882  -0  0  0  0  0  0  0  0  0  0 
1704461091.354065000  -2.48479  -0.348328  1.01247  0  0  -0.0199338  0.038971  -0.221749  0.030401  0  0  0  -0  -0.438893  -0  0  0  0  0  0  0  0  0  0 
1704461091.359038000  -2.4846  -0.349442  1.01262  0  0  -0.0201769  0.038971  -0.223923  0.030401  0  0  0  -0  -0.430655  -0  0  0  0  0  0  0  0  0  0 
1704461091.364067000  -2.4844  -0.350567  1.01277  0  0  -0.0204199  0.038971  -0.226056  0.030401  0  0  0  -0  -0.422166  -0  0  0  0  0  0  0  0  0  0 
1704461091.369050000  -2.48421  -0.351703  1.01292  0  0  -0.020663  0.038971  -0.228145  0.030401  0  0  0  -0  -0.413427  -0  0  0  0  0  0  0  0  0  0 
1704461091.374066000  -2.48401  -0.352849  1.01307  0  0  -0.020906  0.038971  -0.230189  0.030401  0  0  0  -0  -0.404439  -0  0  0  0  0  0  0  0  0  0 
1704461091.379036000  -2.48382  -0.354005  1.01323  0  0  -0.021149  0.038971  -0.232189  0.030401  0  0  0  -0  -0.3952  -0  0  0  0  0  0  0  0  0  0 
1704461091.384048000  -2.48362  -0.355171  1.01338  0  0  -0.0213921  0.038971  -0.234141  0.030401  0  0  0  -0  -0.385711  -0  0  0  0  0  0  0  0  0  0 
1704461091.389031000  -2.48343  -0.356346  1.01353  0  0  -0.0216351  0.038971  -0.236045  0.030401  0  0  0  -0  -0.375973  -0  0  0  0  0  0  0  0  0  0 
1704461091.394054000  -2.48323  -0.357531  1.01368  0  0  -0.0218782  0.038971  -0.2379  0.030401  0  0  0  -0  -0.365984  -0  0  0  0  0  0  0  0  0  0 
1704461091.399052000  -2.48304  -0.358725  1.01383  0  0  -0.0221212  0.038971  -0.239705  0.030401  0  0  0  -0  -0.355745  -0  0  0  0  0  0  0  0  0  0 
1704461091.404055000  -2.48285  -0.359928  1.01399  0  0  -0.0223642  0.038971  -0.241457  0.030401  0  0  0  -0  -0.345257  -0  0  0  0  0  0  0  0  0  0 
1704461091.409041000  -2.48265  -0.361139  1.01414  0  0  -0.0226073  0.038971  -0.243157  0.030401  0  0  0  -0  -0.334518  -0  0  0  0  0  0  0  0  0  0 
1704461091.414082000  -2.48246  -0.362359  1.01429  0  0  -0.0228503  0.038971  -0.244802  0.030401  0  0  0  -0  -0.323529  -0  0  0  0  0  0  0  0  0  0 
1704461091.419036000  -2.48226  -0.363587  1.01444  0  0  -0.0230934  0.038971  -0.246392  0.030401  0  0  0  -0  -0.312291  -0  0  0  0  0  0  0  0  0  0 
1704461091.424057000  -2.48207  -0.364823  1.01459  0  0  -0.0233364  0.038971  -0.247925  0.030401  0  0  0  -0  -0.300802  -0  0  0  0  0  0  0  0  0  0 
1704461091.429058000  -2.48187  -0.366067  1.01475  0  0  -0.0235794  0.038971  -0.249399  0.030401  0  0  0  -0  -0.289063  -0  0  0  0  0  0  0  0  0  0 
1704461091.434089000  -2.48168  -0.367317  1.0149  0  0  -0.0238225  0.038971  -0.250815  0.030401  0  0  0  -0  -0.277191  -0  0  0  0  0  0  0  0  0  0 
1704461091.439036000  -2.48148  -0.368575  1.01505  0  0  -0.0240655  0.038971  -0.252172  0.030401  0  0  0  -0  -0.265543  -0  0  0  0  0  0  0  0  0  0 
1704461091.444069000  -2.48129  -0.369839  1.0152  0  0  -0.0243086  0.038971  -0.253471  0.030401  0  0  0  -0  -0.254145  -0  0  0  0  0  0  0  0  0  0 
1704461091.449072000  -2.48109  -0.371109  1.01535  0  0  -0.0245516  0.038971  -0.254714  0.030401  0  0  0  -0  -0.242998  -0  0  0  0  0  0  0  0  0  0 
1704461091.454067000  -2.4809  -0.372386  1.01551  0  0  -0.0247946  0.038971  -0.255901  0.030401  0  0  0  -0  -0.2321  -0  0  0  0  0  0  0  0  0  0 
1704461091.459065000  -2.4807  -0.373668  1.01566  0  0  -0.0250377  0.038971  -0.257035  0.030401  0  0  0  -0  -0.221453  -0  0  0  0  0  0  0  0  0  0 
1704461091.464080000  -2.48051  -0.374956  1.01581  0  0  -0.0252807  0.038971  -0.258116  0.030401  0  0  0  -0  -0.211055  -0  0  0  0  0  0  0  0  0  0 
1704461091.469055000  -2.48031  -0.376249  1.01596  0  0  -0.0255238  0.038971  -0.259146  0.030401  0  0  0  -0  -0.200907  -0  0  0  0  0  0  0  0  0  0 
1704461091.474072000  -2.48012  -0.377547  1.01611  0  0  -0.0257668  0.038971  -0.260126  0.030401  0  0  0  -0  -0.19101  -0  0  0  0  0  0  0  0  0  0 
1704461091.479028000  -2.47992  -0.37885  1.01627  0  0  -0.0260098  0.038971  -0.261056  0.030401  0  0  0  -0  -0.181362  -0  0  0  0  0  0  0  0  0  0 
1704461091.484028000  -2.47973  -0.380158  1.01642  0  0  -0.0262529  0.038971  -0.26194  0.030401  0  0  0  -0  -0.171964  -0  0  0  0  0  0  0  0  0  0 
1704461091.489048000  -2.47953  -0.38147  1.01657  0  0  -0.0264959  0.038971  -0.262776  0.030401  0  0  0  -0  -0.162817  -0  0  0  0  0  0  0  0  0  0 
1704461091.494066000  -2.47934  -0.382786  1.01672  0  0  -0.026739  0.038971  -0.263568  0.030401  0  0  0  -0  -0.153919  -0  0  0  0  0  0  0  0  0  0 
1704461091.499035000  -2.47914  -0.384105  1.01687  0  0  -0.026982  0.038971  -0.264316  0.030401  0  0  0  -0  -0.145271  -0  0  0  0  0  0  0  0  0  0 
1704461091.504045000  -2.47895  -0.385429  1.01703  0  0  -0.027225  0.038971  -0.265021  0.030401  0  0  0  -0  -0.136874  -0  0  0  0  0  0  0  0  0  0 
1704461091.509048000  -2.47875  -0.386755  1.01718  0  0  -0.0274681  0.038971  -0.265685  0.030401  0  0  0  -0  -0.128726  -0  0  0  0  0  0  0  0  0  0 
1704461091.514068000  -2.47856  -0.388085  1.01733  0  0  -0.0277111  0.038971  -0.266309  0.030401  0  0  0  -0  -0.120828  -0  0  0  0  0  0  0  0  0  0 
1704461091.519039000  -2.47836  -0.389418  1.01748  0  0  -0.0279541  0.038971  -0.266894  0.030401  0  0  0  -0  -0.113181  -0  0  0  0  0  0  0  0  0  0 
1704461091.524048000  -2.47817  -0.390754  1.01763  0  0  -0.0281972  0.038971  -0.267441  0.030401  0  0  0  -0  -0.105783  -0  0  0  0  0  0  0  0  0  0 
1704461091.529034000  -2.47797  -0.392093  1.01779  0  0  -0.0284402  0.038971  -0.267952  0.030401  0  0  0  -0  -0.0986354  -0  0  0  0  0  0  0  0  0  0 
1704461091.534049000  -2.47778  -0.393434  1.01794  0  0  -0.0286833  0.038971  -0.268428  0.030401  0  0  0  -0  -0.0917377  -0  0  0  0  0  0  0  0  0  0 
1704461091.539059000  -2.47758  -0.394777  1.01809  0  0  -0.0289263  0.038971  -0.26887  0.030401  0  0  0  -0  -0.0850901  -0  0  0  0  0  0  0  0  0  0 
1704461091.544061000  -2.47739  -0.396122  1.01824  0  0  -0.0291693  0.038971  -0.269279  0.030401  0  0  0  -0  -0.0786924  -0  0  0  0  0  0  0  0  0  0 
1704461091.549040000  -2.47719  -0.39747  1.01839  0  0  -0.0294124  0.038971  -0.269657  0.030401  0  0  0  -0  -0.0725447  -0  0  0  0  0  0  0  0  0  0 
1704461091.554048000  -2.477  -0.398819  1.01855  0  0  -0.0296554  0.038971  -0.270005  0.030401  0  0  0  -0  -0.0666471  -0  0  0  0  0  0  0  0  0  0 
1704461091.559042000  -2.4768  -0.40017  1.0187  0  0  -0.0298985  0.038971  -0.270324  0.030401  0  0  0  -0  -0.0609994  -0  0  0  0  0  0  0  0  0  0 
1704461091.564047000  -2.47661  -0.401522  1.01885  0  0  -0.0301415  0.038971  -0.270616  0.030401  0  0  0  -0  -0.0556018  -0  0  0  0  0  0  0  0  0  0 
1704461091.569057000  -2.47641  -0.402876  1.019  0  0  -0.0303845  0.038971  -0.270881  0.030401  0  0  0  -0  -0.0504541  -0  0  0  0  0  0  0  0  0  0 
1704461091.574080000  -2.47622  -0.404231  1.01915  0  0  -0.0306276  0.038971  -0.271121  0.030401  0  0  0  -0  -0.0455565  -0  0  0  0  0  0  0  0  0  0 
1704461091.579071000  -2.47603  -0.405587  1.01931  0  0  -0.0308706  0.038971  -0.271337  0.030401  0  0  0  -0  -0.0409088  -0  0  0  0  0  0  0  0  0  0 
1704461091.584105000  -2.47583  -0.406944  1.01946  0  0  -0.0311137  0.038971  -0.27153  0.030401  0  0  0  -0  -0.0365112  -0  0  0  0  0  0  0  0  0  0 
1704461091.589040000  -2.47564  -0.408302  1.01961  0  0  -0.0313567  0.038971  -0.271702  0.030401  0  0  0  -0  -0.0323635  -0  0  0  0  0  0  0  0  0  0 
1704461091.594043000  -2.47544  -0.409661  1.01976  0  0  -0.0315997  0.038971  -0.271854  0.030401  0  0  0  -0  -0.0284659  -0  0  0  0  0  0  0  0  0  0 
1704461091.599043000  -2.47525  -0.411021  1.01991  0  0  -0.0318428  0.038971  -0.271987  0.030401  0  0  0  -0  -0.0248182  -0  0  0  0  0  0  0  0  0  0 
1704461091.604054000  -2.47505  -0.412381  1.02007  0  0  -0.0320858  0.038971  -0.272103  0.030401  0  0  0  -0  -0.0214205  -0  0  0  0  0  0  0  0  0  0 
1704461091.609089000  -2.47486  -0.413742  1.02022  0  0  -0.0323289  0.038971  -0.272202  0.030401  0  0  0  -0  -0.0182729  -0  0  0  0  0  0  0  0  0  0 
1704461091.614069000  -2.47466  -0.415103  1.02037  0  0  -0.0325719  0.038971  -0.272286  0.030401  0  0  0  -0  -0.0153752  -0  0  0  0  0  0  0  0  0  0 
1704461091.619053000  -2.47447  -0.416465  1.02052  0  0  -0.0328149  0.038971  -0.272356  0.030401  0  0  0  -0  -0.0127276  -0  0  0  0  0  0  0  0  0  0 
1704461091.624068000  -2.47427  -0.417827  1.02067  0  0  -0.033058  0.038971  -0.272414  0.030401  0  0  0  -0  -0.0103299  -0  0  0  0  0  0  0  0  0  0 
1704461091.629041000  -2.47408  -0.419189  1.02083  0  0  -0.033301  0.038971  -0.27246  0.030401  0  0  0  -0  -0.0081823  -0  0  0  0  0  0  0  0  0  0 
1704461091.634078000  -2.47388  -0.420551  1.02098  0  0  -0.0335441  0.038971  -0.272496  0.030401  0  0  0  -0  -0.0062846  -0  0  0  0  0  0  0  0  0  0 
1704461091.639041000  -2.47369  -0.421914  1.02113  0  0  -0.0337871  0.038971  -0.272523  0.030401  0  0  0  -0  -0.004637  -0  0  0  0  0  0  0  0  0  0 
1704461091.644042000  -2.47349  -0.423276  1.02128  0  0  -0.0340301  0.038971  -0.272543  0.030401  0  0  0  -0  -0.0032393  -0  0  0  0  0  0  0  0  0  0 
1704461091.649053000  -2.4733  -0.424639  1.02143  0  0  -0.0342732  0.038971  -0.272556  0.030401  0  0  0  -0  -0.0020917  -0  0  0  0  0  0  0  0  0  0 
1704461091.654055000  -2.4731  -0.426002  1.02159  0  0  -0.0345162  0.038971  -0.272564  0.030401  0  0  0  -0  -0.001194  -0  0  0  0  0  0  0  0  0  0 
1704461091.659044000  -2.47291  -0.427365  1.02174  0  0  -0.0347593  0.038971  -0.272568  0.030401  0  0  0  -0  -0.0005463  -0  0  0  0  0  0  0  0  0  0 
1704461091.664058000  -2.47271  -0.428728  1.02189  0  0  -0.0350023  0.038971  -0.27257  0.030401  0  0  0  -0  -0.0001487  -0  0  0  0  0  0  0  0  0  0 
1704461091.669038000  -2.47252  -0.43009  1.02204  0  0  -0.0352453  0.038971  -0.27257  0.030401  0  0  0  -0  -1e-06  -0  0  0  0  0  0  0  0  0  0 
1704461091.674065000  -2.47232  -0.431453  1.02219  0  0  -0.0354884  0.038971  -0.27257  0.030401  0  0  0  -0  9.48e-05  -0  0  0  0  0  0  0  0  0  0 
1704461091.679034000  -2.47213  -0.432816  1.02235  0  0  -0.0357314  0.038971  -0.272569  0.030401  0  0  0  -0  0.0004376  -0  0  0  0  0  0  0  0  0  0 
1704461091.684057000  -2.47193  -0.434179  1.0225  0  0  -0.0359745  0.038971  -0.272565  0.030401  0  0  0  -0  0.0010304  -0  0  0  0  0  0  0  0  0  0 
1704461091.689055000  -2.47174  -0.435542  1.02265  0  0  -0.0362175  0.038971  -0.272558  0.030401  0  0  0  -0  0.0018732  -0  0  0  0  0  0  0  0  0  0 
1704461091.694064000  -2.47154  -0.436905  1.0228  0  0  -0.0364605  0.038971  -0.272546  0.030401  0  0  0  -0  0.0029659  -0  0  0  0  0  0  0  0  0  0 
1704461091.699037000  -2.47135  -0.438267  1.02295  0  0  -0.0367036  0.038971  -0.272528  0.030401  0  0  0  -0  0.0043087  -0  0  0  0  0  0  0  0  0  0 
1704461091.704049000  -2.47115  -0.43963  1.02311  0  0  -0.0369466  0.038971  -0.272502  0.030401  0  0  0  -0  0.0059015  -0  0  0  0  0  0  0  0  0  0 
1704461091.709046000  -2.47096  -0.440992  1.02326  0  0  -0.0371897  0.038971  -0.272468  0.030401  0  0  0  -0  0.0077442  -0  0  0  0  0  0  0  0  0  0 
1704461091.714044000  -2.47076  -0.442354  1.02341  0  0  -0.0374327  0.038971  -0.272425  0.030401  0  0  0  -0  0.009837  -0  0  0  0  0  0  0  0  0  0 
1704461091.719047000  -2.47057  -0.443716  1.02356  0  0  -0.0376757  0.038971  -0.27237  0.030401  0  0  0  -0  0.0121798  -0  0  0  0  0  0  0  0  0  0 
1704461091.724065000  -2.47037  -0.445078  1.02371  0  0  -0.0379188  0.038971  -0.272302  0.030401  0  0  0  -0  0.0147725  -0  0  0  0  0  0  0  0  0  0 
1704461091.729047000  -2.47018  -0.446439  1.02387  0  0  -0.0381618  0.038971  -0.272222  0.030401  0  0  0  -0  0.0176153  -0  0  0  0  0  0  0  0  0  0 
1704461091.734064000  -2.46998  -0.4478  1.02402  0  0  -0.0384048  0.038971  -0.272126  0.030401  0  0  0  -0  0.0207081  -0  0  0  0  0  0  0  0  0  0 
1704461091.739058000  -2.46979  -0.449161  1.02417  0  0  -0.0386479  0.038971  -0.272014  0.030401  0  0  0  -0  0.0240508  -0  0  0  0  0  0  0  0  0  0 
1704461091.744045000  -2.4696  -0.45052  1.02432  0  0  -0.0388909  0.038971  -0.271885  0.030401  0  0  0  -0  0.0276436  -0  0  0  0  0  0  0  0  0  0 
1704461091.749041000  -2.4694  -0.45188  1.02447  0  0  -0.039134  0.038971  -0.271737  0.030401  0  0  0  -0  0.0314864  -0  0  0  0  0  0  0  0  0  0 
1704461091.754057000  -2.46921  -0.453238  1.02463  0  0  -0.039377  0.038971  -0.27157  0.030401  0  0  0  -0  0.0355791  -0  0  0  0  0  0  0  0  0  0 
1704461091.759035000  -2.46901  -0.454595  1.02478  0  0  -0.03962  0.038971  -0.271381  0.030401  0  0  0  -0  0.0399219  -0  0  0  0  0  0  0  0  0  0 
1704461091.764055000  -2.46882  -0.455952  1.02493  0  0  -0.0398631  0.038971  -0.27117  0.030401  0  0  0  -0  0.0445147  -0  0  0  0  0  0  0  0  0  0 
1704461091.769057000  -2.46862  -0.457307  1.02508  0  0  -0.0401061  0.038971  -0.270935  0.030401  0  0  0  -0  0.0493574  -0  0  0  0  0  0  0  0  0  0 
1704461091.774061000  -2.46843  -0.458661  1.02523  0  0  -0.0403492  0.038971  -0.270676  0.030401  0  0  0  -0  0.0544502  -0  0  0  0  0  0  0  0  0  0 
1704461091.779043000  -2.46823  -0.460014  1.02539  0  0  -0.0405922  0.038971  -0.27039  0.030401  0  0  0  -0  0.059793  -0  0  0  0  0  0  0  0  0  0 
1704461091.784069000  -2.46804  -0.461365  1.02554  0  0  -0.0408352  0.038971  -0.270078  0.030401  0  0  0  -0  0.0653858  -0  0  0  0  0  0  0  0  0  0 
1704461091.789054000  -2.46784  -0.462714  1.02569  0  0  -0.0410783  0.038971  -0.269736  0.030401  0  0  0  -0  0.0712285  -0  0  0  0  0  0  0  0  0  0 
1704461091.794039000  -2.46765  -0.464062  1.02584  0  0  -0.0413213  0.038971  -0.269365  0.030401  0  0  0  -0  0.0773213  -0  0  0  0  0  0  0  0  0  0 
1704461091.799041000  -2.46745  -0.465408  1.02599  0  0  -0.0415644  0.038971  -0.268963  0.030401  0  0  0  -0  0.0836641  -0  0  0  0  0  0  0  0  0  0 
1704461091.804044000  -2.46726  -0.466752  1.02615  0  0  -0.0418074  0.038971  -0.268528  0.030401  0  0  0  -0  0.0902568  -0  0  0  0  0  0  0  0  0  0 
1704461091.809042000  -2.46706  -0.468093  1.0263  0  0  -0.0420504  0.038971  -0.26806  0.030401  0  0  0  -0  0.0970996  -0  0  0  0  0  0  0  0  0  0 
1704461091.814055000  -2.46687  -0.469432  1.02645  0  0  -0.0422935  0.038971  -0.267556  0.030401  0  0  0  -0  0.104192  -0  0  0  0  0  0  0  0  0  0 
1704461091.819036000  -2.46667  -0.470769  1.0266  0  0  -0.0425365  0.038971  -0.267017  0.030401  0  0  0  -0  0.111535  -0  0  0  0  0  0  0  0  0  0 
1704461091.824055000  -2.46648  -0.472102  1.02675  0  0  -0.0427796  0.038971  -0.266441  0.030401  0  0  0  -0  0.119128  -0  0  0  0  0  0  0  0  0  0 
1704461091.829043000  -2.46628  -0.473433  1.02691  0  0  -0.0430226  0.038971  -0.265826  0.030401  0  0  0  -0  0.126971  -0  0  0  0  0  0  0  0  0  0 
1704461091.834054000  -2.46609  -0.47476  1.02706  0  0  -0.0432656  0.038971  -0.265171  0.030401  0  0  0  -0  0.135063  -0  0  0  0  0  0  0  0  0  0 
1704461091.839083000  -2.46589  -0.476085  1.02721  0  0  -0.0435087  0.038971  -0.264475  0.030401  0  0  0  -0  0.143406  -0  0  0  0  0  0  0  0  0  0 
1704461091.844073000  -2.4657  -0.477405  1.02736  0  0  -0.0437517  0.038971  -0.263736  0.030401  0  0  0  -0  0.151999  -0  0  0  0  0  0  0  0  0  0 
1704461091.849031000  -2.4655  -0.478722  1.02751  0  0  -0.0439948  0.038971  -0.262954  0.030401  0  0  0  -0  0.160842  -0  0  0  0  0  0  0  0  0  0 
1704461091.854063000  -2.46531  -0.480035  1.02767  0  0  -0.0442378  0.038971  -0.262127  0.030401  0  0  0  -0  0.169935  -0  0  0  0  0  0  0  0  0  0 
1704461091.859043000  -2.46511  -0.481343  1.02782  0  0  -0.0444808  0.038971  -0.261254  0.030401  0  0  0  -0  0.179277  -0  0  0  0  0  0  0  0  0  0 
1704461091.864051000  -2.46492  -0.482647  1.02797  0  0  -0.0447239  0.038971  -0.260334  0.030401  0  0  0  -0  0.18887  -0  0  0  0  0  0  0  0  0  0 
1704461091.869102000  -2.46472  -0.483946  1.02812  0  0  -0.0449669  0.038971  -0.259365  0.030401  0  0  0  -0  0.198713  -0  0  0  0  0  0  0  0  0  0 
1704461091.874052000  -2.46453  -0.485241  1.02827  0  0  -0.04521  0.038971  -0.258347  0.030401  0  0  0  -0  0.208806  -0  0  0  0  0  0  0  0  0  0 
1704461091.879038000  -2.46433  -0.48653  1.02843  0  0  -0.045453  0.038971  -0.257277  0.030401  0  0  0  -0  0.219148  -0  0  0  0  0  0  0  0  0  0 
1704461091.884047000  -2.46414  -0.487813  1.02858  0  0  -0.045696  0.038971  -0.256155  0.030401  0  0  0  -0  0.229741  -0  0  0  0  0  0  0  0  0  0 
1704461091.889034000  -2.46394  -0.489091  1.02873  0  0  -0.0459391  0.038971  -0.254979  0.030401  0  0  0  -0  0.240584  -0  0  0  0  0  0  0  0  0  0 
1704461091.894034000  -2.46375  -0.490363  1.02888  0  0  -0.0461821  0.038971  -0.253748  0.030401  0  0  0  -0  0.251677  -0  0  0  0  0  0  0  0  0  0 
1704461091.899029000  -2.46355  -0.491629  1.02903  0  0  -0.0464252  0.038971  -0.252462  0.030401  0  0  0  -0  0.263019  -0  0  0  0  0  0  0  0  0  0 
1704461091.904036000  -2.46336  -0.492888  1.02919  0  0  -0.0466682  0.038971  -0.251118  0.030401  0  0  0  -0  0.274612  -0  0  0  0  0  0  0  0  0  0 
1704461091.909034000  -2.46316  -0.49414  1.02934  0  0  -0.0469112  0.038971  -0.249715  0.030401  0  0  0  -0  0.286455  -0  0  0  0  0  0  0  0  0  0 
1704461091.914060000  -2.46297  -0.495385  1.02949  0  0  -0.0471543  0.038971  -0.248253  0.030401  0  0  0  -0  0.298548  -0  0  0  0  0  0  0  0  0  0 
1704461091.919046000  -2.46278  -0.496622  1.02964  0  0  -0.0473973  0.038971  -0.246729  0.030401  0  0  0  -0  0.310891  -0  0  0  0  0  0  0  0  0  0 
1704461091.924050000  -2.46258  -0.497852  1.02979  0  0  -0.0476404  0.038971  -0.245143  0.030401  0  0  0  -0  0.323483  -0  0  0  0  0  0  0  0  0  0 
1704461091.929037000  -2.46239  -0.499073  1.02995  0  0  -0.0478834  0.038971  -0.243494  0.030401  0  0  0  -0  0.336326  -0  0  0  0  0  0  0  0  0  0 
1704461091.934044000  -2.46219  -0.500287  1.0301  0  0  -0.0481264  0.038971  -0.24178  0.030401  0  0  0  -0  0.349419  -0  0  0  0  0  0  0  0  0  0 
1704461091.939029000  -2.462  -0.501491  1.03025  0  0  -0.0483695  0.038971  -0.239999  0.030401  0  0  0  -0  0.362762  -0  0  0  0  0  0  0  0  0  0 
1704461091.944053000  -2.4618  -0.502687  1.0304  0  0  -0.0486125  0.038971  -0.238152  0.030401  0  0  0  -0  0.376354  -0  0  0  0  0  0  0  0  0  0 
1704461091.949044000  -2.46161  -0.503873  1.03055  0  0  -0.0488555  0.038971  -0.236236  0.030401  0  0  0  -0  0.390197  -0  0  0  0  0  0  0  0  0  0 
1704461091.954058000  -2.46141  -0.505049  1.03071  0  0  -0.0490986  0.038971  -0.234249  0.030401  0  0  0  -0  0.40429  -0  0  0  0  0  0  0  0  0  0 
1704461091.959033000  -2.46122  -0.506215  1.03086  0  0  -0.0493416  0.038971  -0.232192  0.030401  0  0  0  -0  0.418633  -0  0  0  0  0  0  0  0  0  0 
1704461091.964044000  -2.46102  -0.507371  1.03101  0  0  -0.0495847  0.038971  -0.230063  0.030401  0  0  0  -0  0.433225  -0  0  0  0  0  0  0  0  0  0 
1704461091.969030000  -2.46083  -0.508515  1.03116  0  0  -0.0498277  0.038971  -0.22786  0.030401  0  0  0  -0  0.448068  -0  0  0  0  0  0  0  0  0  0 
1704461091.974051000  -2.46063  -0.509649  1.03131  0  0  -0.0500707  0.038971  -0.225582  0.030401  0  0  0  -0  0.463161  -0  0  0  0  0  0  0  0  0  0 
1704461091.979036000  -2.46044  -0.510771  1.03147  0  0  -0.0503138  0.038971  -0.223227  0.030401  0  0  0  -0  0.478504  -0  0  0  0  0  0  0  0  0  0 
1704461091.984041000  -2.46024  -0.511881  1.03162  0  0  -0.0505568  0.038971  -0.220796  0.030401  0  0  0  -0  0.494096  -0  0  0  0  0  0  0  0  0  0 
1704461091.989032000  -2.46005  -0.512979  1.03177  0  0  -0.0507999  0.038971  -0.218286  0.030401  0  0  0  -0  0.509939  -0  0  0  0  0  0  0  0  0  0 
1704461091.994057000  -2.45985  -0.514064  1.03192  0  0  -0.0510429  0.038971  -0.215696  0.030401  0  0  0  -0  0.526032  -0  0  0  0  0  0  0  0  0  0 
1704461091.999038000  -2.45966  -0.515136  1.03207  0  0  -0.0512859  0.038971  -0.213025  0.030401  0  0  0  -0  0.542375  -0  0  0  0  0  0  0  0  0  0 
1704461092.004044000  -2.45946  -0.516194  1.03223  0  0  -0.051529  0.038971  -0.210272  0.030401  0  0  0  -0  0.558968  -0  0  0  0  0  0  0  0  0  0 
1704461092.009102000  -2.45927  -0.517238  1.03238  0  0  -0.051772  0.038971  -0.207435  0.030401  0  0  0  -0  0.57581  -0  0  0  0  0  0  0  0  0  0 
1704461092.014050000  -2.45907  -0.518268  1.03253  0  0  -0.0520151  0.038971  -0.204514  0.030401  0  0  0  -0  0.592903  -0  0  0  0  0  0  0  0  0  0 
1704461092.019038000  -2.45888  -0.519283  1.03268  0  0  -0.0522581  0.038971  -0.201506  0.030401  0  0  0  -0  0.610246  -0  0  0  0  0  0  0  0  0  0 
1704461092.024060000  -2.45868  -0.520283  1.03283  0  0  -0.0525011  0.038971  -0.198411  0.030401  0  0  0  -0  0.627839  -0  0  0  0  0  0  0  0  0  0 
1704461092.029027000  -2.45849  -0.521267  1.03299  0  0  -0.0527442  0.038971  -0.195227  0.030401  0  0  0  -0  0.645681  -0  0  0  0  0  0  0  0  0  0 
1704461092.034085000  -2.45829  -0.522235  1.03314  0  0  -0.0529872  0.038971  -0.191953  0.030401  0  0  0  -0  0.663774  -0  0  0  0  0  0  0  0  0  0 
1704461092.039035000  -2.4581  -0.523187  1.03329  0  0  -0.0532303  0.038971  -0.188589  0.030401  0  0  0  -0  0.682117  -0  0  0  0  0  0  0  0  0  0 
1704461092.044037000  -2.4579  -0.524121  1.03344  0  0  -0.0534733  0.038971  -0.185132  0.030401  0  0  0  -0  0.70071  -0  0  0  0  0  0  0  0  0  0 
1704461092.049032000  -2.45771  -0.525038  1.03359  0  0  -0.0537163  0.038971  -0.181581  0.030401  0  0  0  -0  0.719552  -0  0  0  0  0  0  0  0  0  0 
1704461092.054046000  -2.45751  -0.525937  1.03375  0  0  -0.0539594  0.038971  -0.177936  0.030401  0  0  0  -0  0.738645  -0  0  0  0  0  0  0  0  0  0 
1704461092.059040000  -2.45732  -0.526817  1.0339  0  0  -0.0542024  0.038971  -0.174195  0.030401  0  0  0  -0  0.757946  -0  0  0  0  0  0  0  0  0  0 
1704461092.064059000  -2.45712  -0.527678  1.03405  0  0  -0.0544455  0.038971  -0.170357  0.030401  0  0  0  -0  0.777083  -0  0  0  0  0  0  0  0  0  0 
1704461092.069039000  -2.45693  -0.52852  1.0342  0  0  -0.0546885  0.038971  -0.166424  0.030401  0  0  0  -0  0.79597  -0  0  0  0  0  0  0  0  0  0 
1704461092.074061000  -2.45673  -0.529343  1.03435  0  0  -0.0549315  0.038971  -0.162398  0.030401  0  0  0  -0  0.814607  -0  0  0  0  0  0  0  0  0  0 
1704461092.079039000  -2.45654  -0.530144  1.03451  0  0  -0.0551746  0.038971  -0.158278  0.030401  0  0  0  -0  0.832994  -0  0  0  0  0  0  0  0  0  0 
1704461092.084049000  -2.45634  -0.530925  1.03466  0  0  -0.0554176  0.038971  -0.154068  0.030401  0  0  0  -0  0.851131  -0  0  0  0  0  0  0  0  0  0 
1704461092.089072000  -2.45615  -0.531685  1.03481  0  0  -0.0556607  0.038971  -0.149768  0.030401  0  0  0  -0  0.869018  -0  0  0  0  0  0  0  0  0  0 
1704461092.094041000  -2.45596  -0.532423  1.03496  0  0  -0.0559037  0.038971  -0.145378  0.030401  0  0  0  -0  0.886655  -0  0  0  0  0  0  0  0  0  0 
1704461092.099035000  -2.45576  -0.533138  1.03511  0  0  -0.0561467  0.038971  -0.140901  0.030401  0  0  0  -0  0.904042  -0  0  0  0  0  0  0  0  0  0 
1704461092.104038000  -2.45557  -0.533832  1.03527  0  0  -0.0563898  0.038971  -0.136338  0.030401  0  0  0  -0  0.921179  -0  0  0  0  0  0  0  0  0  0 
1704461092.109098000  -2.45537  -0.534502  1.03542  0  0  -0.0566328  0.038971  -0.13169  0.030401  0  0  0  -0  0.938066  -0  0  0  0  0  0  0  0  0  0 
1704461092.114043000  -2.45518  -0.535148  1.03557  0  0  -0.0568759  0.038971  -0.126958  0.030401  0  0  0  -0  0.954703  -0  0  0  0  0  0  0  0  0  0 
1704461092.119042000  -2.45498  -0.535771  1.03572  0  0  -0.0571189  0.038971  -0.122143  0.030401  0  0  0  -0  0.97109  -0  0  0  0  0  0  0  0  0  0 
1704461092.124037000  -2.45479  -0.53637  1.03587  0  0  -0.0573619  0.038971  -0.117248  0.030401  0  0  0  -0  0.987228  -0  0  0  0  0  0  0  0  0  0 
1704461092.129036000  -2.45459  -0.536943  1.03603  0  0  -0.057605  0.038971  -0.112272  0.030401  0  0  0  -0  1.00311  -0  0  0  0  0  0  0  0  0  0 
1704461092.134062000  -2.4544  -0.537492  1.03618  0  0  -0.057848  0.038971  -0.107217  0.030401  0  0  0  -0  1.01875  -0  0  0  0  0  0  0  0  0  0 
1704461092.139030000  -2.4542  -0.538015  1.03633  0  0  -0.0580911  0.038971  -0.102084  0.030401  0  0  0  -0  1.03414  -0  0  0  0  0  0  0  0  0  0 
1704461092.144041000  -2.45401  -0.538513  1.03648  0  0  -0.0583341  0.038971  -0.0968758  0.030401  0  0  0  -0  1.04928  -0  0  0  0  0  0  0  0  0  0 
1704461092.149036000  -2.45381  -0.538984  1.03663  0  0  -0.0585771  0.038971  -0.0915921  0.030401  0  0  0  -0  1.06416  -0  0  0  0  0  0  0  0  0  0 
1704461092.154037000  -2.45362  -0.539429  1.03679  0  0  -0.0588202  0.038971  -0.0862346  0.030401  0  0  0  -0  1.0788  -0  0  0  0  0  0  0  0  0  0 
1704461092.159035000  -2.45342  -0.539846  1.03694  0  0  -0.0590632  0.038971  -0.0808045  0.030401  0  0  0  -0  1.09319  -0  0  0  0  0  0  0  0  0  0 
1704461092.164040000  -2.45323  -0.540237  1.03709  0  0  -0.0593062  0.038971  -0.0753032  0.030401  0  0  0  -0  1.10732  -0  0  0  0  0  0  0  0  0  0 
1704461092.169033000  -2.45303  -0.540599  1.03724  0  0  -0.0595493  0.038971  -0.0697317  0.030401  0  0  0  -0  1.12121  -0  0  0  0  0  0  0  0  0  0 
1704461092.174040000  -2.45284  -0.540934  1.03739  0  0  -0.0597923  0.038971  -0.0640915  0.030401  0  0  0  -0  1.13485  -0  0  0  0  0  0  0  0  0  0 
1704461092.179037000  -2.45264  -0.54124  1.03755  0  0  -0.0600354  0.038971  -0.0583837  0.030401  0  0  0  -0  1.14824  -0  0  0  0  0  0  0  0  0  0 
1704461092.184060000  -2.45245  -0.541518  1.0377  0  0  -0.0602784  0.038971  -0.0526095  0.030401  0  0  0  -0  1.16137  -0  0  0  0  0  0  0  0  0  0 
1704461092.189034000  -2.45225  -0.541766  1.03785  0  0  -0.0605214  0.038971  -0.0467703  0.030401  0  0  0  -0  1.17426  -0  0  0  0  0  0  0  0  0  0 
1704461092.194051000  -2.45206  -0.541985  1.038  0  0  -0.0607645  0.038971  -0.0408674  0.030401  0  0  0  -0  1.1869  -0  0  0  0  0  0  0  0  0  0 
1704461092.199057000  -2.45186  -0.542175  1.03815  0  0  -0.0610075  0.038971  -0.0349018  0.030401  0  0  0  -0  1.19928  -0  0  0  0  0  0  0  0  0  0 
1704461092.204055000  -2.45167  -0.542334  1.03831  0  0  -0.0612506  0.038971  -0.0288749  0.030401  0  0  0  -0  1.21142  -0  0  0  0  0  0  0  0  0  0 
1704461092.209039000  -2.45147  -0.542463  1.03846  0  0  -0.0614936  0.038971  -0.022788  0.030401  0  0  0  -0  1.22331  -0  0  0  0  0  0  0  0  0  0 
1704461092.214041000  -2.45128  -0.542562  1.03861  0  0  -0.0617366  0.038971  -0.0166423  0.030401  0  0  0  -0  1.23494  -0  0  0  0  0  0  0  0  0  0 
1704461092.219030000  -2.45108  -0.54263  1.03876  0  0  -0.0619797  0.038971  -0.010439  0.030401  0  0  0  -0  1.24633  -0  0  0  0  0  0  0  0  0  0 
1704461092.224064000  -2.45089  -0.542666  1.03891  0  0  -0.0622227  0.038971  -0.0041794  0.030401  0  0  0  -0  1.25747  -0  0  0  0  0  0  0  0  0  0 
1704461092.229054000  -2.45069  -0.542671  1.03907  0  0  -0.0624658  0.038971  0.0021353  0.030401  0  0  0  -0  1.26836  -0  0  0  0  0  0  0  0  0  0 
1704461092.234067000  -2.4505  -0.542645  1.03922  0  0  -0.0627088  0.038971  0.0085038  0.030401  0  0  0  -0  1.27899  -0  0  0  0  0  0  0  0  0  0 
1704461092.239057000  -2.4503  -0.542586  1.03937  0  0  -0.0629518  0.038971  0.0149248  0.030401  0  0  0  -0  1.28938  -0  0  0  0  0  0  0  0  0  0 
1704461092.244067000  -2.45011  -0.542495  1.03952  0  0  -0.0631949  0.038971  0.0213972  0.030401  0  0  0  -0  1.29952  -0  0  0  0  0  0  0  0  0  0 
1704461092.249036000  -2.44991  -0.542372  1.03967  0  0  -0.0634379  0.038971  0.0279196  0.030401  0  0  0  -0  1.3094  -0  0  0  0  0  0  0  0  0  0 
1704461092.254041000  -2.44972  -0.542216  1.03983  0  0  -0.063681  0.038971  0.0344908  0.030401  0  0  0  -0  1.31904  -0  0  0  0  0  0  0  0  0  0 
1704461092.259053000  -2.44952  -0.542027  1.03998  0  0  -0.063924  0.038971  0.0411096  0.030401  0  0  0  -0  1.32843  -0  0  0  0  0  0  0  0  0  0 
1704461092.264044000  -2.44933  -0.541805  1.04013  0  0  -0.064167  0.038971  0.0477746  0.030401  0  0  0  -0  1.33757  -0  0  0  0  0  0  0  0  0  0 
1704461092.269028000  -2.44914  -0.541549  1.04028  0  0  -0.0644101  0.038971  0.0544848  0.030401  0  0  0  -0  1.34645  -0  0  0  0  0  0  0  0  0  0 
1704461092.274054000  -2.44894  -0.54126  1.04043  0  0  -0.0646531  0.038971  0.0612387  0.030401  0  0  0  -0  1.35509  -0  0  0  0  0  0  0  0  0  0 
1704461092.279056000  -2.44875  -0.540937  1.04059  0  0  -0.0648962  0.038971  0.0680353  0.030401  0  0  0  -0  1.36348  -0  0  0  0  0  0  0  0  0  0 
1704461092.284042000  -2.44855  -0.54058  1.04074  0  0  -0.0651392  0.038971  0.0748731  0.030401  0  0  0  -0  1.37161  -0  0  0  0  0  0  0  0  0  0 
1704461092.289046000  -2.44836  -0.540188  1.04089  0  0  -0.0653822  0.038971  0.081751  0.030401  0  0  0  -0  1.3795  -0  0  0  0  0  0  0  0  0  0 
1704461092.294050000  -2.44816  -0.539762  1.04104  0  0  -0.0656253  0.038971  0.0886677  0.030401  0  0  0  -0  1.38714  -0  0  0  0  0  0  0  0  0  0 
1704461092.299036000  -2.44797  -0.539301  1.04119  0  0  -0.0658683  0.038971  0.0956219  0.030401  0  0  0  -0  1.39452  -0  0  0  0  0  0  0  0  0  0 
1704461092.304046000  -2.44777  -0.538806  1.04135  0  0  -0.0661114  0.038971  0.102613  0.030401  0  0  0  -0  1.40166  -0  0  0  0  0  0  0  0  0  0 
1704461092.309043000  -2.44758  -0.538275  1.0415  0  0  -0.0663544  0.038971  0.109638  0.030401  0  0  0  -0  1.40855  -0  0  0  0  0  0  0  0  0  0 
1704461092.314039000  -2.44738  -0.537709  1.04165  0  0  -0.0665974  0.038971  0.116698  0.030401  0  0  0  -0  1.41519  -0  0  0  0  0  0  0  0  0  0 
1704461092.319034000  -2.44719  -0.537108  1.0418  0  0  -0.0668405  0.038971  0.12379  0.030401  0  0  0  -0  1.42157  -0  0  0  0  0  0  0  0  0  0 
1704461092.324041000  -2.44699  -0.536471  1.04195  0  0  -0.0670835  0.038971  0.130913  0.030401  0  0  0  -0  1.42771  -0  0  0  0  0  0  0  0  0  0 
1704461092.329031000  -2.4468  -0.535799  1.04211  0  0  -0.0673266  0.038971  0.138066  0.030401  0  0  0  -0  1.4336  -0  0  0  0  0  0  0  0  0  0 
1704461092.334036000  -2.4466  -0.535091  1.04226  0  0  -0.0675696  0.038971  0.145248  0.030401  0  0  0  -0  1.43923  -0  0  0  0  0  0  0  0  0  0 
1704461092.339031000  -2.44641  -0.534346  1.04241  0  0  -0.0678126  0.038971  0.152458  0.030401  0  0  0  -0  1.44462  -0  0  0  0  0  0  0  0  0  0 
1704461092.344039000  -2.44621  -0.533566  1.04256  0  0  -0.0680557  0.038971  0.159694  0.030401  0  0  0  -0  1.44976  -0  0  0  0  0  0  0  0  0  0 
1704461092.349034000  -2.44602  -0.532749  1.04271  0  0  -0.0682987  0.038971  0.166955  0.030401  0  0  0  -0  1.45465  -0  0  0  0  0  0  0  0  0  0 
1704461092.354069000  -2.44582  -0.531896  1.04287  0  0  -0.0685418  0.038971  0.17424  0.030401  0  0  0  -0  1.45928  -0  0  0  0  0  0  0  0  0  0 
1704461092.359044000  -2.44563  -0.531007  1.04302  0  0  -0.0687848  0.038971  0.181548  0.030401  0  0  0  -0  1.46367  -0  0  0  0  0  0  0  0  0  0 
1704461092.364053000  -2.44543  -0.530081  1.04317  0  0  -0.0690278  0.038971  0.188877  0.030401  0  0  0  -0  1.46781  -0  0  0  0  0  0  0  0  0  0 
1704461092.369041000  -2.44524  -0.529118  1.04332  0  0  -0.0692709  0.038971  0.196225  0.030401  0  0  0  -0  1.47169  -0  0  0  0  0  0  0  0  0  0 
1704461092.374055000  -2.44504  -0.528119  1.04347  0  0  -0.0695139  0.038971  0.203593  0.030401  0  0  0  -0  1.47533  -0  0  0  0  0  0  0  0  0  0 
1704461092.379039000  -2.44485  -0.527082  1.04363  0  0  -0.0697569  0.038971  0.210978  0.030401  0  0  0  -0  1.47872  -0  0  0  0  0  0  0  0  0  0 
1704461092.384040000  -2.44465  -0.526009  1.04378  0  0  -0.07  0.038971  0.21838  0.030401  0  0  0  -0  1.48185  -0  0  0  0  0  0  0  0  0  0 
1704461092.389037000  -2.44446  -0.524898  1.04393  0  0  -0.070243  0.038971  0.225796  0.030401  0  0  0  -0  1.48474  -0  0  0  0  0  0  0  0  0  0 
1704461092.394040000  -2.44426  -0.523751  1.04408  0  0  -0.0704861  0.038971  0.233227  0.030401  0  0  0  -0  1.48738  -0  0  0  0  0  0  0  0  0  0 
1704461092.399046000  -2.44407  -0.522566  1.04423  0  0  -0.0707291  0.038971  0.24067  0.030401  0  0  0  -0  1.48977  -0  0  0  0  0  0  0  0  0  0 
1704461092.404052000  -2.44387  -0.521344  1.04439  0  0  -0.0709721  0.038971  0.248124  0.030401  0  0  0  -0  1.4919  -0  0  0  0  0  0  0  0  0  0 
1704461092.409072000  -2.44368  -0.520085  1.04454  0  0  -0.0712152  0.038971  0.255588  0.030401  0  0  0  -0  1.49379  -0  0  0  0  0  0  0  0  0  0 
1704461092.414042000  -2.44348  -0.518788  1.04469  0  0  -0.0714582  0.038971  0.263062  0.030401  0  0  0  -0  1.49543  -0  0  0  0  0  0  0  0  0  0 
1704461092.419037000  -2.44329  -0.517454  1.04484  0  0  -0.0717013  0.038971  0.270542  0.030401  0  0  0  -0  1.49681  -0  0  0  0  0  0  0  0  0  0 
1704461092.424045000  -2.44309  -0.516083  1.04499  0  0  -0.0719443  0.038971  0.278029  0.030401  0  0  0  -0  1.49795  -0  0  0  0  0  0  0  0  0  0 
1704461092.429034000  -2.4429  -0.514674  1.04515  0  0  -0.0721873  0.038971  0.285521  0.030401  0  0  0  -0  1.49884  -0  0  0  0  0  0  0  0  0  0 
1704461092.434076000  -2.44271  -0.513228  1.0453  0  0  -0.0724304  0.038971  0.293017  0.030401  0  0  0  -0  1.49948  -0  0  0  0  0  0  0  0  0  0 
1704461092.439039000  -2.44251  -0.511744  1.04545  0  0  -0.0726734  0.038971  0.300516  0.030401  0  0  0  -0  1.49986  -0  0  0  0  0  0  0  0  0  0 
1704461092.444039000  -2.44232  -0.510222  1.0456  0  0  -0.0729165  0.038971  0.308015  0.030401  0  0  0  -0  1.5  -0  0  0  0  0  0  0  0  0  0 
1704461092.449033000  -2.44212  -0.508664  1.04575  0  0  -0.0731595  0.038971  0.315515  0.030401  0  0  0  -0  1.5  -0  0  0  0  0  0  0  0  0  0 
1704461092.454049000  -2.44193  -0.507067  1.04591  0  0  -0.0734025  0.038971  0.323015  0.030401  0  0  0  -0  1.5  -0  0  0  0  0  0  0  0  0  0 
1704461092.459027000  -2.44173  -0.505433  1.04606  0  0  -0.0736456  0.038971  0.330515  0.030401  0  0  0  -0  1.5  -0  0  0  0  0  0  0  0  0  0 
1704461092.464037000  -2.44154  -0.503762  1.04621  0  0  -0.0738886  0.038971  0.338015  0.030401  0  0  0  -0  1.5  -0  0  0  0  0  0  0  0  0  0 
1704461092.469033000  -2.44134  -0.502053  1.04636  0  0  -0.0741317  0.038971  0.345515  0.030401  0  0  0  -0  1.5  -0  0  0  0  0  0  0  0  0  0 
1704461092.474053000  -2.44115  -0.500307  1.04651  0  0  -0.0743747  0.038971  0.353015  0.030401  0  0  0  -0  1.5  -0  0  0  0  0  0  0  0  0  0 
1704461092.479041000  -2.44095  -0.498523  1.04667  0  0  -0.0746177  0.038971  0.360515  0.030401  0  0  0  -0  1.5  -0  0  0  0  0  0  0  0  0  0 
1704461092.484156000  -2.44076  -0.496702  1.04682  0  0  -0.0748608  0.038971  0.368015  0.030401  0  0  0  -0  1.5  -0  0  0  0  0  0  0  0  0  0 
1704461092.489040000  -2.44056  -0.494843  1.04697  0  0  -0.0751038  0.038971  0.375515  0.030401  0  0  0  -0  1.5  -0  0  0  0  0  0  0  0  0  0 
1704461092.494041000  -2.44037  -0.492947  1.04712  0  0  -0.0753469  0.038971  0.383015  0.030401  0  0  0  -0  1.5  -0  0  0  0  0  0  0  0  0  0 
1704461092.499040000  -2.44017  -0.491013  1.04727  0  0  -0.0755899  0.038971  0.390515  0.030401  0  0  0  -0  1.5  -0  0  0  0  0  0  0  0  0  0 
1704461092.504049000  -2.43998  -0.489041  1.04743  0  0  -0.0758329  0.038971  0.398015  0.030401  0  0  0  -0  1.5  -0  0  0  0  0  0  0  0  0  0 
1704461092.509098000  -2.43978  -0.487033  1.04758  0  0  -0.076076  0.038971  0.405515  0.030401  0  0  0  -0  1.5  -0  0  0  0  0  0  0  0  0  0 
1704461092.514048000  -2.43959  -0.484986  1.04773  0  0  -0.076319  0.038971  0.413015  0.030401  0  0  0  -0  1.5  -0  0  0  0  0  0  0  0  0  0 
1704461092.519038000  -2.43939  -0.482902  1.04788  0  0  -0.0765621  0.038971  0.420515  0.030401  0  0  0  -0  1.5  -0  0  0  0  0  0  0  0  0  0 
1704461092.524048000  -2.4392  -0.480781  1.04803  0  0  -0.0768051  0.038971  0.428015  0.030401  0  0  0  -0  1.5  -0  0  0  0  0  0  0  0  0  0 
1704461092.529040000  -2.439  -0.478622  1.04819  0  0  -0.0770481  0.038971  0.435515  0.030401  0  0  0  -0  1.5  -0  0  0  0  0  0  0  0  0  0 
1704461092.534046000  -2.43881  -0.476426  1.04834  0  0  -0.0772912  0.038971  0.443015  0.030401  0  0  0  -0  1.5  -0  0  0  0  0  0  0  0  0  0 
1704461092.539038000  -2.43861  -0.474192  1.04849  0  0  -0.0775342  0.038971  0.450515  0.030401  0  0  0  -0  1.49997  -0  0  0  0  0  0  0  0  0  0 
1704461092.544054000  -2.43842  -0.471921  1.04864  0  0  -0.0777773  0.038971  0.458015  0.030401  0  0  0  -0  1.49971  -0  0  0  0  0  0  0  0  0  0 
1704461092.549039000  -2.43822  -0.469612  1.04879  0  0  -0.0780203  0.038971  0.465512  0.030401  0  0  0  -0  1.49921  -0  0  0  0  0  0  0  0  0  0 
1704461092.554046000  -2.43803  -0.467266  1.04895  0  0  -0.0782633  0.038971  0.473006  0.030401  0  0  0  -0  1.49846  -0  0  0  0  0  0  0  0  0  0 
1704461092.559040000  -2.43783  -0.464882  1.0491  0  0  -0.0785064  0.038971  0.480496  0.030401  0  0  0  -0  1.49745  -0  0  0  0  0  0  0  0  0  0 
1704461092.564058000  -2.43764  -0.462461  1.04925  0  0  -0.0787494  0.038971  0.487981  0.030401  0  0  0  -0  1.4962  -0  0  0  0  0  0  0  0  0  0 
1704461092.569039000  -2.43744  -0.460002  1.0494  0  0  -0.0789925  0.038971  0.495458  0.0304009  0  0  0  -0  1.4947  -4.91e-05  0  0  0  0  0  0  0  0  0 
1704461092.574048000  -2.43725  -0.457506  1.04955  0  0  -0.0792355  0.038971  0.502927  0.0304001  0  0  0  -0  1.49295  -0.0003308  0  0  0  0  0  0  0  0  0 
1704461092.579044000  -2.43705  -0.454973  1.04971  0  0  -0.0794785  0.038971  0.510387  0.0303972  0  0  0  -0  1.49094  -0.0008625  0  0  0  0  0  0  0  0  0 
1704461092.584079000  -2.43686  -0.452402  1.04986  0  0  -0.0797216  0.038971  0.517836  0.0303911  0  0  0  -0  1.48869  -0.0016442  0  0  0  0  0  0  0  0  0 
1704461092.589041000  -2.43666  -0.449795  1.05001  0  0  -0.0799646  0.038971  0.525273  0.0303804  0  0  0  -0  1.48619  -0.0026759  0  0  0  0  0  0  0  0  0 
1704461092.594044000  -2.43647  -0.44715  1.05016  0  0  -0.0802076  0.038971  0.532698  0.0303639  0  0  0  -0  1.48343  -0.0039575  0  0  0  0  0  0  0  0  0 
1704461092.599044000  -2.43627  -0.444468  1.05031  0  0  -0.0804507  0.038971  0.540107  0.0303404  0  0  0  -0  1.48043  -0.0054892  0  0  0  0  0  0  0  0  0 
1704461092.604046000  -2.43608  -0.441749  1.05047  0  0  -0.0806937  0.038971  0.547502  0.0303086  0  0  0  -0  1.47718  -0.0072709  0  0  0  0  0  0  0  0  0 
1704461092.609047000  -2.43589  -0.438993  1.05062  0  0  -0.0809368  0.038971  0.554879  0.0302672  0  0  0  -0  1.47367  -0.0093026  0  0  0  0  0  0  0  0  0 
1704461092.614052000  -2.43569  -0.4362  1.05077  0  0  -0.0811798  0.038971  0.562238  0.0302151  0  0  0  -0  1.46992  -0.0115843  0  0  0  0  0  0  0  0  0 
