ts fx fy fz tx ty tz exfx exfy exfz extx exty extz xd yd zd rolld pitchd yawd vxd vyd vzd wxd wyd wzd axd ayd azd e_x e_y e_z e_vx e_vy e_vz e_rx e_ry e_rz e_wx e_wy e_wz
1704461090.647926000  0  0  11.4952  0.0748138  -0.146511  0.0155114  nan  nan  nan  nan  nan  nan  -2.5  -0.3  1  0.0149617  -0.0256481  -0.000383726  0  0  0  0  0  0  0  0  0  0.0191102  0.00502682  -0.0117356  -0.0174768  0.00617806  0.00201768  -0.0180488  0.0211125  -0.023707  0.0597419  0.0533841  0.0765153 
1704461090.652976000  0  0  11.5004  0.0281277  -0.159325  0.0251054  nan  nan  nan  nan  nan  nan  -2.5  -0.3  1  0.0141871  -0.0281711  -0.000399642  0  0  0  0  0  0  0  0  0  0.0191065  0.00502348  -0.0117141  -0.014137  0.00517693  0.00151439  -0.016129  0.0236932  -0.0246863  0.134305  0.0492649  -0.0365296 
1704461090.657966000  0  0  11.6098  0.0419834  -0.200842  0.0199862  nan  nan  nan  nan  nan  nan  -2.5  -0.3  1  0.0143625  -0.0277576  -0.000398645  0  0  0  0  0  0  0  0  0  0.019032  0.00505701  -0.0118005  -0.014133  0.00549742  -0.00843231  -0.0159922  0.0244933  -0.0242366  0.103717  0.126431  0.0246429 
1704461090.662970000  0  0  11.4977  0.0389545  -0.14583  0.0190781  nan  nan  nan  nan  nan  nan  -2.5  -0.3  1  0.0147671  -0.0262901  -0.000388212  0  0  0  0  0  0  0  0  0  0.0189965  0.00505146  -0.011711  -0.0163223  0.00586019  0.00174645  -0.0158395  0.0225589  -0.0239326  0.108218  0.0346472  0.0328672 
1704461090.667965000  0  0  11.475  0.0209588  -0.153918  0.0262906  nan  nan  nan  nan  nan  nan  -2.5  -0.3  1  0.0143356  -0.0267102  -0.000382888  0  0  0  0  0  0  0  0  0  0.0189235  0.0050764  -0.0116928  -0.0156449  0.0051893  0.00381944  -0.0146039  0.0232051  -0.0248021  0.131026  0.0438111  -0.0505545 
1704461090.672965000  0  0  11.5454  0.0323536  -0.161773  0.022365  nan  nan  nan  nan  nan  nan  -2.5  -0.3  1  0.0142588  -0.0270544  -0.000385743  0  0  0  0  0  0  0  0  0  0.018919  0.00506278  -0.0117145  -0.0149636  0.00523974  -0.00266104  -0.0142115  0.0239059  -0.024532  0.102521  0.0518323  -0.00277014 
1704461090.677954000  0  0  11.479  0.046606  -0.142823  0.0210757  nan  nan  nan  nan  nan  nan  -2.5  -0.3  1  0.0147421  -0.0264059  -0.000389261  0  0  0  0  0  0  0  0  0  0.0189096  0.00504437  -0.0116389  -0.0159939  0.0058146  0.00330347  -0.014494  0.0231401  -0.0243294  0.0761255  0.0214079  0.0115903 
1704461090.683975000  0  0  11.4328  0.0512205  -0.123041  0.0246093  nan  nan  nan  nan  nan  nan  -2.5  -0.3  1  0.0147182  -0.0256136  -0.000376973  0  0  0  0  0  0  0  0  0  0.0188079  0.00507681  -0.0115887  -0.016897  0.00561903  0.00747112  -0.0141324  0.0221724  -0.0247561  0.0621551  -0.00834127  -0.0292727 
1704461090.688990000  0  0  11.5197  0.0641474  -0.140493  0.0227424  nan  nan  nan  nan  nan  nan  -2.5  -0.3  1  0.0148043  -0.0269365  -0.000398756  0  0  0  0  0  0  0  0  0  0.0188236  0.00505279  -0.011591  -0.0149429  0.00594185  -0.0005772  -0.0142185  0.023655  -0.024654  0.0361766  0.0103748  -0.00623881 
1704461090.693967000  0  0  11.4759  0.0964782  -0.134962  0.0202592  nan  nan  nan  nan  nan  nan  -2.5  -0.3  1  0.0159761  -0.0251512  -0.000401808  0  0  0  0  0  0  0  0  0  0.018728  0.00509401  -0.0115519  -0.0171615  0.00729424  0.00336147  -0.0157899  0.0220075  -0.0243283  -0.012563  0.01854  0.0221737 
1704461090.698975000  0  0  11.3962  0.0940724  -0.101219  0.0225897  nan  nan  nan  nan  nan  nan  -2.5  -0.3  1  0.0154346  -0.0248075  -0.000382883  0  0  0  0  0  0  0  0  0  0.0187298  0.0050591  -0.0114342  -0.017844  0.00653756  0.0104654  -0.0153237  0.0210681  -0.0245316  -0.0131164  -0.0407145  -0.0056915 
1704461090.703988000  0  0  11.4823  0.0953014  -0.12033  0.0243693  nan  nan  nan  nan  nan  nan  -2.5  -0.3  1  0.0154808  -0.0265383  -0.000410817  0  0  0  0  0  0  0  0  0  0.018762  0.00503103  -0.0114283  -0.0154149  0.00682401  0.00247261  -0.0154543  0.0227984  -0.0248233  -0.014121  -0.0214972  -0.0253698 
1704461090.708995000  0  0  11.4773  0.128367  -0.123394  0.0200826  nan  nan  nan  nan  nan  nan  -2.5  -0.3  1  0.0167385  -0.0249108  -0.000416965  0  0  0  0  0  0  0  0  0  0.0186648  0.00507827  -0.0114064  -0.0173028  0.00833833  0.00285879  -0.01732  0.0213397  -0.0243486  -0.0608728  0.00236566  0.0247044 
1704461090.714032000  0  0  11.4065  0.1239  -0.0983376  0.0218465  nan  nan  nan  nan  nan  nan  -2.5  -0.3  1  0.0163136  -0.0245703  -0.000400825  0  0  0  0  0  0  0  0  0  0.0186794  0.00503893  -0.0112842  -0.0179879  0.00775504  0.00911406  -0.0171389  0.0205386  -0.0244517  -0.0537068  -0.0403977  0.00301857 
1704461090.717998000  0  0  11.4674  0.116713  -0.108982  0.024447  nan  nan  nan  nan  nan  nan  -2.5  -0.3  1  0.0164989  -0.0251192  -0.000414433  0  0  0  0  0  0  0  0  0  0.0186211  0.00507084  -0.0113054  -0.0169413  0.00802535  0.00352339  -0.0173449  0.0210729  -0.024791  -0.0362246  -0.0245526  -0.0267574 
1704461090.723961000  0  0  11.4831  0.140571  -0.127036  0.0207004  nan  nan  nan  nan  nan  nan  -2.5  -0.3  1  0.0170203  -0.0251019  -0.000427239  2e-07  -2e-07  2e-07  0  0  0  0.000125  -0.000125  0.000125  0.0186289  0.00505206  -0.0112456  -0.0169222  0.00877311  0.00190606  -0.0185267  0.0213764  -0.0244186  -0.0719267  0.0095348  0.0175057 
1704461090.728961000  0  0  11.4462  0.12878  -0.122779  0.021878  nan  nan  nan  nan  nan  nan  -2.5  -0.3  1  0.0166205  -0.0247224  -0.000410893  1.7e-06  -1.7e-06  1.7e-06  0  0  0  0.0005  -0.0005  0.0005  0.0186586  0.00500864  -0.0111488  -0.0175556  0.00824642  0.00511617  -0.0182386  0.021023  -0.0244754  -0.0507414  0.00487157  0.00288735 
1704461090.733964000  0  0  11.4624  0.117345  -0.12922  0.0242864  nan  nan  nan  nan  nan  nan  -2.5  -0.3  1  0.0169656  -0.0244283  -0.00041444  5.6e-06  -5.6e-06  5.6e-06  0  0  0  0.001125  -0.001125  0.001125  0.0185744  0.00505041  -0.0111385  -0.0175879  0.00853572  0.00365765  -0.0185022  0.0209131  -0.024815  -0.0236914  0.0196446  -0.0243917 
1704461090.739117000  0  0  11.5042  0.11799  -0.153627  0.0222155  nan  nan  nan  nan  nan  nan  -2.5  -0.3  1  0.0168385  -0.0257184  -0.000433153  1.33e-05  -1.33e-05  1.33e-05  0  0  0  0.002  -0.002  0.002  0.0186268  0.00500794  -0.0110958  -0.0158006  0.00844907  -0.000251335  -0.0185261  0.0226622  -0.0246665  -0.0247542  0.0497011  0.000747279 
1704461090.742982000  0  0  11.4959  0.11975  -0.159758  0.0215847  nan  nan  nan  nan  nan  nan  -2.5  -0.3  1  0.0172797  -0.0247751  -0.000428405  2.6e-05  -2.6e-05  2.6e-05  0  0  0  0.003125  -0.003125  0.003125  0.0185571  0.00504156  -0.0110809  -0.0167305  0.00877651  0.000586038  -0.0190163  0.0221159  -0.0245857  -0.022563  0.0690512  0.00798744 
1704461090.748968000  0  0  11.449  0.0916943  -0.140339  0.0230408  nan  nan  nan  nan  nan  nan  -2.5  -0.3  1  0.0167153  -0.0243827  -0.000408061  4.5e-05  -4.5e-05  4.5e-05  0  0  0  0.0045  -0.0045  0.0045  0.0185854  0.00499517  -0.0109732  -0.0172743  0.00789101  0.00481451  -0.0180075  0.0217722  -0.0247365  0.0239789  0.0325914  -0.0091443 
1704461090.753956000  0  0  11.5327  0.0827886  -0.177024  0.0238196  nan  nan  nan  nan  nan  nan  -2.5  -0.300001  1  0.016537  -0.0268666  -0.000445279  7.15e-05  -7.15e-05  7.15e-05  0  0  0  0.006125  -0.006125  0.006125  0.0186666  0.00494294  -0.0109555  -0.0137727  0.00774265  -0.00282088  -0.017569  0.0248574  -0.0249073  0.0373366  0.0723083  -0.01725 
1704461090.758981000  0  0  11.5004  0.104878  -0.184183  0.0187607  nan  nan  nan  nan  nan  nan  -2.5  -0.300001  1  0.0173997  -0.0238958  -0.000417482  0.0001067  -0.0001067  0.0001067  0  0  0  0.008  -0.008  0.008  0.0185598  0.00498927  -0.0109283  -0.0172448  0.00844869  0.000269679  -0.0185922  0.0227502  -0.0243351  0.00343226  0.112489  0.041702 
1704461090.763969000  0  0  11.4353  0.0654478  -0.142734  0.0215134  nan  nan  nan  nan  nan  nan  -2.5  -0.300002  1  0.0164562  -0.0240032  -0.000397699  0.0001519  -0.0001519  0.0001519  0  0  0  0.010125  -0.010125  0.010125  0.0186241  0.00491866  -0.0108039  -0.017179  0.00699883  0.00623487  -0.0169324  0.0224891  -0.0244671  0.0659471  0.0290146  0.0075228 
1704461090.767960000  0  0  11.5113  0.0530395  -0.160604  0.0257486  nan  nan  nan  nan  nan  nan  -2.5  -0.300003  1  0.0171382  -0.026023  -0.000450182  0.0002083  -0.0002083  0.0002083  0  0  0  0.0125  -0.0125  0.0125  0.0185841  0.00495541  -0.0108449  -0.0138957  0.00762901  -0.000448716  -0.0170763  0.0246576  -0.024996  0.0935951  0.0403926  -0.0412483 
1704461090.773988000  0  0  11.5249  0.0944444  -0.186614  0.0175738  nan  nan  nan  nan  nan  nan  -2.5  -0.300004  1  0.0175532  -0.0240755  -0.000428706  0.0002773  -0.0002773  0.0002773  0  0  0  0.015125  -0.015125  0.015125  0.0186162  0.00490638  -0.0107792  -0.016163  0.00799285  -0.00163736  -0.0178385  0.0238713  -0.0241436  0.0162092  0.10415  0.0548642 
1704461090.778961000  0  0  11.4474  0.0461721  -0.130037  0.0223497  nan  nan  nan  nan  nan  nan  -2.49999  -0.300005  1.00001  0.0168196  -0.0241428  -0.000414672  0.00036  -0.00036  0.00036  0  0  0  0.018  -0.018  0.018  0.0186853  0.00482848  -0.0106574  -0.0161007  0.00671143  0.00558244  -0.0161379  0.0232022  -0.0244909  0.0967106  -0.0060502  -0.00305331 
1704461090.783992000  0  0  11.5216  0.0526098  -0.170407  0.0267675  nan  nan  nan  nan  nan  nan  -2.49999  -0.300007  1.00001  0.0180962  -0.0259839  -0.000482108  0.0004577  -0.0004577  0.0004577  0  0  0  0.021125  -0.021125  0.021125  0.018633  0.00487839  -0.0106952  -0.0129225  0.00799157  -0.000871132  -0.0169474  0.0255125  -0.025169  0.0929501  0.0506404  -0.0524448 
1704461090.788961000  0  0  11.5274  0.0981513  -0.17196  0.0166349  nan  nan  nan  nan  nan  nan  -2.49999  -0.30001  1.00001  0.0178863  -0.0239651  -0.000444653  0.0005717  -0.0005717  0.0005717  0  0  0  0.0245  -0.0245  0.0245  0.0186914  0.00479978  -0.0106175  -0.0152809  0.00749979  -0.00128327  -0.0172969  0.0241102  -0.0240701  0.00198124  0.0706707  0.0661876 
1704461090.792966000  0  0  11.4816  0.0701946  -0.117631  0.0192632  nan  nan  nan  nan  nan  nan  -2.49999  -0.300013  1.00001  0.018251  -0.0226165  -0.000433885  0.0007031  -0.0007031  0.0007031  0  0  0  0.028125  -0.028125  0.028125  0.0186214  0.00483115  -0.0105751  -0.016517  0.00732806  0.00326963  -0.0170483  0.0220146  -0.0241481  0.0574164  -0.0177546  0.0329889 
1704461090.798971000  0  0  11.4946  0.0729439  -0.145809  0.0258406  nan  nan  nan  nan  nan  nan  -2.49998  -0.300017  1.00002  0.0189027  -0.0244562  -0.000489597  0.0008533  -0.0008533  0.0008533  0  0  0  0.032  -0.032  0.032  0.0187155  0.00477032  -0.010503  -0.0138126  0.00786712  0.0022973  -0.0173233  0.0240689  -0.0250392  0.0549648  0.0165279  -0.0419353 
1704461090.803953000  0  0  11.529  0.107091  -0.140252  0.0158857  nan  nan  nan  nan  nan  nan  -2.49998  -0.300022  1.00002  0.0186166  -0.0235049  -0.000472391  0.0010235  -0.0010235  0.0010235  0  0  0  0.036125  -0.036125  0.036125  0.0187949  0.00467937  -0.0104352  -0.0146447  0.00727131  -0.000646375  -0.0175408  0.0232975  -0.023873  -0.0137777  0.0141512  0.0736021 
1704461090.808958000  0  0  11.4826  0.0820383  -0.1027  0.0214981  nan  nan  nan  nan  nan  nan  -2.49997  -0.300027  1.00003  0.0199301  -0.0218458  -0.000479111  0.001215  -0.001215  0.001215  0  0  0  0.0405  -0.0405  0.0405  0.0187041  0.00472455  -0.0103947  -0.0161328  0.00820425  0.00404746  -0.0182121  0.0210404  -0.0242261  0.0466031  -0.0372885  0.00489766 
1704461090.813959000  0  0  11.4441  0.0821274  -0.12458  0.0245155  nan  nan  nan  nan  nan  nan  -2.49997  -0.300034  1.00003  0.01879  -0.0243693  -0.000512207  0.001429  -0.001429  0.001429  0  0  0  0.045125  -0.045125  0.045125  0.0191497  0.00445733  -0.0102194  -0.0135193  0.00673745  0.00765157  -0.0169191  0.023801  -0.024651  0.0309385  -0.0246198  -0.0292866 
1704461090.818966000  0  0  11.5429  0.10034  -0.127023  0.0183156  nan  nan  nan  nan  nan  nan  -2.49996  -0.300042  1.00004  0.0193962  -0.0237484  -0.000527345  0.0016667  -0.0016667  0.0016667  0  0  0  0.05  -0.05  0.05  0.0190827  0.00449291  -0.0102678  -0.0132474  0.00701818  -0.000870744  -0.0177084  0.0231949  -0.0239148  0.00233549  -0.0122611  0.0425543 
1704461090.823958000  0  0  11.433  0.0790199  -0.145953  0.0220166  nan  nan  nan  nan  nan  nan  -2.49995  -0.300051  1.00005  0.0174499  -0.0262123  -0.000538396  0.0019294  -0.0019294  0.0019294  0  0  0  0.055125  -0.055125  0.055125  0.0198824  0.00379875  -0.00963844  -0.0118009  0.00542208  0.00824825  -0.0154342  0.0260422  -0.0242011  0.0196555  -0.00679365  -0.00212658 
1704461090.828957000  0  0  11.3867  0.0760574  -0.138845  0.0244584  nan  nan  nan  nan  nan  nan  -2.49994  -0.300061  1.00006  0.0168794  -0.0268362  -0.000550566  0.0022183  -0.0022183  0.0022183  0  0  0  0.0605  -0.0605  0.0605  0.0200177  0.003705  -0.00954313  -0.0107897  0.00413739  0.0128731  -0.0147478  0.0265376  -0.0245346  0.0176297  -0.0275752  -0.0299107 
1704461090.833957000  0  0  11.5219  0.0888473  -0.163685  0.0222305  nan  nan  nan  nan  nan  nan  -2.49993  -0.300073  1.00007  0.0179969  -0.0270909  -0.000604144  0.0025348  -0.0025348  0.0025348  0  0  0  0.066125  -0.066125  0.066125  0.0199814  0.00373375  -0.00959422  -0.00920706  0.00505767  0.00104964  -0.0159264  0.0271092  -0.0243415  0.00501551  0.0174816  -0.00325631 
1704461090.838964000  0  0  11.4559  0.0983978  -0.160077  0.0205501  nan  nan  nan  nan  nan  nan  -2.49991  -0.300086  1.00009  0.0192806  -0.0249159  -0.000618603  0.00288  -0.00288  0.0028796  0  0  0  0.072  -0.072  0.0717479  0.0200466  0.0036662  -0.00949593  -0.0116664  0.00601789  0.00751072  -0.0171269  0.0253387  -0.0241016  -0.000568402  0.0311371  0.015742 
1704461090.842961000  0  0  11.395  0.0934658  -0.128297  0.0221365  nan  nan  nan  nan  nan  nan  -2.4999  -0.300102  1.0001  0.0197614  -0.0238796  -0.000634612  0.0032552  -0.0032552  0.0032519  0  0  0  0.0781249  -0.078125  0.0771208  0.0200015  0.00368743  -0.00941453  -0.01227  0.00565428  0.0135355  -0.0174513  0.0238544  -0.0242167  0.0136197  -0.0174939  -0.00349932 
1704461090.848958000  0  0  11.5417  0.0925712  -0.166226  0.0244388  nan  nan  nan  nan  nan  nan  -2.49988  -0.300119  1.00012  0.020303  -0.0258501  -0.000715148  0.0036612  -0.0036617  0.0036504  0  0  0  0.0842401  -0.0845  0.0822438  0.0201145  0.00362591  -0.00943916  -0.00877373  0.00603073  0.000527884  -0.0177891  0.0263639  -0.024555  0.0195317  0.0317124  -0.0294172 
1704461090.853958000  0  0  11.5009  0.111502  -0.15692  0.0202796  nan  nan  nan  nan  nan  nan  -2.49986  -0.300138  1.00014  0.0214481  -0.023485  -0.00072494  0.0040972  -0.0041006  0.0040739  0  0  0  0.0901054  -0.091125  0.0871167  0.0201628  0.00357041  -0.00935967  -0.0113657  0.00672713  0.00461385  -0.0190058  0.0243637  -0.0240937  -0.00545695  0.0362144  0.0191589 
1704461090.858964000  0  0  11.4424  0.0890425  -0.124981  0.0232919  nan  nan  nan  nan  nan  nan  -2.49984  -0.30016  1.00016  0.0220574  -0.0227255  -0.000756903  0.0045619  -0.0045733  0.0045211  0  0  0  0.0957206  -0.098  0.0917396  0.0201085  0.00359811  -0.00927944  -0.0116381  0.00640912  0.0103492  -0.0191098  0.0231037  -0.0243511  0.0427148  -0.015435  -0.0169208 
1704461090.863981000  0  0  11.574  0.0954697  -0.158039  0.0250508  nan  nan  nan  nan  nan  nan  -2.49982  -0.300184  1.00018  0.0224027  -0.023946  -0.000830094  0.005054  -0.005081  0.0049908  0  0  0  0.101086  -0.105125  0.0961125  0.020292  0.00347125  -0.00918541  -0.0094711  0.00660625  -0.00164564  -0.0193287  0.0248331  -0.0246951  0.0319063  0.0329325  -0.0357176 
1704461090.867983000  0  0  11.575  0.120061  -0.149017  0.0210346  nan  nan  nan  nan  nan  nan  -2.49979  -0.300211  1.00021  0.0240368  -0.0219841  -0.000863987  0.0055723  -0.005625  0.0054818  0  0  0  0.106201  -0.1125  0.100235  0.0202303  0.00350963  -0.00917982  -0.0112289  0.00770649  -0.00131184  -0.0211244  0.0230225  -0.0242726  0.00202124  0.0357572  0.0114572 
1704461090.873972000  0  0  11.4915  0.106257  -0.119871  0.0232274  nan  nan  nan  nan  nan  nan  -2.49976  -0.300241  1.00024  0.0249664  -0.0205081  -0.000893485  0.0061156  -0.0062065  0.0059928  0  0  0  0.111066  -0.120125  0.104108  0.0202034  0.00350532  -0.00906139  -0.0126689  0.00771542  0.00655906  -0.0216126  0.0212025  -0.0244248  0.0367072  -0.00335259  -0.0152201 
1704461090.878981000  0  0  11.5642  0.110015  -0.129081  0.023599  nan  nan  nan  nan  nan  nan  -2.49973  -0.300273  1.00027  0.0258038  -0.0203128  -0.000955627  0.0066825  -0.0068267  0.0065225  0  0  0  0.115682  -0.128  0.107731  0.0202015  0.0035024  -0.00905545  -0.012147  0.00800925  0.000193721  -0.0222751  0.0211793  -0.0245462  0.0367866  0.0161681  -0.0186198 
1704461090.883993000  0  0  11.593  0.128069  -0.122069  0.0199172  nan  nan  nan  nan  nan  nan  -2.49969  -0.300309  1.0003  0.0274788  -0.0190511  -0.0010094  0.007272  -0.0074869  0.0070697  0  0  0  0.120047  -0.136125  0.111104  0.0201317  0.00354923  -0.00906229  -0.0129913  0.00912876  -0.00210059  -0.0239376  0.0199713  -0.024083  0.0189648  0.0159766  0.0237387 
1704461090.888977000  0  0  11.5115  0.127256  -0.105833  0.0208947  nan  nan  nan  nan  nan  nan  -2.49966  -0.300348  1.00034  0.0286805  -0.0168714  -0.00102859  0.0078826  -0.0081883  0.0076331  0  0  0  0.124162  -0.1445  0.114227  0.0201125  0.00354572  -0.00896059  -0.0154457  0.0093729  0.00554205  -0.0248585  0.0177725  -0.0240621  0.0316887  0.0083754  0.0108056 
1704461090.892989000  0  0  11.5379  0.122142  -0.0880942  0.0227273  nan  nan  nan  nan  nan  nan  -2.49961  -0.300391  1.00038  0.0295232  -0.0163628  -0.0010911  0.0085132  -0.0089323  0.0082115  0  0  0  0.128027  -0.153125  0.1171  0.020042  0.00358763  -0.00897178  -0.0153696  0.00933307  0.00344358  -0.0253933  0.0169528  -0.0242062  0.0487747  -0.0188748  -0.0112911 
1704461090.898979000  0  0  11.6334  0.134891  -0.119663  0.020407  nan  nan  nan  nan  nan  nan  -2.49957  -0.300437  1.00042  0.031302  -0.0172061  -0.00121474  0.0091625  -0.00972  0.0088037  0  0  0  0.131642  -0.162  0.119723  0.0200485  0.00359315  -0.00898174  -0.0136088  0.0108454  -0.00509721  -0.0269451  0.0182431  -0.0239059  0.0407133  0.0316387  0.0153056 
1704461090.903980000  0  0  11.5259  0.14285  -0.101499  0.0184324  nan  nan  nan  nan  nan  nan  -2.49952  -0.300488  1.00047  0.0325568  -0.0141448  -0.00120946  0.0098292  -0.0105527  0.0094084  0  0  0  0.135008  -0.171125  0.122096  0.0200144  0.00358281  -0.00886212  -0.0173192  0.0109558  0.00482568  -0.0280093  0.0153448  -0.0235247  0.0368234  0.0283805  0.036467 
1704461090.908977000  0  0  11.57  0.110541  -0.0704218  0.0235599  nan  nan  nan  nan  nan  nan  -2.49947  -0.300543  1.00052  0.0333472  -0.0144644  -0.00130901  0.0105121  -0.0114317  0.0100242  0  0  0  0.138123  -0.1805  0.124219  0.0199458  0.00363375  -0.00888094  -0.016231  0.0108033  0.00105111  -0.0279018  0.0150074  -0.0239562  0.103042  -0.0325111  -0.0250271 
1704461090.913970000  0  0  11.6169  0.109059  -0.142593  0.0224393  nan  nan  nan  nan  nan  nan  -2.49942  -0.300602  1.00057  0.0323287  -0.0186488  -0.00151227  0.01121  -0.0123581  0.0106501  0  0  0  0.140988  -0.190125  0.126092  0.0205899  0.0030788  -0.0083673  -0.0119448  0.00985223  -0.00443067  -0.0264185  0.0201817  -0.0239629  0.088382  0.0563406  -0.0104038 
1704461090.918982000  0  0  11.5235  0.124195  -0.120435  0.0169015  nan  nan  nan  nan  nan  nan  -2.49936  -0.300667  1.00062  0.0337411  -0.0150125  -0.00150361  0.0119216  -0.0133333  0.0112847  0  0  0  0.143603  -0.2  0.127715  0.0204886  0.00312624  -0.00829112  -0.0163165  0.00995842  0.00422563  -0.0275749  0.016817  -0.0232052  0.0706004  0.0503213  0.0525915 
1704461090.923977000  0  0  11.5621  0.0689956  -0.116865  0.0240194  nan  nan  nan  nan  nan  nan  -2.4993  -0.300736  1.00068  0.0335938  -0.0166858  -0.00165042  0.0126456  -0.0143585  0.0119269  0  0  0  0.145969  -0.210125  0.129088  0.0206229  0.00299357  -0.00820318  -0.0140862  0.0089411  0.000610862  -0.0260388  0.0182884  -0.02385  0.167543  0.0252495  -0.0322345 
1704461090.928995000  0  0  11.621  0.087568  -0.1762  0.0227678  nan  nan  nan  nan  nan  nan  -2.49923  -0.30081  1.00074  0.0352369  -0.0177368  -0.00181292  0.0133809  -0.015435  0.0125752  0  0  0  0.148084  -0.2205  0.13021  0.0206993  0.00291656  -0.00813236  -0.0124962  0.0101991  -0.00491337  -0.0271443  0.0204691  -0.0238854  0.141973  0.123116  -0.0155759 
1704461090.933980000  0  0  11.5719  0.101144  -0.14731  0.0155433  nan  nan  nan  nan  nan  nan  -2.49916  -0.30089  1.00081  0.0363572  -0.0149768  -0.00183564  0.014126  -0.016564  0.0132285  0  0  0  0.149949  -0.231125  0.131083  0.020606  0.00296217  -0.00810708  -0.0157479  0.00997998  -0.000302201  -0.0277749  0.0180225  -0.0228956  0.121157  0.0920421  0.066592 
1704461090.939142000  0  0  11.5911  0.0461492  -0.144302  0.025223  nan  nan  nan  nan  nan  nan  -2.49909  -0.300976  1.00087  0.0374916  -0.0156001  -0.00198442  0.0148799  -0.0177467  0.0138856  0  0  0  0.151564  -0.242  0.131706  0.0205801  0.00297827  -0.0080946  -0.0146008  0.0100962  -0.0019925  -0.0270945  0.0187946  -0.0237406  0.227915  0.0765156  -0.0491389 
1704461090.942993000  0  0  11.5969  0.0667009  -0.164896  0.0244222  nan  nan  nan  nan  nan  nan  -2.49902  -0.301068  1.00095  0.0396374  -0.0151443  -0.00211357  0.0156413  -0.0189844  0.0145452  0  0  0  0.15293  -0.253125  0.132079  0.0205131  0.00304521  -0.00812607  -0.0148252  0.0113344  -0.00237442  -0.0286184  0.0190103  -0.0237435  0.203217  0.11696  -0.0387123 
1704461090.948984000  0  0  11.5816  0.077875  -0.158736  0.0177705  nan  nan  nan  nan  nan  nan  -2.49894  -0.301166  1.00102  0.0399819  -0.0148035  -0.00222417  0.0164088  -0.0202783  0.015206  0  0  0  0.154045  -0.2645  0.132202  0.0205889  0.00292063  -0.00801809  -0.0153536  0.0105706  -0.00120511  -0.0281189  0.0192146  -0.0229277  0.173891  0.101646  0.038061 
1704461090.953980000  0  0  11.5485  0.0596218  -0.161231  0.0239661  nan  nan  nan  nan  nan  nan  -2.49885  -0.301271  1.0011  0.0417442  -0.0139881  -0.00234054  0.0171813  -0.0216298  0.0158668  0  0  0  0.15491  -0.276125  0.132075  0.0205394  0.00294255  -0.00798107  -0.0162293  0.0111701  0.00181577  -0.028482  0.0189375  -0.02348  0.216375  0.110175  -0.0358803 
1704461090.958991000  0  0  11.5225  0.0783751  -0.158414  0.0224127  nan  nan  nan  nan  nan  nan  -2.49876  -0.301382  1.00118  0.0434743  -0.0136856  -0.00248113  0.0179575  -0.02304  0.0165263  0  0  0  0.155525  -0.287987  0.131698  0.020459  0.00299716  -0.00795661  -0.0163612  0.01163  0.00417205  -0.0294289  0.0190655  -0.0233696  0.188528  0.102756  -0.0170126 
1704461090.963987000  0  0  11.5584  0.0833216  -0.178113  0.0197573  nan  nan  nan  nan  nan  nan  -2.49867  -0.301501  1.00126  0.0432832  -0.0154812  -0.00269107  0.0187361  -0.0245094  0.0171834  0  0  0  0.15589  -0.299748  0.131071  0.0206954  0.00273392  -0.00775298  -0.0145088  0.0107195  0.000249998  -0.0284437  0.0215175  -0.0230619  0.166399  0.114564  0.0138466 
1704461090.967994000  0  0  11.5199  0.0870544  -0.176735  0.020917  nan  nan  nan  nan  nan  nan  -2.49858  -0.301628  1.00135  0.0457122  -0.0133886  -0.00277313  0.019516  -0.0260371  0.0178366  0  0  0  0.156006  -0.31126  0.130194  0.0206039  0.00280795  -0.0077375  -0.0170574  0.0120323  0.00375237  -0.0300363  0.0200094  -0.0230656  0.177665  0.129738  -0.00116228 
1704461090.973962000  0  0  11.4374  0.0763388  -0.158064  0.0230565  nan  nan  nan  nan  nan  nan  -2.49848  -0.301762  1.00144  0.0455183  -0.0152275  -0.00299948  0.0202958  -0.0276216  0.0184849  0  0  0  0.155871  -0.322521  0.129067  0.0208725  0.00254437  -0.00743241  -0.0155075  0.0105758  0.0105191  -0.0286637  0.0218326  -0.0233681  0.183622  0.0689024  -0.0253852 
1704461090.978942000  0  0  11.534  0.0922871  -0.197224  0.0226996  nan  nan  nan  nan  nan  nan  -2.49837  -0.301904  1.00154  0.0461504  -0.0173606  -0.00325803  0.0210743  -0.0292619  0.0191269  0  0  0  0.155486  -0.333532  0.12769  0.0210108  0.00238878  -0.00732237  -0.0129314  0.010881  0.00114198  -0.0287218  0.0247217  -0.0234327  0.150997  0.116136  -0.0199962 
1704461090.983988000  0  0  11.4465  0.108376  -0.172228  0.0203099  nan  nan  nan  nan  nan  nan  -2.49827  -0.302054  1.00163  0.0485311  -0.0143687  -0.00330975  0.0218502  -0.0309565  0.0197614  0  0  0  0.154851  -0.344294  0.126063  0.020917  0.00244592  -0.00722887  -0.016836  0.0119872  0.00891297  -0.0304465  0.0220906  -0.0230957  0.138027  0.0954084  0.00707026 
1704461090.988985000  0  0  11.3905  0.09294  -0.133035  0.024044  nan  nan  nan  nan  nan  nan  -2.49816  -0.302214  1.00173  0.0496004  -0.0153685  -0.00353528  0.0226224  -0.0327044  0.0203871  0  0  0  0.153967  -0.354805  0.124185  0.0209429  0.00241528  -0.00710223  -0.0157951  0.0117714  0.0136433  -0.0304722  0.0224909  -0.0234284  0.170585  0.00872868  -0.0374957 
1704461090.992977000  0  0  11.4959  0.115952  -0.169228  0.0239797  nan  nan  nan  nan  nan  nan  -2.49804  -0.302382  1.00184  0.0516163  -0.0163864  -0.00378442  0.0233895  -0.0345042  0.0210028  0  0  0  0.152832  -0.365066  0.122058  0.0208674  0.00250441  -0.00716958  -0.0141925  0.0134334  0.00385402  -0.0321321  0.0240878  -0.0234245  0.142375  0.0652312  -0.0367072 
1704461090.998983000  0  0  11.4277  0.143358  -0.141087  0.0178633  nan  nan  nan  nan  nan  nan  -2.49792  -0.302559  1.00194  0.053798  -0.0130393  -0.00381045  0.0241503  -0.0363546  0.0216073  0  0  0  0.151447  -0.375078  0.119681  0.0207833  0.00252202  -0.00704825  -0.0186319  0.0145404  0.00970012  -0.0338598  0.0209476  -0.0226616  0.105796  0.0440265  0.0337374 
1704461091.003980000  0  0  11.378  0.121226  -0.110256  0.0230215  nan  nan  nan  nan  nan  nan  -2.4978  -0.302745  1.00205  0.0550167  -0.0139375  -0.00405104  0.0249035  -0.0382545  0.0221992  0  0  0  0.149812  -0.384839  0.117054  0.0207906  0.00251472  -0.00696048  -0.0177511  0.0145573  0.013874  -0.0339819  0.0212496  -0.0230441  0.153499  -0.0240052  -0.0287283 
1704461091.008987000  0  0  11.5013  0.140353  -0.144085  0.021126  nan  nan  nan  nan  nan  nan  -2.49767  -0.302941  1.00217  0.0565378  -0.0145777  -0.00428834  0.025648  -0.0402026  0.0227774  0  0  0  0.147928  -0.39435  0.114177  0.0207103  0.0025935  -0.00701167  -0.0167168  0.0158742  0.00231144  -0.0350534  0.0223733  -0.0228109  0.126363  0.0332216  -0.00685931 
1704461091.013979000  0  0  11.444  0.149359  -0.122834  0.0170223  nan  nan  nan  nan  nan  nan  -2.49754  -0.303147  1.00228  0.058533  -0.0128245  -0.0043992  0.0263824  -0.0421976  0.0233405  0  0  0  0.145793  -0.403612  0.11105  0.0206519  0.00261289  -0.00694093  -0.0192073  0.01686  0.00719244  -0.0363662  0.0206032  -0.02216  0.123262  0.0100106  0.0387754 
1704461091.019002000  0  0  11.375  0.134234  -0.0970713  0.021482  nan  nan  nan  nan  nan  nan  -2.49741  -0.303363  1.0024  0.0603502  -0.0121674  -0.00457178  0.0271055  -0.0442383  0.0238875  0  0  0  0.143408  -0.412623  0.107673  0.0205562  0.00269417  -0.00685348  -0.0201954  0.0173666  0.0131111  -0.0370748  0.0194464  -0.0224115  0.163344  -0.0299692  -0.0161612 
1704461091.023987000  0  0  11.4748  0.138021  -0.122023  0.0204619  nan  nan  nan  nan  nan  nan  -2.49727  -0.30359  1.00252  0.061104  -0.0134741  -0.00485412  0.027816  -0.0463234  0.0244169  0  0  0  0.140773  -0.421384  0.104046  0.0205101  0.00274807  -0.00690626  -0.0185361  0.0177452  0.00364262  -0.0371046  0.0210377  -0.0221958  0.15579  0.00311594  -0.00544913 
1704461091.028976000  0  0  11.479  0.140933  -0.125226  0.0171208  nan  nan  nan  nan  nan  nan  -2.49713  -0.303827  1.00264  0.0630524  -0.0126505  -0.00502578  0.0285128  -0.0484517  0.0249275  0  0  0  0.137888  -0.429896  0.100169  0.0204816  0.00275714  -0.00684622  -0.0198827  0.0191972  0.00277999  -0.0381414  0.0203996  -0.0216389  0.162117  0.0174466  0.0313883 
1704461091.033980000  0  0  11.3645  0.128838  -0.0981905  0.0198445  nan  nan  nan  nan  nan  nan  -2.49699  -0.304074  1.00277  0.0645921  -0.0109049  -0.00513373  0.0291945  -0.050622  0.0254181  0  0  0  0.134754  -0.438157  0.0960418  0.0203671  0.00284428  -0.00673788  -0.0223998  0.019067  0.0127833  -0.0385099  0.0183459  -0.0217031  0.191798  -0.0144567  -0.00321062 
1704461091.038989000  0  0  11.4672  0.102644  -0.116249  0.0215678  nan  nan  nan  nan  nan  nan  -2.49684  -0.304333  1.0029  0.0650325  -0.0127289  -0.00546244  0.0298599  -0.0528329  0.0258875  0  0  0  0.131369  -0.446168  0.0916647  0.0203042  0.00291339  -0.00676599  -0.0201244  0.0191535  0.00293331  -0.0375639  0.0201939  -0.0217817  0.235201  0.00115297  -0.0246554 
1704461091.042990000  0  0  11.55  0.117701  -0.145959  0.0190484  nan  nan  nan  nan  nan  nan  -2.49669  -0.304603  1.00303  0.0674874  -0.0130613  -0.00572509  0.0305078  -0.0550832  0.0263344  0  0  0  0.127734  -0.45393  0.0870376  0.0201985  0.00306101  -0.00683727  -0.0197142  0.0215949  -0.00494368  -0.0392036  0.0210699  -0.0213896  0.223372  0.0527407  0.00344857 
1704461091.048971000  0  0  11.3762  0.10453  -0.117413  0.0176396  nan  nan  nan  nan  nan  nan  -2.49653  -0.304884  1.00316  0.0675599  -0.0109458  -0.00579521  0.0311368  -0.0573718  0.0267575  0  0  0  0.123849  -0.461441  0.0821605  0.0201915  0.00296171  -0.00660777  -0.0232078  0.0196439  0.0101286  -0.0377671  0.0189567  -0.0210339  0.233694  0.0183931  0.0175652 
1704461091.053972000  0  0  11.4944  0.0596129  -0.127458  0.0239266  nan  nan  nan  nan  nan  nan  -2.49638  -0.305177  1.00329  0.0678088  -0.0135992  -0.00619373  0.0317459  -0.0596972  0.0271556  0  0  0  0.119715  -0.468702  0.0770334  0.0201453  0.00303308  -0.00665669  -0.019955  0.0197162  -0.00117425  -0.0360968  0.021454  -0.0216104  0.307547  0.0094878  -0.0572783 
1704461091.058995000  0  0  11.5301  0.0834252  -0.177794  0.0200494  nan  nan  nan  nan  nan  nan  -2.49622  -0.305481  1.00343  0.0702987  -0.0134311  -0.00643452  0.0323336  -0.0620584  0.0275274  0  0  0  0.11533  -0.475714  0.0716564  0.0200397  0.00315249  -0.00668418  -0.0203671  0.0220355  -0.00486425  -0.0374163  0.0224094  -0.0212686  0.273591  0.10322  -0.0109622 
1704461091.063986000  0  0  11.3798  0.0758427  -0.134737  0.0165464  nan  nan  nan  nan  nan  nan  -2.49605  -0.305797  1.00357  0.0711404  -0.011591  -0.00653637  0.0328987  -0.0644539  0.0278717  0  0  0  0.110695  -0.482475  0.0660293  0.0199326  0.00321088  -0.0065721  -0.023295  0.0208932  0.00827032  -0.0368355  0.0203629  -0.0206447  0.28248  0.0377559  0.0271921 
1704461091.068936000  0  0  11.4778  0.0294785  -0.148988  0.0250042  nan  nan  nan  nan  nan  nan  -2.49589  -0.306125  1.00371  0.0715503  -0.0142679  -0.00695708  0.0334401  -0.0668827  0.0281877  0  0  0  0.10581  -0.488986  0.0604085  0.0198875  0.00328341  -0.00662453  -0.0201315  0.0211502  -0.00118185  -0.0350484  0.023041  -0.0214594  0.357959  0.0354737  -0.0730348 
1704461091.073978000  0  0  11.5076  0.0611636  -0.19566  0.0194787  nan  nan  nan  nan  nan  nan  -2.49572  -0.306466  1.00385  0.0735546  -0.0141053  -0.00720035  0.0339564  -0.0693434  0.0284762  0  0  0  0.100676  -0.495248  0.0550376  0.0197775  0.00340489  -0.0066479  -0.0206287  0.022884  -0.00435721  -0.0358772  0.0240645  -0.0209709  0.301678  0.120736  -0.00704385 
1704461091.078989000  0  0  11.3982  0.0558478  -0.157022  0.0158798  nan  nan  nan  nan  nan  nan  -2.49555  -0.306819  1.00399  0.0741921  -0.0132156  -0.00737207  0.0344464  -0.0718348  0.0287385  0  0  0  0.0952907  -0.501259  0.0499168  0.0197027  0.00345807  -0.00655779  -0.022448  0.0218693  0.00508683  -0.0350387  0.0230247  -0.0202924  0.302748  0.0524537  0.0317151 
1704461091.083988000  0  0  11.4442  0.0269176  -0.173706  0.023658  nan  nan  nan  nan  nan  nan  -2.49537  -0.307184  1.00414  0.075026  -0.0148633  -0.00773769  0.0349089  -0.0743556  0.0289758  0  0  0  0.089656  -0.50702  0.045046  0.0196015  0.00357088  -0.00659154  -0.0206471  0.0222705  0.000489383  -0.033842  0.024963  -0.0210073  0.348867  0.0641119  -0.0608596 
1704461091.088986000  0  0  11.4644  0.0433001  -0.197741  0.0178413  nan  nan  nan  nan  nan  nan  -2.4952  -0.307563  1.00428  0.0751046  -0.016089  -0.00806368  0.0353426  -0.0769045  0.0291894  0  0  0  0.0837712  -0.512532  0.0404251  0.0197105  0.00345796  -0.00656019  -0.0200361  0.0221119  -0.00193581  -0.0326245  0.0269653  -0.0204183  0.300064  0.0903597  0.00773274 
1704461091.092977000  0  0  11.4159  0.0526799  -0.172162  0.0148901  nan  nan  nan  nan  nan  nan  -2.49502  -0.307954  1.00443  0.0768013  -0.0158991  -0.00831063  0.0357462  -0.0794805  0.0293805  0  0  0  0.0776373  -0.517793  0.0360543  0.0195859  0.00362498  -0.00656005  -0.0208009  0.0227692  0.00221131  -0.0332669  0.0265853  -0.0197937  0.288157  0.0414657  0.0387155 
1704461091.098993000  0  0  11.4117  0.0333618  -0.180575  0.0214646  nan  nan  nan  nan  nan  nan  -2.49484  -0.308357  1.00458  0.0770973  -0.0164037  -0.00858994  0.036119  -0.0820821  0.0295503  0  0  0  0.0715318  -0.522804  0.0319335  0.0195445  0.00362918  -0.00651836  -0.0208076  0.022438  0.00212841  -0.0315759  0.0274106  -0.0203558  0.308277  0.0491625  -0.0400266 
1704461091.103988000  0  0  11.4026  0.0461478  -0.172928  0.0176943  nan  nan  nan  nan  nan  nan  -2.49466  -0.308774  1.00473  0.0780328  -0.0171798  -0.00890295  0.0364619  -0.0847081  0.0297002  0  0  0  0.0656764  -0.527566  0.0280626  0.0194937  0.00368957  -0.00650036  -0.0204029  0.022777  0.00258878  -0.0313007  0.0281613  -0.0198569  0.278268  0.0242004  0.00306073 
1704461091.108986000  0  0  11.4228  0.0591546  -0.173615  0.0169604  nan  nan  nan  nan  nan  nan  -2.49448  -0.309205  1.00488  0.079376  -0.0173637  -0.00917879  0.0367762  -0.0873573  0.0298314  0  0  0  0.0600709  -0.532077  0.0244418  0.0193941  0.00380972  -0.00651035  -0.0205444  0.0237889  0.000457759  -0.0315352  0.0284213  -0.0195162  0.2539  0.0225231  0.00859341 
1704461091.113978000  0  0  11.3784  0.0595045  -0.158603  0.0192152  nan  nan  nan  nan  nan  nan  -2.49429  -0.309648  1.00502  0.0801378  -0.0164415  -0.00935706  0.0370631  -0.0900284  0.029945  0  0  0  0.0547154  -0.536338  0.0210709  0.0193247  0.00386675  -0.00645535  -0.0223179  0.0236689  0.0041673  -0.0310839  0.0274301  -0.0196045  0.247766  0.00302278  -0.0196377 
1704461091.118922000  0  0  11.354  0.0613312  -0.143365  0.0206106  nan  nan  nan  nan  nan  nan  -2.49411  -0.310105  1.00517  0.0815057  -0.0177294  -0.00972468  0.0373238  -0.0927203  0.0300425  0  0  0  0.04961  -0.54035  0.0179501  0.0192322  0.00399081  -0.00642488  -0.0210643  0.0243393  0.00612412  -0.0312733  0.0281976  -0.0196584  0.246217  -0.0380007  -0.0371162 
1704461091.123980000  0  0  11.392  0.0913499  -0.16276  0.0183427  nan  nan  nan  nan  nan  nan  -2.49392  -0.310575  1.00533  0.0825542  -0.0183082  -0.0100318  0.0375596  -0.0954315  0.030125  0  0  0  0.0447545  -0.544111  0.0150793  0.0191883  0.00404961  -0.00643499  -0.0207033  0.0253943  0.00239535  -0.0317133  0.0289308  -0.0193379  0.188765  -0.00625598  -0.0114376 
1704461091.128980000  0  0  11.3357  0.0726117  -0.149936  0.0176987  nan  nan  nan  nan  nan  nan  -2.49373  -0.311059  1.00548  0.0798726  -0.0202318  -0.0103774  0.0377717  -0.098161  0.0301937  0  0  0  0.0401491  -0.547622  0.0124584  0.0196642  0.00355608  -0.00628848  -0.0202116  0.0222244  0.00682827  -0.0280179  0.0304795  -0.0192032  0.18368  -0.0515885  -0.00465726 
1704461091.134092000  0  0  11.3323  0.0729603  -0.13905  0.0229674  nan  nan  nan  nan  nan  nan  -2.49354  -0.311557  1.00563  0.0812877  -0.0219206  -0.0107855  0.0379615  -0.100907  0.03025  0  0  0  0.0357936  -0.550884  0.0100876  0.0195839  0.00366551  -0.00625333  -0.018333  0.023272  0.00691647  -0.028444  0.0313864  -0.0196977  0.188051  -0.0851889  -0.0672456 
1704461091.139177000  0  0  11.3722  0.106434  -0.152351  0.0178211  nan  nan  nan  nan  nan  nan  -2.49335  -0.312068  1.00578  0.0821325  -0.0214336  -0.011006  0.0381301  -0.103669  0.030295  0  0  0  0.0316881  -0.553895  0.0079667  0.0195177  0.00374265  -0.00624806  -0.0191846  0.0241376  0.0030484  -0.0290117  0.0308385  -0.019188  0.124909  -0.0508394  -0.00642496 
1704461091.142981000  0  0  11.3502  0.110011  -0.130824  0.0167451  nan  nan  nan  nan  nan  nan  -2.49316  -0.312594  1.00593  0.0837295  -0.0204611  -0.0112012  0.0382788  -0.106446  0.03033  0  0  0  0.0278327  -0.556656  0.0060959  0.0193887  0.00396023  -0.00624937  -0.0206146  0.0250613  0.00502026  -0.0300664  0.0293803  -0.0188565  0.130061  -0.078363  0.00365607 
1704461091.148979000  0  0  11.3184  0.0889016  -0.109298  0.0228607  nan  nan  nan  nan  nan  nan  -2.49297  -0.313133  1.00608  0.0843576  -0.0214097  -0.0115369  0.0384088  -0.109236  0.0303564  0  0  0  0.0242272  -0.559168  0.0044751  0.0193563  0.00396446  -0.00616717  -0.0198092  0.0252036  0.00767662  -0.0294721  0.029246  -0.0194879  0.167051  -0.12173  -0.0683191 
1704461091.153974000  0  0  11.3702  0.114019  -0.129342  0.0185445  nan  nan  nan  nan  nan  nan  -2.49278  -0.313686  1.00623  0.084847  -0.0219531  -0.0118365  0.0385215  -0.112037  0.0303752  0  0  0  0.0208718  -0.561429  0.0031042  0.0193019  0.00405173  -0.00617836  -0.0192257  0.0257906  0.00281674  -0.0297071  0.0296149  -0.0190367  0.117385  -0.084266  -0.0175861 
1704461091.158984000  0  0  11.3829  0.108764  -0.116527  0.0167454  nan  nan  nan  nan  nan  nan  -2.49258  -0.314253  1.00639  0.0858863  -0.0205734  -0.0119836  0.038618  -0.114849  0.0303878  0  0  0  0.0177663  -0.56344  0.0019834  0.0191808  0.00418266  -0.00617568  -0.0210323  0.0266604  0.00162235  -0.0299946  0.0277703  -0.0186347  0.131807  -0.0889599  0.00105262 
1704461091.163980000  0  0  11.3167  0.098127  -0.100539  0.020354  nan  nan  nan  nan  nan  nan  -2.49239  -0.314834  1.00654  0.0867795  -0.0205827  -0.0122458  0.0386996  -0.117671  0.0303955  0  0  0  0.0149108  -0.565202  0.0011125  0.0191198  0.00427242  -0.00612917  -0.0213517  0.0266842  0.00763697  -0.0299795  0.0270148  -0.0189103  0.15385  -0.113321  -0.042554 
1704461091.167983000  0  0  11.3617  0.105244  -0.115947  0.0187977  nan  nan  nan  nan  nan  nan  -2.4922  -0.31543  1.00669  0.0874421  -0.0217587  -0.0126056  0.0387675  -0.120501  0.0303994  0  0  0  0.0123054  -0.566713  0.0004917  0.0190145  0.00449696  -0.00616869  -0.0197267  0.0271624  0.00356466  -0.0301749  0.027958  -0.0186436  0.141318  -0.0924205  -0.0254799 
1704461091.173973000  0  0  11.4294  0.100736  -0.136694  0.0169321  nan  nan  nan  nan  nan  nan  -2.492  -0.316039  1.00684  0.0876874  -0.0209424  -0.0127824  0.038823  -0.123338  0.0304008  0  0  0  0.0099499  -0.567974  0.0001209  0.0189609  0.00450335  -0.00618106  -0.0207537  0.0279775  -0.00265335  -0.0295661  0.027239  -0.0183165  0.143451  -0.0404656  -0.00509902 
1704461091.178985000  0  0  11.307  0.0894015  -0.104094  0.0188303  nan  nan  nan  nan  nan  nan  -2.49181  -0.316663  1.00699  0.0881684  -0.0204201  -0.0129894  0.0388674  -0.12618  0.030401  0  0  0  0.0078444  -0.568985  -0  0.0189123  0.00457849  -0.00609215  -0.0218485  0.02704  0.00850138  -0.0291263  0.0259043  -0.018386  0.161867  -0.0926009  -0.0289225 
1704461091.183981000  0  0  11.4297  0.0759356  -0.135638  0.0201106  nan  nan  nan  nan  nan  nan  -2.49161  -0.317301  1.00715  0.0876351  -0.0231219  -0.0134588  0.0389019  -0.129027  0.030401  0  0  0  0.005989  -0.569747  -0  0.018828  0.00471672  -0.00616925  -0.0180022  0.0270503  -0.00265689  -0.0277182  0.0284596  -0.0184707  0.173147  -0.0572831  -0.0445467 
1704461091.188966000  0  0  11.4996  0.0853879  -0.169227  0.0171526  nan  nan  nan  nan  nan  nan  -2.49142  -0.317954  1.0073  0.0886843  -0.021899  -0.0136175  0.0389277  -0.131877  0.030401  0  0  0  0.0043835  -0.570258  -0  0.0187727  0.00482438  -0.00623906  -0.0194364  0.0287816  -0.00886156  -0.0280762  0.0278523  -0.0181257  0.157683  0.0201655  -0.0101983 
1704461091.192980000  0  0  11.3472  0.0873179  -0.121147  0.016774  nan  nan  nan  nan  nan  nan  -2.49122  -0.31862  1.00745  0.0901304  -0.0200287  -0.0137235  0.0389461  -0.134729  0.030401  0  0  0  0.0030281  -0.570519  -0  0.0186221  0.00506496  -0.00616275  -0.0219929  0.0284594  0.00516221  -0.0288378  0.0252814  -0.0178989  0.162767  -0.0495135  -0.00794241 
1704461091.198995000  0  0  11.5034  0.039291  -0.166459  0.0232584  nan  nan  nan  nan  nan  nan  -2.49103  -0.319301  1.0076  0.086917  -0.0260335  -0.0144248  0.0389584  -0.137582  0.030401  0  0  0  0.0019226  -0.570531  -0  0.0189276  0.00483972  -0.00633269  -0.0146839  0.0263269  -0.00903863  -0.0242052  0.0312215  -0.0187162  0.207657  -0.0259491  -0.0825248 
1704461091.203986000  0  0  11.565  0.0707491  -0.20427  0.0176369  nan  nan  nan  nan  nan  nan  -2.49083  -0.319996  1.00775  0.0882125  -0.0242569  -0.0145447  0.0389658  -0.140434  0.030401  0  0  0  0.0010671  -0.570292  -0  0.0188582  0.00495662  -0.00643362  -0.0167221  0.0283876  -0.0143872  -0.0250988  0.0303525  -0.0182273  0.152628  0.0634541  -0.015293 
1704461091.208957000  0  0  11.3771  0.0578921  -0.129637  0.0172264  nan  nan  nan  nan  nan  nan  -2.49064  -0.320705  1.00791  0.0884566  -0.0224408  -0.0146328  0.0389695  -0.143285  0.030401  0  0  0  0.0004617  -0.569803  -0  0.018742  0.00508986  -0.00633701  -0.0193765  0.0265471  0.00280744  -0.0244311  0.0274438  -0.017987  0.171497  -0.0576606  -0.0127808 
1704461091.213981000  0  0  11.5453  0.0226565  -0.172657  0.0245739  nan  nan  nan  nan  nan  nan  -2.49044  -0.321429  1.00806  0.0875827  -0.0265916  -0.0152204  0.0389708  -0.146132  0.030401  0  0  0  0.0001062  -0.569065  -0  0.0187607  0.00518622  -0.00650577  -0.0135095  0.0268352  -0.0123516  -0.0222486  0.0315951  -0.0188628  0.218991  -0.0174697  -0.0978801 
1704461091.217982000  0  0  11.5974  0.0684444  -0.213002  0.0186679  nan  nan  nan  nan  nan  nan  -2.49025  -0.322166  1.00821  0.0895039  -0.0251885  -0.015389  0.038971  -0.148975  0.030401  0  0  0  -0  -0.568076  -0  0.0186459  0.0054651  -0.00660586  -0.0148481  0.029298  -0.016799  -0.02409  0.0310994  -0.0183095  0.145367  0.0727581  -0.0277105 
1704461091.223987000  0  0  11.4012  0.0503926  -0.129318  0.0164333  nan  nan  nan  nan  nan  nan  -2.49005  -0.322918  1.00836  0.0887709  -0.0231628  -0.0154332  0.038971  -0.151812  0.030401  0  0  0  -0  -0.566837  -0  0.018615  0.00541667  -0.00650921  -0.0179989  0.0266655  0.00110633  -0.0224288  0.0279073  -0.0178668  0.163197  -0.0638751  -0.00389592 
1704461091.228986000  0  0  11.55  0.0149485  -0.177732  0.0247268  nan  nan  nan  nan  nan  nan  -2.48986  -0.323685  1.00851  0.0870745  -0.0279566  -0.016055  0.038971  -0.154643  0.030401  0  0  0  -0  -0.565349  -0  0.0188946  0.00536733  -0.00678582  -0.0119864  0.0261518  -0.0120617  -0.0194927  0.0328737  -0.0189045  0.202106  -0.0221722  -0.099376 
1704461091.233979000  0  0  11.5843  0.0680319  -0.19516  0.0152313  nan  nan  nan  nan  nan  nan  -2.48967  -0.324465  1.00867  0.0880338  -0.0261857  -0.0161688  0.038971  -0.157465  0.030401  0  0  0  -0  -0.56361  -0  0.0188079  0.00551903  -0.00687029  -0.0139443  0.0276081  -0.0149606  -0.020545  0.0316546  -0.0179566  0.103793  0.0288331  0.0127567 
1704461091.238992000  0  0  11.4222  0.051673  -0.129248  0.0152715  nan  nan  nan  nan  nan  nan  -2.48947  -0.325259  1.00882  0.0878638  -0.0249869  -0.0163018  0.038971  -0.160279  0.030401  0  0  0  -0  -0.561621  -0  0.0187733  0.0055883  -0.00681933  -0.0159103  0.0258499  -6.2485e-05  -0.0196839  0.029311  -0.0176434  0.127664  -0.0808251  0.00856455 
1704461091.242993000  0  0  11.4921  0.0300997  -0.138548  0.0227976  nan  nan  nan  nan  nan  nan  -2.48928  -0.326068  1.00897  0.0879696  -0.026406  -0.0166726  0.038971  -0.163081  0.030401  0  0  0  -0  -0.559383  -0  0.0186957  0.0058599  -0.00692073  -0.0135918  0.0262089  -0.0062335  -0.0189299  0.0304172  -0.0183743  0.163713  -0.0746356  -0.0805507 
1704461091.248985000  0  0  11.5744  0.0692935  -0.156933  0.0154328  nan  nan  nan  nan  nan  nan  -2.48908  -0.32689  1.00912  0.0876558  -0.0258644  -0.0168597  0.038971  -0.165872  0.030401  0  0  0  -0  -0.556894  -0  0.0187024  0.00582529  -0.00701529  -0.0140466  0.0270384  -0.013628  -0.018649  0.0300557  -0.0176856  0.0784612  -0.0318953  0.00696585 
1704461091.253968000  0  0  11.4563  0.063522  -0.117408  0.0162645  nan  nan  nan  nan  nan  nan  -2.48889  -0.327726  1.00927  0.0877349  -0.0250827  -0.0170361  0.038971  -0.16865  0.030401  0  0  0  -0  -0.554155  -0  0.0187005  0.00589918  -0.00699998  -0.0154082  0.0261299  -0.00271112  -0.0183005  0.0283915  -0.0174943  0.0863473  -0.0945566  -0.00607126 
1704461091.259007000  0  0  11.4959  0.0541964  -0.121635  0.0224214  nan  nan  nan  nan  nan  nan  -2.48869  -0.328577  1.00943  0.0868699  -0.0255835  -0.0173009  0.038971  -0.171413  0.030401  0  0  0  -0  -0.551167  -0  0.0186308  0.00602253  -0.00706697  -0.0144345  0.0254283  -0.00623868  -0.0169752  0.0284904  -0.0181707  0.0899681  -0.0869084  -0.0780554 
1704461091.263983000  0  0  11.5653  0.076386  -0.125343  0.0179377  nan  nan  nan  nan  nan  nan  -2.4885  -0.32944  1.00958  0.0870802  -0.0255807  -0.0175491  0.038971  -0.174161  0.030401  0  0  0  -0  -0.547928  -0  0.0186377  0.00611573  -0.00718438  -0.0142103  0.026553  -0.0123284  -0.0172243  0.0282294  -0.0177482  0.0465874  -0.0760362  -0.0248125 
1704461091.268939000  0  0  11.4972  0.0767134  -0.123634  0.0182244  nan  nan  nan  nan  nan  nan  -2.4883  -0.330318  1.00973  0.0861354  -0.0264587  -0.0178435  0.038971  -0.176892  0.030401  0  0  0  -0  -0.544439  -0  0.0189664  0.00598513  -0.00745668  -0.0141377  0.0254165  -0.00540218  -0.0162214  0.0287875  -0.0177339  0.0338988  -0.086288  -0.0287005 
1704461091.273982000  0  0  11.503  0.0605923  -0.116288  0.0240416  nan  nan  nan  nan  nan  nan  -2.48811  -0.331209  1.00988  0.0850311  -0.0268115  -0.0180872  0.038971  -0.179605  0.030401  0  0  0  -0  -0.540701  -0  0.0189111  0.00609565  -0.00749507  -0.0135059  0.0241978  -0.00589897  -0.0147898  0.0285706  -0.0184336  0.0504441  -0.0990391  -0.0960031 
1704461091.278994000  0  0  11.5898  0.0692971  -0.133036  0.0220736  nan  nan  nan  nan  nan  nan  -2.48791  -0.332114  1.01003  0.0851587  -0.0275096  -0.0183933  0.038971  -0.182299  0.030401  0  0  0  -0  -0.536712  -0  0.0189028  0.00619478  -0.00761378  -0.0122451  0.0254321  -0.0136089  -0.0148632  0.0291035  -0.0184198  0.0331356  -0.0704271  -0.0706209 
1704461091.283986000  0  0  11.518  0.0878923  -0.127583  0.0197027  nan  nan  nan  nan  nan  nan  -2.48772  -0.333032  1.01019  0.0853226  -0.0258318  -0.0184975  0.038971  -0.184972  0.030401  0  0  0  -0  -0.532473  -0  0.0188249  0.00632159  -0.00761922  -0.0144601  0.0251974  -0.00693886  -0.0152618  0.0272241  -0.0181959  -0.000945035  -0.0593225  -0.0424727 
1704461091.288987000  0  0  11.5314  0.0638629  -0.116199  0.0230823  nan  nan  nan  nan  nan  nan  -2.48752  -0.333964  1.01034  0.0839801  -0.0264582  -0.0187582  0.038971  -0.187623  0.030401  0  0  0  -0  -0.527985  -0  0.0188235  0.00639824  -0.0076885  -0.0135932  0.0239176  -0.00808421  -0.0136296  0.0273036  -0.018629  0.0297223  -0.0840598  -0.0812606 
1704461091.292994000  0  0  11.5902  0.0655558  -0.139705  0.0232076  nan  nan  nan  nan  nan  nan  -2.48733  -0.334908  1.01049  0.0847806  -0.0272085  -0.0190863  0.038971  -0.190251  0.030401  0  0  0  -0  -0.523246  -0  0.0187484  0.00669318  -0.00779384  -0.01216  0.0253338  -0.0131834  -0.0142589  0.0281405  -0.0187351  0.0337184  -0.0449657  -0.0816449 
1704461091.298991000  0  0  11.529  0.0833628  -0.139836  0.0167272  nan  nan  nan  nan  nan  nan  -2.48713  -0.335866  1.01064  0.0838133  -0.0259107  -0.0191939  0.038971  -0.192855  0.030401  0  0  0  -0  -0.518257  -0  0.0187489  0.00661316  -0.00779846  -0.0140759  0.0243643  -0.00759719  -0.0136634  0.0268561  -0.0180881  -0.0106158  -0.0293177  -0.00511753 
1704461091.303972000  0  0  11.5598  0.050839  -0.139935  0.0210079  nan  nan  nan  nan  nan  nan  -2.48694  -0.336837  1.01079  0.0817724  -0.0277009  -0.0195303  0.038971  -0.195433  0.030401  0  0  0  -0  -0.513019  -0  0.0190279  0.00657305  -0.00806071  -0.01238  0.0227048  -0.00992219  -0.0112937  0.0284823  -0.0185287  0.0289716  -0.0485768  -0.0555122 
1704461091.308989000  0  0  11.5799  0.0536196  -0.160028  0.0212929  nan  nan  nan  nan  nan  nan  -2.48674  -0.337821  1.01095  0.0817923  -0.0279272  -0.0197924  0.038971  -0.197985  0.030401  0  0  0  -0  -0.50753  -0  0.0189682  0.00669323  -0.00813371  -0.0118263  0.0232955  -0.0115916  -0.0112046  0.0289041  -0.0186616  0.0220948  -0.0116457  -0.0576555 
1704461091.313984000  0  0  11.5587  0.0685797  -0.156779  0.0171228  nan  nan  nan  nan  nan  nan  -2.48655  -0.338817  1.0111  0.0809589  -0.0274363  -0.0199723  0.038971  -0.200508  0.030401  0  0  0  -0  -0.501791  -0  0.0189561  0.00677197  -0.00818204  -0.0125118  0.022543  -0.00957557  -0.0107089  0.0283933  -0.0181496  -0.0150947  -0.0123191  -0.00953128 
1704461091.317972000  0  0  11.5746  0.0553458  -0.15328  0.0198199  nan  nan  nan  nan  nan  nan  -2.48635  -0.339826  1.01125  0.080845  -0.0270475  -0.0201807  0.038971  -0.203002  0.030401  0  0  0  -0  -0.495803  -0  0.0188618  0.00706481  -0.00826201  -0.0127001  0.0225355  -0.0108434  -0.0104023  0.0279433  -0.0182979  0.00888494  -0.0142417  -0.0427985 
1704461091.323982000  0  0  11.5593  0.0502747  -0.156025  0.0212421  nan  nan  nan  nan  nan  nan  -2.48616  -0.340847  1.0114  0.0795724  -0.0270893  -0.0203925  0.038971  -0.205466  0.030401  0  0  0  -0  -0.489564  -0  0.018892  0.00696091  -0.00829081  -0.012784  0.021802  -0.00946024  -0.00910931  0.0280023  -0.0185974  0.00400219  -0.00921241  -0.0577466 
1704461091.328980000  0  0  11.5789  0.0479383  -0.183681  0.019866  nan  nan  nan  nan  nan  nan  -2.48596  -0.34188  1.01155  0.076227  -0.0309961  -0.0208425  0.038971  -0.207897  0.030401  0  0  0  -0  -0.483075  -0  0.0194788  0.00659223  -0.00845095  -0.00917239  0.0192854  -0.0111273  -0.00615588  0.0321014  -0.0188539  -0.0264703  -0.000499409  -0.0368803 
1704461091.333973000  0  0  11.5826  0.0396983  -0.183695  0.0215634  nan  nan  nan  nan  nan  nan  -2.48577  -0.342926  1.01171  0.0757161  -0.029645  -0.0209672  0.038971  -0.210296  0.030401  0  0  0  -0  -0.476337  -0  0.0194232  0.00669287  -0.00851646  -0.0107932  0.0192795  -0.0113417  -0.00564388  0.0309446  -0.0190273  -0.0153831  0.0133789  -0.0568793 
1704461091.338979000  0  0  11.5053  0.038302  -0.158524  0.0229423  nan  nan  nan  nan  nan  nan  -2.48557  -0.343983  1.01186  0.0748125  -0.0298625  -0.0211996  0.038971  -0.21266  0.030401  0  0  0  -0  -0.469348  -0  0.0194004  0.00676219  -0.00851473  -0.0107222  0.0181415  -0.00425695  -0.00492067  0.0306763  -0.0192769  -0.0211229  -0.0359994  -0.07185 
1704461091.342975000  0  0  11.5801  0.043886  -0.173651  0.0229906  nan  nan  nan  nan  nan  nan  -2.48538  -0.345052  1.01201  0.0745822  -0.0311444  -0.0215315  0.038971  -0.214989  0.030401  0  0  0  -0  -0.462109  -0  0.019341  0.00705357  -0.00862897  -0.00857683  0.0185876  -0.0108971  -0.00492051  0.0319677  -0.019324  -0.0327919  -0.0198533  -0.0719255 
1704461091.348979000  0  0  11.5843  0.0612891  -0.181555  0.0203043  nan  nan  nan  nan  nan  nan  -2.48518  -0.346133  1.01216  0.0736043  -0.0286871  -0.0215628  0.038971  -0.217281  0.030401  0  0  0  -0  -0.454621  -0  0.0193237  0.00693925  -0.0086702  -0.0117807  0.0186765  -0.0112673  -0.00464596  0.0299573  -0.0191617  -0.0724395  0.0207269  -0.0389619 
1704461091.353967000  0  0  11.4974  0.0509237  -0.131136  0.0226567  nan  nan  nan  nan  nan  nan  -2.48499  -0.347225  1.01231  0.0724208  -0.0291798  -0.0218074  0.038971  -0.219535  0.030401  0  0  0  -0  -0.446882  -0  0.0193222  0.00700734  -0.00866638  -0.0114394  0.0172028  -0.00329613  -0.00377515  0.0294136  -0.0194345  -0.0612068  -0.078109  -0.0662979 
1704461091.358974000  0  0  11.6177  0.0689192  -0.181528  0.0232365  nan  nan  nan  nan  nan  nan  -2.48479  -0.348328  1.01247  0.0717419  -0.0313138  -0.0221838  0.038971  -0.221749  0.030401  0  0  0  -0  -0.438893  -0  0.0192879  0.00710407  -0.00880193  -0.0080814  0.0180015  -0.014146  -0.00381487  0.0319478  -0.0196328  -0.0983301  -0.00315716  -0.0714978 
1704461091.363968000  0  0  11.5784  0.100859  -0.166656  0.0172088  nan  nan  nan  nan  nan  nan  -2.4846  -0.349442  1.01262  0.0714046  -0.0278337  -0.0221675  0.038971  -0.223923  0.030401  0  0  0  -0  -0.430655  -0  0.019241  0.00718206  -0.00883917  -0.0127067  0.0181954  -0.0104428  -0.00464275  0.028618  -0.0189548  -0.155152  0.00562893  -0.00120949 
1704461091.367981000  0  0  11.5039  0.0813883  -0.0973635  0.0205361  nan  nan  nan  nan  nan  nan  -2.4844  -0.350567  1.01277  0.0707379  -0.0271515  -0.0223435  0.038971  -0.226056  0.030401  0  0  0  -0  -0.422166  -0  0.0191404  0.00746877  -0.00884943  -0.0135843  0.0170662  -0.00353626  -0.0042419  0.0266252  -0.0191667  -0.11927  -0.115292  -0.0419119 
1704461091.373917000  0  0  11.6239  0.0912469  -0.153784  0.023463  nan  nan  nan  nan  nan  nan  -2.48421  -0.351703  1.01292  0.0697922  -0.0303555  -0.0227847  0.038971  -0.228145  0.030401  0  0  0  -0  -0.413427  -0  0.0191987  0.0073578  -0.00896499  -0.00908723  0.0181051  -0.0144137  -0.00419834  0.0299262  -0.0197262  -0.14039  -0.0369251  -0.0733436 
1704461091.378999000  0  0  11.5822  0.132283  -0.133164  0.0144729  nan  nan  nan  nan  nan  nan  -2.48401  -0.352849  1.01307  0.0689185  -0.0265563  -0.0227389  0.038971  -0.230189  0.030401  0  0  0  -0  -0.404439  -0  0.0191397  0.00741104  -0.00901049  -0.0141252  0.0177584  -0.0105113  -0.0049613  0.0260872  -0.0186603  -0.216996  -0.0340526  0.0308472 
1704461091.383993000  0  0  11.5299  0.0883592  -0.0626933  0.0225519  nan  nan  nan  nan  nan  nan  -2.48382  -0.354005  1.01323  0.0677929  -0.0264605  -0.0229454  0.038971  -0.232189  0.030401  0  0  0  -0  -0.3952  -0  0.019075  0.00749974  -0.00902757  -0.0142598  0.0168297  -0.00566851  -0.00406525  0.0243121  -0.0193407  -0.13595  -0.160042  -0.0660369 
1704461091.389000000  0  0  11.6145  0.11127  -0.125492  0.0238445  nan  nan  nan  nan  nan  nan  -2.48362  -0.355171  1.01338  0.06707  -0.0285453  -0.0233092  0.038971  -0.234141  0.030401  0  0  0  -0  -0.385711  -0  0.0190853  0.00758641  -0.00916632  -0.0112448  0.0174538  -0.0131992  -0.00451982  0.0267388  -0.0197235  -0.178377  -0.057881  -0.0783274 
1704461091.392989000  0  0  11.6354  0.149443  -0.120641  0.0148309  nan  nan  nan  nan  nan  nan  -2.48343  -0.356346  1.01353  0.0669061  -0.026076  -0.0233822  0.038971  -0.236045  0.030401  0  0  0  -0  -0.375973  -0  0.0189733  0.00789873  -0.00925414  -0.0141464  0.0178963  -0.0149318  -0.00577074  0.0242876  -0.018634  -0.24316  -0.0386743  0.025894 
1704461091.398981000  0  0  11.5436  0.0986667  -0.0605934  0.0246306  nan  nan  nan  nan  nan  nan  -2.48323  -0.357531  1.01368  0.0652628  -0.0255932  -0.0235507  0.038971  -0.2379  0.030401  0  0  0  -0  -0.365984  -0  0.0189638  0.00774805  -0.00924526  -0.0150797  0.0167488  -0.00652998  -0.00457989  0.0223178  -0.0195169  -0.151325  -0.140556  -0.0909515 
1704461091.403982000  0  0  11.6336  0.11236  -0.119679  0.0253492  nan  nan  nan  nan  nan  nan  -2.48304  -0.358725  1.01383  0.0637252  -0.02763  -0.0238841  0.038971  -0.239705  0.030401  0  0  0  -0  -0.355745  -0  0.0190294  0.00786887  -0.00949764  -0.0122917  0.0163137  -0.0143268  -0.00419115  0.0248718  -0.0199482  -0.184589  -0.0476797  -0.0952231 
1704461091.408970000  0  0  11.691  0.122583  -0.117855  0.0160202  nan  nan  nan  nan  nan  nan  -2.48285  -0.359928  1.01399  0.0630563  -0.0255787  -0.0239791  0.038971  -0.241457  0.030401  0  0  0  -0  -0.345257  -0  0.0189442  0.00796764  -0.00961454  -0.0146187  0.0169959  -0.0193966  -0.00465527  0.0228734  -0.0188687  -0.200392  -0.0275671  0.0132084 
1704461091.413974000  0  0  11.5705  0.0935044  -0.0919816  0.0239452  nan  nan  nan  nan  nan  nan  -2.48265  -0.361139  1.01414  0.0620706  -0.0247207  -0.0241435  0.038971  -0.243157  0.030401  0  0  0  -0  -0.334518  -0  0.0189262  0.00802217  -0.00962305  -0.0160909  0.0161088  -0.00827262  -0.00410686  0.0214553  -0.0196192  -0.146202  -0.0646503  -0.0808556 
1704461091.417971000  0  0  11.6209  0.0928022  -0.125748  0.0250332  nan  nan  nan  nan  nan  nan  -2.48246  -0.362359  1.01429  0.0603378  -0.0262898  -0.0244383  0.038971  -0.244802  0.030401  0  0  0  -0  -0.323529  -0  0.0188491  0.00832423  -0.00973458  -0.0136832  0.0147324  -0.0127625  -0.003113  0.0232972  -0.0198877  -0.156632  -0.0161495  -0.0918315 
1704461091.423966000  0  0  11.744  0.0969776  -0.16692  0.0171406  nan  nan  nan  nan  nan  nan  -2.48226  -0.363587  1.01444  0.0589216  -0.0258208  -0.0246164  0.038971  -0.246392  0.030401  0  0  0  -0  -0.312291  -0  0.0188595  0.00816887  -0.00989783  -0.0139783  0.0155651  -0.0238551  -0.00283945  0.0237806  -0.0190728  -0.16863  0.0640874  0.0010579 
1704461091.428928000  0  0  11.5746  0.0748439  -0.13733  0.0210284  nan  nan  nan  nan  nan  nan  -2.48207  -0.364823  1.01459  0.0576786  -0.0237399  -0.0247071  0.038971  -0.247925  0.030401  0  0  0  -0  -0.300802  -0  0.0187618  0.00825  -0.00985654  -0.0170214  0.0141384  -0.00835993  -0.0020352  0.0216317  -0.0193488  -0.132012  0.0279856  -0.0461672 
1704461091.433974000  0  0  11.6832  0.0413423  -0.164943  0.0241849  nan  nan  nan  nan  nan  nan  -2.48187  -0.366067  1.01475  0.0545339  -0.0265052  -0.0250261  0.038971  -0.249399  0.030401  0  0  0  -0  -0.289063  -0  0.0187993  0.00826941  -0.0100275  -0.0132  0.0120369  -0.0181688  0.000746268  0.0247751  -0.0198409  -0.0953117  0.0480515  -0.0813693 
1704461091.439005000  0  0  11.7604  0.057236  -0.211385  0.0202061  nan  nan  nan  nan  nan  nan  -2.48168  -0.367317  1.0149  0.0540506  -0.0260545  -0.025232  0.038971  -0.250815  0.030401  0  0  0  -0  -0.277191  -0  0.0188161  0.00831318  -0.0101823  -0.0136035  0.0133025  -0.0249856  0.000403472  0.0256376  -0.0195113  -0.124416  0.134759  -0.0335905 
1704461091.442973000  0  0  11.6057  0.0518083  -0.173872  0.0189067  nan  nan  nan  nan  nan  nan  -2.48148  -0.368575  1.01505  0.0533696  -0.023443  -0.0253177  0.038971  -0.252172  0.030401  0  0  0  -0  -0.265543  -0  0.0186807  0.00862303  -0.0101721  -0.0171975  0.0122267  -0.0107328  0.000672533  0.0230535  -0.0192437  -0.116296  0.0873156  -0.0198613 
1704461091.449130000  0  0  11.7085  0.00739811  -0.20552  0.0260262  nan  nan  nan  nan  nan  nan  -2.48129  -0.369839  1.0152  0.049236  -0.0269626  -0.025637  0.038971  -0.253471  0.030401  0  0  0  -0  -0.254145  -0  0.0187875  0.00835714  -0.0102845  -0.0126021  0.0093994  -0.0202201  0.00453396  0.0271489  -0.0201927  -0.0697313  0.104416  -0.101145 
1704461091.453956000  0  0  11.7562  0.033556  -0.234319  0.0219731  nan  nan  nan  nan  nan  nan  -2.48109  -0.371109  1.01535  0.0487959  -0.0256329  -0.0258032  0.038971  -0.254714  0.030401  0  0  0  -0  -0.242998  -0  0.0186926  0.0084688  -0.0104081  -0.0139807  0.0102668  -0.0243823  0.00410608  0.0270262  -0.0199296  -0.119262  0.166055  -0.0516232 
1704461091.458972000  0  0  11.5676  0.0282213  -0.17437  0.019974  nan  nan  nan  nan  nan  nan  -2.4809  -0.372386  1.01551  0.0470717  -0.0240567  -0.0259277  0.038971  -0.255901  0.030401  0  0  0  -0  -0.2321  -0  0.0186972  0.0084619  -0.0103615  -0.0167009  0.00844041  -0.00711745  0.00514511  0.0251616  -0.0196553  -0.120554  0.06312  -0.0288904 
