    ts      x      y      z   roll  pitch    yaw     vx     vy     vz     wx     wy     wz     ax     ay     az    dwx    dwy    dwz
 0.0050000  -2.5000000  -0.3000000   1.0000000   0.0000000   0.0000000  -0.0000000   0.0000002  -0.0000002   0.0000002   0.0000000   0.0000000   0.0000000   0.0001250  -0.0001250   0.0001250   0.0000000   0.0000000   0.0000000
 0.0100000  -2.5000000  -0.3000000   1.0000000   0.0000000   0.0000000  -0.0000000   0.0000017  -0.0000017   0.0000017   0.0000000   0.0000000   0.0000000   0.0005000  -0.0005000   0.0005000   0.0000000   0.0000000   0.0000000
 0.0150000  -2.5000000  -0.3000000   1.0000000   0.0000000   0.0000000  -0.0000000   0.0000056  -0.0000056   0.0000056   0.0000000   0.0000000   0.0000000   0.0011250  -0.0011250   0.0011250   0.0000000   0.0000000   0.0000000
 0.0200000  -2.5000000  -0.3000000   1.0000000   0.0000000   0.0000000  -0.0000001   0.0000133  -0.0000133   0.0000133   0.0000000   0.0000000   0.0000000   0.0020000  -0.0020000   0.0020000   0.0000000   0.0000000   0.0000000
 0.0250000  -2.5000000  -0.3000000   1.0000000   0.0000000   0.0000000  -0.0000003   0.0000260  -0.0000260   0.0000260   0.0000000   0.0000000   0.0000000   0.0031250  -0.0031250   0.0031250   0.0000000   0.0000000   0.0000000
 0.0300000  -2.5000000  -0.3000000   1.0000000   0.0000000   0.0000000  -0.0000005   0.0000450  -0.0000450   0.0000450   0.0000000   0.0000000   0.0000000   0.0045000  -0.0045000   0.0045000   0.0000000   0.0000000   0.0000000
 0.0350000  -2.5000000  -0.3000010   1.0000000   0.0000000   0.0000000  -0.0000010   0.0000715  -0.0000715   0.0000715   0.0000000   0.0000000   0.0000000   0.0061250  -0.0061250   0.0061250   0.0000000   0.0000000   0.0000000
 0.0400000  -2.5000000  -0.3000010   1.0000000   0.0000000   0.0000000  -0.0000017   0.0001067  -0.0001067   0.0001067   0.0000000   0.0000000   0.0000000   0.0080000  -0.0080000   0.0080000   0.0000000   0.0000000   0.0000000
 0.0450000  -2.5000000  -0.3000020   1.0000000   0.0000000   0.0000000  -0.0000027   0.0001519  -0.0001519   0.0001519   0.0000000   0.0000000   0.0000000   0.0101250  -0.0101250   0.0101250   0.0000000   0.0000000   0.0000000
 0.0500000  -2.5000000  -0.3000030   1.0000000   0.0000000   0.0000000  -0.0000042   0.0002083  -0.0002083   0.0002083   0.0000000   0.0000000   0.0000000   0.0125000  -0.0125000   0.0125000   0.0000000   0.0000000   0.0000000
 0.0550000  -2.5000000  -0.3000040   1.0000000   0.0000000   0.0000000  -0.0000061   0.0002773  -0.0002773   0.0002773   0.0000000   0.0000000   0.0000000   0.0151250  -0.0151250   0.0151250   0.0000000   0.0000000   0.0000000
 0.0600000  -2.4999900  -0.3000050   1.0000100   0.0000000   0.0000000  -0.0000086   0.0003600  -0.0003600   0.0003600   0.0000000   0.0000000   0.0000000   0.0180000  -0.0180000   0.0180000   0.0000000   0.0000000   0.0000000
 0.0650000  -2.4999900  -0.3000070   1.0000100   0.0000000   0.0000000  -0.0000119   0.0004577  -0.0004577   0.0004577   0.0000000   0.0000000   0.0000000   0.0211250  -0.0211250   0.0211250   0.0000000   0.0000000   0.0000000
 0.0700000  -2.4999900  -0.3000100   1.0000100   0.0000000   0.0000000  -0.0000160   0.0005717  -0.0005717   0.0005717   0.0000000   0.0000000   0.0000000   0.0245000  -0.0245000   0.0245000   0.0000000   0.0000000   0.0000000
 0.0750000  -2.4999900  -0.3000130   1.0000100   0.0000000   0.0000000  -0.0000211   0.0007031  -0.0007031   0.0007031   0.0000000   0.0000000   0.0000000   0.0281250  -0.0281250   0.0281250   0.0000000   0.0000000   0.0000000
 0.0800000  -2.4999800  -0.3000170   1.0000200   0.0000000   0.0000000  -0.0000273   0.0008533  -0.0008533   0.0008533   0.0000000   0.0000000   0.0000000   0.0320000  -0.0320000   0.0320000   0.0000000   0.0000000   0.0000000
 0.0850000  -2.4999800  -0.3000220   1.0000200   0.0000000   0.0000000  -0.0000348   0.0010235  -0.0010235   0.0010235   0.0000000   0.0000000   0.0000000   0.0361250  -0.0361250   0.0361250   0.0000000   0.0000000   0.0000000
 0.0900000  -2.4999700  -0.3000270   1.0000300   0.0000000   0.0000000  -0.0000437   0.0012150  -0.0012150   0.0012150   0.0000000   0.0000000   0.0000000   0.0405000  -0.0405000   0.0405000   0.0000000   0.0000000   0.0000000
 0.0950000  -2.4999700  -0.3000340   1.0000300   0.0000000   0.0000000  -0.0000543   0.0014290  -0.0014290   0.0014290   0.0000000   0.0000000   0.0000000   0.0451250  -0.0451250   0.0451250   0.0000000   0.0000000   0.0000000
 0.1000000  -2.4999600  -0.3000420   1.0000400   0.0000000   0.0000000  -0.0000667   0.0016667  -0.0016667   0.0016667   0.0000000   0.0000000   0.0000000   0.0500000  -0.0500000   0.0500000   0.0000000   0.0000000   0.0000000
 0.1050000  -2.4999500  -0.3000510   1.0000500   0.0000000   0.0000000  -0.0000810   0.0019294  -0.0019294   0.0019294   0.0000000   0.0000000   0.0000000   0.0551250  -0.0551250   0.0551250   0.0000000   0.0000000   0.0000000
 0.1100000  -2.4999400  -0.3000610   1.0000600   0.0000000   0.0000000  -0.0000976   0.0022183  -0.0022183   0.0022183   0.0000000   0.0000000   0.0000000   0.0605000  -0.0605000   0.0605000   0.0000000   0.0000000   0.0000000
 0.1150000  -2.4999300  -0.3000730   1.0000700   0.0000000   0.0000000  -0.0001166   0.0025348  -0.0025348   0.0025348   0.0000000   0.0000000   0.0000000   0.0661250  -0.0661250   0.0661250   0.0000000   0.0000000   0.0000000
 0.1200000  -2.4999100  -0.3000860   1.0000900   0.0000000   0.0000000  -0.0001382   0.0028800  -0.0028800   0.0028796   0.0000000   0.0000000   0.0000000   0.0720000  -0.0720000   0.0717479   0.0000000   0.0000000   0.0000000
 0.1250000  -2.4999000  -0.3001020   1.0001000   0.0000000   0.0000000  -0.0001627   0.0032552  -0.0032552   0.0032519   0.0000000   0.0000000   0.0000000   0.0781249  -0.0781250   0.0771208   0.0000000   0.0000000   0.0000000
 0.1300000  -2.4998800  -0.3001190   1.0001200   0.0000000   0.0000000  -0.0001903   0.0036612  -0.0036617   0.0036504   0.0000000   0.0000000   0.0000000   0.0842401  -0.0845000   0.0822438   0.0000000   0.0000000   0.0000000
 0.1350000  -2.4998600  -0.3001380   1.0001400   0.0000000   0.0000000  -0.0002212   0.0040972  -0.0041006   0.0040739   0.0000000   0.0000000   0.0000000   0.0901054  -0.0911250   0.0871167   0.0000000   0.0000000   0.0000000
 0.1400000  -2.4998400  -0.3001600   1.0001600   0.0000000   0.0000000  -0.0002556   0.0045619  -0.0045733   0.0045211   0.0000000   0.0000000   0.0000000   0.0957206  -0.0980000   0.0917396   0.0000000   0.0000000   0.0000000
 0.1450000  -2.4998200  -0.3001840   1.0001800   0.0000000   0.0000000  -0.0002936   0.0050540  -0.0050810   0.0049908   0.0000000   0.0000000   0.0000000   0.1010860  -0.1051250   0.0961125   0.0000000   0.0000000   0.0000000
 0.1500000  -2.4997900  -0.3002110   1.0002100   0.0000000   0.0000000  -0.0003355   0.0055723  -0.0056250   0.0054818   0.0000000   0.0000000   0.0000000   0.1062010  -0.1125000   0.1002350   0.0000000   0.0000000   0.0000000
 0.1550000  -2.4997600  -0.3002410   1.0002400   0.0000000   0.0000000  -0.0003814   0.0061156  -0.0062065   0.0059928   0.0000000   0.0000000   0.0000000   0.1110660  -0.1201250   0.1041080   0.0000000   0.0000000   0.0000000
 0.1600000  -2.4997300  -0.3002730   1.0002700   0.0000000   0.0000000  -0.0004314   0.0066825  -0.0068267   0.0065225   0.0000000   0.0000000   0.0000000   0.1156820  -0.1280000   0.1077310   0.0000000   0.0000000   0.0000000
 0.1650000  -2.4996900  -0.3003090   1.0003000   0.0000000   0.0000000  -0.0004858   0.0072720  -0.0074869   0.0070697   0.0000000   0.0000000   0.0000000   0.1200470  -0.1361250   0.1111040   0.0000000   0.0000000   0.0000000
 0.1700000  -2.4996600  -0.3003480   1.0003400   0.0000000   0.0000000  -0.0005446   0.0078826  -0.0081883   0.0076331   0.0000000   0.0000000   0.0000000   0.1241620  -0.1445000   0.1142270   0.0000000   0.0000000   0.0000000
 0.1750000  -2.4996100  -0.3003910   1.0003800   0.0000000   0.0000000  -0.0006079   0.0085132  -0.0089323   0.0082115   0.0000000   0.0000000   0.0000000   0.1280270  -0.1531250   0.1171000   0.0000000   0.0000000   0.0000000
 0.1800000  -2.4995700  -0.3004370   1.0004200   0.0000000   0.0000000  -0.0006760   0.0091625  -0.0097200   0.0088037   0.0000000   0.0000000   0.0000000   0.1316420  -0.1620000   0.1197230   0.0000000   0.0000000   0.0000000
 0.1850000  -2.4995200  -0.3004880   1.0004700   0.0000000   0.0000000  -0.0007488   0.0098292  -0.0105527   0.0094084   0.0000000   0.0000000   0.0000000   0.1350080  -0.1711250   0.1220960   0.0000000   0.0000000   0.0000000
 0.1900000  -2.4994700  -0.3005430   1.0005200   0.0000000   0.0000000  -0.0008265   0.0105121  -0.0114317   0.0100242   0.0000000   0.0000000   0.0000000   0.1381230  -0.1805000   0.1242190   0.0000000   0.0000000   0.0000000
 0.1950000  -2.4994200  -0.3006020   1.0005700   0.0000000   0.0000000  -0.0009092   0.0112100  -0.0123581   0.0106501   0.0000000   0.0000000   0.0000000   0.1409880  -0.1901250   0.1260920   0.0000000   0.0000000   0.0000000
 0.2000000  -2.4993600  -0.3006670   1.0006200   0.0000000   0.0000000  -0.0009969   0.0119216  -0.0133333   0.0112847   0.0000000   0.0000000   0.0000000   0.1436030  -0.2000000   0.1277150   0.0000000   0.0000000   0.0000000
 0.2050000  -2.4993000  -0.3007360   1.0006800   0.0000000   0.0000000  -0.0010897   0.0126456  -0.0143585   0.0119269   0.0000000   0.0000000   0.0000000   0.1459690  -0.2101250   0.1290880   0.0000000   0.0000000   0.0000000
 0.2100000  -2.4992300  -0.3008100   1.0007400   0.0000000   0.0000000  -0.0011877   0.0133809  -0.0154350   0.0125752   0.0000000   0.0000000   0.0000000   0.1480840  -0.2205000   0.1302100   0.0000000   0.0000000   0.0000000
 0.2150000  -2.4991600  -0.3008900   1.0008100   0.0000000   0.0000000  -0.0012909   0.0141260  -0.0165640   0.0132285   0.0000000   0.0000000   0.0000000   0.1499490  -0.2311250   0.1310830   0.0000000   0.0000000   0.0000000
 0.2200000  -2.4990900  -0.3009760   1.0008700   0.0000000   0.0000000  -0.0013993   0.0148799  -0.0177467   0.0138856   0.0000000   0.0000000   0.0000000   0.1515640  -0.2420000   0.1317060   0.0000000   0.0000000   0.0000000
 0.2250000  -2.4990200  -0.3010680   1.0009500   0.0000000   0.0000000  -0.0015130   0.0156413  -0.0189844   0.0145452   0.0000000   0.0000000   0.0000000   0.1529300  -0.2531250   0.1320790   0.0000000   0.0000000   0.0000000
 0.2300000  -2.4989400  -0.3011660   1.0010200   0.0000000   0.0000000  -0.0016320   0.0164088  -0.0202783   0.0152060   0.0000000   0.0000000   0.0000000   0.1540450  -0.2645000   0.1322020   0.0000000   0.0000000   0.0000000
 0.2350000  -2.4988500  -0.3012710   1.0011000   0.0000000   0.0000000  -0.0017563   0.0171813  -0.0216298   0.0158668   0.0000000   0.0000000   0.0000000   0.1549100  -0.2761250   0.1320750   0.0000000   0.0000000   0.0000000
 0.2400000  -2.4987600  -0.3013820   1.0011800   0.0000000   0.0000000  -0.0018858   0.0179575  -0.0230400   0.0165263   0.0000000   0.0000000   0.0000000   0.1555250  -0.2879870   0.1316980   0.0000000   0.0000000   0.0000000
 0.2450000  -2.4986700  -0.3015010   1.0012600   0.0000000   0.0000000  -0.0020206   0.0187361  -0.0245094   0.0171834   0.0000000   0.0000000   0.0000000   0.1558900  -0.2997480   0.1310710   0.0000000   0.0000000   0.0000000
 0.2500000  -2.4985800  -0.3016280   1.0013500   0.0000000   0.0000000  -0.0021607   0.0195160  -0.0260371   0.0178366   0.0000000   0.0000000   0.0000000   0.1560060  -0.3112600   0.1301940   0.0000000   0.0000000   0.0000000
 0.2550000  -2.4984800  -0.3017620   1.0014400   0.0000000   0.0000000  -0.0023059   0.0202958  -0.0276216   0.0184849   0.0000000   0.0000000   0.0000000   0.1558710  -0.3225210   0.1290670   0.0000000   0.0000000   0.0000000
 0.2600000  -2.4983700  -0.3019040   1.0015400   0.0000000   0.0000000  -0.0024563   0.0210743  -0.0292619   0.0191269   0.0000000   0.0000000   0.0000000   0.1554860  -0.3335320   0.1276900   0.0000000   0.0000000   0.0000000
 0.2650000  -2.4982700  -0.3020540   1.0016300   0.0000000   0.0000000  -0.0026119   0.0218502  -0.0309565   0.0197614   0.0000000   0.0000000   0.0000000   0.1548510  -0.3442940   0.1260630   0.0000000   0.0000000   0.0000000
 0.2700000  -2.4981600  -0.3022140   1.0017300   0.0000000   0.0000000  -0.0027724   0.0226224  -0.0327044   0.0203871   0.0000000   0.0000000   0.0000000   0.1539670  -0.3548050   0.1241850   0.0000000   0.0000000   0.0000000
 0.2750000  -2.4980400  -0.3023820   1.0018400   0.0000000   0.0000000  -0.0029379   0.0233895  -0.0345042   0.0210028   0.0000000   0.0000000   0.0000000   0.1528320  -0.3650660   0.1220580   0.0000000   0.0000000   0.0000000
 0.2800000  -2.4979200  -0.3025590   1.0019400   0.0000000   0.0000000  -0.0031083   0.0241503  -0.0363546   0.0216073   0.0000000   0.0000000   0.0000000   0.1514470  -0.3750780   0.1196810   0.0000000   0.0000000   0.0000000
 0.2850000  -2.4978000  -0.3027450   1.0020500   0.0000000   0.0000000  -0.0032835   0.0249035  -0.0382545   0.0221992   0.0000000   0.0000000   0.0000000   0.1498120  -0.3848390   0.1170540   0.0000000   0.0000000   0.0000000
 0.2900000  -2.4976700  -0.3029410   1.0021700   0.0000000   0.0000000  -0.0034633   0.0256480  -0.0402026   0.0227774   0.0000000   0.0000000   0.0000000   0.1479280  -0.3943500   0.1141770   0.0000000   0.0000000   0.0000000
 0.2950000  -2.4975400  -0.3031470   1.0022800   0.0000000   0.0000000  -0.0036477   0.0263824  -0.0421976   0.0233405   0.0000000   0.0000000   0.0000000   0.1457930  -0.4036120   0.1110500   0.0000000   0.0000000   0.0000000
 0.3000000  -2.4974100  -0.3033630   1.0024000   0.0000000   0.0000000  -0.0038366   0.0271055  -0.0442383   0.0238875   0.0000000   0.0000000   0.0000000   0.1434080  -0.4126230   0.1076730   0.0000000   0.0000000   0.0000000
 0.3050000  -2.4972700  -0.3035900   1.0025200   0.0000000   0.0000000  -0.0040298   0.0278160  -0.0463234   0.0244169   0.0000000   0.0000000   0.0000000   0.1407730  -0.4213840   0.1040460   0.0000000   0.0000000   0.0000000
 0.3100000  -2.4971300  -0.3038270   1.0026400   0.0000000   0.0000000  -0.0042271   0.0285128  -0.0484517   0.0249275   0.0000000   0.0000000   0.0000000   0.1378880  -0.4298960   0.1001690   0.0000000   0.0000000   0.0000000
 0.3150000  -2.4969900  -0.3040740   1.0027700   0.0000000   0.0000000  -0.0044284   0.0291945  -0.0506220   0.0254181   0.0000000   0.0000000   0.0000000   0.1347540  -0.4381570   0.0960418   0.0000000   0.0000000   0.0000000
 0.3200000  -2.4968400  -0.3043330   1.0029000   0.0000000   0.0000000  -0.0046335   0.0298599  -0.0528329   0.0258875   0.0000000   0.0000000   0.0000000   0.1313690  -0.4461680   0.0916647   0.0000000   0.0000000   0.0000000
 0.3250000  -2.4966900  -0.3046030   1.0030300   0.0000000   0.0000000  -0.0048423   0.0305078  -0.0550832   0.0263344   0.0000000   0.0000000   0.0000000   0.1277340  -0.4539300   0.0870376   0.0000000   0.0000000   0.0000000
 0.3300000  -2.4965300  -0.3048840   1.0031600   0.0000000   0.0000000  -0.0050546   0.0311368  -0.0573718   0.0267575   0.0000000   0.0000000   0.0000000   0.1238490  -0.4614410   0.0821605   0.0000000   0.0000000   0.0000000
 0.3350000  -2.4963800  -0.3051770   1.0032900   0.0000000   0.0000000  -0.0052702   0.0317459  -0.0596972   0.0271556   0.0000000   0.0000000   0.0000000   0.1197150  -0.4687020   0.0770334   0.0000000   0.0000000   0.0000000
 0.3400000  -2.4962200  -0.3054810   1.0034300   0.0000000   0.0000000  -0.0054888   0.0323336  -0.0620584   0.0275274   0.0000000   0.0000000   0.0000000   0.1153300  -0.4757140   0.0716564   0.0000000   0.0000000   0.0000000
 0.3450000  -2.4960500  -0.3057970   1.0035700   0.0000000   0.0000000  -0.0057104   0.0328987  -0.0644539   0.0278717   0.0000000   0.0000000   0.0000000   0.1106950  -0.4824750   0.0660293   0.0000000   0.0000000   0.0000000
 0.3500000  -2.4958900  -0.3061250   1.0037100   0.0000000   0.0000000  -0.0059345   0.0334401  -0.0668827   0.0281877   0.0000000   0.0000000   0.0000000   0.1058100  -0.4889860   0.0604085   0.0000000   0.0000000   0.0000000
 0.3550000  -2.4957200  -0.3064660   1.0038500   0.0000000   0.0000000  -0.0061610   0.0339564  -0.0693434   0.0284762   0.0000000   0.0000000   0.0000000   0.1006760  -0.4952480   0.0550376   0.0000000   0.0000000   0.0000000
 0.3600000  -2.4955500  -0.3068190   1.0039900   0.0000000   0.0000000  -0.0063898   0.0344464  -0.0718348   0.0287385   0.0000000   0.0000000   0.0000000   0.0952907  -0.5012590   0.0499168   0.0000000   0.0000000   0.0000000
 0.3650000  -2.4953700  -0.3071840   1.0041400   0.0000000   0.0000000  -0.0066205   0.0349089  -0.0743556   0.0289758   0.0000000   0.0000000   0.0000000   0.0896560  -0.5070200   0.0450460   0.0000000   0.0000000   0.0000000
 0.3700000  -2.4952000  -0.3075630   1.0042800   0.0000000   0.0000000  -0.0068531   0.0353426  -0.0769045   0.0291894   0.0000000   0.0000000   0.0000000   0.0837712  -0.5125320   0.0404251   0.0000000   0.0000000   0.0000000
 0.3750000  -2.4950200  -0.3079540   1.0044300   0.0000000   0.0000000  -0.0070872   0.0357462  -0.0794805   0.0293805   0.0000000   0.0000000   0.0000000   0.0776373  -0.5177930   0.0360543   0.0000000   0.0000000   0.0000000
 0.3800000  -2.4948400  -0.3083570   1.0045800   0.0000000   0.0000000  -0.0073228   0.0361190  -0.0820821   0.0295503   0.0000000   0.0000000   0.0000000   0.0715318  -0.5228040   0.0319335   0.0000000   0.0000000   0.0000000
 0.3850000  -2.4946600  -0.3087740   1.0047300   0.0000000   0.0000000  -0.0075597   0.0364619  -0.0847081   0.0297002   0.0000000   0.0000000   0.0000000   0.0656764  -0.5275660   0.0280626   0.0000000   0.0000000   0.0000000
 0.3900000  -2.4944800  -0.3092050   1.0048800   0.0000000   0.0000000  -0.0077977   0.0367762  -0.0873573   0.0298314   0.0000000   0.0000000   0.0000000   0.0600709  -0.5320770   0.0244418   0.0000000   0.0000000   0.0000000
 0.3950000  -2.4942900  -0.3096480   1.0050200   0.0000000   0.0000000  -0.0080367   0.0370631  -0.0900284   0.0299450   0.0000000   0.0000000   0.0000000   0.0547154  -0.5363380   0.0210709   0.0000000   0.0000000   0.0000000
 0.4000000  -2.4941100  -0.3101050   1.0051700   0.0000000   0.0000000  -0.0082765   0.0373238  -0.0927203   0.0300425   0.0000000   0.0000000   0.0000000   0.0496100  -0.5403500   0.0179501   0.0000000   0.0000000   0.0000000
 0.4050000  -2.4939200  -0.3105750   1.0053300   0.0000000   0.0000000  -0.0085170   0.0375596  -0.0954315   0.0301250   0.0000000   0.0000000   0.0000000   0.0447545  -0.5441110   0.0150793   0.0000000   0.0000000   0.0000000
 0.4100000  -2.4937300  -0.3110590   1.0054800   0.0000000   0.0000000  -0.0087581   0.0377717  -0.0981610   0.0301937   0.0000000   0.0000000   0.0000000   0.0401491  -0.5476220   0.0124584   0.0000000   0.0000000   0.0000000
 0.4150000  -2.4935400  -0.3115570   1.0056300   0.0000000   0.0000000  -0.0089998   0.0379615  -0.1009070   0.0302500   0.0000000   0.0000000   0.0000000   0.0357936  -0.5508840   0.0100876   0.0000000   0.0000000   0.0000000
 0.4200000  -2.4933500  -0.3120680   1.0057800   0.0000000   0.0000000  -0.0092418   0.0381301  -0.1036690   0.0302950   0.0000000   0.0000000   0.0000000   0.0316881  -0.5538950   0.0079667   0.0000000   0.0000000   0.0000000
 0.4250000  -2.4931600  -0.3125940   1.0059300   0.0000000   0.0000000  -0.0094841   0.0382788  -0.1064460   0.0303300   0.0000000   0.0000000   0.0000000   0.0278327  -0.5566560   0.0060959   0.0000000   0.0000000   0.0000000
 0.4300000  -2.4929700  -0.3131330   1.0060800   0.0000000   0.0000000  -0.0097267   0.0384088  -0.1092360   0.0303564   0.0000000   0.0000000   0.0000000   0.0242272  -0.5591680   0.0044751   0.0000000   0.0000000   0.0000000
 0.4350000  -2.4927800  -0.3136860   1.0062300   0.0000000   0.0000000  -0.0099695   0.0385215  -0.1120370   0.0303752   0.0000000   0.0000000   0.0000000   0.0208718  -0.5614290   0.0031042   0.0000000   0.0000000   0.0000000
 0.4400000  -2.4925800  -0.3142530   1.0063900   0.0000000   0.0000000  -0.0102124   0.0386180  -0.1148490   0.0303878   0.0000000   0.0000000   0.0000000   0.0177663  -0.5634400   0.0019834   0.0000000   0.0000000   0.0000000
 0.4450000  -2.4923900  -0.3148340   1.0065400   0.0000000   0.0000000  -0.0104553   0.0386996  -0.1176710   0.0303955   0.0000000   0.0000000   0.0000000   0.0149108  -0.5652020   0.0011125   0.0000000   0.0000000   0.0000000
 0.4500000  -2.4922000  -0.3154300   1.0066900   0.0000000   0.0000000  -0.0106983   0.0387675  -0.1205010   0.0303994   0.0000000   0.0000000   0.0000000   0.0123054  -0.5667130   0.0004917   0.0000000   0.0000000   0.0000000
 0.4550000  -2.4920000  -0.3160390   1.0068400   0.0000000   0.0000000  -0.0109414   0.0388230  -0.1233380   0.0304008   0.0000000   0.0000000   0.0000000   0.0099499  -0.5679740   0.0001209   0.0000000   0.0000000   0.0000000
 0.4600000  -2.4918100  -0.3166630   1.0069900   0.0000000   0.0000000  -0.0111844   0.0388674  -0.1261800   0.0304010   0.0000000   0.0000000   0.0000000   0.0078444  -0.5689850  -0.0000000   0.0000000   0.0000000   0.0000000
 0.4650000  -2.4916100  -0.3173010   1.0071500   0.0000000   0.0000000  -0.0114275   0.0389019  -0.1290270   0.0304010   0.0000000   0.0000000   0.0000000   0.0059890  -0.5697470  -0.0000000   0.0000000   0.0000000   0.0000000
 0.4700000  -2.4914200  -0.3179540   1.0073000   0.0000000   0.0000000  -0.0116705   0.0389277  -0.1318770   0.0304010   0.0000000   0.0000000   0.0000000   0.0043835  -0.5702580  -0.0000000   0.0000000   0.0000000   0.0000000
 0.4750000  -2.4912200  -0.3186200   1.0074500   0.0000000   0.0000000  -0.0119135   0.0389461  -0.1347290   0.0304010   0.0000000   0.0000000   0.0000000   0.0030281  -0.5705190  -0.0000000   0.0000000   0.0000000   0.0000000
 0.4800000  -2.4910300  -0.3193010   1.0076000   0.0000000   0.0000000  -0.0121566   0.0389584  -0.1375820   0.0304010   0.0000000   0.0000000   0.0000000   0.0019226  -0.5705310  -0.0000000   0.0000000   0.0000000   0.0000000
 0.4850000  -2.4908300  -0.3199960   1.0077500   0.0000000   0.0000000  -0.0123996   0.0389658  -0.1404340   0.0304010   0.0000000   0.0000000   0.0000000   0.0010671  -0.5702920  -0.0000000   0.0000000   0.0000000   0.0000000
 0.4900000  -2.4906400  -0.3207050   1.0079100   0.0000000   0.0000000  -0.0126427   0.0389695  -0.1432850   0.0304010   0.0000000   0.0000000   0.0000000   0.0004617  -0.5698030  -0.0000000   0.0000000   0.0000000   0.0000000
 0.4950000  -2.4904400  -0.3214290   1.0080600   0.0000000   0.0000000  -0.0128857   0.0389708  -0.1461320   0.0304010   0.0000000   0.0000000   0.0000000   0.0001062  -0.5690650  -0.0000000   0.0000000   0.0000000   0.0000000
 0.5000000  -2.4902500  -0.3221660   1.0082100   0.0000000   0.0000000  -0.0131287   0.0389710  -0.1489750   0.0304010   0.0000000   0.0000000   0.0000000  -0.0000000  -0.5680760  -0.0000000   0.0000000   0.0000000   0.0000000
 0.5050000  -2.4900500  -0.3229180   1.0083600   0.0000000   0.0000000  -0.0133718   0.0389710  -0.1518120   0.0304010   0.0000000   0.0000000   0.0000000  -0.0000000  -0.5668370  -0.0000000   0.0000000   0.0000000   0.0000000
 0.5100000  -2.4898600  -0.3236850   1.0085100   0.0000000   0.0000000  -0.0136148   0.0389710  -0.1546430   0.0304010   0.0000000   0.0000000   0.0000000  -0.0000000  -0.5653490  -0.0000000   0.0000000   0.0000000   0.0000000
 0.5150000  -2.4896700  -0.3244650   1.0086700   0.0000000   0.0000000  -0.0138579   0.0389710  -0.1574650   0.0304010   0.0000000   0.0000000   0.0000000  -0.0000000  -0.5636100  -0.0000000   0.0000000   0.0000000   0.0000000
 0.5200000  -2.4894700  -0.3252590   1.0088200   0.0000000   0.0000000  -0.0141009   0.0389710  -0.1602790   0.0304010   0.0000000   0.0000000   0.0000000  -0.0000000  -0.5616210  -0.0000000   0.0000000   0.0000000   0.0000000
 0.5250000  -2.4892800  -0.3260680   1.0089700   0.0000000   0.0000000  -0.0143439   0.0389710  -0.1630810   0.0304010   0.0000000   0.0000000   0.0000000  -0.0000000  -0.5593830  -0.0000000   0.0000000   0.0000000   0.0000000
 0.5300000  -2.4890800  -0.3268900   1.0091200   0.0000000   0.0000000  -0.0145870   0.0389710  -0.1658720   0.0304010   0.0000000   0.0000000   0.0000000  -0.0000000  -0.5568940  -0.0000000   0.0000000   0.0000000   0.0000000
 0.5350000  -2.4888900  -0.3277260   1.0092700   0.0000000   0.0000000  -0.0148300   0.0389710  -0.1686500   0.0304010   0.0000000   0.0000000   0.0000000  -0.0000000  -0.5541550  -0.0000000   0.0000000   0.0000000   0.0000000
 0.5400000  -2.4886900  -0.3285770   1.0094300   0.0000000   0.0000000  -0.0150731   0.0389710  -0.1714130   0.0304010   0.0000000   0.0000000   0.0000000  -0.0000000  -0.5511670  -0.0000000   0.0000000   0.0000000   0.0000000
 0.5450000  -2.4885000  -0.3294400   1.0095800   0.0000000   0.0000000  -0.0153161   0.0389710  -0.1741610   0.0304010   0.0000000   0.0000000   0.0000000  -0.0000000  -0.5479280  -0.0000000   0.0000000   0.0000000   0.0000000
 0.5500000  -2.4883000  -0.3303180   1.0097300   0.0000000   0.0000000  -0.0155591   0.0389710  -0.1768920   0.0304010   0.0000000   0.0000000   0.0000000  -0.0000000  -0.5444390  -0.0000000   0.0000000   0.0000000   0.0000000
 0.5550000  -2.4881100  -0.3312090   1.0098800   0.0000000   0.0000000  -0.0158022   0.0389710  -0.1796050   0.0304010   0.0000000   0.0000000   0.0000000  -0.0000000  -0.5407010  -0.0000000   0.0000000   0.0000000   0.0000000
 0.5600000  -2.4879100  -0.3321140   1.0100300   0.0000000   0.0000000  -0.0160452   0.0389710  -0.1822990   0.0304010   0.0000000   0.0000000   0.0000000  -0.0000000  -0.5367120  -0.0000000   0.0000000   0.0000000   0.0000000
 0.5650000  -2.4877200  -0.3330320   1.0101900   0.0000000   0.0000000  -0.0162883   0.0389710  -0.1849720   0.0304010   0.0000000   0.0000000   0.0000000  -0.0000000  -0.5324730  -0.0000000   0.0000000   0.0000000   0.0000000
 0.5700000  -2.4875200  -0.3339640   1.0103400   0.0000000   0.0000000  -0.0165313   0.0389710  -0.1876230   0.0304010   0.0000000   0.0000000   0.0000000  -0.0000000  -0.5279850  -0.0000000   0.0000000   0.0000000   0.0000000
 0.5750000  -2.4873300  -0.3349080   1.0104900   0.0000000   0.0000000  -0.0167743   0.0389710  -0.1902510   0.0304010   0.0000000   0.0000000   0.0000000  -0.0000000  -0.5232460  -0.0000000   0.0000000   0.0000000   0.0000000
 0.5800000  -2.4871300  -0.3358660   1.0106400   0.0000000   0.0000000  -0.0170174   0.0389710  -0.1928550   0.0304010   0.0000000   0.0000000   0.0000000  -0.0000000  -0.5182570  -0.0000000   0.0000000   0.0000000   0.0000000
 0.5850000  -2.4869400  -0.3368370   1.0107900   0.0000000   0.0000000  -0.0172604   0.0389710  -0.1954330   0.0304010   0.0000000   0.0000000   0.0000000  -0.0000000  -0.5130190  -0.0000000   0.0000000   0.0000000   0.0000000
 0.5900000  -2.4867400  -0.3378210   1.0109500   0.0000000   0.0000000  -0.0175034   0.0389710  -0.1979850   0.0304010   0.0000000   0.0000000   0.0000000  -0.0000000  -0.5075300  -0.0000000   0.0000000   0.0000000   0.0000000
 0.5950000  -2.4865500  -0.3388170   1.0111000   0.0000000   0.0000000  -0.0177465   0.0389710  -0.2005080   0.0304010   0.0000000   0.0000000   0.0000000  -0.0000000  -0.5017910  -0.0000000   0.0000000   0.0000000   0.0000000
 0.6000000  -2.4863500  -0.3398260   1.0112500   0.0000000   0.0000000  -0.0179895   0.0389710  -0.2030020   0.0304010   0.0000000   0.0000000   0.0000000  -0.0000000  -0.4958030  -0.0000000   0.0000000   0.0000000   0.0000000
 0.6050000  -2.4861600  -0.3408470   1.0114000   0.0000000   0.0000000  -0.0182326   0.0389710  -0.2054660   0.0304010   0.0000000   0.0000000   0.0000000  -0.0000000  -0.4895640  -0.0000000   0.0000000   0.0000000   0.0000000
 0.6100000  -2.4859600  -0.3418800   1.0115500   0.0000000   0.0000000  -0.0184756   0.0389710  -0.2078970   0.0304010   0.0000000   0.0000000   0.0000000  -0.0000000  -0.4830750  -0.0000000   0.0000000   0.0000000   0.0000000
 0.6150000  -2.4857700  -0.3429260   1.0117100   0.0000000   0.0000000  -0.0187186   0.0389710  -0.2102960   0.0304010   0.0000000   0.0000000   0.0000000  -0.0000000  -0.4763370  -0.0000000   0.0000000   0.0000000   0.0000000
 0.6200000  -2.4855700  -0.3439830   1.0118600   0.0000000   0.0000000  -0.0189617   0.0389710  -0.2126600   0.0304010   0.0000000   0.0000000   0.0000000  -0.0000000  -0.4693480  -0.0000000   0.0000000   0.0000000   0.0000000
 0.6250000  -2.4853800  -0.3450520   1.0120100   0.0000000   0.0000000  -0.0192047   0.0389710  -0.2149890   0.0304010   0.0000000   0.0000000   0.0000000  -0.0000000  -0.4621090  -0.0000000   0.0000000   0.0000000   0.0000000
 0.6300000  -2.4851800  -0.3461330   1.0121600   0.0000000   0.0000000  -0.0194478   0.0389710  -0.2172810   0.0304010   0.0000000   0.0000000   0.0000000  -0.0000000  -0.4546210  -0.0000000   0.0000000   0.0000000   0.0000000
 0.6350000  -2.4849900  -0.3472250   1.0123100   0.0000000   0.0000000  -0.0196908   0.0389710  -0.2195350   0.0304010   0.0000000   0.0000000   0.0000000  -0.0000000  -0.4468820  -0.0000000   0.0000000   0.0000000   0.0000000
 0.6400000  -2.4847900  -0.3483280   1.0124700   0.0000000   0.0000000  -0.0199338   0.0389710  -0.2217490   0.0304010   0.0000000   0.0000000   0.0000000  -0.0000000  -0.4388930  -0.0000000   0.0000000   0.0000000   0.0000000
 0.6450000  -2.4846000  -0.3494420   1.0126200   0.0000000   0.0000000  -0.0201769   0.0389710  -0.2239230   0.0304010   0.0000000   0.0000000   0.0000000  -0.0000000  -0.4306550  -0.0000000   0.0000000   0.0000000   0.0000000
 0.6500000  -2.4844000  -0.3505670   1.0127700   0.0000000   0.0000000  -0.0204199   0.0389710  -0.2260560   0.0304010   0.0000000   0.0000000   0.0000000  -0.0000000  -0.4221660  -0.0000000   0.0000000   0.0000000   0.0000000
 0.6550000  -2.4842100  -0.3517030   1.0129200   0.0000000   0.0000000  -0.0206630   0.0389710  -0.2281450   0.0304010   0.0000000   0.0000000   0.0000000  -0.0000000  -0.4134270  -0.0000000   0.0000000   0.0000000   0.0000000
 0.6600000  -2.4840100  -0.3528490   1.0130700   0.0000000   0.0000000  -0.0209060   0.0389710  -0.2301890   0.0304010   0.0000000   0.0000000   0.0000000  -0.0000000  -0.4044390  -0.0000000   0.0000000   0.0000000   0.0000000
 0.6650000  -2.4838200  -0.3540050   1.0132300   0.0000000   0.0000000  -0.0211490   0.0389710  -0.2321890   0.0304010   0.0000000   0.0000000   0.0000000  -0.0000000  -0.3952000  -0.0000000   0.0000000   0.0000000   0.0000000
 0.6700000  -2.4836200  -0.3551710   1.0133800   0.0000000   0.0000000  -0.0213921   0.0389710  -0.2341410   0.0304010   0.0000000   0.0000000   0.0000000  -0.0000000  -0.3857110  -0.0000000   0.0000000   0.0000000   0.0000000
 0.6750000  -2.4834300  -0.3563460   1.0135300   0.0000000   0.0000000  -0.0216351   0.0389710  -0.2360450   0.0304010   0.0000000   0.0000000   0.0000000  -0.0000000  -0.3759730  -0.0000000   0.0000000   0.0000000   0.0000000
 0.6800000  -2.4832300  -0.3575310   1.0136800   0.0000000   0.0000000  -0.0218782   0.0389710  -0.2379000   0.0304010   0.0000000   0.0000000   0.0000000  -0.0000000  -0.3659840  -0.0000000   0.0000000   0.0000000   0.0000000
 0.6850000  -2.4830400  -0.3587250   1.0138300   0.0000000   0.0000000  -0.0221212   0.0389710  -0.2397050   0.0304010   0.0000000   0.0000000   0.0000000  -0.0000000  -0.3557450  -0.0000000   0.0000000   0.0000000   0.0000000
 0.6900000  -2.4828500  -0.3599280   1.0139900   0.0000000   0.0000000  -0.0223642   0.0389710  -0.2414570   0.0304010   0.0000000   0.0000000   0.0000000  -0.0000000  -0.3452570  -0.0000000   0.0000000   0.0000000   0.0000000
 0.6950000  -2.4826500  -0.3611390   1.0141400   0.0000000   0.0000000  -0.0226073   0.0389710  -0.2431570   0.0304010   0.0000000   0.0000000   0.0000000  -0.0000000  -0.3345180  -0.0000000   0.0000000   0.0000000   0.0000000
 0.7000000  -2.4824600  -0.3623590   1.0142900   0.0000000   0.0000000  -0.0228503   0.0389710  -0.2448020   0.0304010   0.0000000   0.0000000   0.0000000  -0.0000000  -0.3235290  -0.0000000   0.0000000   0.0000000   0.0000000
 0.7050000  -2.4822600  -0.3635870   1.0144400   0.0000000   0.0000000  -0.0230934   0.0389710  -0.2463920   0.0304010   0.0000000   0.0000000   0.0000000  -0.0000000  -0.3122910  -0.0000000   0.0000000   0.0000000   0.0000000
 0.7100000  -2.4820700  -0.3648230   1.0145900   0.0000000   0.0000000  -0.0233364   0.0389710  -0.2479250   0.0304010   0.0000000   0.0000000   0.0000000  -0.0000000  -0.3008020  -0.0000000   0.0000000   0.0000000   0.0000000
 0.7150000  -2.4818700  -0.3660670   1.0147500   0.0000000   0.0000000  -0.0235794   0.0389710  -0.2493990   0.0304010   0.0000000   0.0000000   0.0000000  -0.0000000  -0.2890630  -0.0000000   0.0000000   0.0000000   0.0000000
 0.7200000  -2.4816800  -0.3673170   1.0149000   0.0000000   0.0000000  -0.0238225   0.0389710  -0.2508150   0.0304010   0.0000000   0.0000000   0.0000000  -0.0000000  -0.2771910  -0.0000000   0.0000000   0.0000000   0.0000000
 0.7250000  -2.4814800  -0.3685750   1.0150500   0.0000000   0.0000000  -0.0240655   0.0389710  -0.2521720   0.0304010   0.0000000   0.0000000   0.0000000  -0.0000000  -0.2655430  -0.0000000   0.0000000   0.0000000   0.0000000
 0.7300000  -2.4812900  -0.3698390   1.0152000   0.0000000   0.0000000  -0.0243086   0.0389710  -0.2534710   0.0304010   0.0000000   0.0000000   0.0000000  -0.0000000  -0.2541450  -0.0000000   0.0000000   0.0000000   0.0000000
 0.7350000  -2.4810900  -0.3711090   1.0153500   0.0000000   0.0000000  -0.0245516   0.0389710  -0.2547140   0.0304010   0.0000000   0.0000000   0.0000000  -0.0000000  -0.2429980  -0.0000000   0.0000000   0.0000000   0.0000000
 0.7400000  -2.4809000  -0.3723860   1.0155100   0.0000000   0.0000000  -0.0247946   0.0389710  -0.2559010   0.0304010   0.0000000   0.0000000   0.0000000  -0.0000000  -0.2321000  -0.0000000   0.0000000   0.0000000   0.0000000
 0.7450000  -2.4807000  -0.3736680   1.0156600   0.0000000   0.0000000  -0.0250377   0.0389710  -0.2570350   0.0304010   0.0000000   0.0000000   0.0000000  -0.0000000  -0.2214530  -0.0000000   0.0000000   0.0000000   0.0000000
 0.7500000  -2.4805100  -0.3749560   1.0158100   0.0000000   0.0000000  -0.0252807   0.0389710  -0.2581160   0.0304010   0.0000000   0.0000000   0.0000000  -0.0000000  -0.2110550  -0.0000000   0.0000000   0.0000000   0.0000000
 0.7550000  -2.4803100  -0.3762490   1.0159600   0.0000000   0.0000000  -0.0255238   0.0389710  -0.2591460   0.0304010   0.0000000   0.0000000   0.0000000  -0.0000000  -0.2009070  -0.0000000   0.0000000   0.0000000   0.0000000
 0.7600000  -2.4801200  -0.3775470   1.0161100   0.0000000   0.0000000  -0.0257668   0.0389710  -0.2601260   0.0304010   0.0000000   0.0000000   0.0000000  -0.0000000  -0.1910100  -0.0000000   0.0000000   0.0000000   0.0000000
 0.7650000  -2.4799200  -0.3788500   1.0162700   0.0000000   0.0000000  -0.0260098   0.0389710  -0.2610560   0.0304010   0.0000000   0.0000000   0.0000000  -0.0000000  -0.1813620  -0.0000000   0.0000000   0.0000000   0.0000000
 0.7700000  -2.4797300  -0.3801580   1.0164200   0.0000000   0.0000000  -0.0262529   0.0389710  -0.2619400   0.0304010   0.0000000   0.0000000   0.0000000  -0.0000000  -0.1719640  -0.0000000   0.0000000   0.0000000   0.0000000
 0.7750000  -2.4795300  -0.3814700   1.0165700   0.0000000   0.0000000  -0.0264959   0.0389710  -0.2627760   0.0304010   0.0000000   0.0000000   0.0000000  -0.0000000  -0.1628170  -0.0000000   0.0000000   0.0000000   0.0000000
 0.7800000  -2.4793400  -0.3827860   1.0167200   0.0000000   0.0000000  -0.0267390   0.0389710  -0.2635680   0.0304010   0.0000000   0.0000000   0.0000000  -0.0000000  -0.1539190  -0.0000000   0.0000000   0.0000000   0.0000000
 0.7850000  -2.4791400  -0.3841050   1.0168700   0.0000000   0.0000000  -0.0269820   0.0389710  -0.2643160   0.0304010   0.0000000   0.0000000   0.0000000  -0.0000000  -0.1452710  -0.0000000   0.0000000   0.0000000   0.0000000
 0.7900000  -2.4789500  -0.3854290   1.0170300   0.0000000   0.0000000  -0.0272250   0.0389710  -0.2650210   0.0304010   0.0000000   0.0000000   0.0000000  -0.0000000  -0.1368740  -0.0000000   0.0000000   0.0000000   0.0000000
 0.7950000  -2.4787500  -0.3867550   1.0171800   0.0000000   0.0000000  -0.0274681   0.0389710  -0.2656850   0.0304010   0.0000000   0.0000000   0.0000000  -0.0000000  -0.1287260  -0.0000000   0.0000000   0.0000000   0.0000000
 0.8000000  -2.4785600  -0.3880850   1.0173300   0.0000000   0.0000000  -0.0277111   0.0389710  -0.2663090   0.0304010   0.0000000   0.0000000   0.0000000  -0.0000000  -0.1208280  -0.0000000   0.0000000   0.0000000   0.0000000
 0.8050000  -2.4783600  -0.3894180   1.0174800   0.0000000   0.0000000  -0.0279541   0.0389710  -0.2668940   0.0304010   0.0000000   0.0000000   0.0000000  -0.0000000  -0.1131810  -0.0000000   0.0000000   0.0000000   0.0000000
 0.8100000  -2.4781700  -0.3907540   1.0176300   0.0000000   0.0000000  -0.0281972   0.0389710  -0.2674410   0.0304010   0.0000000   0.0000000   0.0000000  -0.0000000  -0.1057830  -0.0000000   0.0000000   0.0000000   0.0000000
 0.8150000  -2.4779700  -0.3920930   1.0177900   0.0000000   0.0000000  -0.0284402   0.0389710  -0.2679520   0.0304010   0.0000000   0.0000000   0.0000000  -0.0000000  -0.0986354  -0.0000000   0.0000000   0.0000000   0.0000000
 0.8200000  -2.4777800  -0.3934340   1.0179400   0.0000000   0.0000000  -0.0286833   0.0389710  -0.2684280   0.0304010   0.0000000   0.0000000   0.0000000  -0.0000000  -0.0917377  -0.0000000   0.0000000   0.0000000   0.0000000
 0.8250000  -2.4775800  -0.3947770   1.0180900   0.0000000   0.0000000  -0.0289263   0.0389710  -0.2688700   0.0304010   0.0000000   0.0000000   0.0000000  -0.0000000  -0.0850901  -0.0000000   0.0000000   0.0000000   0.0000000
 0.8300000  -2.4773900  -0.3961220   1.0182400   0.0000000   0.0000000  -0.0291693   0.0389710  -0.2692790   0.0304010   0.0000000   0.0000000   0.0000000  -0.0000000  -0.0786924  -0.0000000   0.0000000   0.0000000   0.0000000
 0.8350000  -2.4771900  -0.3974700   1.0183900   0.0000000   0.0000000  -0.0294124   0.0389710  -0.2696570   0.0304010   0.0000000   0.0000000   0.0000000  -0.0000000  -0.0725447  -0.0000000   0.0000000   0.0000000   0.0000000
 0.8400000  -2.4770000  -0.3988190   1.0185500   0.0000000   0.0000000  -0.0296554   0.0389710  -0.2700050   0.0304010   0.0000000   0.0000000   0.0000000  -0.0000000  -0.0666471  -0.0000000   0.0000000   0.0000000   0.0000000
 0.8450000  -2.4768000  -0.4001700   1.0187000   0.0000000   0.0000000  -0.0298985   0.0389710  -0.2703240   0.0304010   0.0000000   0.0000000   0.0000000  -0.0000000  -0.0609994  -0.0000000   0.0000000   0.0000000   0.0000000
 0.8500000  -2.4766100  -0.4015220   1.0188500   0.0000000   0.0000000  -0.0301415   0.0389710  -0.2706160   0.0304010   0.0000000   0.0000000   0.0000000  -0.0000000  -0.0556018  -0.0000000   0.0000000   0.0000000   0.0000000
 0.8550000  -2.4764100  -0.4028760   1.0190000   0.0000000   0.0000000  -0.0303845   0.0389710  -0.2708810   0.0304010   0.0000000   0.0000000   0.0000000  -0.0000000  -0.0504541  -0.0000000   0.0000000   0.0000000   0.0000000
 0.8600000  -2.4762200  -0.4042310   1.0191500   0.0000000   0.0000000  -0.0306276   0.0389710  -0.2711210   0.0304010   0.0000000   0.0000000   0.0000000  -0.0000000  -0.0455565  -0.0000000   0.0000000   0.0000000   0.0000000
 0.8650000  -2.4760300  -0.4055870   1.0193100   0.0000000   0.0000000  -0.0308706   0.0389710  -0.2713370   0.0304010   0.0000000   0.0000000   0.0000000  -0.0000000  -0.0409088  -0.0000000   0.0000000   0.0000000   0.0000000
 0.8700000  -2.4758300  -0.4069440   1.0194600   0.0000000   0.0000000  -0.0311137   0.0389710  -0.2715300   0.0304010   0.0000000   0.0000000   0.0000000  -0.0000000  -0.0365112  -0.0000000   0.0000000   0.0000000   0.0000000
 0.8750000  -2.4756400  -0.4083020   1.0196100   0.0000000   0.0000000  -0.0313567   0.0389710  -0.2717020   0.0304010   0.0000000   0.0000000   0.0000000  -0.0000000  -0.0323635  -0.0000000   0.0000000   0.0000000   0.0000000
 0.8800000  -2.4754400  -0.4096610   1.0197600   0.0000000   0.0000000  -0.0315997   0.0389710  -0.2718540   0.0304010   0.0000000   0.0000000   0.0000000  -0.0000000  -0.0284659  -0.0000000   0.0000000   0.0000000   0.0000000
 0.8850000  -2.4752500  -0.4110210   1.0199100   0.0000000   0.0000000  -0.0318428   0.0389710  -0.2719870   0.0304010   0.0000000   0.0000000   0.0000000  -0.0000000  -0.0248182  -0.0000000   0.0000000   0.0000000   0.0000000
 0.8900000  -2.4750500  -0.4123810   1.0200700   0.0000000   0.0000000  -0.0320858   0.0389710  -0.2721030   0.0304010   0.0000000   0.0000000   0.0000000  -0.0000000  -0.0214205  -0.0000000   0.0000000   0.0000000   0.0000000
 0.8950000  -2.4748600  -0.4137420   1.0202200   0.0000000   0.0000000  -0.0323289   0.0389710  -0.2722020   0.0304010   0.0000000   0.0000000   0.0000000  -0.0000000  -0.0182729  -0.0000000   0.0000000   0.0000000   0.0000000
 0.9000000  -2.4746600  -0.4151030   1.0203700   0.0000000   0.0000000  -0.0325719   0.0389710  -0.2722860   0.0304010   0.0000000   0.0000000   0.0000000  -0.0000000  -0.0153752  -0.0000000   0.0000000   0.0000000   0.0000000
 0.9050000  -2.4744700  -0.4164650   1.0205200   0.0000000   0.0000000  -0.0328149   0.0389710  -0.2723560   0.0304010   0.0000000   0.0000000   0.0000000  -0.0000000  -0.0127276  -0.0000000   0.0000000   0.0000000   0.0000000
 0.9100000  -2.4742700  -0.4178270   1.0206700   0.0000000   0.0000000  -0.0330580   0.0389710  -0.2724140   0.0304010   0.0000000   0.0000000   0.0000000  -0.0000000  -0.0103299  -0.0000000   0.0000000   0.0000000   0.0000000
 0.9150000  -2.4740800  -0.4191890   1.0208300   0.0000000   0.0000000  -0.0333010   0.0389710  -0.2724600   0.0304010   0.0000000   0.0000000   0.0000000  -0.0000000  -0.0081823  -0.0000000   0.0000000   0.0000000   0.0000000
 0.9200000  -2.4738800  -0.4205510   1.0209800   0.0000000   0.0000000  -0.0335441   0.0389710  -0.2724960   0.0304010   0.0000000   0.0000000   0.0000000  -0.0000000  -0.0062846  -0.0000000   0.0000000   0.0000000   0.0000000
 0.9250000  -2.4736900  -0.4219140   1.0211300   0.0000000   0.0000000  -0.0337871   0.0389710  -0.2725230   0.0304010   0.0000000   0.0000000   0.0000000  -0.0000000  -0.0046370  -0.0000000   0.0000000   0.0000000   0.0000000
 0.9300000  -2.4734900  -0.4232760   1.0212800   0.0000000   0.0000000  -0.0340301   0.0389710  -0.2725430   0.0304010   0.0000000   0.0000000   0.0000000  -0.0000000  -0.0032393  -0.0000000   0.0000000   0.0000000   0.0000000
 0.9350000  -2.4733000  -0.4246390   1.0214300   0.0000000   0.0000000  -0.0342732   0.0389710  -0.2725560   0.0304010   0.0000000   0.0000000   0.0000000  -0.0000000  -0.0020917  -0.0000000   0.0000000   0.0000000   0.0000000
 0.9400000  -2.4731000  -0.4260020   1.0215900   0.0000000   0.0000000  -0.0345162   0.0389710  -0.2725640   0.0304010   0.0000000   0.0000000   0.0000000  -0.0000000  -0.0011940  -0.0000000   0.0000000   0.0000000   0.0000000
 0.9450000  -2.4729100  -0.4273650   1.0217400   0.0000000   0.0000000  -0.0347593   0.0389710  -0.2725680   0.0304010   0.0000000   0.0000000   0.0000000  -0.0000000  -0.0005463  -0.0000000   0.0000000   0.0000000   0.0000000
 0.9500000  -2.4727100  -0.4287280   1.0218900   0.0000000   0.0000000  -0.0350023   0.0389710  -0.2725700   0.0304010   0.0000000   0.0000000   0.0000000  -0.0000000  -0.0001487  -0.0000000   0.0000000   0.0000000   0.0000000
 0.9550000  -2.4725200  -0.4300900   1.0220400   0.0000000   0.0000000  -0.0352453   0.0389710  -0.2725700   0.0304010   0.0000000   0.0000000   0.0000000  -0.0000000  -0.0000010  -0.0000000   0.0000000   0.0000000   0.0000000
 0.9600000  -2.4723200  -0.4314530   1.0221900   0.0000000   0.0000000  -0.0354884   0.0389710  -0.2725700   0.0304010   0.0000000   0.0000000   0.0000000  -0.0000000   0.0000948  -0.0000000   0.0000000   0.0000000   0.0000000
 0.9650000  -2.4721300  -0.4328160   1.0223500   0.0000000   0.0000000  -0.0357314   0.0389710  -0.2725690   0.0304010   0.0000000   0.0000000   0.0000000  -0.0000000   0.0004376  -0.0000000   0.0000000   0.0000000   0.0000000
 0.9700000  -2.4719300  -0.4341790   1.0225000   0.0000000   0.0000000  -0.0359745   0.0389710  -0.2725650   0.0304010   0.0000000   0.0000000   0.0000000  -0.0000000   0.0010304  -0.0000000   0.0000000   0.0000000   0.0000000
 0.9750000  -2.4717400  -0.4355420   1.0226500   0.0000000   0.0000000  -0.0362175   0.0389710  -0.2725580   0.0304010   0.0000000   0.0000000   0.0000000  -0.0000000   0.0018732  -0.0000000   0.0000000   0.0000000   0.0000000
 0.9800000  -2.4715400  -0.4369050   1.0228000   0.0000000   0.0000000  -0.0364605   0.0389710  -0.2725460   0.0304010   0.0000000   0.0000000   0.0000000  -0.0000000   0.0029659  -0.0000000   0.0000000   0.0000000   0.0000000
 0.9850000  -2.4713500  -0.4382670   1.0229500   0.0000000   0.0000000  -0.0367036   0.0389710  -0.2725280   0.0304010   0.0000000   0.0000000   0.0000000  -0.0000000   0.0043087  -0.0000000   0.0000000   0.0000000   0.0000000
 0.9900000  -2.4711500  -0.4396300   1.0231100   0.0000000   0.0000000  -0.0369466   0.0389710  -0.2725020   0.0304010   0.0000000   0.0000000   0.0000000  -0.0000000   0.0059015  -0.0000000   0.0000000   0.0000000   0.0000000
 0.9950000  -2.4709600  -0.4409920   1.0232600   0.0000000   0.0000000  -0.0371897   0.0389710  -0.2724680   0.0304010   0.0000000   0.0000000   0.0000000  -0.0000000   0.0077442  -0.0000000   0.0000000   0.0000000   0.0000000
 1.0000000  -2.4707600  -0.4423540   1.0234100   0.0000000   0.0000000  -0.0374327   0.0389710  -0.2724250   0.0304010   0.0000000   0.0000000   0.0000000  -0.0000000   0.0098370  -0.0000000   0.0000000   0.0000000   0.0000000
 1.0050000  -2.4705700  -0.4437160   1.0235600   0.0000000   0.0000000  -0.0376757   0.0389710  -0.2723700   0.0304010   0.0000000   0.0000000   0.0000000  -0.0000000   0.0121798  -0.0000000   0.0000000   0.0000000   0.0000000
 1.0100000  -2.4703700  -0.4450780   1.0237100   0.0000000   0.0000000  -0.0379188   0.0389710  -0.2723020   0.0304010   0.0000000   0.0000000   0.0000000  -0.0000000   0.0147725  -0.0000000   0.0000000   0.0000000   0.0000000
 1.0150000  -2.4701800  -0.4464390   1.0238700   0.0000000   0.0000000  -0.0381618   0.0389710  -0.2722220   0.0304010   0.0000000   0.0000000   0.0000000  -0.0000000   0.0176153  -0.0000000   0.0000000   0.0000000   0.0000000
 1.0200000  -2.4699800  -0.4478000   1.0240200   0.0000000   0.0000000  -0.0384048   0.0389710  -0.2721260   0.0304010   0.0000000   0.0000000   0.0000000  -0.0000000   0.0207081  -0.0000000   0.0000000   0.0000000   0.0000000
 1.0250000  -2.4697900  -0.4491610   1.0241700   0.0000000   0.0000000  -0.0386479   0.0389710  -0.2720140   0.0304010   0.0000000   0.0000000   0.0000000  -0.0000000   0.0240508  -0.0000000   0.0000000   0.0000000   0.0000000
 1.0300000  -2.4696000  -0.4505200   1.0243200   0.0000000   0.0000000  -0.0388909   0.0389710  -0.2718850   0.0304010   0.0000000   0.0000000   0.0000000  -0.0000000   0.0276436  -0.0000000   0.0000000   0.0000000   0.0000000
 1.0350000  -2.4694000  -0.4518800   1.0244700   0.0000000   0.0000000  -0.0391340   0.0389710  -0.2717370   0.0304010   0.0000000   0.0000000   0.0000000  -0.0000000   0.0314864  -0.0000000   0.0000000   0.0000000   0.0000000
 1.0400000  -2.4692100  -0.4532380   1.0246300   0.0000000   0.0000000  -0.0393770   0.0389710  -0.2715700   0.0304010   0.0000000   0.0000000   0.0000000  -0.0000000   0.0355791  -0.0000000   0.0000000   0.0000000   0.0000000
 1.0450000  -2.4690100  -0.4545950   1.0247800   0.0000000   0.0000000  -0.0396200   0.0389710  -0.2713810   0.0304010   0.0000000   0.0000000   0.0000000  -0.0000000   0.0399219  -0.0000000   0.0000000   0.0000000   0.0000000
 1.0500000  -2.4688200  -0.4559520   1.0249300   0.0000000   0.0000000  -0.0398631   0.0389710  -0.2711700   0.0304010   0.0000000   0.0000000   0.0000000  -0.0000000   0.0445147  -0.0000000   0.0000000   0.0000000   0.0000000
 1.0550000  -2.4686200  -0.4573070   1.0250800   0.0000000   0.0000000  -0.0401061   0.0389710  -0.2709350   0.0304010   0.0000000   0.0000000   0.0000000  -0.0000000   0.0493574  -0.0000000   0.0000000   0.0000000   0.0000000
 1.0600000  -2.4684300  -0.4586610   1.0252300   0.0000000   0.0000000  -0.0403492   0.0389710  -0.2706760   0.0304010   0.0000000   0.0000000   0.0000000  -0.0000000   0.0544502  -0.0000000   0.0000000   0.0000000   0.0000000
 1.0650000  -2.4682300  -0.4600140   1.0253900   0.0000000   0.0000000  -0.0405922   0.0389710  -0.2703900   0.0304010   0.0000000   0.0000000   0.0000000  -0.0000000   0.0597930  -0.0000000   0.0000000   0.0000000   0.0000000
 1.0700000  -2.4680400  -0.4613650   1.0255400   0.0000000   0.0000000  -0.0408352   0.0389710  -0.2700780   0.0304010   0.0000000   0.0000000   0.0000000  -0.0000000   0.0653858  -0.0000000   0.0000000   0.0000000   0.0000000
 1.0750000  -2.4678400  -0.4627140   1.0256900   0.0000000   0.0000000  -0.0410783   0.0389710  -0.2697360   0.0304010   0.0000000   0.0000000   0.0000000  -0.0000000   0.0712285  -0.0000000   0.0000000   0.0000000   0.0000000
 1.0800000  -2.4676500  -0.4640620   1.0258400   0.0000000   0.0000000  -0.0413213   0.0389710  -0.2693650   0.0304010   0.0000000   0.0000000   0.0000000  -0.0000000   0.0773213  -0.0000000   0.0000000   0.0000000   0.0000000
 1.0850000  -2.4674500  -0.4654080   1.0259900   0.0000000   0.0000000  -0.0415644   0.0389710  -0.2689630   0.0304010   0.0000000   0.0000000   0.0000000  -0.0000000   0.0836641  -0.0000000   0.0000000   0.0000000   0.0000000
 1.0900000  -2.4672600  -0.4667520   1.0261500   0.0000000   0.0000000  -0.0418074   0.0389710  -0.2685280   0.0304010   0.0000000   0.0000000   0.0000000  -0.0000000   0.0902568  -0.0000000   0.0000000   0.0000000   0.0000000
 1.0950000  -2.4670600  -0.4680930   1.0263000   0.0000000   0.0000000  -0.0420504   0.0389710  -0.2680600   0.0304010   0.0000000   0.0000000   0.0000000  -0.0000000   0.0970996  -0.0000000   0.0000000   0.0000000   0.0000000
 1.1000000  -2.4668700  -0.4694320   1.0264500   0.0000000   0.0000000  -0.0422935   0.0389710  -0.2675560   0.0304010   0.0000000   0.0000000   0.0000000  -0.0000000   0.1041920  -0.0000000   0.0000000   0.0000000   0.0000000
 1.1050000  -2.4666700  -0.4707690   1.0266000   0.0000000   0.0000000  -0.0425365   0.0389710  -0.2670170   0.0304010   0.0000000   0.0000000   0.0000000  -0.0000000   0.1115350  -0.0000000   0.0000000   0.0000000   0.0000000
 1.1100000  -2.4664800  -0.4721020   1.0267500   0.0000000   0.0000000  -0.0427796   0.0389710  -0.2664410   0.0304010   0.0000000   0.0000000   0.0000000  -0.0000000   0.1191280  -0.0000000   0.0000000   0.0000000   0.0000000
 1.1150000  -2.4662800  -0.4734330   1.0269100   0.0000000   0.0000000  -0.0430226   0.0389710  -0.2658260   0.0304010   0.0000000   0.0000000   0.0000000  -0.0000000   0.1269710  -0.0000000   0.0000000   0.0000000   0.0000000
 1.1200000  -2.4660900  -0.4747600   1.0270600   0.0000000   0.0000000  -0.0432656   0.0389710  -0.2651710   0.0304010   0.0000000   0.0000000   0.0000000  -0.0000000   0.1350630  -0.0000000   0.0000000   0.0000000   0.0000000
 1.1250000  -2.4658900  -0.4760850   1.0272100   0.0000000   0.0000000  -0.0435087   0.0389710  -0.2644750   0.0304010   0.0000000   0.0000000   0.0000000  -0.0000000   0.1434060  -0.0000000   0.0000000   0.0000000   0.0000000
 1.1300000  -2.4657000  -0.4774050   1.0273600   0.0000000   0.0000000  -0.0437517   0.0389710  -0.2637360   0.0304010   0.0000000   0.0000000   0.0000000  -0.0000000   0.1519990  -0.0000000   0.0000000   0.0000000   0.0000000
 1.1350000  -2.4655000  -0.4787220   1.0275100   0.0000000   0.0000000  -0.0439948   0.0389710  -0.2629540   0.0304010   0.0000000   0.0000000   0.0000000  -0.0000000   0.1608420  -0.0000000   0.0000000   0.0000000   0.0000000
 1.1400000  -2.4653100  -0.4800350   1.0276700   0.0000000   0.0000000  -0.0442378   0.0389710  -0.2621270   0.0304010   0.0000000   0.0000000   0.0000000  -0.0000000   0.1699350  -0.0000000   0.0000000   0.0000000   0.0000000
 1.1450000  -2.4651100  -0.4813430   1.0278200   0.0000000   0.0000000  -0.0444808   0.0389710  -0.2612540   0.0304010   0.0000000   0.0000000   0.0000000  -0.0000000   0.1792770  -0.0000000   0.0000000   0.0000000   0.0000000
 1.1500000  -2.4649200  -0.4826470   1.0279700   0.0000000   0.0000000  -0.0447239   0.0389710  -0.2603340   0.0304010   0.0000000   0.0000000   0.0000000  -0.0000000   0.1888700  -0.0000000   0.0000000   0.0000000   0.0000000
 1.1550000  -2.4647200  -0.4839460   1.0281200   0.0000000   0.0000000  -0.0449669   0.0389710  -0.2593650   0.0304010   0.0000000   0.0000000   0.0000000  -0.0000000   0.1987130  -0.0000000   0.0000000   0.0000000   0.0000000
 1.1600000  -2.4645300  -0.4852410   1.0282700   0.0000000   0.0000000  -0.0452100   0.0389710  -0.2583470   0.0304010   0.0000000   0.0000000   0.0000000  -0.0000000   0.2088060  -0.0000000   0.0000000   0.0000000   0.0000000
 1.1650000  -2.4643300  -0.4865300   1.0284300   0.0000000   0.0000000  -0.0454530   0.0389710  -0.2572770   0.0304010   0.0000000   0.0000000   0.0000000  -0.0000000   0.2191480  -0.0000000   0.0000000   0.0000000   0.0000000
 1.1700000  -2.4641400  -0.4878130   1.0285800   0.0000000   0.0000000  -0.0456960   0.0389710  -0.2561550   0.0304010   0.0000000   0.0000000   0.0000000  -0.0000000   0.2297410  -0.0000000   0.0000000   0.0000000   0.0000000
 1.1750000  -2.4639400  -0.4890910   1.0287300   0.0000000   0.0000000  -0.0459391   0.0389710  -0.2549790   0.0304010   0.0000000   0.0000000   0.0000000  -0.0000000   0.2405840  -0.0000000   0.0000000   0.0000000   0.0000000
 1.1800000  -2.4637500  -0.4903630   1.0288800   0.0000000   0.0000000  -0.0461821   0.0389710  -0.2537480   0.0304010   0.0000000   0.0000000   0.0000000  -0.0000000   0.2516770  -0.0000000   0.0000000   0.0000000   0.0000000
 1.1850000  -2.4635500  -0.4916290   1.0290300   0.0000000   0.0000000  -0.0464252   0.0389710  -0.2524620   0.0304010   0.0000000   0.0000000   0.0000000  -0.0000000   0.2630190  -0.0000000   0.0000000   0.0000000   0.0000000
 1.1900000  -2.4633600  -0.4928880   1.0291900   0.0000000   0.0000000  -0.0466682   0.0389710  -0.2511180   0.0304010   0.0000000   0.0000000   0.0000000  -0.0000000   0.2746120  -0.0000000   0.0000000   0.0000000   0.0000000
 1.1950000  -2.4631600  -0.4941400   1.0293400   0.0000000   0.0000000  -0.0469112   0.0389710  -0.2497150   0.0304010   0.0000000   0.0000000   0.0000000  -0.0000000   0.2864550  -0.0000000   0.0000000   0.0000000   0.0000000
 1.2000000  -2.4629700  -0.4953850   1.0294900   0.0000000   0.0000000  -0.0471543   0.0389710  -0.2482530   0.0304010   0.0000000   0.0000000   0.0000000  -0.0000000   0.2985480  -0.0000000   0.0000000   0.0000000   0.0000000
 1.2050000  -2.4627800  -0.4966220   1.0296400   0.0000000   0.0000000  -0.0473973   0.0389710  -0.2467290   0.0304010   0.0000000   0.0000000   0.0000000  -0.0000000   0.3108910  -0.0000000   0.0000000   0.0000000   0.0000000
 1.2100000  -2.4625800  -0.4978520   1.0297900   0.0000000   0.0000000  -0.0476404   0.0389710  -0.2451430   0.0304010   0.0000000   0.0000000   0.0000000  -0.0000000   0.3234830  -0.0000000   0.0000000   0.0000000   0.0000000
 1.2150000  -2.4623900  -0.4990730   1.0299500   0.0000000   0.0000000  -0.0478834   0.0389710  -0.2434940   0.0304010   0.0000000   0.0000000   0.0000000  -0.0000000   0.3363260  -0.0000000   0.0000000   0.0000000   0.0000000
 1.2200000  -2.4621900  -0.5002870   1.0301000   0.0000000   0.0000000  -0.0481264   0.0389710  -0.2417800   0.0304010   0.0000000   0.0000000   0.0000000  -0.0000000   0.3494190  -0.0000000   0.0000000   0.0000000   0.0000000
 1.2250000  -2.4620000  -0.5014910   1.0302500   0.0000000   0.0000000  -0.0483695   0.0389710  -0.2399990   0.0304010   0.0000000   0.0000000   0.0000000  -0.0000000   0.3627620  -0.0000000   0.0000000   0.0000000   0.0000000
 1.2300000  -2.4618000  -0.5026870   1.0304000   0.0000000   0.0000000  -0.0486125   0.0389710  -0.2381520   0.0304010   0.0000000   0.0000000   0.0000000  -0.0000000   0.3763540  -0.0000000   0.0000000   0.0000000   0.0000000
 1.2350000  -2.4616100  -0.5038730   1.0305500   0.0000000   0.0000000  -0.0488555   0.0389710  -0.2362360   0.0304010   0.0000000   0.0000000   0.0000000  -0.0000000   0.3901970  -0.0000000   0.0000000   0.0000000   0.0000000
 1.2400000  -2.4614100  -0.5050490   1.0307100   0.0000000   0.0000000  -0.0490986   0.0389710  -0.2342490   0.0304010   0.0000000   0.0000000   0.0000000  -0.0000000   0.4042900  -0.0000000   0.0000000   0.0000000   0.0000000
 1.2450000  -2.4612200  -0.5062150   1.0308600   0.0000000   0.0000000  -0.0493416   0.0389710  -0.2321920   0.0304010   0.0000000   0.0000000   0.0000000  -0.0000000   0.4186330  -0.0000000   0.0000000   0.0000000   0.0000000
 1.2500000  -2.4610200  -0.5073710   1.0310100   0.0000000   0.0000000  -0.0495847   0.0389710  -0.2300630   0.0304010   0.0000000   0.0000000   0.0000000  -0.0000000   0.4332250  -0.0000000   0.0000000   0.0000000   0.0000000
 1.2550000  -2.4608300  -0.5085150   1.0311600   0.0000000   0.0000000  -0.0498277   0.0389710  -0.2278600   0.0304010   0.0000000   0.0000000   0.0000000  -0.0000000   0.4480680  -0.0000000   0.0000000   0.0000000   0.0000000
 1.2600000  -2.4606300  -0.5096490   1.0313100   0.0000000   0.0000000  -0.0500707   0.0389710  -0.2255820   0.0304010   0.0000000   0.0000000   0.0000000  -0.0000000   0.4631610  -0.0000000   0.0000000   0.0000000   0.0000000
 1.2650000  -2.4604400  -0.5107710   1.0314700   0.0000000   0.0000000  -0.0503138   0.0389710  -0.2232270   0.0304010   0.0000000   0.0000000   0.0000000  -0.0000000   0.4785040  -0.0000000   0.0000000   0.0000000   0.0000000
 1.2700000  -2.4602400  -0.5118810   1.0316200   0.0000000   0.0000000  -0.0505568   0.0389710  -0.2207960   0.0304010   0.0000000   0.0000000   0.0000000  -0.0000000   0.4940960  -0.0000000   0.0000000   0.0000000   0.0000000
 1.2750000  -2.4600500  -0.5129790   1.0317700   0.0000000   0.0000000  -0.0507999   0.0389710  -0.2182860   0.0304010   0.0000000   0.0000000   0.0000000  -0.0000000   0.5099390  -0.0000000   0.0000000   0.0000000   0.0000000
 1.2800000  -2.4598500  -0.5140640   1.0319200   0.0000000   0.0000000  -0.0510429   0.0389710  -0.2156960   0.0304010   0.0000000   0.0000000   0.0000000  -0.0000000   0.5260320  -0.0000000   0.0000000   0.0000000   0.0000000
 1.2850000  -2.4596600  -0.5151360   1.0320700   0.0000000   0.0000000  -0.0512859   0.0389710  -0.2130250   0.0304010   0.0000000   0.0000000   0.0000000  -0.0000000   0.5423750  -0.0000000   0.0000000   0.0000000   0.0000000
 1.2900000  -2.4594600  -0.5161940   1.0322300   0.0000000   0.0000000  -0.0515290   0.0389710  -0.2102720   0.0304010   0.0000000   0.0000000   0.0000000  -0.0000000   0.5589680  -0.0000000   0.0000000   0.0000000   0.0000000
 1.2950000  -2.4592700  -0.5172380   1.0323800   0.0000000   0.0000000  -0.0517720   0.0389710  -0.2074350   0.0304010   0.0000000   0.0000000   0.0000000  -0.0000000   0.5758100  -0.0000000   0.0000000   0.0000000   0.0000000
 1.3000000  -2.4590700  -0.5182680   1.0325300   0.0000000   0.0000000  -0.0520151   0.0389710  -0.2045140   0.0304010   0.0000000   0.0000000   0.0000000  -0.0000000   0.5929030  -0.0000000   0.0000000   0.0000000   0.0000000
 1.3050000  -2.4588800  -0.5192830   1.0326800   0.0000000   0.0000000  -0.0522581   0.0389710  -0.2015060   0.0304010   0.0000000   0.0000000   0.0000000  -0.0000000   0.6102460  -0.0000000   0.0000000   0.0000000   0.0000000
 1.3100000  -2.4586800  -0.5202830   1.0328300   0.0000000   0.0000000  -0.0525011   0.0389710  -0.1984110   0.0304010   0.0000000   0.0000000   0.0000000  -0.0000000   0.6278390  -0.0000000   0.0000000   0.0000000   0.0000000
 1.3150000  -2.4584900  -0.5212670   1.0329900   0.0000000   0.0000000  -0.0527442   0.0389710  -0.1952270   0.0304010   0.0000000   0.0000000   0.0000000  -0.0000000   0.6456810  -0.0000000   0.0000000   0.0000000   0.0000000
