ts fx fy fz tx ty tz exfx exfy exfz extx exty extz xd yd zd rolld pitchd yawd vxd vyd vzd wxd wyd wzd axd ayd azd e_x e_y e_z e_vx e_vy e_vz e_rx e_ry e_rz e_wx e_wy e_wz
1701778362.368241000  0  0  11.6115  -0.0114634  -0.0550505  0.0114591  nan  nan  nan  nan  nan  nan  -2  -1  1.5  -0.0149994  -0.0182845  0.000274262  0  0  0  0  0  0  0  0  0  0.0088439  -0.0154316  -0.0111966  0.00394131  0.0149454  0.00660032  0.00551479  0.0152035  -0.0128134  -0.0278093  -0.0297711  -0.0151041 
1701778362.372309000  0  0  11.6065  -0.0131559  -0.0477128  0.010985  nan  nan  nan  nan  nan  nan  -2  -1  1.5  -0.01441  -0.0181577  0.000261656  0  0  0  0  0  0  0  0  0  0.00885934  -0.0153703  -0.0111651  0.00373297  0.0155775  0.0069473  0.00492555  0.0148117  -0.012803  -0.0190033  -0.0408418  -0.00928183 
1701778362.377299000  0  0  11.6072  -0.00439366  -0.0430282  0.0105922  nan  nan  nan  nan  nan  nan  -2  -1  1.5  -0.0141248  -0.0183027  0.000258524  0  0  0  0  0  0  0  0  0  0.00889291  -0.0153335  -0.0111883  0.00384655  0.0158625  0.00693936  0.00438762  0.0146522  -0.0127907  -0.0315788  -0.0487442  -0.00449544 
1701778362.382288000  0  0  11.6343  -0.0235561  -0.0415146  0.010229  nan  nan  nan  nan  nan  nan  -2  -1  1.5  -0.0130606  -0.0175801  0.000229608  0  0  0  0  0  0  0  0  0  0.00890475  -0.0152489  -0.0111752  0.00294052  0.0170069  0.00464311  0.00369435  0.0137344  -0.0127553  0.0131243  -0.0433276  -0.000309407 
1701778362.387215000  0  0  11.6235  -0.0283554  -0.0258247  0.0100379  nan  nan  nan  nan  nan  nan  -2  -1  1.5  -0.0128483  -0.0176656  0.000226974  0  0  0  0  0  0  0  0  0  0.00892487  -0.0152019  -0.0112212  0.002985  0.0171925  0.00564407  0.00366805  0.0132804  -0.0127362  0.0229649  -0.0705304  0.00188785 
1701778362.392747000  0  0  11.6275  -0.0294374  -0.0213784  0.0102273  nan  nan  nan  nan  nan  nan  -2  -1  1.5  -0.012473  -0.0175352  0.000218716  0  0  0  0  0  0  0  0  0  0.00893864  -0.015142  -0.0112752  0.00279334  0.0175386  0.00542824  0.00345547  0.0126859  -0.0127632  0.0270844  -0.0739533  -0.000209349 
1701778362.397242000  0  0  11.6605  -0.0481706  -0.0360558  0.0106341  nan  nan  nan  nan  nan  nan  -2  -1  1.5  -0.0116724  -0.0168506  0.000196686  0  0  0  0  0  0  0  0  0  0.00894496  -0.0150594  -0.0112764  0.00195625  0.018346  0.00266782  0.00325554  0.0120829  -0.012816  0.0663901  -0.039051  -0.00476586 
1701778362.402220000  0  0  11.6452  -0.0522891  -0.0187072  0.0109533  nan  nan  nan  nan  nan  nan  -2  -1  1.5  -0.0116857  -0.0169895  0.000198534  0  0  0  0  0  0  0  0  0  0.00895517  -0.0150172  -0.0113275  0.00208464  0.0182549  0.004052  0.00363435  0.0116836  -0.0128781  0.0711423  -0.0700747  -0.00813466 
1701778362.407212000  0  0  11.664  -0.0546812  -0.0225234  0.0110781  nan  nan  nan  nan  nan  nan  -2  -1  1.5  -0.0110117  -0.0166585  0.000183437  0  0  0  0  0  0  0  0  0  0.00896348  -0.0149235  -0.0113203  0.0016724  0.0188955  0.00246218  0.00340022  0.0111101  -0.0129303  0.0780805  -0.0571659  -0.00917313 
1701778362.412218000  0  0  11.6883  -0.0740672  -0.0473607  0.0119251  nan  nan  nan  nan  nan  nan  -2  -1  1.5  -0.0106809  -0.0160621  0.000171556  0  0  0  0  0  0  0  0  0  0.00896081  -0.0148804  -0.0114011  0.000948591  0.0191993  0.000595127  0.00386792  0.0108628  -0.0130831  0.11255  -0.00521648  -0.0182322 
1701778362.417735000  0  0  11.6609  -0.0788574  -0.0267109  0.0132139  nan  nan  nan  nan  nan  nan  -2  -1  1.5  -0.0107586  -0.0164353  0.000176819  0  0  0  0  0  0  0  0  0  0.00895307  -0.0148254  -0.0114671  0.00140044  0.0190091  0.00302544  0.00458418  0.0107167  -0.0133522  0.11554  -0.0451717  -0.0316518 
1701778362.422215000  0  0  11.6996  -0.0768447  -0.044354  0.0133326  nan  nan  nan  nan  nan  nan  -2  -1  1.5  -0.0100543  -0.0159566  0.000160431  0  0  0  0  0  0  0  0  0  0.00895497  -0.0147362  -0.0114835  0.000844357  0.0196796  -0.000178671  0.00438163  0.0104393  -0.0134984  0.113378  -0.00733389  -0.031674 
1701778362.427208000  0  0  11.7025  -0.0828782  -0.062126  0.0130303  nan  nan  nan  nan  nan  nan  -2  -1  1.5  -0.00993946  -0.0155755  0.000154811  0  0  0  0  0  0  0  0  0  0.00893677  -0.0146865  -0.0115741  0.000394615  0.019715  -0.000244027  0.00491569  0.0104873  -0.0136008  0.120532  0.0277688  -0.026871 
1701778362.432218000  0  0  11.659  -0.0872808  -0.0379621  0.0132514  nan  nan  nan  nan  nan  nan  -2  -1  1.5  -0.00977512  -0.0160189  0.000156585  0  0  0  0  0  0  0  0  0  0.00894495  -0.0145901  -0.0115413  0.000875534  0.0197619  0.00331545  0.00539468  0.0104867  -0.0137585  0.124931  -0.0205536  -0.0280566 
1701778362.437221000  0  0  11.7124  -0.0806471  -0.0641435  0.0117156  nan  nan  nan  nan  nan  nan  -2  -1  1.5  -0.00914877  -0.0153524  0.000140454  0  0  0  0  0  0  0  0  0  0.00893437  -0.0145385  -0.0116379  0.000126521  0.0204039  -0.000947901  0.00526225  0.0103274  -0.013676  0.112882  0.033275  -0.00968456 
1701778362.442695000  0  0  11.6802  -0.0807141  -0.0728775  0.0108795  nan  nan  nan  nan  nan  nan  -2  -1  1.5  -0.00910491  -0.0151182  0.000137649  0  0  0  0  0  0  0  0  0  0.00892796  -0.0144847  -0.0116844  -0.000217946  0.0203738  0.00182506  0.00576428  0.0105299  -0.0136036  0.108397  0.0488802  4.22694e-05 
1701778362.447242000  0  0  11.6401  -0.0880054  -0.0460528  0.0113848  nan  nan  nan  nan  nan  nan  -2  -1  1.5  -0.00880874  -0.0154569  0.000136154  0  0  0  0  0  0  0  0  0  0.00893157  -0.0143922  -0.0116501  0.000144649  0.020592  0.00509621  0.00608463  0.0104309  -0.0136797  0.120032  -0.00385873  -0.0055131 
1701778362.452236000  0  0  11.7025  -0.0730801  -0.0753863  0.011486  nan  nan  nan  nan  nan  nan  -2  -1  1.5  -0.0082537  -0.0147885  0.000122058  0  0  0  0  0  0  0  0  0  0.00891472  -0.014348  -0.0117469  -0.000579911  0.021154  8.36466e-05  0.00580567  0.0103894  -0.0137183  0.0927481  0.0551899  -0.00639247 
1701778362.457233000  0  0  11.6642  -0.0681586  -0.0770165  0.011873  nan  nan  nan  nan  nan  nan  -2  -1  1.5  -0.00808708  -0.0149071  0.000120553  0  0  0  0  0  0  0  0  0  0.00891417  -0.0142456  -0.0117158  -0.000487934  0.0211774  0.00320786  0.00595837  0.0108422  -0.0137981  0.0815002  0.0542847  -0.0104315 
1701778362.462212000  0  0  11.6147  -0.0776183  -0.043159  0.0126834  nan  nan  nan  nan  nan  nan  -2  -1  1.5  -0.0081409  -0.0150477  0.000122499  0  0  0  0  0  0  0  0  0  0.00891896  -0.0142501  -0.011736  -0.000399157  0.0211626  0.00737716  0.00657544  0.0104491  -0.0140017  0.0947424  -0.00981338  -0.0185252 
1701778362.467687000  0  0  11.7054  -0.0514147  -0.0845001  0.0122681  nan  nan  nan  nan  nan  nan  -2  -1  1.5  -0.00778278  -0.0141424  0.000110066  0  0  0  0  0  0  0  0  0  0.00891397  -0.0142312  -0.0118303  -0.001414  0.021504  7.31645e-06  0.00618225  0.0104289  -0.0140678  0.0459527  0.0730547  -0.012674 
1701778362.472221000  0  0  11.6485  -0.0533975  -0.0661326  0.013055  nan  nan  nan  nan  nan  nan  -2  -1  1.5  -0.00755095  -0.0144731  0.000109284  0  0  0  0  0  0  0  0  0  0.00891289  -0.0141358  -0.0117834  -0.00107295  0.0216413  0.00465111  0.00617854  0.0106904  -0.014217  0.0499524  0.0339131  -0.0210172 
1701778362.477215000  0  0  11.6145  -0.0597514  -0.0376535  0.0132976  nan  nan  nan  nan  nan  nan  -2  -1  1.5  -0.00736724  -0.0141499  0.000104244  0  0  0  0  0  0  0  0  0  0.00891059  -0.0141187  -0.0118316  -0.00153973  0.0218687  0.00758314  0.00638753  0.00987752  -0.0143795  0.0607376  -0.0155661  -0.0224255 
1701778362.482216000  0  0  11.6903  -0.0345  -0.0678711  0.0128261  nan  nan  nan  nan  nan  nan  -2  -1  1.5  -0.00668949  -0.0132793  8.88302e-05  0  0  0  0  0  0  0  0  0  0.00889636  -0.0140075  -0.01186  -0.00251999  0.0224398  0.00131539  0.0055194  0.00968083  -0.0144009  0.0182215  0.0466785  -0.0163175 
1701778362.487215000  0  0  11.6439  -0.0465852  -0.0372916  0.0137983  nan  nan  nan  nan  nan  nan  -2  -1  1.5  -0.00662821  -0.0136322  9.03559e-05  0  0  0  0  0  0  0  0  0  0.00889369  -0.0139822  -0.0118773  -0.00212588  0.0224973  0.0052235  0.00576449  0.00957116  -0.0146468  0.0401372  -0.0134715  -0.0260098 
1701778362.492767000  0  0  11.6423  -0.0397607  -0.0320247  0.0134379  nan  nan  nan  nan  nan  nan  -2  -1  1.5  -0.00641036  -0.0129183  8.28098e-05  0  0  0  0  0  0  0  0  0  0.00887394  -0.0139375  -0.0119184  -0.00300807  0.0226808  0.00543666  0.00564899  0.00865674  -0.0147685  0.0275506  -0.0155926  -0.0202889 
1701778362.497215000  0  0  11.6669  -0.0290157  -0.0462086  0.0134715  nan  nan  nan  nan  nan  nan  -2  -1  1.5  -0.00623395  -0.0127433  7.94401e-05  0  0  0  0  0  0  0  0  0  0.00886146  -0.0138393  -0.0119158  -0.003172  0.0226738  0.00338396  0.00536739  0.00877239  -0.0148432  0.00865139  0.0117112  -0.0199616 
1701778362.502214000  0  0  11.629  -0.0555788  -0.0162794  0.0142336  nan  nan  nan  nan  nan  nan  -2  -1  1.5  -0.00595794  -0.0128084  7.63106e-05  0  0  0  0  0  0  0  0  0  0.00881945  -0.0137604  -0.0119879  -0.00304815  0.0228813  0.00669016  0.00569637  0.0082304  -0.0150634  0.058751  -0.0431608  -0.0272855 
1701778362.507215000  0  0  11.6758  -0.0427596  -0.0421077  0.0137974  nan  nan  nan  nan  nan  nan  -2  -1  1.5  -0.00541561  -0.0119394  6.46581e-05  0  0  0  0  0  0  0  0  0  0.00879642  -0.0136444  -0.0119944  -0.00405805  0.0232958  0.00280169  0.00523377  0.00775798  -0.0151283  0.0373685  0.012842  -0.0211847 
1701778362.512212000  0  0  11.6697  -0.0397756  -0.0425409  0.0141697  nan  nan  nan  nan  nan  nan  -2  -1  1.5  -0.0056465  -0.01173  6.62325e-05  0  0  0  0  0  0  0  0  0  0.00874695  -0.01357  -0.0120801  -0.0042276  0.0228347  0.00348174  0.00550276  0.00770064  -0.0152908  0.0289258  0.0142359  -0.0242133 
1701778362.517732000  0  0  11.6502  -0.0654881  -0.0233518  0.0151369  nan  nan  nan  nan  nan  nan  -2  -1  1.5  -0.00526879  -0.0115414  6.08086e-05  0  0  0  0  0  0  0  0  0  0.0086967  -0.0134719  -0.0121462  -0.00438554  0.0231179  0.005247  0.00585978  0.00713668  -0.0155643  0.0770662  -0.0189539  -0.0335675 
1701778362.522216000  0  0  11.7098  -0.0477838  -0.0574892  0.0144292  nan  nan  nan  nan  nan  nan  -2  -1  1.5  -0.0049606  -0.01106  5.48636e-05  0  0  0  0  0  0  0  0  0  0.00867368  -0.0133681  -0.0121703  -0.00488432  0.0232533  0.000322209  0.00553923  0.00732765  -0.0156164  0.0446067  0.0475639  -0.0242013 
1701778362.527217000  0  0  11.6698  -0.05599  -0.0524836  0.0141943  nan  nan  nan  nan  nan  nan  -2  -1  1.5  -0.00510212  -0.0110203  5.62263e-05  0  0  0  0  0  0  0  0  0  0.00861879  -0.0132725  -0.0122204  -0.00486293  0.0228792  0.00375664  0.00598006  0.00746911  -0.0156826  0.0569634  0.0362513  -0.0206019 
1701778362.533232000  0  0  11.6801  -0.0792273  -0.0473178  0.0141304  nan  nan  nan  nan  nan  nan  -2  -1  1.5  -0.00480653  -0.010632  5.11022e-05  0  0  0  0  0  0  0  0  0  0.00858682  -0.013134  -0.0122093  -0.0052832  0.0229493  0.00286511  0.00659362  0.00713546  -0.0157923  0.0977934  0.0289894  -0.0187072 
1701778362.538338000  0  0  11.6975  -0.067945  -0.0736357  0.0131966  nan  nan  nan  nan  nan  nan  -2  -1  1.5  -0.00494456  -0.0103948  5.13972e-05  0  0  0  0  0  0  0  0  0  0.00853087  -0.0130415  -0.0122957  -0.00544656  0.022555  0.00159232  0.00686632  0.00764087  -0.0157423  0.0727199  0.0769754  -0.00753445 
1701778362.542792000  0  0  11.668  -0.0836641  -0.0633232  0.0135559  nan  nan  nan  nan  nan  nan  -2  -1  1.5  -0.00489088  -0.0103552  5.06457e-05  0  0  0  0  0  0  0  0  0  0.00850711  -0.0129417  -0.0122672  -0.00547898  0.0224189  0.00398101  0.00742688  0.0077092  -0.0158161  0.0990009  0.0557217  -0.0112885 
1701778362.548391000  0  0  11.6964  -0.0883933  -0.0725298  0.0129434  nan  nan  nan  nan  nan  nan  -2  -1  1.5  -0.00488969  -0.00997456  4.87721e-05  -6e-07  -6e-07  6e-07  0  0  0  -0.000375  -0.000375  0.000375  0.008452  -0.0128447  -0.0123444  -0.00586701  0.0221409  0.00180692  0.00807007  0.00781034  -0.0158047  0.102542  0.0732045  -0.00374543 
1701778362.553381000  0  0  11.6768  -0.0872093  -0.0752198  0.0129469  nan  nan  nan  nan  nan  nan  -2  -1  1.5  -0.00502922  -0.00993657  4.99729e-05  -5e-06  -5e-06  5e-06  0  0  0  -0.0015  -0.0015  0.0014996  0.00840871  -0.0127913  -0.0123935  -0.00598702  0.0217063  0.00363951  0.0086076  0.00819729  -0.0158385  0.0952287  0.0750245  -0.00345094 
1701778362.558226000  0  0  11.6556  -0.101801  -0.062631  0.0136982  nan  nan  nan  nan  nan  nan  -2  -1  1.5  -0.0046844  -0.0101235  4.74221e-05  -1.69e-05  -1.69e-05  1.55e-05  0  0  0  -0.003375  -0.003375  0.0025892  0.00838068  -0.0126854  -0.0123645  -0.00594836  0.0216872  0.0054526  0.00900802  0.00843448  -0.015951  0.120729  0.0476649  -0.0117185 
1701778362.563229000  0  0  11.6805  -0.0909095  -0.0782966  0.014051  nan  nan  nan  nan  nan  nan  -2  -1  1.5  -0.00466455  -0.0101581  4.74825e-05  -4e-05  -4e-05  2.96e-05  0  0  0  -0.006  -0.006  0.0029289  0.00834888  -0.0126103  -0.01241  -0.00614392  0.021194  0.00349804  0.00929476  0.00901283  -0.0160516  0.0963072  0.0736752  -0.0151219 
1701778362.568222000  0  0  11.6758  -0.0904557  -0.0740228  0.0147115  nan  nan  nan  nan  nan  nan  -2  -1  1.5  -0.00460673  -0.0104169  4.81875e-05  -7.81e-05  -7.81e-05  4.36e-05  0  0  0  -0.009375  -0.009375  0.0025185  0.00829835  -0.0125424  -0.0124574  -0.00613706  0.0206843  0.00393834  0.00959385  0.00953701  -0.0162019  0.092648  0.060305  -0.021875 
1701778362.573219000  0  0  11.6492  -0.0992205  -0.0620243  0.0147176  nan  nan  nan  nan  nan  nan  -2  -1  1.5  -0.00385723  -0.0106359  4.14244e-05  -0.000135  -0.000135  5.36e-05  0  0  0  -0.0135  -0.0135  0.0013619  0.00826547  -0.0124364  -0.0124213  -0.00634445  0.0208994  0.00596352  0.00954782  0.00972935  -0.0163053  0.110601  0.0345386  -0.0209174 
1701778362.578216000  0  0  11.6697  -0.0736381  -0.0770069  0.0139861  nan  nan  nan  nan  nan  nan  -2  -1  1.5  -0.00387798  -0.0111006  4.36474e-05  -0.0002144  -0.0002144  5.74e-05  0  0  0  -0.018375  -0.018375  0.0003076  0.0082265  -0.0123749  -0.0124732  -0.0062609  0.0200972  0.00426459  0.00951036  0.0106374  -0.016305  0.0597809  0.0561497  -0.0117767 
1701778362.582211000  0  0  11.6605  -0.076556  -0.0725821  0.0138754  nan  nan  nan  nan  nan  nan  -2  -1  1.5  -0.00326858  -0.0116918  3.90149e-05  -0.00032  -0.00032  5.79e-05  0  0  0  -0.024  -0.024  -3.3e-06  0.00820088  -0.0122955  -0.0124504  -0.00617613  0.0199874  0.00495124  0.00919969  0.0112834  -0.0163348  0.0684748  0.0413571  -0.0100945 
1701778362.588235000  0  0  11.6549  -0.0796214  -0.0713688  0.0137741  nan  nan  nan  nan  nan  nan  -2.00001  -1.00001  1.5  -0.00233378  -0.012117  2.92777e-05  -0.0004549  -0.0004556  5.71e-05  0  0  0  -0.0298319  -0.030375  -0.0004491  0.00816422  -0.0121988  -0.0124797  -0.00630498  0.0201612  0.00543756  0.0088332  0.0118427  -0.0163801  0.0779774  0.033785  -0.00837516 
1701778362.593230000  0  0  11.6436  -0.0517509  -0.0783647  0.0132617  nan  nan  nan  nan  nan  nan  -2.00001  -1.00001  1.5  -0.00209842  -0.0127632  2.79818e-05  -0.0006171  -0.000625  5.22e-05  0  0  0  -0.0349304  -0.0375  -0.0016448  0.00813809  -0.0121617  -0.0124706  -0.00608471  0.0194656  0.0062402  0.00835116  0.0127333  -0.0163566  0.0266711  0.0395833  -0.00220573 
1701778362.598226000  0  0  11.628  -0.0611473  -0.0667079  0.0133306  nan  nan  nan  nan  nan  nan  -2.00001  -1.00001  1.5  -0.000963294  -0.0130924  1.40115e-05  -0.0008029  -0.0008318  3.94e-05  0  0  0  -0.0392789  -0.0452796  -0.0035905  0.00810265  -0.0120654  -0.0124341  -0.00616469  0.0197163  0.00728075  0.00761939  0.0129336  -0.0163722  0.0521963  0.0144266  -0.0029107 
1701778362.603176000  0  0  11.6231  -0.0486081  -0.06795  0.0132732  nan  nan  nan  nan  nan  nan  -2.00002  -1.00002  1.5  -0.000299536  -0.0134487  5.72827e-06  -0.0010086  -0.0010769  1.5e-05  0  0  0  -0.0428774  -0.0526197  -0.0062863  0.00807663  -0.012038  -0.0124403  -0.0061188  0.0195647  0.00744258  0.00697184  0.01334  -0.0163792  0.0330754  0.0131723  -0.00212274 
1701778362.608685000  0  0  11.6196  -0.0248205  -0.075272  0.0129369  nan  nan  nan  nan  nan  nan  -2.00002  -1.00002  1.5  -0.000710077  -0.0135729  1.16375e-05  -0.0012224  -0.0013394  -1.7e-05  0  0  0  -0.0425024  -0.0522447  -0.0066612  0.00804853  -0.0120143  -0.0124327  -0.00585278  0.0190305  0.00768193  0.00694858  0.0136915  -0.0163515  -0.0142859  0.0245825  0.00180403 
1701778362.613228000  0  0  11.6099  -0.0382295  -0.0617933  0.0135725  nan  nan  nan  nan  nan  nan  -2.00003  -1.00003  1.5  -0.000260199  -0.0133165  5.76483e-06  -0.0014324  -0.0015981  -5.29e-05  0  0  0  -0.0413774  -0.0511197  -0.0077862  0.00802382  -0.0119203  -0.0123955  -0.00599808  0.0195481  0.00831036  0.00677764  0.0132611  -0.0164274  0.0141047  0.00158468  -0.00538203 
1701778362.618240000  0  0  11.5996  -0.0222166  -0.06026  0.0137766  nan  nan  nan  nan  nan  nan  -2.00004  -1.00004  1.5  -0.000768845  -0.0133512  1.29647e-05  -0.0016349  -0.0018493  -9.62e-05  0  0  0  -0.0395024  -0.0492447  -0.0096612  0.00800436  -0.0118833  -0.0123866  -0.00568307  0.0190531  0.00896879  0.00697324  0.0132757  -0.0164967  -0.0197206  -0.0016168  -0.00723986 
1701778362.623229000  0  0  11.6057  -0.0240442  -0.0567858  0.0137504  nan  nan  nan  nan  nan  nan  -2.00004  -1.00005  1.5  -0.00101956  -0.0130891  1.66447e-05  -0.0018262  -0.0020893  -0.0001507  0  0  0  -0.0368774  -0.0466197  -0.0122863  0.00796748  -0.0117899  -0.0123539  -0.00559088  0.0188608  0.00813555  0.00710915  0.0129613  -0.0165249  -0.0173158  -0.00567199  -0.00663098 
1701778362.628234000  0  0  11.6062  -0.0501327  -0.0528665  0.0128474  nan  nan  nan  nan  nan  nan  -2.00005  -1.00006  1.5  -0.00147402  -0.0123705  2.21338e-05  -0.0020024  -0.0023142  -0.0002203  0  0  0  -0.0335024  -0.0432447  -0.0156613  0.00793707  -0.0117732  -0.0123715  -0.00601318  0.0186737  0.00779613  0.00800425  0.012212  -0.0164517  0.0266263  -0.0066169  0.00392501 
1701778362.633229000  0  0  11.5785  -0.0371082  -0.0413175  0.0119552  nan  nan  nan  nan  nan  nan  -2.00006  -1.00007  1.5  -0.00232033  -0.0122564  3.31383e-05  -0.0021599  -0.0025205  -0.0003086  0  0  0  -0.0293774  -0.0391197  -0.0197863  0.00791104  -0.0116883  -0.0123184  -0.00560711  0.0179339  0.00959797  0.00862455  0.0118679  -0.0163148  -0.00512937  -0.0265495  0.0137087 
1701778362.638229000  0  0  11.5886  -0.0556285  -0.0355015  0.0117983  nan  nan  nan  nan  nan  nan  -2.00008  -1.00008  1.5  -0.00312616  -0.0116981  4.23695e-05  -0.0022949  -0.0027042  -0.0004194  0  0  0  -0.0245024  -0.0342447  -0.0246613  0.0078916  -0.0116846  -0.0123366  -0.00563896  0.0175154  0.00830946  0.00968466  0.011117  -0.0162493  0.0221582  -0.0312739  0.0150145 
1701778362.643231000  0  0  11.5943  -0.071752  -0.0385241  0.0117965  nan  nan  nan  nan  nan  nan  -2.00009  -1.0001  1.49999  -0.00420913  -0.010957  5.32189e-05  -0.0024037  -0.0028617  -0.0005564  0  0  0  -0.0188774  -0.0286197  -0.0302863  0.00786061  -0.0116737  -0.0123518  -0.0057904  0.016821  0.00731223  0.0111154  0.0103938  -0.0162005  0.0412426  -0.0185746  0.0145483 
1701778362.648399000  0  0  11.562  -0.073013  -0.0184978  0.0122422  nan  nan  nan  nan  nan  nan  -2.0001  -1.00011  1.49999  -0.00554726  -0.010781  6.87046e-05  -0.0024825  -0.0029891  -0.0007235  0  0  0  -0.0125024  -0.0222447  -0.0366613  0.00783428  -0.0115993  -0.0122991  -0.00517335  0.0157755  0.0092731  0.0125219  0.00977924  -0.0161978  0.0308247  -0.0529734  0.00894972 
1701778362.653387000  0  0  11.5857  -0.0989262  -0.0302548  0.0120395  nan  nan  nan  nan  nan  nan  -2.00011  -1.00013  1.49999  -0.00660504  -0.00953227  7.3961e-05  -0.0025275  -0.0030829  -0.0009243  0  0  0  -0.0053774  -0.0151197  -0.0437863  0.00780085  -0.0115978  -0.0123344  -0.00575733  0.0153163  0.00666275  0.0141405  0.00863563  -0.0161419  0.0677602  -0.0189383  0.0109251 
1701778362.658706000  0  0  11.5698  -0.106288  -0.0295488  0.0120969  nan  nan  nan  nan  nan  nan  -2.00012  -1.00014  1.49998  -0.00833124  -0.00880368  8.71463e-05  -0.002535  -0.0031391  -0.0011626  0  0  0  0.0024976  -0.0072447  -0.0516613  0.00777372  -0.0116154  -0.0123423  -0.00563254  0.0141651  0.00722383  0.0161878  0.00791846  -0.0161112  0.0636477  -0.0137523  0.00990082 
1701778362.663233000  0  0  11.522  -0.111801  -0.00670508  0.0125984  nan  nan  nan  nan  nan  nan  -2.00014  -1.00016  1.49998  -0.00985877  -0.00835628  9.94844e-05  -0.0025013  -0.0031541  -0.0014422  0  0  0  0.0111226  0.0013803  -0.0602863  0.00776222  -0.0115503  -0.0122888  -0.00511164  0.0132234  0.0102507  0.017942  0.00699651  -0.0161491  0.0585368  -0.0509577  0.00401119 
1701778362.668227000  0  0  11.566  -0.123914  -0.0266621  0.0126845  nan  nan  nan  nan  nan  nan  -2.00015  -1.00018  1.49997  -0.0111793  -0.00683918  9.77597e-05  -0.0024225  -0.003124  -0.0017667  0  0  0  0.0204976  0.0107553  -0.0696613  0.00773404  -0.0115671  -0.0123434  -0.00574626  0.012726  0.00576129  0.019669  0.00582299  -0.0161472  0.0668731  -0.000247371  0.00291586 
1701778362.673173000  0  0  11.5404  -0.125724  -0.0265842  0.0120754  nan  nan  nan  nan  nan  nan  -2.00016  -1.00019  1.49996  -0.0128377  -0.00580719  0.000100855  -0.002295  -0.0030453  -0.00214  0  0  0  0.0306226  0.0208803  -0.0797863  0.00770578  -0.0115137  -0.0123009  -0.00571765  0.0118201  0.00680863  0.021516  0.00493313  -0.0160507  0.0535  0.00778362  0.00956378 
1701778362.678230000  0  0  11.4967  -0.130202  -0.000343298  0.0116841  nan  nan  nan  nan  nan  nan  -2.00017  -1.00021  1.49995  -0.0151025  -0.00501231  0.000108104  -0.002115  -0.002914  -0.0025658  0  0  0  0.0414976  0.0317553  -0.0906613  0.00768853  -0.0115491  -0.0123035  -0.00531723  0.0104718  0.00938135  0.0238977  0.00372174  -0.0159744  0.040546  -0.0335534  0.0136934 
1701778362.683693000  0  0  11.5468  -0.127899  -0.0367918  0.0114659  nan  nan  nan  nan  nan  nan  -2.00018  -1.00022  1.49993  -0.0167495  -0.00331887  9.52945e-05  -0.0018788  -0.0027265  -0.0030479  0  0  0  0.0531226  0.0433803  -0.102286  0.00766394  -0.0115873  -0.0123549  -0.00590548  0.00986036  0.00417006  0.0255438  0.00286871  -0.0158644  0.0207953  0.0471915  0.0153201 
1701778362.688407000  0  0  11.4918  -0.120363  -0.0225407  0.0119129  nan  nan  nan  nan  nan  nan  -2.00019  -1.00023  1.49992  -0.0189728  -0.00251142  9.59544e-05  -0.0015826  -0.0024789  -0.00359  0  0  0  0.0654976  0.0557553  -0.114661  0.00764546  -0.0115498  -0.0123073  -0.00531645  0.00863791  0.0074439  0.0274957  0.00213764  -0.0158527  -0.0122355  0.0254151  0.00961656 
1701778362.693223000  0  0  11.483  -0.124291  -0.0137892  0.0118332  nan  nan  nan  nan  nan  nan  -2.0002  -1.00024  1.4999  -0.0211307  -0.00118275  8.32961e-05  -0.0012226  -0.0021677  -0.0041958  0  0  0  0.0786226  0.0688803  -0.127786  0.00763657  -0.0116017  -0.0123328  -0.00529875  0.00771231  0.00694115  0.0294868  0.00088947  -0.0158081  -0.0226974  0.0193953  0.010166 
1701778362.698227000  0  0  11.5246  -0.113059  -0.0471447  0.0110621  nan  nan  nan  nan  nan  nan  -2.0002  -1.00025  1.49987  -0.0225865  0.000804415  5.1928e-05  -0.0007951  -0.0017889  -0.0048691  0  0  0  0.0924976  0.0827553  -0.141661  0.00759963  -0.01156  -0.0123356  -0.00596409  0.0074494  0.0021366  0.0304966  -0.000108995  -0.0156307  -0.0544499  0.0952922  0.0180309 
1701778362.703176000  0  0  11.4596  -0.110716  -0.0342925  0.0108416  nan  nan  nan  nan  nan  nan  -2.00021  -1.00026  1.49985  -0.025533  0.00188094  3.56634e-05  -0.0002963  -0.0013388  -0.0056136  0  0  0  0.107123  0.0973803  -0.156286  0.00760391  -0.0116198  -0.0123431  -0.00544922  0.00588052  0.00615502  0.0328537  -0.000852007  -0.0155231  -0.0808224  0.0764234  0.0197106 
1701778362.708887000  0  0  11.4571  -0.110586  -0.0346653  0.0108169  nan  nan  nan  nan  nan  nan  -2.00021  -1.00027  1.49982  -0.0276648  0.00356544  7.37847e-07  0.0002774  -0.0008138  -0.0064332  0  0  0  0.122498  0.112755  -0.171661  0.007591  -0.0116514  -0.0123757  -0.00557917  0.00522846  0.00494736  0.0343933  -0.00202333  -0.0154062  -0.0952476  0.0879452  0.0188498 
1701778362.713224000  0  0  11.4697  -0.101542  -0.0570264  0.0103007  nan  nan  nan  nan  nan  nan  -2.0002  -1.00027  1.49978  -0.0296807  0.00571211  -5.22883e-05  0.0009299  -0.00021  -0.0073315  0  0  0  0.138623  0.12888  -0.187786  0.00755659  -0.0116311  -0.0123674  -0.00616221  0.00465743  0.00233679  0.0356868  -0.00313148  -0.0152262  -0.125234  0.142862  0.0235025 
1701778362.718219000  0  0  11.3966  -0.104183  -0.0291408  0.0107292  nan  nan  nan  nan  nan  nan  -2.0002  -1.00027  1.49974  -0.033005  0.00684753  -8.83835e-05  0.0016649  0.0004762  -0.0083123  0  0  0  0.155498  0.145755  -0.204661  0.00757137  -0.0117017  -0.0123631  -0.00540772  0.00302203  0.00679581  0.0381524  -0.00400265  -0.0151684  -0.142636  0.0951059  0.0175691 
1701778362.723168000  0  0  11.3711  -0.109768  -0.0231545  0.010885  nan  nan  nan  nan  nan  nan  -2.00019  -1.00027  1.4997  -0.0351904  0.00921014  -0.000163538  0.0024861  0.0012488  -0.0093793  0  0  0  0.173123  0.16338  -0.222286  0.00754064  -0.0116798  -0.0123372  -0.00603149  0.00258149  0.00718701  0.0396494  -0.00583289  -0.015073  -0.145238  0.0999717  0.0146684 
1701778362.728224000  0  0  11.3871  -0.0901876  -0.0548057  0.010771  nan  nan  nan  nan  nan  nan  -2.00017  -1.00026  1.49965  -0.037977  0.0109692  -0.00023007  0.0033973  0.0021113  -0.0105364  0  0  0  0.191498  0.181755  -0.240661  0.00755111  -0.0117525  -0.0123758  -0.00592587  0.00152686  0.00420622  0.0410911  -0.00621855  -0.0149498  -0.197663  0.166822  0.0148606 
1701778362.733219000  0  0  11.2941  -0.0980402  -0.0201379  0.0111292  nan  nan  nan  nan  nan  nan  -2.00015  -1.00024  1.49959  -0.0412186  0.0128908  -0.000315827  0.0044023  0.0030676  -0.0117872  0  0  0  0.210623  0.20088  -0.259786  0.00752582  -0.0117568  -0.0122987  -0.00570136  0.000328964  0.00998967  0.0433018  -0.00789591  -0.014909  -0.202296  0.112918  0.00997523 
1701778362.738219000  0  0  11.3113  -0.102025  -0.0307684  0.0106641  nan  nan  nan  nan  nan  nan  -2.00013  -1.00023  1.49953  -0.0438799  0.0155773  -0.000435841  0.0055048  0.0041213  -0.0131355  0  0  0  0.230498  0.220755  -0.279661  0.00754516  -0.0118156  -0.0123349  -0.00658437  -0.000397501  0.00676281  0.0449201  -0.00957503  -0.0147602  -0.209215  0.149627  0.0143013 
1701778362.743379000  0  0  11.2692  -0.0929784  -0.0228249  0.0104166  nan  nan  nan  nan  nan  nan  -2.0001  -1.0002  1.49946  -0.0473312  0.0175922  -0.000549337  0.0067086  0.0052764  -0.0145851  0  0  0  0.251123  0.24138  -0.300286  0.00757388  -0.0118966  -0.0123319  -0.0064401  -0.00167052  0.00835473  0.0468677  -0.0107456  -0.0146224  -0.245226  0.14451  0.016017 
1701778362.748372000  0  0  11.226  -0.104059  -0.00601257  0.0101617  nan  nan  nan  nan  nan  nan  -2.00006  -1.00017  1.49939  -0.0503272  0.0203742  -0.000702871  0.0080173  0.0065364  -0.0161396  0  0  0  0.272498  0.262755  -0.321661  0.00753735  -0.0119054  -0.0122902  -0.00699273  -0.00240006  0.00987367  0.0487288  -0.0129501  -0.0144559  -0.240188  0.131166  0.0175374 
1701778362.753161000  0  0  11.2284  -0.109599  -0.0163745  0.00919145  nan  nan  nan  nan  nan  nan  -2.00002  -1.00014  1.4993  -0.0535967  0.023324  -0.000884677  0.0094348  0.0079052  -0.0178029  0  0  0  0.294623  0.28488  -0.343786  0.00754901  -0.0119846  -0.0123147  -0.00785824  -0.00345776  0.00768089  0.0507648  -0.0147756  -0.0141719  -0.247838  0.168685  0.0268256 
1701778362.758653000  0  0  11.1584  -0.103627  0.000694717  0.00877685  nan  nan  nan  nan  nan  nan  -1.99997  -1.00009  1.49921  -0.0576864  0.0256775  -0.00106912  0.0109648  0.0093864  -0.0195787  0  0  0  0.317498  0.307755  -0.366661  0.00756678  -0.0120738  -0.0123073  -0.00769197  -0.0049583  0.0114081  0.0530598  -0.0163368  -0.0139092  -0.280895  0.148909  0.0293818 
1701778362.763217000  0  0  11.1363  -0.118731  0.0178361  0.0088878  nan  nan  nan  nan  nan  nan  -1.99991  -1.00004  1.4991  -0.0610164  0.0290126  -0.0013075  0.012611  0.010984  -0.0214708  0  0  0  0.341123  0.33138  -0.390286  0.00752272  -0.0120993  -0.0122545  -0.00862396  -0.00582583  0.0109663  0.0552647  -0.0190933  -0.0137083  -0.270974  0.139986  0.0259854 
1701778362.768229000  0  0  11.1388  -0.115783  0.00108059  0.00869788  nan  nan  nan  nan  nan  nan  -1.99984  -0.999984  1.49899  -0.0646173  0.0321386  -0.00155914  0.0143772  0.0127015  -0.0234829  0  0  0  0.365498  0.355755  -0.414661  0.0075403  -0.0121823  -0.0122708  -0.00941062  -0.00696078  0.00858967  0.0572364  -0.0208815  -0.0134619  -0.295008  0.189948  0.0258958 
1701778362.773242000  0  0  11.0616  -0.123309  0.0251144  0.00925519  nan  nan  nan  nan  nan  nan  -1.99976  -0.999916  1.49887  -0.0689635  0.0354864  -0.00187084  0.0162672  0.0145428  -0.0256187  0  0  0  0.390623  0.38088  -0.439786  0.00749275  -0.0122221  -0.0121957  -0.00992491  -0.00840957  0.0125976  0.0599975  -0.0234971  -0.0132939  -0.30536  0.165945  0.0172489 
1701778362.778242000  0  0  11.0676  -0.136822  0.028414  0.00968375  nan  nan  nan  nan  nan  nan  -1.99968  -0.999838  1.49874  -0.0727612  0.0386827  -0.00217507  0.0182847  0.0165116  -0.027882  0  0  0  0.416498  0.406755  -0.465661  0.00750865  -0.0123216  -0.0122235  -0.0105996  -0.00955475  0.00982268  0.0623312  -0.0256733  -0.0131583  -0.299802  0.179367  0.0105363 
1701778362.783239000  0  0  11.0387  -0.133728  0.0182449  0.00883593  nan  nan  nan  nan  nan  nan  -1.99958  -0.99975  1.49859  -0.0767404  0.0426514  -0.00256612  0.0204335  0.0186116  -0.0302763  0  0  0  0.443123  0.43338  -0.492044  0.00744878  -0.0123701  -0.0121714  -0.0118058  -0.010639  0.00979751  0.0645247  -0.0281915  -0.0128308  -0.326172  0.222872  0.0178591 
1701778362.788409000  0  0  10.9696  -0.146208  0.0356374  0.00894414  nan  nan  nan  nan  nan  nan  -1.99947  -0.999652  1.49843  -0.0816657  0.0458142  -0.00296286  0.0227172  0.0208466  -0.0328013  0  0  0  0.470498  0.460755  -0.517817  0.00745894  -0.0124825  -0.0121468  -0.0118599  -0.0122568  0.0132346  0.0676593  -0.030289  -0.0125985  -0.33005  0.207384  0.0141827 
1701778362.793249000  0  0  10.9906  -0.152443  0.0293489  0.00901439  nan  nan  nan  nan  nan  nan  -1.99935  -0.999542  1.49826  -0.0856731  0.049622  -0.00339653  0.0251397  0.0232204  -0.0354532  0  0  0  0.498623  0.48888  -0.542839  0.00745462  -0.0125555  -0.0122267  -0.0130189  -0.0135252  0.00948925  0.0699384  -0.0326395  -0.0123502  -0.338547  0.241586  0.0108225 
1701778362.798243000  0  0  10.9615  -0.149401  0.0196436  0.00833471  nan  nan  nan  nan  nan  nan  -1.99922  -0.999419  1.49808  -0.0900818  0.0538833  -0.00391869  0.0277047  0.0257367  -0.0382284  0  0  0  0.527498  0.517755  -0.567112  0.00738954  -0.0126237  -0.0121806  -0.0142281  -0.014706  0.00978516  0.0723356  -0.0351691  -0.0119863  -0.366686  0.284268  0.0156792 
1701778362.803243000  0  0  10.8921  -0.158153  0.041634  0.00856936  nan  nan  nan  nan  nan  nan  -1.99908  -0.999284  1.49788  -0.0952378  0.0575872  -0.00446463  0.0304159  0.0283992  -0.0411231  0  0  0  0.557123  0.54738  -0.590635  0.00738937  -0.0126987  -0.0121944  -0.0145301  -0.0162312  0.0136357  0.0754536  -0.0376088  -0.0117143  -0.377867  0.262733  0.010026 
1701778362.808231000  0  0  10.9085  -0.163108  0.0341819  0.00856739  nan  nan  nan  nan  nan  nan  -1.99892  -0.999135  1.49767  -0.0994477  0.0621328  -0.00506975  0.0332772  0.0312117  -0.0441335  0  0  0  0.587498  0.577755  -0.613407  0.00730969  -0.0127793  -0.0121682  -0.016114  -0.0173611  0.0103718  0.0776943  -0.0404047  -0.011426  -0.388573  0.303359  0.00716752 
1701778362.813233000  0  0  10.8953  -0.158089  0.0273888  0.00757741  nan  nan  nan  nan  nan  nan  -1.99874  -0.998972  1.49744  -0.104225  0.0663219  -0.00570953  0.0362921  0.034178  -0.0472559  0  0  0  0.618623  0.60888  -0.63543  0.00729107  -0.0128668  -0.0122178  -0.0171073  -0.0187323  0.00987007  0.0800735  -0.0425981  -0.0109849  -0.420498  0.337125  0.0151316 
1701778362.818243000  0  0  10.8278  -0.164043  0.0477189  0.00753032  nan  nan  nan  nan  nan  nan  -1.99855  -0.998793  1.49719  -0.109579  0.0702953  -0.00640254  0.0394646  0.0373018  -0.0504865  0  0  0  0.650498  0.640755  -0.656702  0.00728781  -0.0129555  -0.0122243  -0.0173523  -0.0200267  0.0138741  0.0830407  -0.045028  -0.0106117  -0.435889  0.318819  0.0119882 
1701778362.823241000  0  0  10.8675  -0.154353  0.0244555  0.00747109  nan  nan  nan  nan  nan  nan  -1.99835  -0.998598  1.49693  -0.113706  0.0751379  -0.00714063  0.0427984  0.0405868  -0.0538217  0  0  0  0.683123  0.67338  -0.677225  0.00719908  -0.0130539  -0.012208  -0.019188  -0.0209776  0.00907125  0.0846189  -0.0475132  -0.010244  -0.469787  0.388211  0.00905148 
1701778362.828233000  0  0  10.8439  -0.141541  0.0124539  0.00729142  nan  nan  nan  nan  nan  nan  -1.99812  -0.998387  1.49666  -0.118874  0.0794882  -0.00793998  0.0462971  0.0440368  -0.0572575  0  0  0  0.716498  0.706755  -0.696998  0.00716368  -0.0131572  -0.0122503  -0.0199422  -0.0222777  0.00979748  0.0867914  -0.0493571  -0.00981816  -0.515399  0.429177  0.00703889 
1701778362.833241000  0  0  10.8077  -0.153818  0.0305344  0.00812625  nan  nan  nan  nan  nan  nan  -1.99788  -0.998158  1.49636  -0.124321  0.0841891  -0.00884748  0.0499643  0.0476554  -0.0607904  0  0  0  0.750312  0.740692  -0.71602  0.00706772  -0.0132695  -0.0121833  -0.0208107  -0.0236116  0.011408  0.0896079  -0.052071  -0.00952266  -0.516758  0.417985  -0.00635151 
1701778362.838241000  0  0  10.8279  -0.142726  0.00309119  0.00785135  nan  nan  nan  nan  nan  nan  -1.99762  -0.99791  1.49605  -0.129084  0.0884677  -0.00968608  0.053799  0.0514426  -0.0644165  0  0  0  0.783471  0.774066  -0.734293  0.00708095  -0.0134326  -0.012193  -0.022003  -0.0248318  0.00865156  0.0913303  -0.0534923  -0.00915391  -0.554787  0.485947  -0.00660282 
1701778362.843244000  0  0  10.8022  -0.132137  0.000215206  0.00762145  nan  nan  nan  nan  nan  nan  -1.99735  -0.997643  1.49572  -0.134416  0.0931762  -0.0106728  0.0577977  0.0553948  -0.0681321  0  0  0  0.81588  0.806689  -0.751815  0.00698176  -0.0135583  -0.0121412  -0.0231268  -0.0262317  0.00972458  0.0933562  -0.05548  -0.00873957  -0.594603  0.509986  -0.00787238 
1701778362.848228000  0  0  10.7642  -0.14179  0.0145299  0.00776181  nan  nan  nan  nan  nan  nan  -1.99705  -0.997356  1.49537  -0.139872  0.0975606  -0.0116729  0.0619566  0.0595083  -0.0719334  0  0  0  0.847539  0.838563  -0.768588  0.00692859  -0.0137124  -0.0120921  -0.0239121  -0.0275914  0.0118787  0.0957638  -0.0574721  -0.0083687  -0.597448  0.499684  -0.0133356 
1701778362.853239000  0  0  10.7949  -0.119065  -0.01026  0.00767841  nan  nan  nan  nan  nan  nan  -1.99673  -0.997048  1.495  -0.14385  0.101864  -0.012552  0.0662719  0.0637792  -0.0758167  0  0  0  0.878448  0.869686  -0.784611  0.00689497  -0.0138317  -0.0121492  -0.0254471  -0.0283816  0.00870851  0.096073  -0.0585854  -0.00803482  -0.645741  0.559505  -0.0156319 
1701778362.858708000  0  0  10.7753  -0.10752  -0.0205361  0.00779973  nan  nan  nan  nan  nan  nan  -1.99638  -0.996718  1.49461  -0.14883  0.105391  -0.0134543  0.0707398  0.0682039  -0.0797783  0  0  0  0.908607  0.90006  -0.799883  0.00691837  -0.0139923  -0.0121668  -0.0257149  -0.0295748  0.00977831  0.0969884  -0.0587378  -0.00774352  -0.677253  0.58146  -0.0200614 
1701778362.863235000  0  0  10.7433  -0.114951  0.00146066  0.0085602  nan  nan  nan  nan  nan  nan  -1.99602  -0.996365  1.4942  -0.154091  0.110427  -0.014652  0.0753567  0.0727786  -0.0838143  0  0  0  0.938016  0.929683  -0.814406  0.00677135  -0.0141597  -0.0120712  -0.0274031  -0.030925  0.0116798  0.099054  -0.0614433  -0.00744233  -0.681394  0.562357  -0.0325793 
1701778362.868229000  0  0  10.7619  -0.0956703  -0.0178006  0.00839736  nan  nan  nan  nan  nan  nan  -1.99563  -0.99599  1.49377  -0.158079  0.114347  -0.0155726  0.0801187  0.0774995  -0.0879211  0  0  0  0.966675  0.958557  -0.828179  0.00676115  -0.0143375  -0.0120658  -0.0287041  -0.0316714  0.00971086  0.0990619  -0.0620793  -0.00721587  -0.720028  0.606731  -0.0328083 
1701778362.873238000  0  0  10.734  -0.0871876  -0.00822702  0.00820392  nan  nan  nan  nan  nan  nan  -1.99522  -0.99559  1.49332  -0.163199  0.118626  -0.0167166  0.0850222  0.0823629  -0.0920948  0  0  0  0.994584  0.98668  -0.841201  0.00662489  -0.0144992  -0.0120023  -0.0297023  -0.0330575  0.0116142  0.100152  -0.0634321  -0.00687537  -0.747021  0.600029  -0.0337953 
1701778362.878239000  0  0  10.7454  -0.0909719  -0.00804062  0.00807703  nan  nan  nan  nan  nan  nan  -1.99478  -0.995166  1.49285  -0.166827  0.122303  -0.0176128  0.0900633  0.087365  -0.0963318  0  0  0  1.02174  1.01405  -0.853474  0.00660219  -0.0145813  -0.0120865  -0.0307892  -0.033646  0.0105732  0.099919  -0.0640854  -0.0066617  -0.737311  0.605667  -0.0343459 
1701778362.883241000  0  0  10.7508  -0.0777292  -0.0192461  0.00743214  nan  nan  nan  nan  nan  nan  -1.99432  -0.994716  1.49236  -0.170864  0.126871  -0.0187374  0.0952384  0.0925022  -0.100628  0  0  0  1.04815  1.04068  -0.864996  0.0064464  -0.0147475  -0.0120436  -0.0327009  -0.0344713  0.00996711  0.0998809  -0.0653218  -0.00630182  -0.763446  0.639453  -0.0298836 
1701778362.888235000  0  0  10.7377  -0.0684186  -0.011605  0.00723175  nan  nan  nan  nan  nan  nan  -1.99383  -0.994241  1.49184  -0.174845  0.130276  -0.0196846  0.100544  0.0977706  -0.104981  0  0  0  1.07381  1.06655  -0.875769  0.00640766  -0.0148232  -0.0121333  -0.0332851  -0.0352012  0.0111933  0.0996129  -0.0656664  -0.00602944  -0.779601  0.627341  -0.0301025 
1701778362.893234000  0  0  10.7612  -0.0751619  -0.016569  0.00748888  nan  nan  nan  nan  nan  nan  -1.99331  -0.993738  1.49131  -0.178179  0.133647  -0.0205606  0.105975  0.103166  -0.109385  0  0  0  1.09872  1.09167  -0.885792  0.00638661  -0.0149355  -0.0122333  -0.0344885  -0.0358824  0.00945582  0.0990731  -0.0658381  -0.00589964  -0.761149  0.638848  -0.0346146 
1701778362.898232000  0  0  10.7666  -0.0614379  -0.0242371  0.00743247  nan  nan  nan  nan  nan  nan  -1.99277  -0.993209  1.49075  -0.181926  0.137952  -0.0216842  0.11153  0.108686  -0.113837  0  0  0  1.12288  1.11605  -0.895064  0.00621383  -0.0151117  -0.0121882  -0.0363444  -0.0365997  0.00912543  0.0986439  -0.0667505  -0.00563188  -0.784648  0.662578  -0.036587 
1701778362.903238000  0  0  10.7405  -0.0567388  -0.00656417  0.00741149  nan  nan  nan  nan  nan  nan  -1.99219  -0.992651  1.49017  -0.186183  0.141711  -0.0228102  0.117203  0.114326  -0.118334  0  0  0  1.14629  1.13967  -0.903587  0.00610177  -0.0152632  -0.0121994  -0.0372937  -0.0374444  0.0115755  0.0986068  -0.0675506  -0.00534669  -0.793705  0.634594  -0.0391767 
1701778362.908222000  0  0  10.7645  -0.0645554  -0.00666889  0.00722721  nan  nan  nan  nan  nan  nan  -1.99159  -0.992065  1.48957  -0.189694  0.145678  -0.0238935  0.122991  0.120082  -0.122872  0  0  0  1.16895  1.16254  -0.911359  0.00590963  -0.015452  -0.0121649  -0.0391966  -0.0384235  0.00985715  0.0982658  -0.0684024  -0.00512302  -0.774934  0.64264  -0.03911 
1701778362.913235000  0  0  10.7771  -0.0500626  -0.0239052  0.00667667  nan  nan  nan  nan  nan  nan  -1.99096  -0.99145  1.48894  -0.192593  0.14902  -0.0247868  0.128891  0.12595  -0.127446  0  0  0  1.19086  1.18467  -0.918382  0.00581852  -0.0155658  -0.0122323  -0.0404419  -0.0387139  0.00935642  0.0968645  -0.0681813  -0.00490405  -0.791029  0.675078  -0.0344179 
1701778362.918235000  0  0  10.7454  -0.0558215  0.00107601  0.00753755  nan  nan  nan  nan  nan  nan  -1.99031  -0.990806  1.48829  -0.196867  0.152601  -0.0259605  0.134898  0.131927  -0.132054  0  0  0  1.21202  1.20604  -0.924655  0.00570249  -0.015743  -0.0122052  -0.0413504  -0.0396341  0.0124223  0.0970721  -0.0689795  -0.00473957  -0.78142  0.632459  -0.0468237 
1701778362.923233000  0  0  10.7785  -0.0636829  -0.000784864  0.0085269  nan  nan  nan  nan  nan  nan  -1.98962  -0.990131  1.48762  -0.19994  0.156445  -0.0270214  0.14101  0.138009  -0.136692  0  0  0  1.23242  1.22667  -0.930177  0.0054876  -0.0159418  -0.0121722  -0.0435257  -0.0405487  0.0102056  0.0963814  -0.0696723  -0.00473744  -0.759343  0.642555  -0.0592118 
1701778362.928224000  0  0  10.7665  -0.0547073  -0.0104195  0.00836381  nan  nan  nan  nan  nan  nan  -1.98889  -0.989425  1.48692  -0.203301  0.160029  -0.0280987  0.147221  0.144192  -0.141355  0  0  0  1.25208  1.24654  -0.93495  0.00532216  -0.0161031  -0.0121722  -0.044805  -0.0409936  0.0118721  0.0956336  -0.0698317  -0.00457767  -0.770415  0.663291  -0.058771 
1701778362.933247000  0  0  10.7368  -0.0658917  0.0187585  0.00889881  nan  nan  nan  nan  nan  nan  -1.98814  -0.988689  1.48621  -0.2073  0.163803  -0.029346  0.153529  0.150473  -0.14604  0  0  0  1.27099  1.26566  -0.938973  0.00510398  -0.0163052  -0.0121013  -0.0460148  -0.0417769  0.014919  0.0958342  -0.0709613  -0.00447336  -0.749892  0.615327  -0.0665016 
1701778362.938235000  0  0  10.7971  -0.0642605  0.0088756  0.00855733  nan  nan  nan  nan  nan  nan  -1.98736  -0.98792  1.48546  -0.209173  0.166733  -0.0300755  0.15993  0.156848  -0.150743  0  0  0  1.28915  1.28404  -0.942245  0.0049499  -0.0164529  -0.0121862  -0.0479828  -0.0423482  0.0108413  0.0939518  -0.070687  -0.00453038  -0.735836  0.632569  -0.0616628 
1701778362.943236000  0  0  10.7923  -0.0537595  -0.000989807  0.00779502  nan  nan  nan  nan  nan  nan  -1.98654  -0.98712  1.4847  -0.212229  0.169881  -0.031069  0.16642  0.163312  -0.155461  0  0  0  1.30656  1.30166  -0.944768  0.00477572  -0.0166207  -0.0122319  -0.0491227  -0.0428591  0.0122094  0.0929445  -0.0705181  -0.0043475  -0.747571  0.650746  -0.0539628 
1701778362.948230000  0  0  10.7566  -0.0688475  0.0254828  0.00763889  nan  nan  nan  nan  nan  nan  -1.9857  -0.986287  1.48391  -0.216029  0.173398  -0.0322941  0.172995  0.169863  -0.16019  0  0  0  1.32322  1.31853  -0.94654  0.00454115  -0.0168343  -0.0121393  -0.050135  -0.0434916  0.0159046  0.093145  -0.0714452  -0.00413728  -0.719239  0.60633  -0.0541133 
1701778362.953237000  0  0  10.8299  -0.0641543  0.00573407  0.00718049  nan  nan  nan  nan  nan  nan  -1.98481  -0.985421  1.4831  -0.217809  0.175994  -0.0329723  0.179651  0.176496  -0.164925  0  0  0  1.33913  1.33466  -0.947563  0.00434091  -0.0170421  -0.0121713  -0.0522068  -0.044463  0.0108968  0.0912644  -0.0707359  -0.004154  -0.711323  0.639302  -0.0482161 
1701778362.958705000  0  0  10.8262  -0.0526464  -0.0112781  0.00686831  nan  nan  nan  nan  nan  nan  -1.9839  -0.984522  1.48226  -0.219726  0.178413  -0.0336449  0.186385  0.183208  -0.169664  0  0  0  1.35429  1.35003  -0.947836  0.00421459  -0.0171655  -0.0122711  -0.0528018  -0.0440696  0.0123796  0.0890583  -0.0694268  -0.00413029  -0.714044  0.661283  -0.0445509 
1701778362.963393000  0  0  10.8153  -0.0679359  0.0101805  0.00751723  nan  nan  nan  nan  nan  nan  -1.98295  -0.983589  1.4814  -0.223126  0.181637  -0.034785  0.193192  0.189995  -0.174402  0  0  0  1.3687  1.36465  -0.947358  0.00390945  -0.0174299  -0.0121461  -0.0540658  -0.0449871  0.0141657  0.0892738  -0.0701249  -0.00399691  -0.685447  0.624788  -0.0539963 
1701778362.968231000  0  0  10.8835  -0.0577704  -0.010576  0.00748631  nan  nan  nan  nan  nan  nan  -1.98197  -0.982622  1.48052  -0.22475  0.184062  -0.0354242  0.20007  0.196854  -0.179137  0  0  0  1.38236  1.37853  -0.946131  0.00366415  -0.0176625  -0.0121847  -0.0560901  -0.0459428  0.00978967  0.0873858  -0.069245  -0.00406025  -0.688408  0.658206  -0.0529764 
1701778362.973238000  0  0  10.8728  -0.055505  -0.0221828  0.00770417  nan  nan  nan  nan  nan  nan  -1.98095  -0.98162  1.47961  -0.227455  0.186878  -0.0363701  0.207015  0.203779  -0.183863  0  0  0  1.39527  1.39165  -0.944153  0.00338567  -0.0178889  -0.0121102  -0.0570597  -0.0463284  0.0117943  0.0865177  -0.0686401  -0.00400392  -0.684953  0.675855  -0.0562629 
1701778362.978237000  0  0  10.8458  -0.0691039  -0.0105446  0.00851932  nan  nan  nan  nan  nan  nan  -1.9799  -0.980584  1.47868  -0.230211  0.189263  -0.0372415  0.214022  0.210769  -0.188577  0  0  0  1.40742  1.40402  -0.941426  0.00316605  -0.0181262  -0.0120641  -0.0573867  -0.0464739  0.015154  0.086028  -0.0681027  -0.00403546  -0.65325  0.647634  -0.0661369 
1701778362.983239000  0  0  10.9215  -0.0593723  -0.0392243  0.00852855  nan  nan  nan  nan  nan  nan  -1.97881  -0.979513  1.47772  -0.231382  0.191276  -0.0377221  0.221088  0.217818  -0.193276  0  0  0  1.41883  1.41565  -0.937949  0.00286812  -0.0183626  -0.0120349  -0.0592704  -0.0474308  0.0101958  0.0838976  -0.0664269  -0.00425066  -0.653114  0.689576  -0.0641003 
1701778362.988241000  0  0  10.9267  -0.059357  -0.0494244  0.00935572  nan  nan  nan  nan  nan  nan  -1.97769  -0.978406  1.47674  -0.233187  0.193169  -0.0383072  0.228209  0.224924  -0.197955  0  0  0  1.42949  1.42652  -0.933721  0.00264539  -0.0185786  -0.0120568  -0.0598052  -0.0475357  0.0111344  0.082431  -0.0648683  -0.00444137  -0.639651  0.695637  -0.0725329 
1701778362.993377000  0  0  10.9067  -0.0734372  -0.0389633  0.0107155  nan  nan  nan  nan  nan  nan  -1.97653  -0.977263  1.47574  -0.234909  0.194969  -0.0388602  0.235381  0.232082  -0.202612  0  0  0  1.4394  1.43664  -0.928744  0.00241222  -0.0187888  -0.0120752  -0.0597553  -0.0470419  0.014078  0.0812019  -0.0635611  -0.00476343  -0.600183  0.662688  -0.0863096 
1701778362.998247000  0  0  10.9484  -0.0616712  -0.0623911  0.0103279  nan  nan  nan  nan  nan  nan  -1.97533  -0.976085  1.47472  -0.236485  0.196967  -0.0394356  0.242602  0.239289  -0.207241  0  0  0  1.44856  1.44602  -0.923017  0.00207981  -0.0190522  -0.0120089  -0.0611719  -0.0478782  0.0120328  0.0796861  -0.0620216  -0.00494481  -0.60977  0.695381  -0.0796508 
1701778363.003248000  0  0  10.9472  -0.0631981  -0.0736088  0.00981729  nan  nan  nan  nan  nan  nan  -1.9741  -0.97487  1.47367  -0.238308  0.198839  -0.0400385  0.249866  0.246541  -0.21184  0  0  0  1.45697  1.45464  -0.916539  0.0018231  -0.0193185  -0.011973  -0.0617674  -0.0480203  0.0135712  0.0784447  -0.0604245  -0.00503207  -0.595295  0.703123  -0.0723955 
1701778363.008761000  0  0  10.9149  -0.0647725  -0.0621581  0.0102564  nan  nan  nan  nan  nan  nan  -1.97283  -0.973619  1.4726  -0.239213  0.199686  -0.0402105  0.25717  0.253834  -0.216405  0  0  0  1.46463  1.46251  -0.909312  0.00166829  -0.0194687  -0.0120418  -0.0606533  -0.0467514  0.017602  0.0763263  -0.0580012  -0.00540937  -0.572657  0.657927  -0.0741113 
1701778363.013248000  0  0  10.9579  -0.050739  -0.0760337  0.00954916  nan  nan  nan  nan  nan  nan  -1.97153  -0.972332  1.47151  -0.241084  0.201809  -0.040894  0.264511  0.261165  -0.220932  0  0  0  1.47154  1.46964  -0.901334  0.00125905  -0.0198168  -0.0118868  -0.0624321  -0.0480757  0.0155134  0.0753305  -0.0570326  -0.00542039  -0.591563  0.676768  -0.0651606 
1701778363.018248000  0  0  10.978  -0.0589867  -0.0797781  0.0095686  nan  nan  nan  nan  nan  nan  -1.97019  -0.971008  1.47039  -0.242026  0.203152  -0.0411982  0.271884  0.26853  -0.225417  0  0  0  1.4777  1.47601  -0.892607  0.000964946  -0.0200797  -0.0118631  -0.0630218  -0.0480986  0.0153607  0.0735589  -0.0551405  -0.00564203  -0.558769  0.666849  -0.0631871 
1701778363.023243000  0  0  10.9483  -0.0644559  -0.0605925  0.0101172  nan  nan  nan  nan  nan  nan  -1.96881  -0.969647  1.46925  -0.243285  0.204806  -0.0416483  0.279286  0.275924  -0.229857  0  0  0  1.48311  1.48164  -0.88313  0.000652562  -0.0203132  -0.0117504  -0.0629415  -0.047343  0.0191116  0.0722549  -0.0540582  -0.00591374  -0.535833  0.618521  -0.0673276 
1701778363.028383000  0  0  11.0024  -0.0398596  -0.0825077  0.00966735  nan  nan  nan  nan  nan  nan  -1.96739  -0.968248  1.46809  -0.243515  0.20539  -0.04162  0.286714  0.283345  -0.234248  0  0  0  1.48776  1.48651  -0.872902  0.000380725  -0.020561  -0.0117938  -0.0635704  -0.0477222  0.016347  0.069475  -0.0512852  -0.00622051  -0.559451  0.636839  -0.0586368 
1701778363.033250000  0  0  11.0145  -0.0565627  -0.0771222  0.0102503  nan  nan  nan  nan  nan  nan  -1.96594  -0.966813  1.46691  -0.244125  0.206786  -0.0418714  0.294163  0.290788  -0.238585  0  0  0  1.49167  1.49063  -0.861925  3.42056e-05  -0.020827  -0.0116824  -0.0642197  -0.0474553  0.0167695  0.0678535  -0.0498367  -0.00656516  -0.511127  0.612742  -0.0624774 
1701778363.038248000  0  0  11.0065  -0.0568435  -0.0666843  0.011457  nan  nan  nan  nan  nan  nan  -1.96445  -0.965341  1.46571  -0.244599  0.207865  -0.0420173  0.301629  0.29825  -0.242866  0  0  0  1.49483  1.49401  -0.850197  -0.000275478  -0.021091  -0.0116323  -0.064178  -0.0466406  0.0189124  0.0659817  -0.048305  -0.00703171  -0.493345  0.577775  -0.0728948 
1701778363.043248000  0  0  11.0482  -0.0299566  -0.0829539  0.0116606  nan  nan  nan  nan  nan  nan  -1.96293  -0.963831  1.46448  -0.24466  0.208353  -0.0419298  0.30911  0.305727  -0.247086  0  0  0  1.49724  1.49663  -0.83772  -0.00059116  -0.0213289  -0.0115542  -0.0646083  -0.0468451  0.0170177  0.0632773  -0.045729  -0.00752237  -0.522238  0.586614  -0.0705342 
1701778363.048241000  0  0  11.0603  -0.0472221  -0.0736099  0.0121619  nan  nan  nan  nan  nan  nan  -1.96136  -0.962283  1.46324  -0.244606  0.20936  -0.0419434  0.316601  0.313215  -0.251241  0  0  0  1.4989  1.4985  -0.824493  -0.000929728  -0.0216248  -0.0115067  -0.0650554  -0.0460853  0.0175917  0.0612065  -0.0442183  -0.0080167  -0.468655  0.554028  -0.071857 
1701778363.053251000  0  0  11.0711  -0.0367882  -0.0688279  0.0124332  nan  nan  nan  nan  nan  nan  -1.95976  -0.960698  1.46197  -0.244717  0.209862  -0.0418703  0.324098  0.32071  -0.255329  0  0  0  1.49981  1.49963  -0.810515  -0.00125925  -0.0219066  -0.0114524  -0.0649706  -0.0456611  0.0182791  0.0589943  -0.0422908  -0.00847583  -0.469171  0.526731  -0.0706569 
1701778363.058712000  0  0  11.1047  -0.0153589  -0.0754956  0.0128066  nan  nan  nan  nan  nan  nan  -1.95812  -0.959076  1.46068  -0.243718  0.209345  -0.0413046  0.331597  0.32821  -0.259345  0  0  0  1.5  1.5  -0.795788  -0.00146333  -0.0220789  -0.0114904  -0.0644407  -0.044981  0.0171013  0.055415  -0.0390608  -0.00918843  -0.4791  0.51035  -0.0681982 
1701778363.063243000  0  0  11.1115  -0.0367532  -0.0654177  0.01307  nan  nan  nan  nan  nan  nan  -1.95644  -0.957416  1.45938  -0.243917  0.210895  -0.0415045  0.339097  0.33571  -0.263286  0  0  0  1.5  1.5  -0.780311  -0.00191955  -0.022432  -0.0112911  -0.0654344  -0.0444552  0.0180681  0.0540688  -0.0385764  -0.00961129  -0.423926  0.485738  -0.0672615 
1701778363.068236000  0  0  11.1118  -0.0244115  -0.0589927  0.0127565  nan  nan  nan  nan  nan  nan  -1.95473  -0.955719  1.45805  -0.24407  0.211231  -0.0414003  0.346597  0.34321  -0.267147  0  0  0  1.5  1.5  -0.764083  -0.00224495  -0.0227322  -0.0111863  -0.0650358  -0.0439411  0.0196479  0.052073  -0.0368534  -0.0099865  -0.430249  0.457036  -0.0595911 
1701778363.073248000  0  0  11.1336  -0.0209064  -0.0579708  0.0122307  nan  nan  nan  nan  nan  nan  -1.95298  -0.953984  1.4567  -0.243448  0.211304  -0.0410601  0.354097  0.35071  -0.270926  0  0  0  1.5  1.5  -0.747106  -0.00256348  -0.0229482  -0.0110909  -0.0647899  -0.0433082  0.0194167  0.0495514  -0.0348089  -0.0104658  -0.41406  0.436183  -0.0482262 
1701778363.078247000  0  0  11.166  -0.0398485  -0.0625405  0.0118508  nan  nan  nan  nan  nan  nan  -1.95119  -0.952212  1.45534  -0.242588  0.212251  -0.0408775  0.361597  0.35821  -0.274617  0  0  0  1.5  1.5  -0.729378  -0.00295365  -0.0232505  -0.0110441  -0.065726  -0.0423942  0.0185972  0.047335  -0.0336513  -0.0108897  -0.355784  0.434673  -0.0392385 
1701778363.083244000  0  0  11.1752  -0.0259678  -0.0490348  0.0122453  nan  nan  nan  nan  nan  nan  -1.94936  -0.950402  1.45396  -0.242235  0.211968  -0.040511  0.369097  0.36571  -0.278218  0  0  0  1.5  1.5  -0.710901  -0.00327755  -0.0234642  -0.0109439  -0.0647479  -0.041795  0.0194625  0.0451998  -0.0316228  -0.0113597  -0.363903  0.388999  -0.0394695 
1701778363.088242000  0  0  11.168  -0.0385325  -0.0406462  0.0122097  nan  nan  nan  nan  nan  nan  -1.9475  -0.948555  1.45256  -0.24275  0.212583  -0.0405542  0.376597  0.37321  -0.281772  0  0  0  1.5  1.5  -0.710526  -0.00363444  -0.0237869  -0.0108265  -0.0644951  -0.0414533  0.0201158  0.0442732  -0.0307387  -0.0115808  -0.330249  0.364088  -0.0368136 
1701778363.093239000  0  0  11.1957  -0.0477299  -0.0517868  0.0123251  nan  nan  nan  nan  nan  nan  -1.9456  -0.94667  1.45114  -0.242271  0.213504  -0.0404491  0.384097  0.38071  -0.285322  0  0  0  1.5  1.5  -0.709401  -0.00401698  -0.0240797  -0.0107646  -0.0653426  -0.0408923  0.0180634  0.0426107  -0.0297289  -0.0119741  -0.296559  0.37708  -0.0343237 
1701778363.098245000  0  0  11.1531  -0.0524662  -0.0300408  0.0120735  nan  nan  nan  nan  nan  nan  -1.94366  -0.944748  1.4497  -0.242743  0.213365  -0.0403017  0.391597  0.38821  -0.288865  0  0  0  1.5  1.5  -0.707526  -0.00432677  -0.0242794  -0.0106394  -0.0634013  -0.0399459  0.0215007  0.0418201  -0.0282743  -0.0121855  -0.279812  0.320205  -0.0290635 
1701778363.103227000  0  0  11.1738  -0.0735135  -0.0198461  0.0122961  nan  nan  nan  nan  nan  nan  -1.94168  -0.942788  1.44825  -0.24264  0.214399  -0.040308  0.399097  0.39571  -0.292396  0  0  0  1.5  1.5  -0.704901  -0.00476105  -0.0246035  -0.0105581  -0.0641425  -0.039572  0.0201576  0.0409499  -0.0281592  -0.0124875  -0.229712  0.298757  -0.0288259 
1701778363.108739000  0  0  11.2066  -0.0752827  -0.0398669  0.0126552  nan  nan  nan  nan  nan  nan  -1.93967  -0.940791  1.44678  -0.241098  0.214256  -0.039707  0.406597  0.40321  -0.295912  0  0  0  1.5  1.5  -0.701526  -0.00498613  -0.0247084  -0.0106473  -0.064071  -0.0384402  0.0178447  0.0386087  -0.0260775  -0.0130834  -0.204634  0.319646  -0.027356 
1701778363.113244000  0  0  11.1724  -0.0817447  -0.0119487  0.0129188  nan  nan  nan  nan  nan  nan  -1.93761  -0.938756  1.44529  -0.242502  0.214914  -0.0399619  0.414097  0.41071  -0.29941  0  0  0  1.5  1.5  -0.697401  -0.00547292  -0.0250827  -0.0103903  -0.0629994  -0.0383337  0.0208368  0.0391365  -0.0259778  -0.0131493  -0.196566  0.262893  -0.0299927 
1701778363.118244000  0  0  11.1979  -0.103103  -0.0155716  0.0135294  nan  nan  nan  nan  nan  nan  -1.93553  -0.936684  1.44379  -0.24211  0.215671  -0.0398363  0.421597  0.41821  -0.302885  0  0  0  1.5  1.5  -0.692526  -0.00587104  -0.025373  -0.0103072  -0.0635814  -0.0378583  0.0192144  0.0384173  -0.0255195  -0.0135685  -0.147233  0.265923  -0.033432 
1701778363.123242000  0  0  11.2123  -0.101583  -0.0353146  0.0137494  nan  nan  nan  nan  nan  nan  -1.9334  -0.934574  1.44226  -0.241567  0.215739  -0.0395104  0.429097  0.42571  -0.306334  0  0  0  1.5  1.5  -0.686901  -0.00619286  -0.0255637  -0.0102102  -0.0631866  -0.0372077  0.0183859  0.0373058  -0.0238439  -0.0140129  -0.140046  0.289993  -0.0317379 
1701778363.128241000  0  0  11.1715  -0.11276  0.0013465  0.0145431  nan  nan  nan  nan  nan  nan  -1.93123  -0.932426  1.44072  -0.242339  0.215865  -0.0394967  0.436597  0.43321  -0.309753  0  0  0  1.5  1.5  -0.680526  -0.00659747  -0.025877  -0.0100922  -0.061435  -0.0363962  0.0221739  0.037646  -0.0235364  -0.0142492  -0.120823  0.213842  -0.0392967 
1701778363.133624000  0  0  11.2115  -0.107144  -0.02842  0.0147198  nan  nan  nan  nan  nan  nan  -1.92903  -0.930242  1.43917  -0.240981  0.215738  -0.0389402  0.444097  0.44071  -0.313138  0  0  0  1.5  1.5  -0.673401  -0.00686604  -0.0260369  -0.0101203  -0.0614906  -0.0355526  0.0195253  0.0358759  -0.0218385  -0.0148525  -0.11577  0.257755  -0.0354733 
1701778363.138242000  0  0  11.2209  -0.107485  -0.0440646  0.0143883  nan  nan  nan  nan  nan  nan  -1.92679  -0.928019  1.43759  -0.241367  0.216415  -0.0389718  0.451597  0.44821  -0.316486  0  0  0  1.5  1.5  -0.665526  -0.00732307  -0.0263732  -0.00990708  -0.0614966  -0.0354667  0.0193414  0.0357561  -0.0209533  -0.0150429  -0.113986  0.280899  -0.0294247 
1701778363.143243000  0  0  11.1885  -0.125873  -0.00240895  0.0145554  nan  nan  nan  nan  nan  nan  -1.92452  -0.92576  1.436  -0.242087  0.21622  -0.0388713  0.459097  0.45571  -0.319792  0  0  0  1.5  1.5  -0.656901  -0.00770403  -0.0267016  -0.00974907  -0.0595985  -0.0348163  0.0225204  0.036333  -0.0205264  -0.0152202  -0.0825185  0.193661  -0.029741 
1701778363.148241000  0  0  11.2567  -0.110858  -0.0363747  0.0138829  nan  nan  nan  nan  nan  nan  -1.9222  -0.923462  1.43439  -0.240217  0.216024  -0.0381834  0.466597  0.46321  -0.323053  0  0  0  1.5  1.5  -0.647526  -0.00802144  -0.026878  -0.00968082  -0.060112  -0.034066  0.0175461  0.0341149  -0.0187002  -0.0157849  -0.0921411  0.244792  -0.0156874 
1701778363.153245000  0  0  11.2554  -0.102759  -0.0503999  0.013327  nan  nan  nan  nan  nan  nan  -1.91985  -0.921127  1.43277  -0.240777  0.215887  -0.038062  0.474097  0.47071  -0.326266  0  0  0  1.5  1.5  -0.637401  -0.00840082  -0.0272092  -0.00956076  -0.0590233  -0.0340096  0.0185015  0.0340906  -0.0172049  -0.0158075  -0.108116  0.259085  -0.00851313 
1701778363.158243000  0  0  11.2179  -0.11826  -0.0252783  0.0136998  nan  nan  nan  nan  nan  nan  -1.91746  -0.918755  1.43113  -0.24016  0.215218  -0.0375479  0.481597  0.47821  -0.329426  0  0  0  1.5  1.5  -0.626526  -0.00868224  -0.027369  -0.0094309  -0.056555  -0.0321038  0.0220214  0.0334506  -0.0159014  -0.0161932  -0.0712248  0.19685  -0.00931534 
1701778363.163243000  0  0  11.2966  -0.094747  -0.0605357  0.0131616  nan  nan  nan  nan  nan  nan  -1.91503  -0.916345  1.42948  -0.239611  0.215756  -0.0373381  0.489097  0.48571  -0.33253  0  0  0  1.5  1.5  -0.614901  -0.00915607  -0.0277443  -0.00936074  -0.0579675  -0.0326273  0.0168115  0.032292  -0.0149552  -0.0163928  -0.107592  0.25866  -0.000592285 
1701778363.168234000  0  0  11.2859  -0.0913089  -0.0705561  0.0137245  nan  nan  nan  nan  nan  nan  -1.91257  -0.913898  1.42781  -0.240077  0.215345  -0.0371331  0.496597  0.49321  -0.335574  0  0  0  1.5  1.5  -0.602526  -0.00952538  -0.0280616  -0.00921726  -0.0563273  -0.0322859  0.0185967  0.0322198  -0.0132215  -0.0165243  -0.113804  0.26275  -0.00631374 
1701778363.173247000  0  0  11.275  -0.10601  -0.0483513  0.0145947  nan  nan  nan  nan  nan  nan  -1.91007  -0.911413  1.42612  -0.238785  0.214489  -0.0364272  0.504097  0.50071  -0.338554  0  0  0  1.5  1.5  -0.589401  -0.00979006  -0.028207  -0.00910748  -0.0542628  -0.0303179  0.0201135  0.0309585  -0.0116137  -0.0170846  -0.0727979  0.203549  -0.0115874 
1701778363.178212000  0  0  11.3641  -0.0757147  -0.0817375  0.0138897  nan  nan  nan  nan  nan  nan  -1.90753  -0.908891  1.42442  -0.237991  0.214614  -0.0360686  0.511597  0.50821  -0.341467  0  0  0  1.5  1.5  -0.575526  -0.0102588  -0.0285793  -0.00903147  -0.055398  -0.0308559  0.0141535  0.0294412  -0.0102753  -0.0173157  -0.119429  0.258008  -0.000463702 
1701778363.183216000  0  0  11.3405  -0.0798047  -0.0706044  0.0145819  nan  nan  nan  nan  nan  nan  -1.90495  -0.906331  1.42271  -0.2373  0.213551  -0.0354546  0.519097  0.51571  -0.344308  0  0  0  1.5  1.5  -0.560901  -0.0105212  -0.0287253  -0.00893099  -0.0528021  -0.0292837  0.0169145  0.0284246  -0.00822329  -0.0177069  -0.101897  0.216863  -0.00520515 
1701778363.188407000  0  0  11.3239  -0.0816166  -0.0535995  0.0152113  nan  nan  nan  nan  nan  nan  -1.90234  -0.903734  1.42098  -0.236422  0.212984  -0.0349185  0.526597  0.52321  -0.347075  0  0  0  1.5  1.5  -0.545526  -0.0107845  -0.0289217  -0.00884818  -0.0509978  -0.0275091  0.0192815  0.0273719  -0.00713408  -0.0181055  -0.088588  0.172833  -0.00908605 
