ts fx fy fz tx ty tz exfx exfy exfz extx exty extz xd yd zd rolld pitchd yawd vxd vyd vzd wxd wyd wzd axd ayd azd e_x e_y e_z e_vx e_vy e_vz e_rx e_ry e_rz e_wx e_wy e_wz
1699964228.754096000  0  0  11.3051  0.100673  -0.0200989  0.00204939  nan  nan  nan  nan  nan  nan  -1  0  1  0.00653089  -0.0155347  -0.000101453  0  0  0  0  0  0  0  0  0  0.0137178  -0.00708022  -0.00559331  -0.010967  0.023937  -0.00181128  -0.0181602  0.00812391  -0.00436709  -0.0342712  -0.0345421  0.0180535 
1699964228.758048000  0  0  11.3526  0.0871948  -0.0207007  0.00283063  nan  nan  nan  nan  nan  nan  -1  0  1  0.00629125  -0.0155736  -9.79751e-05  0  0  0  0  0  0  0  0  0  0.0137123  -0.0070978  -0.00560818  -0.0108237  0.0237082  -0.00573513  -0.0177954  0.00807068  -0.00440139  -0.0106719  -0.0328489  0.00863098 
1699964228.763053000  0  0  11.2988  0.0945399  -0.023551  0.00324393  nan  nan  nan  nan  nan  nan  -1  0  1  0.00705055  -0.0155307  -0.000109497  0  0  0  0  0  0  0  0  0  0.0136605  -0.00697852  -0.00558559  -0.0108553  0.0243589  -0.00131045  -0.0186785  0.00791995  -0.0044147  -0.0172378  -0.0257615  0.0035978 
1699964228.768046000  0  0  11.3165  0.0934718  -0.0370988  0.00324885  nan  nan  nan  nan  nan  nan  -1  0  1  0.00625778  -0.0153972  -9.63497e-05  0  0  0  0  0  0  0  0  0  0.0136766  -0.00709142  -0.00558006  -0.0110288  0.0236268  -0.00278922  -0.0180496  0.00796681  -0.00442869  -0.0208872  0.000903054  0.00367624 
1699964228.773045000  0  0  11.3808  0.0698195  -0.0376868  0.00351477  nan  nan  nan  nan  nan  nan  -1  0  1  0.00573767  -0.0155893  -8.94433e-05  0  0  0  0  0  0  0  0  0  0.0136777  -0.00714753  -0.00559448  -0.0106786  0.0231384  -0.00810785  -0.0171524  0.00822269  -0.00446094  0.0181636  -0.000275204  0.000674717 
1699964228.778076000  0  0  11.3161  0.07678  -0.0468831  0.00369389  nan  nan  nan  nan  nan  nan  -1  0  1  0.00641885  -0.015638  -0.000100375  0  0  0  0  0  0  0  0  0  0.0136263  -0.00703079  -0.00557571  -0.0106149  0.0236942  -0.00276162  -0.0178192  0.00842776  -0.00447444  0.0103766  0.0162309  -0.00142924 
1699964228.783014000  0  0  11.3324  0.0735203  -0.0637971  0.00390344  nan  nan  nan  nan  nan  nan  -1  0  1  0.00614601  -0.0154037  -9.46688e-05  0  0  0  0  0  0  0  0  0  0.0136207  -0.00705525  -0.00558081  -0.0108692  0.0234167  -0.0041099  -0.0174494  0.00866703  -0.00451633  0.013494  0.0478575  -0.00362973 
1699964228.788045000  0  0  11.3987  0.0483119  -0.0622749  0.0046128  nan  nan  nan  nan  nan  nan  -1  0  1  0.00670299  -0.0153747  -0.000103054  0  0  0  0  0  0  0  0  0  0.0135693  -0.00693723  -0.00564583  -0.0106783  0.0239051  -0.00949568  -0.0173697  0.00885228  -0.00461967  0.063177  0.0431088  -0.0114633 
1699964228.793044000  0  0  11.3276  0.0583349  -0.0696329  0.00429012  nan  nan  nan  nan  nan  nan  -1  0  1  0.00572944  -0.0161709  -9.2647e-05  0  0  0  0  0  0  0  0  0  0.0136185  -0.00704229  -0.0055769  -0.00990703  0.0228601  -0.0037041  -0.0164157  0.00988619  -0.0046459  0.0343542  0.0483129  -0.00716743 
1699964228.798052000  0  0  11.3644  0.0546032  -0.0896102  0.00351857  nan  nan  nan  nan  nan  nan  -1  0  1  0.00512192  -0.0160982  -8.24511e-05  0  0  0  0  0  0  0  0  0  0.0136511  -0.00714383  -0.00560934  -0.0100052  0.0223421  -0.00670235  -0.0156502  0.0104651  -0.00459453  0.0347757  0.0829417  0.00196316 
1699964228.803012000  0  0  11.3995  0.0356846  -0.0742168  0.0036904  nan  nan  nan  nan  nan  nan  -1  0  1  0.00571559  -0.0160432  -9.16935e-05  0  0  0  0  0  0  0  0  0  0.0136039  -0.00703251  -0.00566297  -0.00990726  0.0228666  -0.00951035  -0.0156262  0.0104949  -0.00460417  0.0723916  0.0518803  -8.82931e-05 
1699964228.808052000  0  0  11.3293  0.0514237  -0.0745776  0.00327697  nan  nan  nan  nan  nan  nan  -1  0  1  0.00484961  -0.0166325  -8.06577e-05  0  0  0  0  0  0  0  0  0  0.0136442  -0.00712822  -0.00562277  -0.00938053  0.0219446  -0.00373477  -0.0147923  0.0112576  -0.00457067  0.0332413  0.0455853  0.00474453 
1699964228.813175000  0  0  11.367  0.0521525  -0.0773063  0.00341092  nan  nan  nan  nan  nan  nan  -1  0  1  0.00574131  -0.0159773  -9.17278e-05  0  0  0  0  0  0  0  0  0  0.0135916  -0.00701162  -0.00567488  -0.010021  0.0228321  -0.00678365  -0.01552  0.0109595  -0.00455664  0.0384794  0.0537854  0.00292987 
1699964228.818054000  0  0  11.371  0.0421852  -0.0626306  0.00371984  nan  nan  nan  nan  nan  nan  -1  0  1  0.00534348  -0.0161718  -8.64107e-05  0  0  0  0  0  0  0  0  0  0.0135969  -0.00704352  -0.00567675  -0.00978036  0.0224028  -0.00710104  -0.0147587  0.011114  -0.00459069  0.0514097  0.0230128  -0.000591082 
1699964228.823050000  0  0  11.3279  0.0645124  -0.0617637  0.00340648  nan  nan  nan  nan  nan  nan  -1  0  1  0.00435029  -0.0167593  -7.2905e-05  0  0  0  0  0  0  0  0  0  0.0136461  -0.00717871  -0.00564256  -0.00922772  0.0214276  -0.00356904  -0.014041  0.011731  -0.00457799  0.00015282  0.0156025  0.0031989 
1699964228.828048000  0  0  11.3469  0.0786533  -0.0658367  0.00352045  nan  nan  nan  nan  nan  nan  -1  0  1  0.00548959  -0.0161039  -8.84008e-05  0  0  0  0  0  0  0  0  0  0.0135953  -0.0070653  -0.00567885  -0.00990532  0.0226212  -0.00510324  -0.015381  0.0113022  -0.00456594  -0.015801  0.027693  0.00165385 
1699964228.833048000  0  0  11.336  0.0669014  -0.0466629  0.00425659  nan  nan  nan  nan  nan  nan  -1  0  1  0.00457614  -0.0165596  -7.57764e-05  0  0  0  0  0  0  0  0  0  0.013632  -0.00717901  -0.00564759  -0.00943274  0.0217166  -0.00423846  -0.0143622  0.0114772  -0.00466383  -0.00167023  -0.0122642  -0.0065691 
1699964228.838076000  0  0  11.2942  0.0951103  -0.0447899  0.00394086  nan  nan  nan  nan  nan  nan  -1  0  1  0.00544859  -0.0162134  -8.83373e-05  0  0  0  0  0  0  0  0  0  0.0135828  -0.00706727  -0.00564025  -0.00983436  0.022542  -0.000788297  -0.0157207  0.011045  -0.00464279  -0.0455897  -0.0120343  -0.00283281 
1699964228.843063000  0  0  11.311  0.0979746  -0.0474431  0.00384975  nan  nan  nan  nan  nan  nan  -1  -0  1  0.00569915  -0.0158722  -9.04554e-05  6e-07  -6e-07  6e-07  0  0  0  0  0  0  0.0135798  -0.00709201  -0.00563114  -0.010226  0.0229221  -0.00221982  -0.0162124  0.0107736  -0.00464838  -0.0467949  -0.00423064  -0.00163813 
1699964228.848016000  0  0  11.2907  0.0849661  -0.030767  0.00364569  nan  nan  nan  nan  nan  nan  -1  -0  1  0.00506603  -0.0162217  -8.21767e-05  5e-06  -5e-06  5e-06  0  0  0  0  0  0  0.0136113  -0.00719129  -0.00558298  -0.00989378  0.0223355  -0.000612802  -0.0155819  0.0107498  -0.00464832  -0.0265786  -0.0373638  0.000912083 
1699964228.853069000  0  0  11.2908  0.109793  -0.0366186  0.00315312  nan  nan  nan  nan  nan  nan  -1  -1e-07  1  0.00596698  -0.0158505  -9.45768e-05  1.69e-05  -1.69e-05  1.69e-05  0  0  0  0  0  0  0.0135607  -0.00707649  -0.00558936  -0.0102463  0.0232109  -0.000629031  -0.0170066  0.0103323  -0.0045698  -0.063126  -0.0218204  0.00628407 
1699964228.858065000  0  0  11.3174  0.103358  -0.0369169  0.00325561  nan  nan  nan  nan  nan  nan  -1  -2e-07  1  0.00479638  -0.0160181  -7.67264e-05  4e-05  -4e-05  4e-05  0  0  0  0  0  0  0.0136247  -0.00727858  -0.00555284  -0.0101312  0.0222056  -0.00291241  -0.0161229  0.0104262  -0.00458534  -0.0583845  -0.0220875  0.00515828 
1699964228.863062000  0  0  11.29  0.0958973  -0.0184039  0.00390578  nan  nan  nan  nan  nan  nan  -1  -5e-07  1  0.00567425  -0.0157434  -8.91294e-05  7.81e-05  -7.81e-05  7.81e-05  0  0  0  0  0  0  0.0135749  -0.00716631  -0.00554348  -0.0104139  0.0230427  -0.000653601  -0.0170178  0.00969027  -0.00463774  -0.0352307  -0.0523426  -0.00244485 
1699964228.868061000  0  0  11.3037  0.106969  -0.0284894  0.00328108  nan  nan  nan  nan  nan  nan  -0.999999  -1e-06  1  0.00523195  -0.0158376  -8.2459e-05  0.000135  -0.000135  0.000135  0  0  0  0  0  0  0.0136077  -0.00724273  -0.00552856  -0.0103444  0.0226657  -0.00183001  -0.017007  0.00971755  -0.00458495  -0.0574741  -0.0324226  0.0048361 
1699964228.873078000  0  0  11.3338  0.103615  -0.0240201  0.00323881  nan  nan  nan  nan  nan  nan  -0.999998  -1.9e-06  1  0.00628902  -0.0151217  -9.44981e-05  0.0002141  -0.0002144  0.0002134  0  0  0  0  0  0  0.0135523  -0.00712525  -0.00555628  -0.0110699  0.0237535  -0.00429271  -0.0181795  0.0088554  -0.0045462  -0.0399786  -0.0334295  0.00497687 
1699964228.878061000  0  0  11.3036  0.0852147  -0.0118141  0.00348919  nan  nan  nan  nan  nan  nan  -0.999997  -3.2e-06  1  0.00591437  -0.0152852  -8.95999e-05  0.0003149  -0.00032  0.0003113  0  0  0  0  0  0  0.0135618  -0.0071874  -0.00551448  -0.0109365  0.0233999  -0.0018562  -0.017644  0.00858832  -0.00456705  -0.00810455  -0.0553843  0.00205564 
1699964228.882999000  0  0  11.3092  0.0952925  -0.0206291  0.00301466  nan  nan  nan  nan  nan  nan  -0.999995  -5.1e-06  1.00001  0.00595171  -0.0150931  -8.88272e-05  0.0004338  -0.0004556  0.0004249  0  0  0  0  0  0  0.013542  -0.00718274  -0.00551335  -0.0111244  0.0234401  -0.00232509  -0.0179157  0.00835674  -0.00450382  -0.0257607  -0.0356239  0.00735492 
1699964228.888055000  0  0  11.3464  0.0876535  -0.0233484  0.00292955  nan  nan  nan  nan  nan  nan  -0.999992  -7.8e-06  1.00001  0.00697377  -0.0141974  -9.78079e-05  0.0005669  -0.000625  0.0005504  0  0  0  0  0  0  0.0134803  -0.00706073  -0.00554794  -0.0120538  0.0244824  -0.00537377  -0.0188489  0.00746792  -0.00445349  -0.00189702  -0.0220081  0.00791556 
1699964228.893052000  0  0  11.3217  0.0743258  -0.00903253  0.00331822  nan  nan  nan  nan  nan  nan  -0.999989  -1.14e-05  1.00001  0.00688195  -0.0140869  -9.55436e-05  0.0007105  -0.0008319  0.0006841  0  0  0  0  0  0  0.0134575  -0.00706273  -0.00552337  -0.0121814  0.0243521  -0.00335443  -0.0184678  0.00697855  -0.00446884  0.0212522  -0.0461376  0.00321064 
1699964228.898051000  0  0  11.3433  0.0836943  -0.0247597  0.00291421  nan  nan  nan  nan  nan  nan  -0.999985  -1.62e-05  1.00001  0.00662239  -0.0140798  -9.16403e-05  0.000861  -0.00108  0.0008222  0  0  0  0  0  0  0.013453  -0.00712116  -0.00551708  -0.0121466  0.0241714  -0.00517017  -0.0182781  0.00709479  -0.00441154  0.000770181  -0.0157526  0.00768775 
1699964228.903058000  0  0  11.3617  0.0733842  -0.0295131  0.00301814  nan  nan  nan  nan  nan  nan  -0.999981  -2.23e-05  1.00002  0.00750023  -0.0133463  -9.83996e-05  0.0010145  -0.0013731  0.000961  0  0  0  0  0  0  0.0133893  -0.00699891  -0.00555646  -0.0129021  0.0250216  -0.00662703  -0.0188933  0.00647237  -0.00438371  0.0270503  -0.000519572  0.00611031 
1699964228.908053000  0  0  11.3252  0.0515217  -0.016519  0.00383101  nan  nan  nan  nan  nan  nan  -0.999975  -3e-05  1.00002  0.0064197  -0.0136384  -8.57528e-05  0.0011672  -0.001715  0.0010968  0  0  0  0  0  0  0.0134153  -0.00714414  -0.00550969  -0.0126471  0.023954  -0.00366418  -0.017338  0.00647705  -0.00448872  0.0564661  -0.0265508  -0.00300045 
1699964228.913561000  0  0  11.3328  0.0559971  -0.0331191  0.00322868  nan  nan  nan  nan  nan  nan  -0.999969  -3.96e-05  1.00003  0.00596412  -0.0137305  -8.01889e-05  0.0013155  -0.0021094  0.0012257  0  0  0  0  0  0  0.0134145  -0.00723737  -0.00548121  -0.012518  0.0235929  -0.00434849  -0.0166525  0.00681865  -0.00443549  0.0412088  0.00350652  0.00399636 
1699964228.918050000  0  0  11.328  0.0481682  -0.0360255  0.0024621  nan  nan  nan  nan  nan  nan  -0.999962  -5.12e-05  1.00004  0.00685756  -0.0131621  -8.88591e-05  0.0014556  -0.0025587  0.0013441  0  0  0  0  0  0  0.0133549  -0.0071288  -0.00550134  -0.0131081  0.0244731  -0.00391656  -0.0171537  0.00638497  -0.00432682  0.0614778  0.0133091  0.012492 
1699964228.923057000  0  0  11.3117  0.0395813  -0.0255681  0.00310408  nan  nan  nan  nan  nan  nan  -0.999954  -6.52e-05  1.00004  0.00686541  -0.013084  -8.89257e-05  0.0015837  -0.0030604  0.0014482  0  0  0  0  0  0  0.013336  -0.00714075  -0.00547328  -0.0131883  0.024497  -0.00260749  -0.0166553  0.00617804  -0.00434805  0.0740663  -0.00570186  0.00467952 
1699964228.928048000  0  0  11.3287  0.0550707  -0.0383962  0.00276361  nan  nan  nan  nan  nan  nan  -0.999946  -8.19e-05  1.00005  0.00803474  -0.0128379  -0.000103149  0.0016961  -0.0036108  0.0015342  0  0  0  0  0  0  0.0132717  -0.00701451  -0.00550328  -0.0133301  0.0257014  -0.00396792  -0.0176758  0.00616966  -0.00427569  0.0524759  0.0200315  0.00821178 
1699964228.933065000  0  0  11.3072  0.05478  -0.0486083  0.00278912  nan  nan  nan  nan  nan  nan  -0.999938  -0.0001014  1.00006  0.00792035  -0.0129576  -0.000103928  0.001789  -0.0042061  0.0015988  0  0  0  0  0  0  0.0132707  -0.00706875  -0.00544842  -0.0132083  0.025659  -0.00228955  -0.0173082  0.00661283  -0.00424108  0.0496756  0.0363786  0.00754681 
1699964228.938051000  0  0  11.3097  0.056064  -0.0395468  0.00322235  nan  nan  nan  nan  nan  nan  -0.999928  -0.000124  1.00007  0.00922418  -0.0124768  -0.000118189  0.0018593  -0.0048425  0.0016434  0  0  0  0  0  0  0.0132019  -0.00693646  -0.00546496  -0.0136555  0.0270059  -0.00247023  -0.0182884  0.00615203  -0.00425473  0.0561257  0.022495  0.00226791 
1699964228.943055000  0  0  11.3167  0.0752655  -0.0474768  0.00350348  nan  nan  nan  nan  nan  nan  -0.999919  -0.0001499  1.00007  0.00962875  -0.0127245  -0.000128022  0.0019086  -0.0055164  0.0016716  0  0  0  0  0  0  0.0131994  -0.00694233  -0.00544072  -0.0133284  0.0275348  -0.00310798  -0.0187739  0.00662488  -0.00427901  0.0221888  0.0340048  -0.00100335 
1699964228.948048000  0  0  11.273  0.0805294  -0.0539558  0.00347406  nan  nan  nan  nan  nan  nan  -0.999909  -0.0001792  1.00008  0.0097824  -0.0129528  -0.00013541  0.0019405  -0.0062239  0.0016872  0  0  0  0  0  0  0.0132014  -0.00699298  -0.00536925  -0.0131086  0.027793  0.000385468  -0.0188875  0.00714322  -0.00427947  0.0127065  0.042194  -0.000631131 
1699964228.953050000  0  0  11.3024  0.0853696  -0.047984  0.00334848  nan  nan  nan  nan  nan  nan  -0.9999  -0.0002122  1.00009  0.0111624  -0.0126327  -0.000153714  0.0019589  -0.0069612  0.0016939  0  0  0  0  0  0  0.0131359  -0.0068504  -0.00539572  -0.0133222  0.0292415  -0.00202306  -0.0201814  0.0069104  -0.00426377  0.0149298  0.0323923  0.000781647 
1699964228.958048000  0  0  11.3087  0.100295  -0.0574682  0.00220603  nan  nan  nan  nan  nan  nan  -0.99989  -0.0002489  1.0001  0.0113705  -0.0129584  -0.000165145  0.0019674  -0.0077248  0.0016954  0  0  0  0  0  0  0.0131499  -0.00690056  -0.00535811  -0.0129347  0.0296223  -0.0026386  -0.0205649  0.00756689  -0.00410538  -0.0113928  0.045321  0.0134784 
1699964228.963598000  0  0  11.2541  0.1059  -0.0548678  0.00210367  nan  nan  nan  nan  nan  nan  -0.99988  -0.0002895  1.00011  0.0115554  -0.0132178  -0.000176739  0.0019699  -0.0085107  0.0016955  0  0  0  0  0  0  0.013154  -0.00693168  -0.0052803  -0.0126979  0.0298536  0.00175289  -0.020881  0.00801156  -0.00401609  -0.0196952  0.0360292  0.0138651 
1699964228.968047000  0  0  11.312  0.107549  -0.0492004  0.00256572  nan  nan  nan  nan  nan  nan  -0.99987  -0.000334  1.00012  0.0129799  -0.0129137  -0.000199123  0.0019701  -0.0093153  0.0016955  0  0  0  0  0  0  0.0130959  -0.00678993  -0.00532199  -0.0128649  0.0314039  -0.00300385  -0.0222931  0.00774789  -0.00400862  -0.0100022  0.0271202  0.00801466 
1699964228.973048000  0  0  11.3295  0.116819  -0.0598514  0.00298072  nan  nan  nan  nan  nan  nan  -0.99986  -0.0003826  1.00013  0.0129397  -0.01334  -0.00021312  0.0019701  -0.0101348  0.0016955  0  0  0  0  0  0  0.0131146  -0.00685639  -0.00530974  -0.0123443  0.031526  -0.00448778  -0.0224178  0.00851017  -0.00401627  -0.0273939  0.0414092  0.00290372 
1699964228.978051000  0  0  11.2456  0.123548  -0.0513987  0.00315385  nan  nan  nan  nan  nan  nan  -0.99985  -0.0004354  1.00013  0.0144654  -0.0130736  -0.000240223  0.0019701  -0.0109655  0.0016955  0  0  0  0  0  0  0.0130506  -0.00669601  -0.00525722  -0.0126581  0.0329561  0.00236983  -0.0240608  0.00830139  -0.0040034  -0.0257359  0.0264246  0.00061088 
1699964228.983055000  0  0  11.3134  0.106959  -0.0467982  0.00340355  nan  nan  nan  nan  nan  nan  -0.999841  -0.0004923  1.00014  0.0146404  -0.0133106  -0.000258381  0.0019701  -0.0118035  0.0016955  0  0  0  0  0  0  0.0130817  -0.00672679  -0.00525552  -0.0123305  0.0333531  -0.00327742  -0.0239864  0.00853897  -0.00401572  0.00675701  0.0150379  -0.00238726 
1699964228.988048000  0  0  11.3456  0.117783  -0.0470459  0.00318138  nan  nan  nan  nan  nan  nan  -0.999831  -0.0005534  1.00015  0.015904  -0.0131086  -0.00028649  0.0019701  -0.0126452  0.0016955  0  0  0  0  0  0  0.0130207  -0.00655892  -0.00528928  -0.0124009  0.0346259  -0.00590546  -0.0253082  0.00842483  -0.0039879  -0.00273159  0.0165833  0.000111794 
1699964228.993050000  0  0  11.2779  0.116135  -0.038451  0.00317405  nan  nan  nan  nan  nan  nan  -0.999821  -0.0006188  1.00016  0.0161345  -0.0131073  -0.000306293  0.0019701  -0.0134869  0.0016955  0  0  0  0  0  0  0.0130311  -0.00657637  -0.00521265  -0.0125237  0.0348338  -0.00042183  -0.0254752  0.00835297  -0.00397421  0.00210238  5.46653e-05  6.652e-05 
1699964228.998047000  0  0  11.3415  0.0938356  -0.030193  0.00333413  nan  nan  nan  nan  nan  nan  -0.999811  -0.0006883  1.00017  0.0164496  -0.0130559  -0.000328778  0.0019701  -0.0143246  0.0016955  0  0  0  0  0  0  0.013039  -0.00658402  -0.00523398  -0.012513  0.0353614  -0.00566926  -0.0252682  0.00816402  -0.00398534  0.0447965  -0.0147229  -0.00182325 
1699964229.003056000  0  0  11.361  0.107247  -0.0273041  0.00282858  nan  nan  nan  nan  nan  nan  -0.999801  -0.000762  1.00018  0.0174015  -0.0129218  -0.000360676  0.0019701  -0.0151548  0.0016955  0  0  0  0  0  0  0.0129785  -0.00640924  -0.00526871  -0.0125184  0.0362105  -0.00722255  -0.0261845  0.00791104  -0.00390758  0.026403  -0.0181733  0.00371856 
1699964229.008048000  0  0  11.2693  0.0912497  -0.0289058  0.00235901  nan  nan  nan  nan  nan  nan  -0.999791  -0.0008398  1.00018  0.0168703  -0.0131571  -0.000382579  0.0019701  -0.0159736  0.0016955  0  0  0  0  0  0  0.0130241  -0.00650796  -0.00514999  -0.0124568  0.0355863  0.000186025  -0.0252076  0.00810112  -0.00383293  0.0494102  -0.0167187  0.00884167 
1699964229.013052000  0  0  11.3362  0.0701896  -0.0242952  0.00261823  nan  nan  nan  nan  nan  nan  -0.999781  -0.0009217  1.00019  0.0182759  -0.0126453  -0.000419724  0.0019701  -0.0167773  0.0016955  0  0  0  0  0  0  0.0129605  -0.0063244  -0.00520749  -0.012861  0.0370745  -0.00526009  -0.0258177  0.00747249  -0.00379465  0.0971436  -0.0201566  0.00521858 
1699964229.018050000  0  0  11.3279  0.0817321  -0.0212635  0.00183749  nan  nan  nan  nan  nan  nan  -0.999772  -0.0010076  1.0002  0.017893  -0.0130486  -0.000453397  0.0019701  -0.0175622  0.0016955  0  0  0  0  0  0  0.0129808  -0.00635159  -0.00517391  -0.0124097  0.0366348  -0.00462686  -0.025238  0.00768259  -0.00364913  0.0687249  -0.0281528  0.0135227 
1699964229.023054000  0  0  11.2646  0.0711477  -0.0278541  0.00188629  nan  nan  nan  nan  nan  nan  -0.999762  -0.0010973  1.00021  0.0179553  -0.012929  -0.000487062  0.0019701  -0.0183245  0.0016955  0  0  0  0  0  0  0.0129848  -0.00635867  -0.00508767  -0.0126597  0.036602  0.000476911  -0.0247505  0.00757774  -0.00356923  0.0854092  -0.014007  0.0121137 
1699964229.028047000  0  0  11.3258  0.0482386  -0.0189729  0.00295804  nan  nan  nan  nan  nan  nan  -0.999752  -0.0011908  1.00022  0.0190648  -0.0123955  -0.00053014  0.0019701  -0.0190604  0.0016955  0  0  0  0  0  0  0.0129203  -0.00617296  -0.00513811  -0.0130982  0.0377075  -0.0045026  -0.0248947  0.0068525  -0.00360865  0.132554  -0.0250972  -0.000889038 
1699964229.033047000  0  0  11.2963  0.06371  -0.0195689  0.00302665  nan  nan  nan  nan  nan  nan  -0.999742  -0.0012879  1.00023  0.0184429  -0.0129214  -0.000575129  0.0019701  -0.0197662  0.0016955  0  0  0  0  0  0  0.0129516  -0.00622932  -0.00505962  -0.0125479  0.0369881  -0.00219646  -0.023946  0.00720231  -0.0035995  0.0928836  -0.0271235  -0.00183808 
1699964229.038562000  0  0  11.2624  0.0636451  -0.0298501  0.00333274  nan  nan  nan  nan  nan  nan  -0.999732  -0.0013884  1.00024  0.0182212  -0.0128949  -0.00061898  0.0019701  -0.0204382  0.0016955  0  0  0  0  0  0  0.0129669  -0.0062521  -0.00499007  -0.0126631  0.0366906  0.000498466  -0.0232414  0.0072431  -0.0036159  0.0865303  -0.00693635  -0.00550025 
1699964229.043055000  0  0  11.3187  0.0477011  -0.0240436  0.00422158  nan  nan  nan  nan  nan  nan  -0.999722  -0.0014922  1.00024  0.0192458  -0.0124852  -0.000676011  0.0019701  -0.0210726  0.0016955  0  0  0  0  0  0  0.0129085  -0.0060738  -0.00502435  -0.0129661  0.0376965  -0.00410659  -0.0234751  0.00673567  -0.00369394  0.120569  -0.013881  -0.0158303 
1699964229.048047000  0  0  11.3  0.0611531  -0.0243786  0.0035985  nan  nan  nan  nan  nan  nan  -0.999712  -0.001599  1.00025  0.0186099  -0.0129612  -0.000733328  0.0019701  -0.0216656  0.0016955  0  0  0  0  0  0  0.0129172  -0.00608869  -0.00497991  -0.0124129  0.0368894  -0.00263104  -0.0225614  0.00706426  -0.0036518  0.0852586  -0.0162339  -0.00846317 
1699964229.053048000  0  0  11.2863  0.0679409  -0.0337972  0.00325385  nan  nan  nan  nan  nan  nan  -0.999703  -0.0017087  1.00026  0.0198916  -0.012291  -0.000797713  0.0019701  -0.0222136  0.0016955  0  0  0  0  0  0  0.012851  -0.00589874  -0.00498274  -0.0131234  0.0380466  -0.00148762  -0.0235003  0.00656631  -0.00358995  0.0803212  0.00718442  -0.00477366 
1699964229.058046000  0  0  11.32  0.0524139  -0.0330615  0.00353592  nan  nan  nan  nan  nan  nan  -0.999693  -0.0018211  1.00027  0.0191787  -0.0125548  -0.000860209  0.0019701  -0.0227126  0.0016955  0  0  0  0  0  0  0.0128644  -0.00594539  -0.00497584  -0.0127747  0.037326  -0.00429367  -0.0220782  0.00685695  -0.00359837  0.0982917  0.003039  -0.00821527 
1699964229.063055000  0  0  11.2957  0.0768734  -0.0341749  0.00308589  nan  nan  nan  nan  nan  nan  -0.999683  -0.0019358  1.00028  0.0198301  -0.0126195  -0.000941073  0.0019701  -0.0231591  0.0016955  0  0  0  0  0  0  0.0128037  -0.00576022  -0.00497645  -0.0125899  0.0376793  -0.00226426  -0.0226947  0.00692961  -0.00350501  0.0550445  0.00459733  -0.00352345 
1699964229.068048000  0  0  11.2988  0.0754876  -0.0465994  0.00275874  nan  nan  nan  nan  nan  nan  -0.999673  -0.0020526  1.00029  0.0196652  -0.01252  -0.00101363  0.0019701  -0.0235507  0.0016955  0  0  0  0  0  0  0.0128109  -0.0057808  -0.00492676  -0.0127248  0.0375235  -0.00262328  -0.0222312  0.00709757  -0.00342272  0.0535523  0.0279012  -0.000257048 
1699964229.073048000  0  0  11.3264  0.0638107  -0.041763  0.00302353  nan  nan  nan  nan  nan  nan  -0.999663  -0.0021712  1.0003  0.0186163  -0.0128523  -0.00108868  0.0019701  -0.0238899  0.0016955  0  0  0  0  0  0  0.0128313  -0.00586641  -0.00490829  -0.0123134  0.0364516  -0.00495184  -0.0207365  0.00744375  -0.00340247  0.0631543  0.0150435  -0.00376946 
1699964229.078046000  0  0  11.2929  0.0901341  -0.048953  0.00225906  nan  nan  nan  nan  nan  nan  -0.999653  -0.0022914  1.0003  0.0192882  -0.0129377  -0.00118657  0.0019701  -0.0241806  0.0016955  0  0  0  0  0  0  0.0127727  -0.0056848  -0.00489483  -0.0121204  0.0368206  -0.00219152  -0.0215773  0.00771609  -0.00323799  0.0182432  0.0269178  0.00414156 
1699964229.083056000  0  0  11.3049  0.0804601  -0.0594817  0.00163872  nan  nan  nan  nan  nan  nan  -0.999643  -0.0024129  1.00031  0.0187871  -0.0128383  -0.00127152  0.0019701  -0.0244265  0.0016955  0  0  0  0  0  0  0.0127867  -0.00574099  -0.00485965  -0.0122581  0.0363403  -0.00326431  -0.020811  0.00795622  -0.0030608  0.0305409  0.0457662  0.010124 
1699964229.088049000  0  0  11.3148  0.074746  -0.0482902  0.001774  nan  nan  nan  nan  nan  nan  -0.999634  -0.0025356  1.00032  0.0195175  -0.012607  -0.00137538  0.0019701  -0.0246313  0.0016955  0  0  0  0  0  0  0.0127267  -0.00555862  -0.00488226  -0.0123977  0.0368728  -0.00403768  -0.0211996  0.00773712  -0.00294654  0.0455446  0.0253988  0.00729046 
1699964229.093047000  0  0  11.2717  0.0936011  -0.0577629  0.00213329  nan  nan  nan  nan  nan  nan  -0.999624  -0.0026592  1.00033  0.0184533  -0.0134058  -0.0014816  0.0019701  -0.0247989  0.0016955  0  0  0  0  0  0  0.0127807  -0.0056372  -0.00479902  -0.011577  0.0356178  -0.00062046  -0.0203595  0.00873769  -0.00286603  0.000105281  0.035139  0.00199418 
1699964229.098048000  0  0  11.3085  0.078568  -0.0653262  0.00285143  nan  nan  nan  nan  nan  nan  -0.999614  -0.0027835  1.00034  0.0175856  -0.0134671  -0.00158184  0.0019701  -0.0249328  0.0016955  0  0  0  0  0  0  0.0128027  -0.00573302  -0.00476888  -0.0114933  0.0348134  -0.00374407  -0.0192883  0.00912917  -0.00284885  0.0203166  0.0466642  -0.00715439 
1699964229.103054000  0  0  11.3193  0.0673267  -0.0499577  0.00341113  nan  nan  nan  nan  nan  nan  -0.999604  -0.0029085  1.00035  0.0182483  -0.0133541  -0.00170561  0.0019701  -0.025037  0.0016955  0  0  0  0  0  0  0.0127462  -0.00555836  -0.00479171  -0.0114896  0.0352782  -0.00458951  -0.019557  0.00893613  -0.00284826  0.0452708  0.017703  -0.0141566 
1699964229.108048000  0  0  11.2779  0.0835517  -0.0561466  0.00320046  nan  nan  nan  nan  nan  nan  -0.999594  -0.0030339  1.00035  0.0169761  -0.0139528  -0.00182168  0.0019701  -0.0251151  0.0016955  0  0  0  0  0  0  0.0127851  -0.00565236  -0.00471045  -0.0108877  0.0338054  -0.00131115  -0.0184907  0.00965698  -0.00280492  0.00301135  0.0234489  -0.0119566 
1699964229.113049000  0  0  11.3163  0.0745584  -0.0598543  0.00342296  nan  nan  nan  nan  nan  nan  -0.999584  -0.0031596  1.00036  0.0178697  -0.013383  -0.00195307  0.0019701  -0.0251709  0.0016955  0  0  0  0  0  0  0.0127266  -0.00547852  -0.00474831  -0.0114096  0.0346143  -0.00443017  -0.0191341  0.00933751  -0.00276786  0.0269168  0.0338035  -0.0151085 
1699964229.118048000  0  0  11.3037  0.0570412  -0.0447589  0.00335673  nan  nan  nan  nan  nan  nan  -0.999575  -0.0032855  1.00037  0.0170425  -0.0136112  -0.00208108  0.0019701  -0.0252082  0.0016955  0  0  0  0  0  0  0.0127345  -0.0054942  -0.00469977  -0.0111588  0.0335819  -0.00347387  -0.0179226  0.00939076  -0.00271508  0.0508054  0.0031228  -0.0148084 
1699964229.122051000  0  0  11.2654  0.072089  -0.0404241  0.00207797  nan  nan  nan  nan  nan  nan  -0.999565  -0.0034116  1.00038  0.0173939  -0.0135448  -0.00222611  0.0019701  -0.0252306  0.0016955  0  0  0  0  0  0  0.0126885  -0.0053361  -0.00468932  -0.0111936  0.0335958  -0.000302462  -0.0183293  0.00925436  -0.00248998  0.0244516  -0.00429197  -0.00107485 
1699964229.128049000  0  0  11.2987  0.0624659  -0.0434043  0.00113034  nan  nan  nan  nan  nan  nan  -0.999555  -0.0035378  1.00039  0.0170602  -0.0131414  -0.00236241  0.0019701  -0.025242  0.0016955  0  0  0  0  0  0  0.0126724  -0.00532465  -0.00465773  -0.0116121  0.0332143  -0.00314443  -0.0177044  0.00899521  -0.00223618  0.0379491  0.00405262  0.00823254 
1699964229.133047000  0  0  11.2888  0.0551182  -0.0220229  0.00068458  nan  nan  nan  nan  nan  nan  -0.999545  -0.003664  1.0004  0.0174185  -0.0128167  -0.00251536  0.0019701  -0.0252461  0.0016955  0  0  0  0  0  0  0.0126138  -0.00516021  -0.00466506  -0.0118994  0.0332779  -0.00229329  -0.0176906  0.00829961  -0.00200229  0.0525174  -0.0323106  0.0114656 
1699964229.138562000  0  0  11.2459  0.0607199  -0.0263779  0.000175409  nan  nan  nan  nan  nan  nan  -0.999535  -0.0037903  1.00041  0.014928  -0.0136186  -0.00265561  0.0019701  -0.0252466  0.0016955  0  0  0  0  0  0  0.0127233  -0.00546026  -0.00450673  -0.0112073  0.0307441  0.000956598  -0.0153099  0.00894588  -0.00178257  0.0194114  -0.0295463  0.0156331 
1699964229.143064000  0  0  11.2776  0.0576645  -0.024819  0.000222064  nan  nan  nan  nan  nan  nan  -0.999525  -0.0039165  1.00041  0.0155586  -0.013001  -0.00282099  0.0019701  -0.0252462  0.0016955  0  0  0  0  0  0  0.0126686  -0.00530643  -0.00452124  -0.0118062  0.0312444  -0.00165941  -0.0157582  0.00825891  -0.00156729  0.0296463  -0.026344  0.0128971 
1699964229.148174000  0  0  11.255  0.0499565  -0.00749481  0.00150446  nan  nan  nan  nan  nan  nan  -0.999515  -0.0040427  1.00042  0.0146211  -0.0132644  -0.00298535  0.0019701  -0.0252424  0.0016955  0  0  0  0  0  0  0.012692  -0.00536124  -0.00445032  -0.011562  0.0301507  8.41266e-05  -0.0146128  0.00802382  -0.00151369  0.0345246  -0.0588295  -0.00366886 
1699964229.153054000  0  0  11.2518  0.071483  -0.0129484  0.00130355  nan  nan  nan  nan  nan  nan  -0.999506  -0.0041689  1.00043  0.0151337  -0.0130216  -0.00316737  0.0019701  -0.0252316  0.0016955  0  0  0  0  0  0  0.0126367  -0.00521024  -0.00445148  -0.011742  0.0304489  0.000351102  -0.0153285  0.00763579  -0.00133806  -0.0019439  -0.0443525  -0.00291381 
1699964229.158048000  0  0  11.2792  0.0662078  -0.013907  0.00197417  nan  nan  nan  nan  nan  nan  -0.999496  -0.004295  1.00044  0.0148579  -0.0127524  -0.00334498  0.0019701  -0.02521  0.0016955  0  0  0  0  0  0  0.0126475  -0.00520709  -0.00442751  -0.0120615  0.0301402  -0.00197816  -0.0150572  0.00717723  -0.001276  0.00611067  -0.0382165  -0.0119171 
1699964229.163607000  0  0  11.2652  0.0590765  -0.00167419  0.00271387  nan  nan  nan  nan  nan  nan  -0.999486  -0.004421  1.00045  0.0144833  -0.01287  -0.00353331  0.0019701  -0.0251737  0.0016955  0  0  0  0  0  0  0.0126518  -0.00519255  -0.00437639  -0.0119419  0.0296123  -0.000913623  -0.0145269  0.00682004  -0.0012757  0.0154944  -0.059396  -0.0211663 
1699964229.168207000  0  0  11.2698  0.0854645  -0.0160547  0.00155359  nan  nan  nan  nan  nan  nan  -0.999476  -0.0045467  1.00046  0.0148864  -0.0126219  -0.0037325  0.0019701  -0.0251192  0.0016955  0  0  0  0  0  0  0.0125966  -0.0050468  -0.00438469  -0.0121178  0.0297987  -0.00128907  -0.0153284  0.00660665  -0.00104258  -0.0299077  -0.0286718  -0.0089941 
1699964229.173052000  0  0  11.2831  0.0749009  -0.0197702  0.00160377  nan  nan  nan  nan  nan  nan  -0.999466  -0.0046722  1.00046  0.0144908  -0.0124817  -0.00392938  0.0019701  -0.0250426  0.0016955  0  0  0  0  0  0  0.012598  -0.00503812  -0.00434481  -0.0122762  0.0293027  -0.00247771  -0.0149285  0.00642146  -0.000922978  -0.0124598  -0.0195371  -0.0108173 
1699964229.178053000  0  0  11.2733  0.0762869  -0.0146623  0.0020153  nan  nan  nan  nan  nan  nan  -0.999456  -0.0047971  1.00047  0.0149819  -0.0123192  -0.00414317  0.0019701  -0.0249402  0.0016955  0  0  0  0  0  0  0.0125383  -0.00489117  -0.00434687  -0.0123545  0.0295731  -0.00165438  -0.0154327  0.00607651  -0.000827576  -0.0105931  -0.0265794  -0.0169155 
1699964229.183061000  0  0  11.2719  0.094181  -0.0317653  0.00137881  nan  nan  nan  nan  nan  nan  -0.999446  -0.0049215  1.00048  0.0146656  -0.0125461  -0.004359  0.0019701  -0.0248082  0.0016955  0  0  0  0  0  0  0.0125358  -0.00486274  -0.00432206  -0.0120642  0.0291071  -0.00160223  -0.015553  0.00648416  -0.000651325  -0.0452743  0.0038763  -0.0107218 
1699964229.188208000  0  0  11.2797  0.0933318  -0.0348409  0.00116621  nan  nan  nan  nan  nan  nan  -0.999437  -0.0050451  1.00049  0.015105  -0.0121169  -0.00458074  0.0019701  -0.0246429  0.0016955  0  0  0  0  0  0  0.0124728  -0.00471609  -0.00433734  -0.0124443  0.0293437  -0.00222507  -0.0161847  0.00619724  -0.000465843  -0.0377641  0.0126673  -0.0099192 
1699964229.193050000  0  0  11.2762  0.0865652  -0.0399448  0.00160663  nan  nan  nan  nan  nan  nan  -0.999427  -0.0051679  1.0005  0.0143586  -0.0125404  -0.00480667  0.0019701  -0.0244405  0.0016955  0  0  0  0  0  0  0.0124854  -0.00473877  -0.00428141  -0.0119468  0.0284469  -0.00204885  -0.0155131  0.00674352  -0.000366833  -0.0304102  0.0178491  -0.0164145 
1699964229.198049000  0  0  11.2916  0.0998064  -0.0610718  0.00140231  nan  nan  nan  nan  nan  nan  -0.999417  -0.0052895  1.00051  0.0136387  -0.0130681  -0.00504004  0.0019701  -0.0241973  0.0016955  0  0  0  0  0  0  0.0124986  -0.00475856  -0.0042696  -0.0112928  0.027605  -0.00335784  -0.0152264  0.00774743  -0.000231081  -0.0595301  0.0508671  -0.0152181 
1699964229.203053000  0  0  11.2851  0.0954038  -0.0585566  0.00139949  nan  nan  nan  nan  nan  nan  -0.999407  -0.0054098  1.00052  0.014021  -0.0126919  -0.00528116  0.0019701  -0.0239095  0.0016955  0  0  0  0  0  0  0.012439  -0.00461992  -0.00427988  -0.0116346  0.0277654  -0.00280814  -0.0157811  0.00760396  -8.30391e-05  -0.0456215  0.0471568  -0.0166632 
1699964229.208050000  0  0  11.2756  0.0824784  -0.0565693  0.00169862  nan  nan  nan  nan  nan  nan  -0.999397  -0.0055285  1.00052  0.0131422  -0.013058  -0.00552252  0.0019701  -0.0235734  0.0016955  0  0  0  0  0  0  0.0124543  -0.00464779  -0.00423735  -0.0112254  0.0267049  -0.00210346  -0.0149175  0.00812732  -1.26307e-05  -0.0277157  0.0383673  -0.0211064 
1699964229.213049000  0  0  11.3035  0.0970625  -0.0704355  0.00093185  nan  nan  nan  nan  nan  nan  -0.999387  -0.0056454  1.00053  0.0132981  -0.0130042  -0.00577774  0.0019701  -0.0231852  0.0016955  0  0  0  0  0  0  0.0123997  -0.00451478  -0.00426844  -0.0111256  0.026642  -0.00436563  -0.0154606  0.00853589  0.000215278  -0.0518876  0.0623409  -0.0138009 
1699964229.218047000  0  0  11.2651  0.0808129  -0.06563  0.000629204  nan  nan  nan  nan  nan  nan  -0.999378  -0.0057603  1.00054  0.0120641  -0.0133571  -0.00602614  0.0019701  -0.0227412  0.0016955  0  0  0  0  0  0  0.0124458  -0.00459058  -0.00422221  -0.0108473  0.0252024  -0.00126458  -0.0142549  0.00907476  0.000401561  -0.0304811  0.0477723  -0.0118807 
1699964229.223056000  0  0  11.2814  0.0674457  -0.0605743  0.000851169  nan  nan  nan  nan  nan  nan  -0.999368  -0.0058727  1.00055  0.0113312  -0.0134845  -0.0062842  0.0019701  -0.0222377  0.0016955  0  0  0  0  0  0  0.0124601  -0.00458813  -0.00421242  -0.0106969  0.0242945  -0.00264111  -0.0134554  0.00929651  0.000537141  -0.0111014  0.0356208  -0.016011 
1699964229.228046000  0  0  11.3132  0.0764704  -0.0668774  0.000803294  nan  nan  nan  nan  nan  nan  -0.999358  -0.0059825  1.00056  0.0111155  -0.0135712  -0.00655485  0.0019701  -0.0216708  0.0016955  0  0  0  0  0  0  0.0124103  -0.00446963  -0.00424697  -0.0104271  0.0237944  -0.00522526  -0.0134843  0.00967135  0.00071436  -0.028885  0.0447783  -0.0171848 
1699964229.233046000  0  0  11.27  0.0522283  -0.0571753  0.00131247  nan  nan  nan  nan  nan  nan  -0.999348  -0.0060893  1.00057  0.00999221  -0.0137033  -0.00681993  0.0019701  -0.0210368  0.0016955  0  0  0  0  0  0  0.0124265  -0.0045177  -0.00420526  -0.0103694  0.0224357  -0.00170217  -0.0121058  0.00985091  0.000804121  0.00691667  0.0237221  -0.024447 
1699964229.238045000  0  0  11.3138  0.0395162  -0.0522021  0.00151029  nan  nan  nan  nan  nan  nan  -0.999338  -0.0061928  1.00057  0.00985993  -0.0133076  -0.00709931  0.0019701  -0.0203326  0.0016955  0  0  0  0  0  0  0.012373  -0.00440606  -0.00423892  -0.0106786  0.0220682  -0.00528207  -0.0116996  0.00948562  0.000910807  0.0286042  0.0171366  -0.0279867 
1699964229.243054000  0  0  11.3208  0.0466161  -0.0563914  0.00148047  nan  nan  nan  nan  nan  nan  -0.999328  -0.0062925  1.00058  0.00835096  -0.0137919  -0.00737467  0.0019701  -0.0195595  0.0016955  0  0  0  0  0  0  0.0124012  -0.00446742  -0.00423454  -0.0101321  0.0203048  -0.005876  -0.010335  0.0101196  0.00101691  0.00184932  0.0196826  -0.028675 
1699964229.248048000  0  0  11.2703  0.0334583  -0.0438969  0.00207533  nan  nan  nan  nan  nan  nan  -0.999318  -0.0063883  1.00059  0.0081634  -0.0134883  -0.00766731  0.0019701  -0.0187213  0.0016955  0  0  0  0  0  0  0.0123483  -0.00436636  -0.00422435  -0.0104715  0.0197967  -0.00168388  -0.00989898  0.00969773  0.00108759  0.0241541  -0.00142539  -0.0368175 
1699964229.253048000  0  0  11.331  0.0222871  -0.0459201  0.00214649  nan  nan  nan  nan  nan  nan  -0.999309  -0.0064796  1.0006  0.00667128  -0.0135499  -0.00795149  0.0019701  -0.0178216  0.0016955  0  0  0  0  0  0  0.0123771  -0.00446307  -0.0042393  -0.0103786  0.0181818  -0.00670962  -0.00818052  0.00980764  0.00113504  0.0306865  0.00160981  -0.0381816 
1699964229.258046000  0  0  11.3267  0.0374475  -0.0377382  0.00106086  nan  nan  nan  nan  nan  nan  -0.999299  -0.0065664  1.00061  0.00517846  -0.0137254  -0.00824237  0.0019701  -0.0168643  0.0016955  0  0  0  0  0  0  0.0123872  -0.0045127  -0.00422589  -0.0101997  0.0164033  -0.00637835  -0.00696853  0.00982795  0.00134807  -0.0107845  -0.0149407  -0.0267414 
1699964229.263056000  0  0  11.244  0.0336402  -0.0204982  0.000806858  nan  nan  nan  nan  nan  nan  -0.999289  -0.0066482  1.00062  0.00503577  -0.0132975  -0.00855466  0.0019701  -0.0158531  0.0016955  0  0  0  0  0  0  0.012333  -0.00442939  -0.00419656  -0.01074  0.0159925  0.000456515  -0.0068151  0.00903058  0.00154767  -0.00458154  -0.042085  -0.0255624 
1699964229.268048000  0  0  11.3141  0.0285794  -0.0263812  0.000300361  nan  nan  nan  nan  nan  nan  -0.999279  -0.0067248  1.00063  0.00352641  -0.0133434  -0.00885745  0.0019701  -0.0147918  0.0016955  0  0  0  0  0  0  0.0123438  -0.00452414  -0.00422434  -0.0106174  0.0143383  -0.00532314  -0.00533918  0.00900862  0.0017441  -0.00803825  -0.0301169  -0.0211955 
1699964229.272047000  0  0  11.2953  0.0421588  -0.0157446  -0.000141892  nan  nan  nan  nan  nan  nan  -0.999269  -0.006796  1.00063  0.00284392  -0.0131019  -0.00917656  0.0019701  -0.0136841  0.0016955  0  0  0  0  0  0  0.012299  -0.00445615  -0.00422135  -0.0108555  0.0133209  -0.00375841  -0.00500081  0.00848679  0.00201296  -0.0383102  -0.0465893  -0.018356 
1699964229.278045000  0  0  11.1844  0.0420601  -0.0017512  0.000639424  nan  nan  nan  nan  nan  nan  -0.999259  -0.0068616  1.00064  0.00164885  -0.013065  -0.00949604  0.0019701  -0.0125337  0.0016955  0  0  0  0  0  0  0.0122841  -0.00454158  -0.00411587  -0.0110432  0.0119873  0.00526537  -0.00406862  0.00791145  0.00208951  -0.0466889  -0.0692829  -0.0288879 
1699964229.283060000  0  0  11.2599  0.0387106  -0.0148844  0.000599772  nan  nan  nan  nan  nan  nan  -0.999249  -0.0069213  1.00065  0.000624179  -0.0128886  -0.00982394  0.0019701  -0.0113444  0.0016955  0  0  0  0  0  0  0.0122802  -0.00461009  -0.0041258  -0.0111573  0.0108671  -0.00100665  -0.00323259  0.00769439  0.00225583  -0.0476815  -0.0410197  -0.0300554 
1699964229.288043000  0  0  11.2172  0.0574989  -0.00429894  -3.66737e-05  nan  nan  nan  nan  nan  nan  -0.99924  -0.006975  1.00066  -8.38335e-05  -0.0126902  -0.0101624  0.0019701  -0.01012  0.0016955  0  0  0  0  0  0  0.0122261  -0.00456089  -0.00410013  -0.0113544  0.00987009  0.00249839  -0.00317879  0.00713328  0.00250207  -0.085753  -0.0570283  -0.0245622 
1699964229.293055000  0  0  11.1615  0.0596352  -0.00403682  -0.000242963  nan  nan  nan  nan  nan  nan  -0.99923  -0.0070225  1.00067  -0.00135283  -0.0125747  -0.0105005  0.0019701  -0.0088642  0.0016955  0  0  0  0  0  0  0.0122161  -0.0046661  -0.00401055  -0.0115707  0.00852769  0.00695922  -0.00241111  0.00675703  0.00270235  -0.0970882  -0.054091  -0.0239864 
1699964229.298052000  0  0  11.2763  0.0684425  -0.0230396  -9.37111e-05  nan  nan  nan  nan  nan  nan  -0.99922  -0.0070636  1.00068  -0.00144408  -0.0122543  -0.0108599  0.0019701  -0.0075807  0.0016955  0  0  0  0  0  0  0.0121597  -0.00462177  -0.00407113  -0.0116885  0.0082946  -0.0024807  -0.00292913  0.00660943  0.00290551  -0.109937  -0.0147277  -0.0278838 
1699964229.303065000  0  0  11.2  0.0755808  -0.00930863  -0.000244869  nan  nan  nan  nan  nan  nan  -0.99921  -0.0070982  1.00069  -0.00334527  -0.0123926  -0.0110905  0.0019701  -0.0062733  0.0016955  0  0  0  0  0  0  0.0121551  -0.00475557  -0.00396814  -0.0116366  0.00623408  0.00367181  -0.00179994  0.00640451  0.00299408  -0.134602  -0.0403042  -0.0268799 
1699964229.308161000  0  0  11.2115  0.0727716  -0.016706  9.84063e-05  nan  nan  nan  nan  nan  nan  -0.9992  -0.0071263  1.00069  -0.00459104  -0.0123301  -0.0110754  0.0019701  -0.0049458  0.0016954  0  0  0  0  0  0  0.0121536  -0.0048862  -0.00391143  -0.0117126  0.00496921  0.00259984  -0.00118319  0.00629068  0.00279258  -0.134658  -0.0244622  -0.0291559 
1699964229.313053000  0  0  11.2969  0.0815295  -0.0369359  0.000464467  nan  nan  nan  nan  nan  nan  -0.99919  -0.0071477  1.0007  -0.00508039  -0.0122667  -0.0110697  0.0019701  -0.0036019  0.0016932  0  0  0  0  0  0  0.0120992  -0.00486412  -0.00395782  -0.0115616  0.00426204  -0.0044204  -0.00150609  0.00654974  0.00261613  -0.149203  0.0136143  -0.0319672 
1699964229.318001000  0  0  11.2465  0.0822046  -0.0293177  0.000562251  nan  nan  nan  nan  nan  nan  -0.999181  -0.0071623  1.00071  -0.00692637  -0.0126104  -0.0110447  0.0019701  -0.0022454  0.0016853  0  0  0  0  0  0  0.0120957  -0.00501694  -0.00388265  -0.0112181  0.00231984  -0.000366363  -0.000471965  0.00676208  0.00243542  -0.160067  -0.00357568  -0.0313824 
1699964229.323015000  0  0  11.2511  0.0725903  -0.0381234  0.00163279  nan  nan  nan  nan  nan  nan  -0.999171  -0.0071701  1.00072  -0.0083116  -0.0124052  -0.0110289  0.0019701  -0.0008799  0.001668  0  0  0  0  0  0  0.0120962  -0.00517337  -0.00384847  -0.0114886  0.000935349  -0.000812153  0.000309102  0.0067553  0.00211733  -0.148024  0.014098  -0.0415831 
1699964229.328052000  0  0  11.3662  0.0743525  -0.0546499  0.00233609  nan  nan  nan  nan  nan  nan  -0.999161  -0.0071711  1.00073  -0.008779  -0.0124798  -0.0110224  0.0019701  0.0004907  0.0016374  0  0  0  0  0  0  0.0120431  -0.00517118  -0.00392899  -0.0111253  0.000231212  -0.0102346  2.61834e-05  0.0072625  0.00182897  -0.148946  0.0424847  -0.0474908 
1699964229.333051000  0  0  11.2482  0.0705157  -0.0496055  0.00262705  nan  nan  nan  nan  nan  nan  -0.999151  -0.0071652  1.00074  -0.0104805  -0.0129255  -0.0109965  0.0019701  0.0018626  0.0015898  0  0  0  0  0  0  0.0120588  -0.00535535  -0.00384059  -0.0107888  -0.00137475  -0.000568318  0.00101668  0.00774622  0.00154944  -0.150385  0.0279457  -0.0483325 
1699964229.338004000  0  0  11.288  0.0689259  -0.05925  0.0019926  nan  nan  nan  nan  nan  nan  -0.999141  -0.0071525  1.00074  -0.0108044  -0.0124739  -0.0109972  0.0019701  0.0032323  0.0015215  0  0  0  0  0  0  0.0120025  -0.00536263  -0.00386827  -0.0111781  -0.00180548  -0.00382571  0.000669278  0.00765279  0.00142129  -0.144009  0.0480943  -0.0391204 
1699964229.343064000  0  0  11.3687  0.0610723  -0.0592471  0.00158597  nan  nan  nan  nan  nan  nan  -0.999131  -0.0071329  1.00075  -0.012125  -0.012885  -0.0109758  0.0019701  0.0045958  0.0014287  0  0  0  0  0  0  0.0120119  -0.00550335  -0.00392628  -0.0105871  -0.00326439  -0.0104184  0.00142533  0.00829488  0.00127691  -0.135258  0.0421812  -0.0325937 
1699964229.348206000  0  0  11.2373  0.0606054  -0.0518076  0.00160449  nan  nan  nan  nan  nan  nan  -0.999121  -0.0071065  1.00076  -0.0134593  -0.0133894  -0.0109518  0.0019701  0.0059495  0.0013081  0  0  0  0  0  0  0.0120309  -0.00566071  -0.00384002  -0.0102039  -0.00440796  0.000369337  0.00205525  0.00875905  0.00110068  -0.140119  0.023032  -0.031063 
1699964229.353052000  0  0  11.3033  0.0624504  -0.0626865  0.0017465  nan  nan  nan  nan  nan  nan  -0.999112  -0.0070734  1.00076  -0.0136126  -0.0128805  -0.0109567  0.0019701  0.0072895  0.0011611  0  0  0  0  0  0  0.0119791  -0.0056824  -0.00389067  -0.0106329  -0.00464521  -0.00502863  0.0015406  0.00860364  0.0009575  -0.139074  0.0462196  -0.0314062 
1699964229.358052000  0  0  11.3324  0.0494504  -0.047796  0.00217774  nan  nan  nan  nan  nan  nan  -0.999102  -0.0070336  1.00077  -0.0153045  -0.0133996  -0.0109269  0.0019701  0.0086123  0.0009912  0  0  0  0  0  0  0.0120009  -0.00587001  -0.0038967  -0.0100099  -0.00640948  -0.00741332  0.00275738  0.00902275  0.000725966  -0.124269  0.0125827  -0.0344814 
1699964229.363605000  0  0  11.2365  0.056015  -0.0408601  0.00205452  nan  nan  nan  nan  nan  nan  -0.999092  -0.0069873  1.00077  -0.0164634  -0.0136246  -0.0109077  0.0019701  0.0099139  0.0008024  0  0  0  0  0  0  0.0120163  -0.0060497  -0.00381708  -0.00991976  -0.00729506  0.00042747  0.00308357  0.00910788  0.000544044  -0.140399  -0.00207221  -0.031122 
1699964229.368050000  0  0  11.2813  0.0616422  -0.051853  0.00193137  nan  nan  nan  nan  nan  nan  -0.999082  -0.0069346  1.00078  -0.0164804  -0.0131144  -0.0109159  0.0019701  0.0111906  0.0005983  0  0  0  0  0  0  0.011968  -0.00608559  -0.00386426  -0.0103855  -0.0073123  -0.00320659  0.00242236  0.00886999  0.000446323  -0.14557  0.022102  -0.0286054 
1699964229.373054000  0  0  11.2763  0.0545377  -0.0315061  0.00207293  nan  nan  nan  nan  nan  nan  -0.999072  -0.0068755  1.00078  -0.0184218  -0.0137053  -0.0108795  0.0019701  0.0124388  0.0003827  0  0  0  0  0  0  0.0120107  -0.00632234  -0.0038132  -0.00977359  -0.00921658  -0.00286168  0.00372185  0.0091163  0.000269705  -0.143316  -0.0208578  -0.0286087 
1699964229.378051000  0  0  11.2262  0.0604801  -0.0268059  0.00211647  nan  nan  nan  nan  nan  nan  -0.999062  -0.0068102  1.00078  -0.0185151  -0.0133171  -0.0108854  0.0019701  0.0136546  0.0001593  0  0  0  0  0  0  0.011959  -0.0063659  -0.00378964  -0.0102194  -0.00912744  0.00126691  0.00304501  0.00854881  0.000130385  -0.148974  -0.0250373  -0.0277597 
1699964229.383064000  0  0  11.2582  0.0663802  -0.0405334  0.00221374  nan  nan  nan  nan  nan  nan  -0.999052  -0.006739  1.00078  -0.0197641  -0.0135237  -0.0108647  0.0019701  0.0148343  -6.81e-05  0  0  0  0  0  0  0.0120078  -0.00663787  -0.00375555  -0.0100396  -0.0101541  -0.00145072  0.00342502  0.00891846  -1.22897e-05  -0.164271  -0.000983095  -0.0275488 
1699964229.388001000  0  0  11.2259  0.0660904  -0.0197989  0.00251255  nan  nan  nan  nan  nan  nan  -0.999043  -0.0066619  1.00078  -0.0201558  -0.013315  -0.0108636  0.0019701  0.0159741  -0.0002958  0  0  0  0  0  0  0.0119589  -0.00669221  -0.00374123  -0.0102446  -0.0104473  0.00122226  0.0030505  0.00832957  -0.000173925  -0.160245  -0.0370342  -0.0296677 
1699964229.393050000  0  0  11.2025  0.070318  -0.0238843  0.0023301  nan  nan  nan  nan  nan  nan  -0.999033  -0.0065793  1.00078  -0.021562  -0.0134471  -0.010842  0.0019701  0.0170704  -0.00052  0  0  0  0  0  0  0.0120013  -0.0069873  -0.00367325  -0.0102272  -0.0114904  0.00305005  0.00357504  0.00837531  -0.00032366  -0.173526  -0.0292843  -0.0258897 
1699964229.398053000  0  0  11.2449  0.0730479  -0.0367454  0.00276424  nan  nan  nan  nan  nan  nan  -0.999023  -0.0064913  1.00077  -0.0232834  -0.0138543  -0.0108094  0.0019701  0.0181193  -0.000737  0  0  0  0  0  0  0.0120838  -0.00734314  -0.00360094  -0.00986257  -0.0129573  -0.000598761  0.00434233  0.00887704  -0.000534516  -0.186045  -0.00817807  -0.0292078 
1699964229.403064000  0  0  11.2031  0.072881  -0.010175  0.00330028  nan  nan  nan  nan  nan  nan  -0.999013  -0.0063982  1.00077  -0.0234243  -0.0138764  -0.0108069  0.0019701  0.019117  -0.000943  0  0  0  0  0  0  0.0120371  -0.00740907  -0.00357445  -0.00979671  -0.0128771  0.00284563  0.00364013  0.00833554  -0.000726902  -0.179251  -0.0563369  -0.0339845 
1699964229.408071000  0  0  11.1939  0.079226  -0.0236324  0.00327834  nan  nan  nan  nan  nan  nan  -0.999003  -0.0063002  1.00077  -0.0247343  -0.0140451  -0.0107845  0.0019701  0.02006  -0.0011342  0  0  0  0  0  0  0.01208  -0.00773337  -0.0034825  -0.00971345  -0.0137632  0.00344476  0.00387911  0.00847728  -0.000915705  -0.19414  -0.0307262  -0.0318221 
1699964229.413074000  0  0  11.2545  0.0916442  -0.0306325  0.00361997  nan  nan  nan  nan  nan  nan  -0.998993  -0.0061977  1.00076  -0.0243646  -0.0134241  -0.0108049  0.0019701  0.0209443  -0.001307  0  0  0  0  0  0  0.0120284  -0.00780119  -0.00350607  -0.0102782  -0.0133095  -0.00155714  0.00239797  0.00795096  -0.00109657  -0.20535  -0.0118839  -0.0342839 
1699964229.418068000  0  0  11.1778  0.0877824  -0.0108745  0.00391158  nan  nan  nan  nan  nan  nan  -0.998984  -0.0060909  1.00075  -0.0250465  -0.0139375  -0.0107829  0.0019701  0.0217663  -0.0014575  0  0  0  0  0  0  0.0120263  -0.00800034  -0.00340921  -0.00975688  -0.0135111  0.00465178  0.00218736  0.00798729  -0.00130153  -0.195689  -0.0517341  -0.0358795 
1699964229.423065000  0  0  11.2015  0.0966384  -0.0308451  0.00320193  nan  nan  nan  nan  nan  nan  -0.998974  -0.0059802  1.00074  -0.0257594  -0.0138747  -0.0107745  0.0019703  0.0225221  -0.0015821  0  0  0  0  0  0  0.0120465  -0.00828624  -0.00333979  -0.00985354  -0.0138283  0.00254585  0.00176204  0.00806095  -0.00140481  -0.209488  -0.0124706  -0.0259761 
1699964229.428070000  0  0  11.2574  0.104008  -0.0363888  0.00354003  nan  nan  nan  nan  nan  nan  -0.998964  -0.0058658  1.00074  -0.0251316  -0.0132875  -0.010798  0.0019731  0.0232082  -0.0016769  0  0  0  0  0  0  0.0119945  -0.00835382  -0.00337298  -0.0103796  -0.0130463  -0.00205916  7.83837e-05  0.00761465  -0.00155733  -0.208738  0.00272293  -0.0286771 
1699964229.433070000  0  0  11.1769  0.100941  -0.0156342  0.00443148  nan  nan  nan  nan  nan  nan  -0.998954  -0.0057482  1.00073  -0.0256164  -0.013922  -0.0107753  0.0019823  0.0238206  -0.0017383  0  0  0  0  0  0  0.0119987  -0.00856472  -0.00326803  -0.0097237  -0.0129617  0.00444661  -0.000328652  0.00784242  -0.00180461  -0.198858  -0.0408818  -0.0373474 
1699964229.438534000  0  0  11.2171  0.112783  -0.0466934  0.00321396  nan  nan  nan  nan  nan  nan  -0.998944  -0.0056277  1.00072  -0.0254669  -0.0136723  -0.0107837  0.0020015  0.0243556  -0.0017624  0  0  0  0  0  0  0.0119951  -0.00878112  -0.00323613  -0.00996395  -0.0124064  0.00102273  -0.00164388  0.00805712  -0.00183353  -0.210443  0.0192613  -0.0218392 
1699964229.443060000  0  0  11.2755  0.113891  -0.0458266  0.00246306  nan  nan  nan  nan  nan  nan  -0.998934  -0.0055048  1.00071  -0.0249137  -0.0132258  -0.0108024  0.0020346  0.0248096  -0.0017455  0  0  0  0  0  0  0.0119477  -0.00884985  -0.00326752  -0.0103238  -0.0117214  -0.00379808  -0.00305755  0.00775473  -0.0018207  -0.199653  0.0203097  -0.0125812 
1699964229.448065000  0  0  11.1869  0.0998184  -0.025254  0.00244475  nan  nan  nan  nan  nan  nan  -0.998924  -0.0053798  1.0007  -0.0252856  -0.0136646  -0.0107864  0.0020853  0.0251787  -0.0016839  0  0  0  0  0  0  0.0119541  -0.00905823  -0.00317056  -0.00992505  -0.0114794  0.00339803  -0.00328576  0.00787367  -0.00187505  -0.169408  -0.0219298  -0.0118089 
1699964229.453069000  0  0  11.2482  0.119907  -0.0589776  0.00150213  nan  nan  nan  nan  nan  nan  -0.998913  -0.0052531  1.00069  -0.0239129  -0.0133094  -0.0108137  0.0021573  0.0254592  -0.0015738  0  0  0  0  0  0  0.0119034  -0.00910946  -0.00319984  -0.0101464  -0.00981988  -0.0017011  -0.00567918  0.00808082  -0.00179861  -0.187565  0.0436117  -0.000790568 
1699964229.458069000  0  0  11.3066  0.11127  -0.0528696  0.00164792  nan  nan  nan  nan  nan  nan  -0.998902  -0.0051253  1.00069  -0.0247044  -0.013246  -0.0108047  0.0022544  0.0256473  -0.0014115  0  0  0  0  0  0  0.0119375  -0.00941169  -0.00318277  -0.0102282  -0.0102972  -0.00657795  -0.00559357  0.00815529  -0.00183796  -0.17108  0.0307106  -0.0022194 
1699964229.463067000  0  0  11.2329  0.0969268  -0.024777  0.00319307  nan  nan  nan  nan  nan  nan  -0.99889  -0.0049968  1.00068  -0.0238882  -0.0132756  -0.0108148  0.0023803  0.0257393  -0.0011932  0  0  0  0  0  0  0.0118888  -0.00946047  -0.0031415  -0.010178  -0.00896772  -0.000549216  -0.00680804  0.00773485  -0.0020351  -0.13122  -0.0216067  -0.0195623 
1699964229.468065000  0  0  11.3049  0.104302  -0.0524122  0.00287898  nan  nan  nan  nan  nan  nan  -0.998878  -0.0048681  1.00067  -0.0237856  -0.013568  -0.0108092  0.0025388  0.0257315  -0.0009152  0  0  0  0  0  0  0.0119262  -0.00970731  -0.00314637  -0.00978806  -0.00848684  -0.00654924  -0.00757823  0.00845272  -0.00208548  -0.138884  0.0270594  -0.0151325 
1699964229.473072000  0  0  11.3421  0.0919778  -0.0502936  0.00330337  nan  nan  nan  nan  nan  nan  -0.998865  -0.0047397  1.00067  -0.0238532  -0.0133813  -0.0108128  0.0027337  0.0256201  -0.0005737  0  0  0  0  0  0  0.0119556  -0.00994869  -0.00316758  -0.0100347  -0.00813201  -0.00960433  -0.00792139  0.00837295  -0.00223037  -0.111079  0.023556  -0.0189884 
1699964229.478071000  0  0  11.281  0.0832801  -0.0252915  0.00455387  nan  nan  nan  nan  nan  nan  -0.998851  -0.0046121  1.00067  -0.0227577  -0.0131516  -0.0108327  0.0029687  0.0254013  -0.0001649  0  0  0  0  0  0  0.0119063  -0.00998611  -0.00315761  -0.0102871  -0.00651072  -0.00456967  -0.0092363  0.00775142  -0.00246687  -0.0815862  -0.0207302  -0.0322547 
1699964229.483064000  0  0  11.3541  0.0908858  -0.0486079  0.00401635  nan  nan  nan  nan  nan  nan  -0.998835  -0.0044858  1.00067  -0.02227  -0.0132052  -0.0108379  0.0032475  0.0250714  0.0003148  0  0  0  0  0  0  0.0119299  -0.0101845  -0.00321695  -0.0101603  -0.00564163  -0.0105543  -0.010171  0.00815075  -0.00255407  -0.0881982  0.0222289  -0.0246637 
1699964229.488579000  0  0  11.393  0.0732576  -0.0482893  0.00430951  nan  nan  nan  nan  nan  nan  -0.998818  -0.0043615  1.00067  -0.021783  -0.0128951  -0.0108511  0.0035738  0.0246267  0.0008692  0  0  0  0  0  0  0.0119443  -0.0103723  -0.00330005  -0.0105223  -0.00470096  -0.0136378  -0.0106746  0.00801445  -0.00272497  -0.048309  0.0228457  -0.0266192 
1699964229.493047000  0  0  11.3439  0.0711587  -0.0231531  0.00489959  nan  nan  nan  nan  nan  nan  -0.998799  -0.0042398  1.00068  -0.0204215  -0.012334  -0.0108801  0.0039516  0.0240634  0.0015022  0  0  0  0  0  0  0.0118933  -0.0104018  -0.00331598  -0.0111664  -0.00279324  -0.00956268  -0.012047  0.00707226  -0.00289899  -0.0314849  -0.0187586  -0.032255 
1699964229.498068000  0  0  11.3999  0.0936438  -0.0417908  0.00433302  nan  nan  nan  nan  nan  nan  -0.998779  -0.0041211  1.00069  -0.0185877  -0.0116448  -0.0109155  0.0043844  0.0233777  0.0022173  0  0  0  0  0  0  0.0118369  -0.0104095  -0.00340155  -0.0118133  -0.000573044  -0.0141146  -0.0142961  0.00670703  -0.00296363  -0.0557639  0.021877  -0.0245265 
1699964229.503221000  0  0  11.3893  0.0706921  -0.035392  0.00451877  nan  nan  nan  nan  nan  nan  -0.998755  -0.0040062  1.0007  -0.0188099  -0.0116927  -0.010912  0.004876  0.0225659  0.0030185  0  0  0  0  0  0  0.011902  -0.010737  -0.00346072  -0.0119138  -0.000104942  -0.013101  -0.0138345  0.00681476  -0.00315973  -0.0141065  0.00808822  -0.0248873 
1699964229.508056000  0  0  11.3812  0.0696769  -0.0199366  0.00432777  nan  nan  nan  nan  nan  nan  -0.99873  -0.0038957  1.00072  -0.0180327  -0.0113334  -0.0109276  0.0054303  0.0216242  0.0039094  0  0  0  0  0  0  0.01192  -0.010912  -0.0034951  -0.0124079  0.0012883  -0.012373  -0.014584  0.00617369  -0.0032683  -0.00518083  -0.0169248  -0.0214141 
1699964229.513562000  0  0  11.4195  0.0968772  -0.032009  0.00322361  nan  nan  nan  nan  nan  nan  -0.998701  -0.0037902  1.00074  -0.0172279  -0.0111243  -0.0109403  0.0060509  0.020549  0.0048937  0  0  0  0  0  0  0.0119438  -0.0111058  -0.00355055  -0.0126671  0.00266496  -0.0154895  -0.0158877  0.00608497  -0.00326472  -0.0475876  0.00803626  -0.007648 
1699964229.518052000  0  0  11.4039  0.0925068  -0.028327  0.00330884  nan  nan  nan  nan  nan  nan  -0.998669  -0.0036904  1.00077  -0.0150191  -0.0102112  -0.0109786  0.0067415  0.0193364  0.0059753  0  0  0  0  0  0  0.0118807  -0.0110962  -0.00360571  -0.0136721  0.00548406  -0.014147  -0.0180255  0.00523207  -0.00328164  -0.0191791  0.00851903  -0.00854418 
1699964229.523055000  0  0  11.4279  0.0922865  -0.0180139  0.00323835  nan  nan  nan  nan  nan  nan  -0.998633  -0.0035971  1.0008  -0.0137843  -0.00981648  -0.0109967  0.0075047  0.0179827  0.0071579  0  0  0  0  0  0  0.0118932  -0.0112455  -0.00367123  -0.014157  0.00734832  -0.0160436  -0.0192122  0.00465198  -0.00332892  -0.00782045  -0.00677034  -0.00719025 
1699964229.528050000  0  0  11.458  0.125975  -0.0259492  0.00296504  nan  nan  nan  nan  nan  nan  -0.998594  -0.0035108  1.00084  -0.0112285  -0.0086828  -0.0110345  0.0083378  0.0164841  0.0084452  0  0  0  0  0  0  0.0118194  -0.0112011  -0.00376532  -0.0153676  0.0104716  -0.0184597  -0.0222436  0.00373504  -0.00332355  -0.047309  0.017536  -0.0038274 
1699964229.533049000  0  0  11.4302  0.119088  -0.0159204  0.00407792  nan  nan  nan  nan  nan  nan  -0.99855  -0.0034325  1.00088  -0.00950683  -0.00801212  -0.0110558  0.009237  0.0148369  0.009841  0  0  0  0  0  0  0.0117956  -0.0113007  -0.00381553  -0.0161687  0.0129236  -0.0160896  -0.0238637  0.00301681  -0.00347858  -0.0186293  0.00408615  -0.0161882 
1699964229.538050000  0  0  11.4929  0.118271  -0.00989368  0.00478734  nan  nan  nan  nan  nan  nan  -0.998501  -0.0033627  1.00094  -0.00665663  -0.00697385  -0.0110856  0.0101986  0.0130374  0.011349  0  0  0  0  0  0  0.0117129  -0.011228  -0.00394406  -0.017215  0.0163494  -0.0211412  -0.0264992  0.00194619  -0.00364172  0.00725138  0.0018824  -0.0234245 
1699964229.543055000  0  0  11.5056  0.143681  -0.0139748  0.00459707  nan  nan  nan  nan  nan  nan  -0.998448  -0.0033023  1.001  -0.00497288  -0.00638251  -0.0111003  0.0112189  0.0110818  0.012973  0  0  0  0  0  0  0.0116984  -0.011322  -0.00402827  -0.0179051  0.01871  -0.0220866  -0.0285051  0.00148924  -0.00374462  -0.0251151  0.0142487  -0.0200171 
1699964229.548051000  0  0  11.4889  0.138987  -0.00598605  0.00562726  nan  nan  nan  nan  nan  nan  -0.998389  -0.0032522  1.00107  -0.00279783  -0.00545952  -0.0111167  0.012294  0.0089663  0.0147168  0  0  0  0  0  0  0.0116656  -0.011378  -0.00409019  -0.0189911  0.0216339  -0.0206367  -0.0304962  0.000545367  -0.00397865  0.00259148  0.00695473  -0.0305543 
1699964229.553052000  0  0  11.5704  0.141029  -0.0127332  0.00507344  nan  nan  nan  nan  nan  nan  -0.998325  -0.003213  1.00115  0.000162184  -0.00450099  -0.0111327  0.0134203  0.0066872  0.016584  0  0  0  0  0  0  0.0115711  -0.0112632  -0.00424412  -0.0199219  0.0251734  -0.0271973  -0.0331932  -0.000187012  -0.00405641  0.0233197  0.0271869  -0.022854 
1699964229.558051000  0  0  11.5627  0.15698  -0.0131831  0.00396302  nan  nan  nan  nan  nan  nan  -0.998255  -0.0031856  1.00123  0.00173346  -0.00404506  -0.011139  0.0145941  0.0042408  0.0185784  0  0  0  0  0  0  0.011561  -0.0113719  -0.00430614  -0.0204666  0.0274413  -0.0264824  -0.0348482  -0.000497044  -0.00405086  0.00664294  0.0309391  -0.00902919 
1699964229.563596000  0  0  11.5435  0.145638  -0.0103195  0.00368534  nan  nan  nan  nan  nan  nan  -0.998179  -0.0031708  1.00133  0.00434451  -0.00293033  -0.0111447  0.0158114  0.0016233  0.0207039  0  0  0  0  0  0  0.0115221  -0.0113902  -0.00438919  -0.0217817  0.0308454  -0.0247815  -0.0369274  -0.00141914  -0.00408181  0.0484562  0.033695  -0.00524873 
1699964229.568050000  0  0  11.6491  0.139863  -0.0180318  0.00393197  nan  nan  nan  nan  nan  nan  -0.998097  -0.0031696  1.00144  0.00746385  -0.00190693  -0.0111462  0.0170687  -0.0011691  0.022964  0  0  0  0  0  0  0.0114167  -0.0112469  -0.0045788  -0.0227928  0.0346333  -0.0332638  -0.0394224  -0.0020696  -0.00414292  0.0829592  0.0551038  -0.00772041 
1699964229.573051000  0  0  11.6196  0.148294  -0.0205245  0.00329721  nan  nan  nan  nan  nan  nan  -0.998008  -0.0031828  1.00156  0.00913215  -0.00156736  -0.0111463  0.0183621  -0.0041401  0.0253627  0  0  0  0  0  0  0.0114078  -0.0113632  -0.00469528  -0.023194  0.0370281  -0.0306015  -0.0406654  -0.00205755  -0.00412556  0.0775346  0.0599784  4.04002e-05 
1699964229.578050000  0  0  11.6267  0.139489  -0.0282747  0.00358596  nan  nan  nan  nan  nan  nan  -0.997913  -0.0032113  1.00169  0.0130123  -6.97986e-05  -0.0111329  0.0196879  -0.0072916  0.0279036  0  0  0  0  0  0  0.011286  -0.011166  -0.0048393  -0.0248025  0.0416369  -0.0309753  -0.0436659  -0.0030098  -0.00419659  0.122748  0.0842396  -0.00285865 
