ts x y z roll pitch yaw vx vy vz wx wy wz ax ay az dwx dwy dwz jx jy jz ddwx ddwy ddwz
1704708900.543815000  -2.5  -0.3  1  0  0  0  2e-07  2e-07  -2e-07  0  0  0  0.000125  0.000125  -0.000125  0  0  0  0  0  0  0  0  0 
1704708900.548789000  -2.5  -0.3  1  0  0  0  1.7e-06  1.7e-06  -1.7e-06  0  0  0  0.0005  0.0005  -0.0005  0  0  0  0  0  0  0  0  0 
1704708900.553772000  -2.5  -0.3  1  0  0  0  5.6e-06  5.6e-06  -5.6e-06  0  0  0  0.001125  0.001125  -0.001125  0  0  0  0  0  0  0  0  0 
1704708900.558774000  -2.5  -0.3  1  0  0  -1e-07  1.33e-05  1.33e-05  -1.33e-05  0  0  0  0.002  0.002  -0.002  0  0  0  0  0  0  0  0  0 
1704708900.563757000  -2.5  -0.3  1  0  0  -3e-07  2.6e-05  2.6e-05  -2.6e-05  0  0  0  0.003125  0.003125  -0.003125  0  0  0  0  0  0  0  0  0 
1704708900.568770000  -2.5  -0.3  1  0  0  -5e-07  4.5e-05  4.5e-05  -4.5e-05  0  0  0  0.0045  0.0045  -0.0045  0  0  0  0  0  0  0  0  0 
1704708900.573782000  -2.5  -0.299999  0.999999  0  0  -1e-06  7.15e-05  7.15e-05  -7.15e-05  0  0  0  0.006125  0.006125  -0.006125  0  0  0  0  0  0  0  0  0 
1704708900.578789000  -2.5  -0.299999  0.999999  0  0  -1.7e-06  0.0001067  0.0001067  -0.0001067  0  0  0  0.008  0.008  -0.008  0  0  0  0  0  0  0  0  0 
1704708900.583774000  -2.5  -0.299998  0.999998  0  0  -2.7e-06  0.0001519  0.0001519  -0.0001519  0  0  0  0.010125  0.010125  -0.010125  0  0  0  0  0  0  0  0  0 
1704708900.588785000  -2.5  -0.299997  0.999997  0  0  -4.2e-06  0.0002083  0.0002083  -0.0002083  0  0  0  0.0125  0.0125  -0.0125  0  0  0  0  0  0  0  0  0 
1704708900.593783000  -2.5  -0.299996  0.999996  0  0  -6.1e-06  0.0002773  0.0002773  -0.0002773  0  0  0  0.015125  0.015125  -0.015125  0  0  0  0  0  0  0  0  0 
1704708900.598788000  -2.49999  -0.299995  0.999995  0  0  -8.6e-06  0.00036  0.00036  -0.00036  0  0  0  0.018  0.018  -0.018  0  0  0  0  0  0  0  0  0 
1704708900.603786000  -2.49999  -0.299993  0.999993  0  0  -1.19e-05  0.0004577  0.0004577  -0.0004577  0  0  0  0.021125  0.021125  -0.021125  0  0  0  0  0  0  0  0  0 
1704708900.608772000  -2.49999  -0.29999  0.99999  0  0  -1.6e-05  0.0005717  0.0005717  -0.0005717  0  0  0  0.0245  0.0245  -0.0245  0  0  0  0  0  0  0  0  0 
1704708900.613784000  -2.49999  -0.299987  0.999987  0  0  -2.11e-05  0.0007031  0.0007031  -0.0007028  0  0  0  0.028125  0.028125  -0.027929  0  0  0  0  0  0  0  0  0 
1704708900.618782000  -2.49998  -0.299983  0.999983  0  0  -2.73e-05  0.0008533  0.0008533  -0.0008505  0  0  0  0.032  0.032  -0.0311112  0  0  0  0  0  0  0  0  0 
1704708900.623777000  -2.49998  -0.299978  0.999978  0  0  -3.48e-05  0.0010235  0.0010235  -0.0010135  0  0  0  0.036125  0.036125  -0.0340435  0  0  0  0  0  0  0  0  0 
1704708900.628777000  -2.49997  -0.299973  0.999973  0  0  -4.37e-05  0.001215  0.001215  -0.0011906  0  0  0  0.0405  0.0405  -0.0367257  0  0  0  0  0  0  0  0  0 
1704708900.633780000  -2.49997  -0.299966  0.999966  0  0  -5.42e-05  0.001429  0.001429  -0.0013804  0  0  0  0.045125  0.0451249  -0.0391579  0  0  0  0  0  0  0  0  0 
1704708900.638780000  -2.49996  -0.299958  0.999959  0  0  -6.63e-05  0.0016667  0.0016662  -0.0015817  0  0  0  0.05  0.0497414  -0.0413402  0  0  0  0  0  0  0  0  0 
1704708900.643778000  -2.49995  -0.299949  0.999951  0  0  -8.02e-05  0.0019294  0.001926  -0.0017934  0  0  0  0.055125  0.0541079  -0.0432724  0  0  0  0  0  0  0  0  0 
1704708900.648780000  -2.49994  -0.299939  0.999941  0  0  -9.6e-05  0.0022183  0.0022069  -0.002014  0  0  0  0.0605  0.0582243  -0.0449547  0  0  0  0  0  0  0  0  0 
1704708900.653781000  -2.49993  -0.299927  0.99993  0  0  -0.0001138  0.0025347  0.0025078  -0.0022425  0  0  0  0.0660084  0.0620908  -0.0463869  0  0  0  0  0  0  0  0  0 
1704708900.658874000  -2.49991  -0.299914  0.999919  0  0  -0.0001337  0.002878  0.0028274  -0.0024775  0  0  0  0.0712918  0.0657072  -0.0475692  0  0  0  0  0  0  0  0  0 
1704708900.663779000  -2.4999  -0.299899  0.999906  0  0  -0.0001556  0.0032472  0.0031644  -0.0027178  0  0  0  0.0763253  0.0690737  -0.0485014  0  0  0  0  0  0  0  0  0 
1704708900.668781000  -2.49988  -0.299882  0.999891  0  0  -0.0001798  0.0036409  0.0035177  -0.0029621  0  0  0  0.0811088  0.0721902  -0.0491836  0  0  0  0  0  0  0  0  0 
1704708900.673783000  -2.49986  -0.299864  0.999876  0  0  -0.0002063  0.0040578  0.0038859  -0.0032092  0  0  0  0.0856423  0.0750566  -0.0496159  0  0  0  0  0  0  0  0  0 
1704708900.678774000  -2.49984  -0.299843  0.999859  0  0  -0.000235  0.0044969  0.0042679  -0.0034578  0  0  0  0.0899258  0.0776731  -0.0497981  0  0  0  0  0  0  0  0  0 
1704708900.683772000  -2.49982  -0.299821  0.999841  0  0  -0.0002661  0.0049567  0.0046622  -0.0037067  0  0  0  0.0939593  0.0800396  -0.0497304  0  0  0  0  0  0  0  0  0 
1704708900.688784000  -2.49979  -0.299797  0.999822  0  0  -0.0002995  0.005436  0.0050678  -0.0039547  0  0  0  0.0977427  0.082156  -0.0494126  0  0  0  0  0  0  0  0  0 
1704708900.693802000  -2.49976  -0.29977  0.999802  0  0  -0.0003353  0.0059337  0.0054834  -0.0042005  0  0  0  0.101276  0.0840225  -0.0488449  0  0  0  0  0  0  0  0  0 
1704708900.698791000  -2.49973  -0.299742  0.99978  0  0  -0.0003735  0.0064484  0.0059076  -0.0044427  0  0  0  0.10456  0.085639  -0.0480271  0  0  0  0  0  0  0  0  0 
1704708900.703780000  -2.4997  -0.299711  0.999757  0  0  -0.000414  0.0069789  0.0063393  -0.0046803  0  0  0  0.107593  0.0870054  -0.0469594  0  0  0  0  0  0  0  0  0 
1704708900.708790000  -2.49966  -0.299678  0.999733  0  0  -0.0004568  0.0075239  0.0067773  -0.0049119  0  0  0  0.110377  0.0881219  -0.0456416  0  0  0  0  0  0  0  0  0 
1704708900.713799000  -2.49962  -0.299643  0.999708  0  0  -0.000502  0.0080822  0.0072202  -0.0051363  0  0  0  0.11291  0.0889884  -0.0440738  0  0  0  0  0  0  0  0  0 
1704708900.718773000  -2.49958  -0.299606  0.999682  0  0  -0.0005494  0.0086526  0.0076667  -0.0053522  0  0  0  0.115194  0.0896048  -0.0422561  0  0  0  0  0  0  0  0  0 
1704708900.723774000  -2.49954  -0.299567  0.999655  0  0  -0.0005991  0.0092337  0.0081158  -0.0055585  0  0  0  0.117227  0.0899713  -0.0401883  0  0  0  0  0  0  0  0  0 
1704708900.728791000  -2.49949  -0.299525  0.999627  0  0  -0.000651  0.0098244  0.008566  -0.0057537  0  0  0  0.119011  0.0900877  -0.0378706  0  0  0  0  0  0  0  0  0 
1704708900.733790000  -2.49944  -0.299481  0.999597  0  0  -0.0007049  0.0104234  0.0090162  -0.0059367  0  0  0  0.120544  0.0899542  -0.0353028  0  0  0  0  0  0  0  0  0 
1704708900.738785000  -2.49938  -0.299435  0.999567  0  0  -0.0007609  0.0110295  0.0094652  -0.0061063  0  0  0  0.121828  0.0895707  -0.0324851  0  0  0  0  0  0  0  0  0 
1704708900.743778000  -2.49933  -0.299387  0.999536  0  0  -0.0008189  0.0116413  0.0099115  -0.0062612  0  0  0  0.122861  0.0889371  -0.0294173  0  0  0  0  0  0  0  0  0 
1704708900.748786000  -2.49927  -0.299336  0.999505  0  0  -0.0008786  0.0122577  0.0103541  -0.0064001  0  0  0  0.123645  0.0880536  -0.0260995  0  0  0  0  0  0  0  0  0 
1704708900.753788000  -2.49921  -0.299283  0.999472  0  0  -0.0009402  0.0128773  0.0107917  -0.0065219  0  0  0  0.124178  0.0869201  -0.0226395  0  0  0  0  0  0  0  0  0 
1704708900.758775000  -2.49914  -0.299228  0.999439  0  0  -0.0010033  0.013499  0.0112229  -0.0066269  0  0  0  0.124461  0.0855365  -0.0194001  0  0  0  0  0  0  0  0  0 
1704708900.763786000  -2.49907  -0.299171  0.999406  0  0  -0.0010679  0.0141215  0.0116466  -0.0067163  0  0  0  0.124495  0.083903  -0.0164106  0  0  0  0  0  0  0  0  0 
1704708900.768777000  -2.499  -0.299111  0.999372  0  0  -0.0011339  0.0147435  0.0120615  -0.0067914  0  0  0  0.124278  0.0820195  -0.0136711  0  0  0  0  0  0  0  0  0 
1704708900.773788000  -2.49892  -0.29905  0.999338  0  0  -0.0012011  0.0153639  0.0124664  -0.0068534  0  0  0  0.123812  0.0798859  -0.0111816  0  0  0  0  0  0  0  0  0 
1704708900.778772000  -2.49884  -0.298987  0.999304  0  0  -0.0012693  0.0159812  0.01286  -0.0069036  0  0  0  0.123095  0.0775024  -0.0089421  0  0  0  0  0  0  0  0  0 
1704708900.783785000  -2.49876  -0.298922  0.999269  0  0  -0.0013385  0.0165944  0.013241  -0.0069433  0  0  0  0.122129  0.0748688  -0.0069526  0  0  0  0  0  0  0  0  0 
1704708900.788770000  -2.49868  -0.298854  0.999234  0  0  -0.0014085  0.0172021  0.0136082  -0.0069736  0  0  0  0.120912  0.0719853  -0.0052131  0  0  0  0  0  0  0  0  0 
1704708900.793791000  -2.49859  -0.298786  0.999199  0  0  -0.0014791  0.0178031  0.0139604  -0.0069958  0  0  0  0.119446  0.0688518  -0.0037236  0  0  0  0  0  0  0  0  0 
1704708900.798777000  -2.4985  -0.298715  0.999164  0  0  -0.0015503  0.0183962  0.0142963  -0.0070112  0  0  0  0.117729  0.0654682  -0.0024842  0  0  0  0  0  0  0  0  0 
1704708900.803784000  -2.49841  -0.298643  0.999129  0  0  -0.0016219  0.01898  0.0146147  -0.0070211  0  0  0  0.115763  0.0618347  -0.0014947  0  0  0  0  0  0  0  0  0 
1704708900.808792000  -2.49831  -0.298569  0.999094  0  0  -0.001694  0.0195534  0.0149143  -0.0070266  0  0  0  0.113546  0.0579512  -0.0007552  0  0  0  0  0  0  0  0  0 
1704708900.813800000  -2.49821  -0.298493  0.999059  0  0  -0.0017663  0.020115  0.0151938  -0.007029  0  0  0  0.11108  0.0538176  -0.0002657  0  0  0  0  0  0  0  0  0 
1704708900.818795000  -2.49811  -0.298417  0.999024  0  0  -0.0018388  0.0206638  0.015452  -0.0070297  0  0  0  0.108363  0.0494341  -2.62e-05  0  0  0  0  0  0  0  0  0 
1704708900.823781000  -2.498  -0.298339  0.998989  0  0  -0.0019114  0.0211983  0.0156877  -0.0070297  0  0  0  0.105397  0.0448012  -0  0  0  0  0  0  0  0  0  0 
1704708900.828794000  -2.4979  -0.29826  0.998954  0  0  -0.0019842  0.0217173  0.0159001  -0.0070297  0  0  0  0.10218  0.0401933  -0  0  0  0  0  0  0  0  0  0 
1704708900.833793000  -2.49779  -0.29818  0.998918  0  0  -0.002057  0.0222196  0.0160901  -0.0070297  0  0  0  0.0987137  0.0358354  -0  0  0  0  0  0  0  0  0  0 
1704708900.838780000  -2.49768  -0.298099  0.998883  0  0  -0.0021299  0.022704  0.0162589  -0.0070297  0  0  0  0.0949972  0.0317274  -0  0  0  0  0  0  0  0  0  0 
1704708900.843780000  -2.49756  -0.298017  0.998848  0  0  -0.0022028  0.0231692  0.0164078  -0.0070297  0  0  0  0.0910307  0.0278695  -0  0  0  0  0  0  0  0  0  0 
1704708900.848786000  -2.49744  -0.297935  0.998813  0  0  -0.0022757  0.0236139  0.016538  -0.0070297  0  0  0  0.0868142  0.0242616  -0  0  0  0  0  0  0  0  0  0 
1704708900.853792000  -2.49732  -0.297852  0.998778  0  0  -0.0023486  0.0240369  0.0166508  -0.0070297  0  0  0  0.0823476  0.0209036  -0  0  0  0  0  0  0  0  0  0 
1704708900.858780000  -2.4972  -0.297769  0.998743  0  0  -0.0024215  0.024437  0.0167474  -0.0070297  0  0  0  0.0776311  0.0177957  -0  0  0  0  0  0  0  0  0  0 
1704708900.863777000  -2.49708  -0.297685  0.998708  0  0  -0.0024944  0.0248128  0.0168292  -0.0070297  0  0  0  0.0726646  0.0149378  -0  0  0  0  0  0  0  0  0  0 
1704708900.868785000  -2.49696  -0.2976  0.998672  0  0  -0.0025672  0.0251632  0.0168972  -0.0070297  0  0  0  0.0674481  0.0123299  -0  0  0  0  0  0  0  0  0  0 
1704708900.873790000  -2.49683  -0.297516  0.998637  0  0  -0.0026401  0.0254869  0.0169529  -0.0070297  0  0  0  0.0619822  0.0099719  -0  0  0  0  0  0  0  0  0  0 
1704708900.878790000  -2.4967  -0.297431  0.998602  0  0  -0.002713  0.0257831  0.0169974  -0.0070297  0  0  0  0.0565402  0.007864  -0  0  0  0  0  0  0  0  0  0 
1704708900.883785000  -2.49657  -0.297346  0.998567  0  0  -0.0027859  0.0260527  0.0170319  -0.0070297  0  0  0  0.0513482  0.0060061  -0  0  0  0  0  0  0  0  0  0 
1704708900.888771000  -2.49644  -0.297261  0.998532  0  0  -0.0028588  0.026297  0.0170578  -0.0070297  0  0  0  0.0464063  0.0043981  -0  0  0  0  0  0  0  0  0  0 
1704708900.893783000  -2.49631  -0.297175  0.998497  0  0  -0.0029317  0.0265172  0.0170763  -0.0070297  0  0  0  0.0417143  0.0030402  -0  0  0  0  0  0  0  0  0  0 
1704708900.898789000  -2.49617  -0.29709  0.998462  0  0  -0.0030045  0.0267145  0.0170887  -0.0070297  0  0  0  0.0372724  0.0019323  -0  0  0  0  0  0  0  0  0  0 
1704708900.903792000  -2.49604  -0.297004  0.998426  0  0  -0.0030774  0.0268903  0.0170961  -0.0070297  0  0  0  0.0330804  0.0010744  -0  0  0  0  0  0  0  0  0  0 
1704708900.908779000  -2.49591  -0.296919  0.998391  0  0  -0.0031503  0.0270458  0.0170998  -0.0070297  0  0  0  0.0291384  0.0004664  -0  0  0  0  0  0  0  0  0  0 
1704708900.913789000  -2.49577  -0.296833  0.998356  0  0  -0.0032232  0.0271821  0.0171012  -0.0070297  0  0  0  0.0254465  0.0001085  -0  0  0  0  0  0  0  0  0  0 
1704708900.918775000  -2.49563  -0.296748  0.998321  0  0  -0.0032961  0.0273006  0.0171013  -0.0070297  0  0  0  0.0220045  -0  -0  0  0  0  0  0  0  0  0  0 
1704708900.923786000  -2.4955  -0.296662  0.998286  0  0  -0.003369  0.0274026  0.0171013  -0.0070297  0  0  0  0.0188125  -0  -0  0  0  0  0  0  0  0  0  0 
1704708900.928790000  -2.49536  -0.296577  0.998251  0  0  -0.0034419  0.0274892  0.0171013  -0.0070297  0  0  0  0.0158706  -0  -0  0  0  0  0  0  0  0  0  0 
1704708900.933790000  -2.49522  -0.296491  0.998215  0  0  -0.0035148  0.0275617  0.0171013  -0.0070297  0  0  0  0.0131786  -0  -0  0  0  0  0  0  0  0  0  0 
1704708900.938789000  -2.49508  -0.296406  0.99818  0  0  -0.0035876  0.0276214  0.0171013  -0.0070297  0  0  0  0.0107366  -0  -0  0  0  0  0  0  0  0  0  0 
1704708900.943786000  -2.49495  -0.29632  0.998145  0  0  -0.0036605  0.0276695  0.0171013  -0.0070297  0  0  0  0.0085447  -0  -0  0  0  0  0  0  0  0  0  0 
1704708900.948787000  -2.49481  -0.296235  0.99811  0  0  -0.0037334  0.0277073  0.0171013  -0.0070297  0  0  0  0.0066027  -0  -0  0  0  0  0  0  0  0  0  0 
1704708900.953782000  -2.49467  -0.296149  0.998075  0  0  -0.0038063  0.0277359  0.0171013  -0.0070297  0  0  0  0.0049108  -0  -0  0  0  0  0  0  0  0  0  0 
1704708900.958788000  -2.49453  -0.296064  0.99804  0  0  -0.0038792  0.0277568  0.0171013  -0.0070297  0  0  0  0.0034688  -0  -0  0  0  0  0  0  0  0  0  0 
1704708900.963773000  -2.49439  -0.295978  0.998005  0  0  -0.0039521  0.027771  0.0171013  -0.0070297  0  0  0  0.0022768  -0  -0  0  0  0  0  0  0  0  0  0 
1704708900.968787000  -2.49425  -0.295893  0.997969  0  0  -0.004025  0.02778  0.0171013  -0.0070297  0  0  0  0.0013349  -0  -0  0  0  0  0  0  0  0  0  0 
1704708900.973789000  -2.49411  -0.295807  0.997934  0  0  -0.0040979  0.0277848  0.0171013  -0.0070297  0  0  0  0.0006429  -0  -0  0  0  0  0  0  0  0  0  0 
1704708900.978791000  -2.49397  -0.295722  0.997899  0  0  -0.0041707  0.0277868  0.0171013  -0.0070297  0  0  0  0.0002009  -0  -0  0  0  0  0  0  0  0  0  0 
1704708900.983785000  -2.49384  -0.295636  0.997864  0  0  -0.0042436  0.0277872  0.0171013  -0.0070297  0  0  0  9e-06  -0  -0  0  0  0  0  0  0  0  0  0 
1704708900.988786000  -2.4937  -0.295551  0.997829  0  0  -0.0043165  0.0277872  0.0171013  -0.0070297  0  0  0  -6.7e-05  -0  -0  0  0  0  0  0  0  0  0  0 
1704708900.993783000  -2.49356  -0.295465  0.997794  0  0  -0.0043894  0.0277862  0.0171013  -0.0070297  0  0  0  -0.000375  -0  -0  0  0  0  0  0  0  0  0  0 
1704708900.998789000  -2.49342  -0.29538  0.997759  0  0  -0.0044623  0.027783  0.0171013  -0.0070297  0  0  0  -0.0009331  -0  -0  0  0  0  0  0  0  0  0  0 
1704708901.003771000  -2.49328  -0.295294  0.997723  0  0  -0.0045352  0.0277764  0.0171013  -0.0070297  0  0  0  -0.0017411  -0  -0  0  0  0  0  0  0  0  0  0 
1704708901.008787000  -2.49314  -0.295209  0.997688  0  0  -0.0046081  0.0277652  0.0171013  -0.0070297  0  0  0  -0.0027991  -0  -0  0  0  0  0  0  0  0  0  0 
1704708901.013789000  -2.493  -0.295123  0.997653  0  0  -0.0046809  0.027748  0.0171013  -0.0070297  0  0  0  -0.0041072  -0  -0  0  0  0  0  0  0  0  0  0 
1704708901.018774000  -2.49286  -0.295038  0.997618  0  0  -0.0047538  0.0277237  0.0171013  -0.0070297  0  0  0  -0.0056652  -0  -0  0  0  0  0  0  0  0  0  0 
1704708901.023780000  -2.49273  -0.294952  0.997583  0  0  -0.0048267  0.0276909  0.0171013  -0.0070297  0  0  0  -0.0074733  -0  -0  0  0  0  0  0  0  0  0  0 
1704708901.028788000  -2.49259  -0.294867  0.997548  0  0  -0.0048996  0.0276485  0.0171013  -0.0070297  0  0  0  -0.0095313  -0  -0  0  0  0  0  0  0  0  0  0 
1704708901.033796000  -2.49245  -0.294781  0.997513  0  0  -0.0049725  0.0275952  0.0171013  -0.0070297  0  0  0  -0.0118393  -0  -0  0  0  0  0  0  0  0  0  0 
1704708901.038779000  -2.49231  -0.294696  0.997477  0  0  -0.0050454  0.0275297  0.0171013  -0.0070297  0  0  0  -0.0143974  -0  -0  0  0  0  0  0  0  0  0  0 
1704708901.043776000  -2.49217  -0.29461  0.997442  0  0  -0.0051183  0.0274508  0.0171013  -0.0070297  0  0  0  -0.0172054  -0  -0  0  0  0  0  0  0  0  0  0 
1704708901.048787000  -2.49204  -0.294525  0.997407  0  0  -0.0051912  0.0273572  0.0171013  -0.0070297  0  0  0  -0.0202634  -0  -0  0  0  0  0  0  0  0  0  0 
1704708901.053790000  -2.4919  -0.294439  0.997372  0  0  -0.005264  0.0272478  0.0171013  -0.0070297  0  0  0  -0.0235715  -0  -0  0  0  0  0  0  0  0  0  0 
1704708901.058775000  -2.49176  -0.294354  0.997337  0  0  -0.0053369  0.0271211  0.0171013  -0.0070297  0  0  0  -0.0271295  -0  -0  0  0  0  0  0  0  0  0  0 
1704708901.063777000  -2.49163  -0.294268  0.997302  0  0  -0.0054098  0.026976  0.0171013  -0.0070297  0  0  0  -0.0309375  -0  -0  0  0  0  0  0  0  0  0  0 
1704708901.068795000  -2.49149  -0.294183  0.997266  0  0  -0.0054827  0.0268113  0.0171013  -0.0070297  0  0  0  -0.0349956  -0  -0  0  0  0  0  0  0  0  0  0 
1704708901.073797000  -2.49136  -0.294097  0.997231  0  0  -0.0055556  0.0266257  0.0171013  -0.0070297  0  0  0  -0.0393036  -0  -0  0  0  0  0  0  0  0  0  0 
1704708901.078778000  -2.49123  -0.294012  0.997196  0  0  -0.0056285  0.0264179  0.0171013  -0.0070297  0  0  0  -0.0438617  -0  -0  0  0  0  0  0  0  0  0  0 
1704708901.083778000  -2.4911  -0.293926  0.997161  0  0  -0.0057014  0.0261866  0.0171013  -0.0070297  0  0  0  -0.0486697  -0  -0  0  0  0  0  0  0  0  0  0 
1704708901.088789000  -2.49097  -0.293841  0.997126  0  0  -0.0057742  0.0259308  0.0171013  -0.0070297  0  0  0  -0.0537277  -0  -0  0  0  0  0  0  0  0  0  0 
1704708901.093783000  -2.49084  -0.293755  0.997091  0  0  -0.0058471  0.0256489  0.0171013  -0.0070297  0  0  0  -0.0590358  -0  -0  0  0  0  0  0  0  0  0  0 
1704708901.098776000  -2.49071  -0.29367  0.997056  0  0  -0.00592  0.02534  0.0171013  -0.0070297  0  0  0  -0.0645938  -0  -0  0  0  0  0  0  0  0  0  0 
1704708901.103775000  -2.49058  -0.293584  0.99702  0  0  -0.0059929  0.0250026  0.0171013  -0.0070297  0  0  0  -0.0704018  -0  -0  0  0  0  0  0  0  0  0  0 
1704708901.108786000  -2.49046  -0.293499  0.996985  0  0  -0.0060658  0.0246355  0.0171013  -0.0070297  0  0  0  -0.0764599  -0  -0  0  0  0  0  0  0  0  0  0 
1704708901.113791000  -2.49034  -0.293413  0.99695  0  0  -0.0061387  0.0242376  0.0171013  -0.0070297  0  0  0  -0.0827679  -0  -0  0  0  0  0  0  0  0  0  0 
1704708901.118781000  -2.49022  -0.293328  0.996915  0  0  -0.0062116  0.0238074  0.0171013  -0.0070297  0  0  0  -0.0893259  -0  -0  0  0  0  0  0  0  0  0  0 
1704708901.123782000  -2.4901  -0.293242  0.99688  0  0  -0.0062844  0.0233439  0.0171013  -0.0070297  0  0  0  -0.096134  -0  -0  0  0  0  0  0  0  0  0  0 
1704708901.128786000  -2.48998  -0.293157  0.996845  0  0  -0.0063573  0.0228457  0.0171013  -0.0070297  0  0  0  -0.103192  -0  -0  0  0  0  0  0  0  0  0  0 
1704708901.133795000  -2.48987  -0.293071  0.99681  0  0  -0.0064302  0.0223116  0.0171013  -0.0070297  0  0  0  -0.1105  -0  -0  0  0  0  0  0  0  0  0  0 
1704708901.138781000  -2.48976  -0.292986  0.996774  0  0  -0.0065031  0.0217403  0.0171013  -0.0070297  0  0  0  -0.118058  -0  -0  0  0  0  0  0  0  0  0  0 
1704708901.143798000  -2.48965  -0.2929  0.996739  0  0  -0.006576  0.0211306  0.0171013  -0.0070297  0  0  0  -0.125866  -0  -0  0  0  0  0  0  0  0  0  0 
1704708901.148795000  -2.48955  -0.292815  0.996704  0  0  -0.0066489  0.0204812  0.0171013  -0.0070297  0  0  0  -0.133924  -0  -0  0  0  0  0  0  0  0  0  0 
1704708901.153798000  -2.48945  -0.292729  0.996669  0  0  -0.0067218  0.0197909  0.0171013  -0.0070297  0  0  0  -0.142232  -0  -0  0  0  0  0  0  0  0  0  0 
1704708901.158780000  -2.48935  -0.292644  0.996634  0  0  -0.0067947  0.0190585  0.0171013  -0.0070297  0  0  0  -0.15079  -0  -0  0  0  0  0  0  0  0  0  0 
1704708901.163778000  -2.48926  -0.292558  0.996599  0  0  -0.0068675  0.0182826  0.0171013  -0.0070297  0  0  0  -0.159598  -0  -0  0  0  0  0  0  0  0  0  0 
1704708901.168787000  -2.48917  -0.292472  0.996564  0  0  -0.0069404  0.0174621  0.0171013  -0.0070297  0  0  0  -0.168656  -0  -0  0  0  0  0  0  0  0  0  0 
1704708901.173791000  -2.48908  -0.292387  0.996528  0  0  -0.0070133  0.0165956  0.0171013  -0.0070297  0  0  0  -0.17793  -0  -0  0  0  0  0  0  0  0  0  0 
1704708901.178777000  -2.489  -0.292301  0.996493  0  0  -0.0070862  0.0156831  0.0171013  -0.0070297  0  0  0  -0.187052  -0  -0  0  0  0  0  0  0  0  0  0 
1704708901.183780000  -2.48893  -0.292216  0.996458  0  0  -0.0071591  0.0147255  0.0171013  -0.0070297  0  0  0  -0.195924  -0  -0  0  0  0  0  0  0  0  0  0 
1704708901.188794000  -2.48886  -0.29213  0.996423  0  0  -0.007232  0.0137243  0.0171013  -0.0070297  0  0  0  -0.204546  -0  -0  0  0  0  0  0  0  0  0  0 
1704708901.193796000  -2.48879  -0.292045  0.996388  0  0  -0.0073049  0.0126805  0.0171013  -0.0070297  0  0  0  -0.212918  -0  -0  0  0  0  0  0  0  0  0  0 
1704708901.198779000  -2.48873  -0.291959  0.996353  0  0  -0.0073777  0.0115955  0.0171013  -0.0070297  0  0  0  -0.22104  -0  -0  0  0  0  0  0  0  0  0  0 
1704708901.203782000  -2.48867  -0.291874  0.996317  0  0  -0.0074506  0.0104705  0.0171013  -0.0070297  0  0  0  -0.228912  -0  -0  0  0  0  0  0  0  0  0  0 
1704708901.208795000  -2.48862  -0.291788  0.996282  0  0  -0.0075235  0.0093068  0.0171013  -0.0070297  0  0  0  -0.236534  -0  -0  0  0  0  0  0  0  0  0  0 
1704708901.213791000  -2.48858  -0.291703  0.996247  0  0  -0.0075964  0.0081056  0.0171013  -0.0070297  0  0  0  -0.243905  -0  -0  0  0  0  0  0  0  0  0  0 
1704708901.218778000  -2.48854  -0.291617  0.996212  0  0  -0.0076693  0.0068682  0.0171013  -0.0070297  0  0  0  -0.251027  -0  -0  0  0  0  0  0  0  0  0  0 
1704708901.223779000  -2.48851  -0.291532  0.996177  0  0  -0.0077422  0.0055957  0.0171013  -0.0070297  0  0  0  -0.257899  -0  -0  0  0  0  0  0  0  0  0  0 
1704708901.228793000  -2.48849  -0.291446  0.996142  0  0  -0.0078151  0.0042896  0.0171013  -0.0070297  0  0  0  -0.264521  -0  -0  0  0  0  0  0  0  0  0  0 
1704708901.233791000  -2.48847  -0.291361  0.996107  0  0  -0.007888  0.0029509  0.0171013  -0.0070297  0  0  0  -0.270893  -0  -0  0  0  0  0  0  0  0  0  0 
1704708901.238781000  -2.48846  -0.291275  0.996071  0  0  -0.0079608  0.0015811  0.0171013  -0.0070297  0  0  0  -0.277015  -0  -0  0  0  0  0  0  0  0  0  0 
1704708901.243780000  -2.48845  -0.29119  0.996036  0  0  -0.0080337  0.0001812  0.0171013  -0.0070297  0  0  0  -0.282887  -0  -0  0  0  0  0  0  0  0  0  0 
1704708901.248789000  -2.48846  -0.291104  0.996001  0  0  -0.0081066  -0.0012474  0.0171013  -0.0070297  0  0  0  -0.288509  -0  -0  0  0  0  0  0  0  0  0  0 
1704708901.253794000  -2.48847  -0.291019  0.995966  0  0  -0.0081795  -0.0027035  0.0171013  -0.0070297  0  0  0  -0.293881  -0  -7e-07  0  0  0  0  0  0  0  0  0 
1704708901.258780000  -2.48848  -0.290933  0.995931  0  0  -0.0082524  -0.0041858  0.0171013  -0.0070299  0  0  0  -0.299003  -0  -0.0001439  0  0  0  0  0  0  0  0  0 
1704708901.263783000  -2.48851  -0.290848  0.995896  0  0  -0.0083253  -0.0056931  0.0171013  -0.0070315  0  0  0  -0.303875  -0  -0.0005371  0  0  0  0  0  0  0  0  0 
1704708901.268792000  -2.48854  -0.290762  0.995861  0  0  -0.0083982  -0.0072241  0.0171013  -0.0070357  0  0  0  -0.308497  -0  -0.0011803  0  0  0  0  0  0  0  0  0 
1704708901.273794000  -2.48858  -0.290677  0.995825  0  0  -0.0084711  -0.0087776  0.0171013  -0.0070437  0  0  0  -0.312869  -0  -0.0020736  0  0  0  0  0  0  0  0  0 
1704708901.278781000  -2.48863  -0.290591  0.99579  0  0  -0.0085439  -0.0103524  0.0171013  -0.0070569  0  0  0  -0.316991  -0  -0.0032168  0  0  0  0  0  0  0  0  0 
1704708901.283780000  -2.48868  -0.290506  0.995755  0  0  -0.0086168  -0.0119471  0.0171013  -0.0070763  0  0  0  -0.320863  3.38e-05  -0.00461  0  0  0  0  0  0  0  0  0 
1704708901.288791000  -2.48875  -0.29042  0.995719  0  0  -0.0086897  -0.0135606  0.0171021  -0.0071034  0  0  0  -0.324485  0.0002889  -0.0062532  0  0  0  0  0  0  0  0  0 
1704708901.293791000  -2.48882  -0.290335  0.995684  0  0  -0.0087626  -0.0151916  0.0171047  -0.0071393  0  0  0  -0.327857  0.0007939  -0.0081465  0  0  0  0  0  0  0  0  0 
1704708901.298785000  -2.4889  -0.290249  0.995648  0  0  -0.0088355  -0.0168388  0.0171104  -0.0071853  0  0  0  -0.330979  0.0015489  -0.0102897  0  0  0  0  0  0  0  0  0 
1704708901.303781000  -2.48899  -0.290164  0.995612  0  0  -0.0089084  -0.0185009  0.0171206  -0.0072426  0  0  0  -0.333851  0.002554  -0.0126829  0  0  0  0  0  0  0  0  0 
1704708901.308786000  -2.48909  -0.290078  0.995575  0  0  -0.0089813  -0.0201769  0.0171364  -0.0073125  0  0  0  -0.336473  0.003809  -0.0153261  0  0  0  0  0  0  0  0  0 
1704708901.313782000  -2.48919  -0.289992  0.995539  0  0  -0.0090541  -0.0218653  0.0171591  -0.0073963  0  0  0  -0.338845  0.0053141  -0.0182194  0  0  0  0  0  0  0  0  0 
1704708901.318787000  -2.4893  -0.289906  0.995501  0  0  -0.009127  -0.0235649  0.0171899  -0.0074951  0  0  0  -0.340967  0.0070691  -0.0213626  0  0  0  0  0  0  0  0  0 
1704708901.323790000  -2.48943  -0.28982  0.995464  0  0  -0.0091999  -0.0252745  0.0172302  -0.0076103  0  0  0  -0.342839  0.0090742  -0.0247558  0  0  0  0  0  0  0  0  0 
1704708901.328779000  -2.48956  -0.289734  0.995425  0  0  -0.0092728  -0.0269929  0.0172811  -0.0077431  0  0  0  -0.344461  0.0113292  -0.028399  0  0  0  0  0  0  0  0  0 
1704708901.333799000  -2.4897  -0.289648  0.995386  0  0  -0.0093457  -0.0287187  0.0173439  -0.0078947  0  0  0  -0.345833  0.0138342  -0.0322922  0  0  0  0  0  0  0  0  0 
1704708901.338793000  -2.48984  -0.289561  0.995346  0  0  -0.0094186  -0.0304508  0.0174198  -0.0080664  0  0  0  -0.346955  0.0165893  -0.0364355  0  0  0  0  0  0  0  0  0 
1704708901.343783000  -2.49  -0.289473  0.995306  0  0  -0.0094915  -0.0321878  0.0175102  -0.0082595  0  0  0  -0.347827  0.0195943  -0.0408287  0  0  0  0  0  0  0  0  0 
1704708901.348795000  -2.49017  -0.289386  0.995264  0  0  -0.0095643  -0.0339286  0.0176162  -0.0084751  0  0  0  -0.348449  0.0228494  -0.0454719  0  0  0  0  0  0  0  0  0 
1704708901.353791000  -2.49034  -0.289297  0.995221  0  0  -0.0096372  -0.0356719  0.0177391  -0.0087146  0  0  0  -0.348821  0.0263544  -0.0503651  0  0  0  0  0  0  0  0  0 
1704708901.358779000  -2.49052  -0.289208  0.995177  0  0  -0.0097101  -0.0374164  0.0178802  -0.0089792  0  0  0  -0.348943  0.0301095  -0.0555084  0  0  0  0  0  0  0  0  0 
1704708901.363778000  -2.49071  -0.289118  0.995131  0  0  -0.009783  -0.0391609  0.0180406  -0.0092701  0  0  0  -0.348815  0.0341145  -0.0609016  0  0  0  0  0  0  0  0  0 
1704708901.368787000  -2.49091  -0.289028  0.995084  0  0  -0.0098559  -0.0409041  0.0182217  -0.0095887  0  0  0  -0.348437  0.0383695  -0.0665448  0  0  0  0  0  0  0  0  0 
1704708901.373794000  -2.49112  -0.288936  0.995035  0  0  -0.0099288  -0.0426449  0.0184247  -0.0099358  0  0  0  -0.347809  0.0428746  -0.0723026  0  0  0  0  0  0  0  0  0 
1704708901.378777000  -2.49134  -0.288843  0.994984  0  0  -0.0100017  -0.0443818  0.0186509  -0.0103113  0  0  0  -0.346931  0.0476296  -0.0778279  0  0  0  0  0  0  0  0  0 
1704708901.383787000  -2.49157  -0.28875  0.994932  0  0  -0.0100746  -0.0461138  0.0189014  -0.0107137  0  0  0  -0.345802  0.0526347  -0.0831032  0  0  0  0  0  0  0  0  0 
1704708901.388779000  -2.4918  -0.288654  0.994877  0  0  -0.0101474  -0.0478394  0.0191776  -0.0111419  0  0  0  -0.344424  0.0578897  -0.0881284  0  0  0  0  0  0  0  0  0 
1704708901.393792000  -2.49205  -0.288558  0.99482  0  0  -0.0102203  -0.0495576  0.0194808  -0.0115946  0  0  0  -0.342796  0.0633948  -0.0929037  0  0  0  0  0  0  0  0  0 
1704708901.398776000  -2.4923  -0.28846  0.994761  0  0  -0.0102932  -0.051267  0.019812  -0.0120705  0  0  0  -0.340918  0.0691498  -0.0974289  0  0  0  0  0  0  0  0  0 
1704708901.403787000  -2.49256  -0.28836  0.9947  0  0  -0.0103661  -0.0529663  0.0201727  -0.0125684  0  0  0  -0.33879  0.0751548  -0.101704  0  0  0  0  0  0  0  0  0 
1704708901.408779000  -2.49283  -0.288258  0.994635  0  0  -0.010439  -0.0546545  0.020564  -0.0130871  0  0  0  -0.336412  0.0814099  -0.105729  0  0  0  0  0  0  0  0  0 
1704708901.413791000  -2.4931  -0.288154  0.994569  0  0  -0.0105119  -0.0563301  0.0209872  -0.0136253  0  0  0  -0.333784  0.0879149  -0.109505  0  0  0  0  0  0  0  0  0 
1704708901.418790000  -2.49339  -0.288048  0.994499  0  0  -0.0105848  -0.0579919  0.0214435  -0.0141818  0  0  0  -0.330906  0.09467  -0.11303  0  0  0  0  0  0  0  0  0 
1704708901.423769000  -2.49368  -0.287939  0.994427  0  0  -0.0106576  -0.0596387  0.0219343  -0.0147552  0  0  0  -0.327778  0.101675  -0.116305  0  0  0  0  0  0  0  0  0 
1704708901.428782000  -2.49399  -0.287828  0.994352  0  0  -0.0107305  -0.0612693  0.0224607  -0.0153444  0  0  0  -0.3244  0.10893  -0.11933  0  0  0  0  0  0  0  0  0 
1704708901.433779000  -2.4943  -0.287715  0.994273  0  0  -0.0108034  -0.0628823  0.023024  -0.0159481  0  0  0  -0.320772  0.116435  -0.122106  0  0  0  0  0  0  0  0  0 
1704708901.438781000  -2.49462  -0.287598  0.994192  0  0  -0.0108763  -0.0644766  0.0236255  -0.016565  0  0  0  -0.316894  0.12419  -0.124631  0  0  0  0  0  0  0  0  0 
1704708901.443783000  -2.49494  -0.287478  0.994108  0  0  -0.0109492  -0.0660508  0.0242663  -0.017194  0  0  0  -0.312766  0.132195  -0.126906  0  0  0  0  0  0  0  0  0 
1704708901.448782000  -2.49528  -0.287355  0.99402  0  0  -0.0110221  -0.0676038  0.0249478  -0.0178337  0  0  0  -0.308388  0.14045  -0.128931  0  0  0  0  0  0  0  0  0 
1704708901.453790000  -2.49562  -0.287229  0.993929  0  0  -0.011095  -0.0691343  0.0256713  -0.0184829  0  0  0  -0.30376  0.148955  -0.130707  0  0  0  0  0  0  0  0  0 
1704708901.458783000  -2.49597  -0.287099  0.993835  0  0  -0.0111679  -0.070641  0.0264378  -0.0191403  0  0  0  -0.298882  0.15771  -0.132232  0  0  0  0  0  0  0  0  0 
1704708901.463784000  -2.49632  -0.286964  0.993738  0  0  -0.0112407  -0.0721227  0.0272488  -0.0198048  0  0  0  -0.293754  0.166715  -0.133507  0  0  0  0  0  0  0  0  0 
1704708901.468784000  -2.49669  -0.286826  0.993637  0  0  -0.0113136  -0.0735781  0.0281054  -0.020475  0  0  0  -0.288376  0.17597  -0.134533  0  0  0  0  0  0  0  0  0 
1704708901.473793000  -2.49706  -0.286683  0.993533  0  0  -0.0113864  -0.075006  0.0290089  -0.0211497  0  0  0  -0.282748  0.185475  -0.135308  0  0  0  0  0  0  0  0  0 
1704708901.478783000  -2.49744  -0.286536  0.993426  0  0  -0.0114592  -0.0764052  0.0299606  -0.0218276  0  0  0  -0.27687  0.19523  -0.135833  0  0  0  0  0  0  0  0  0 
1704708901.483778000  -2.49782  -0.286384  0.993315  0  0  -0.0115318  -0.0777743  0.0309616  -0.0225076  0  0  0  -0.270742  0.205236  -0.136108  0  0  0  0  0  0  0  0  0 
1704708901.488783000  -2.49822  -0.286226  0.993201  0  0  -0.0116042  -0.0791122  0.0320133  -0.0231883  0  0  0  -0.264364  0.215491  -0.136134  0  0  0  0  0  0  0  0  0 
1704708901.493794000  -2.49861  -0.286063  0.993083  0  0  -0.0116765  -0.0804175  0.0331169  -0.0238685  0  0  0  -0.257736  0.225996  -0.135909  0  0  0  0  0  0  0  0  0 
1704708901.498783000  -2.49902  -0.285895  0.992962  0  0  -0.0117484  -0.0816891  0.0342737  -0.024547  0  0  0  -0.250858  0.236751  -0.135434  0  0  0  0  0  0  0  0  0 
1704708901.503781000  -2.49943  -0.285721  0.992838  0  0  -0.0118199  -0.0829257  0.0354849  -0.0252224  0  0  0  -0.24373  0.247756  -0.134709  0  0  0  0  0  0  0  0  0 
1704708901.508779000  -2.49985  -0.28554  0.99271  0  0  -0.0118909  -0.084126  0.0367517  -0.0258937  0  0  0  -0.236352  0.259011  -0.133735  0  0  0  0  0  0  0  0  0 
1704708901.513793000  -2.50027  -0.285353  0.992579  0  0  -0.0119613  -0.0852888  0.0380754  -0.0265594  0  0  0  -0.228724  0.270516  -0.13251  0  0  0  0  0  0  0  0  0 
1704708901.518785000  -2.5007  -0.285159  0.992444  0  0  -0.012031  -0.0864128  0.0394572  -0.0272183  0  0  0  -0.220846  0.282271  -0.131035  0  0  0  0  0  0  0  0  0 
1704708901.523785000  -2.50114  -0.284958  0.992306  0  0  -0.0120999  -0.0874968  0.0408985  -0.0278693  0  0  0  -0.212718  0.294276  -0.12931  0  0  0  0  0  0  0  0  0 
1704708901.528784000  -2.50158  -0.28475  0.992166  0  0  -0.0121679  -0.0885396  0.0424004  -0.028511  0  0  0  -0.20434  0.306531  -0.127336  0  0  0  0  0  0  0  0  0 
1704708901.533798000  -2.50202  -0.284534  0.992021  0  0  -0.0122347  -0.0895398  0.0439642  -0.0291422  0  0  0  -0.195712  0.319036  -0.125111  0  0  0  0  0  0  0  0  0 
1704708901.538784000  -2.50247  -0.28431  0.991874  0  0  -0.0123003  -0.0904963  0.0455912  -0.0297617  0  0  0  -0.186834  0.331791  -0.122636  0  0  0  0  0  0  0  0  0 
1704708901.543783000  -2.50293  -0.284078  0.991724  0  0  -0.0123644  -0.0914077  0.0472826  -0.0303682  0  0  0  -0.177706  0.344796  -0.119911  0  0  0  0  0  0  0  0  0 
1704708901.548779000  -2.50339  -0.283837  0.99157  0  0  -0.0124271  -0.0922729  0.0490396  -0.0309604  0  0  0  -0.168328  0.358051  -0.116937  0  0  0  0  0  0  0  0  0 
1704708901.553798000  -2.50385  -0.283588  0.991414  0  0  -0.0124881  -0.0930906  0.0508635  -0.0315371  0  0  0  -0.158699  0.371556  -0.113712  0  0  0  0  0  0  0  0  0 
1704708901.558783000  -2.50432  -0.283329  0.991255  0  0  -0.0125473  -0.0938595  0.0527556  -0.0320971  0  0  0  -0.148821  0.385311  -0.110237  0  0  0  0  0  0  0  0  0 
1704708901.563781000  -2.50479  -0.28306  0.991093  0  0  -0.0126047  -0.0945784  0.054717  -0.0326391  0  0  0  -0.138693  0.399316  -0.106512  0  0  0  0  0  0  0  0  0 
1704708901.568782000  -2.50526  -0.282781  0.990929  0  0  -0.0126602  -0.095246  0.0567491  -0.0331618  0  0  0  -0.128315  0.413571  -0.102538  0  0  0  0  0  0  0  0  0 
1704708901.573799000  -2.50574  -0.282492  0.990762  0  0  -0.0127136  -0.0958611  0.0588531  -0.0336641  0  0  0  -0.117687  0.428076  -0.0983129  0  0  0  0  0  0  0  0  0 
1704708901.578783000  -2.50622  -0.282193  0.990592  0  0  -0.0127649  -0.0964225  0.0610298  -0.0341445  0  0  0  -0.106809  0.442556  -0.0938381  0  0  0  0  0  0  0  0  0 
1704708901.583782000  -2.5067  -0.281882  0.99042  0  0  -0.0128141  -0.0969288  0.0632783  -0.034602  0  0  0  -0.0956813  0.456787  -0.0891134  0  0  0  0  0  0  0  0  0 
1704708901.588779000  -2.50719  -0.28156  0.990246  0  0  -0.012861  -0.0973789  0.0655973  -0.0350353  0  0  0  -0.0843033  0.470767  -0.0841387  0  0  0  0  0  0  0  0  0 
1704708901.593797000  -2.50768  -0.281226  0.99007  0  0  -0.0129057  -0.0977714  0.0679855  -0.035443  0  0  0  -0.0726752  0.484498  -0.0789139  0  0  0  0  0  0  0  0  0 
1704708901.598783000  -2.50817  -0.28088  0.989892  0  0  -0.0129482  -0.0981052  0.0704418  -0.035824  0  0  0  -0.0607972  0.497978  -0.0734392  0  0  0  0  0  0  0  0  0 
1704708901.603776000  -2.50866  -0.280521  0.989712  0  0  -0.0129883  -0.098379  0.0729649  -0.036177  0  0  0  -0.0486692  0.511208  -0.0677144  0  0  0  0  0  0  0  0  0 
1704708901.608777000  -2.50915  -0.28015  0.98953  0  0  -0.0130261  -0.0985915  0.0755535  -0.0365007  0  0  0  -0.0362912  0.524189  -0.0617397  0  0  0  0  0  0  0  0  0 
1704708901.613790000  -2.50965  -0.279766  0.989347  0  0  -0.0130617  -0.0987415  0.0782064  -0.0367939  0  0  0  -0.0236631  0.536919  -0.0555149  0  0  0  0  0  0  0  0  0 
1704708901.618782000  -2.51014  -0.279368  0.989162  0  0  -0.0130949  -0.0988277  0.0809223  -0.0370554  0  0  0  -0.0107851  0.5494  -0.0490402  0  0  0  0  0  0  0  0  0 
1704708901.623781000  -2.51063  -0.278956  0.988976  0  0  -0.0131258  -0.0988493  0.0837  -0.0372839  0  0  0  0.0020984  0.56163  -0.0423154  0  0  0  0  0  0  0  0  0 
1704708901.628791000  -2.51113  -0.278531  0.988789  0  0  -0.0131545  -0.0988071  0.0865382  -0.0374782  0  0  0  0.0147318  0.573611  -0.0353407  0  0  0  0  0  0  0  0  0 
1704708901.633794000  -2.51162  -0.278091  0.988602  0  0  -0.013181  -0.0987024  0.0894357  -0.0376369  0  0  0  0.0271153  0.585341  -0.028116  0  0  0  0  0  0  0  0  0 
1704708901.638784000  -2.51211  -0.277636  0.988413  0  0  -0.0132054  -0.0985364  0.0923912  -0.0377589  0  0  0  0.0392488  0.596822  -0.0206412  0  0  0  0  0  0  0  0  0 
1704708901.643784000  -2.51261  -0.277167  0.988224  0  0  -0.0132276  -0.0983103  0.0954035  -0.0378429  0  0  0  0.0511323  0.608052  -0.0129165  0  0  0  0  0  0  0  0  0 
1704708901.648793000  -2.5131  -0.276682  0.988035  0  0  -0.0132478  -0.0980255  0.0984713  -0.0378877  0  0  0  0.0627658  0.619033  -0.0049417  0  0  0  0  0  0  0  0  0 
1704708901.653788000  -2.51359  -0.276182  0.987845  0  0  -0.0132661  -0.0976831  0.101593  -0.0378919  0  0  0  0.0741492  0.629763  0.003283  0  0  0  0  0  0  0  0  0 
1704708901.658786000  -2.51407  -0.275666  0.987656  0  0  -0.0132825  -0.0972844  0.104768  -0.0378544  0  0  0  0.0852827  0.640244  0.0117578  0  0  0  0  0  0  0  0  0 
1704708901.663781000  -2.51456  -0.275134  0.987467  0  0  -0.0132971  -0.0968307  0.107995  -0.0377739  0  0  0  0.0961662  0.650474  0.0204825  0  0  0  0  0  0  0  0  0 
1704708901.668775000  -2.51504  -0.274586  0.987278  0  0  -0.0133101  -0.0963232  0.111273  -0.0376492  0  0  0  0.1068  0.660454  0.0294572  0  0  0  0  0  0  0  0  0 
1704708901.673797000  -2.51552  -0.274021  0.98709  0  0  -0.0133215  -0.0957631  0.1146  -0.0374789  0  0  0  0.117183  0.670185  0.038682  0  0  0  0  0  0  0  0  0 
1704708901.678781000  -2.516  -0.27344  0.986903  0  0  -0.0133316  -0.0951517  0.117974  -0.0372619  0  0  0  0.127317  0.679665  0.0481567  0  0  0  0  0  0  0  0  0 
1704708901.683793000  -2.51647  -0.272842  0.986718  0  0  -0.0133404  -0.0944903  0.121396  -0.0369969  0  0  0  0.1372  0.688896  0.057873  0  0  0  0  0  0  0  0  0 
1704708901.688794000  -2.51694  -0.272226  0.986534  0  0  -0.0133481  -0.0937802  0.124863  -0.0366834  0  0  0  0.146834  0.697876  0.0675059  0  0  0  0  0  0  0  0  0 
1704708901.693791000  -2.51741  -0.271593  0.986351  0  0  -0.0133548  -0.0930224  0.128374  -0.0363223  0  0  0  0.156217  0.706607  0.0768887  0  0  0  0  0  0  0  0  0 
1704708901.698785000  -2.51787  -0.270942  0.98617  0  0  -0.0133608  -0.0922184  0.131928  -0.0359149  0  0  0  0.165351  0.715087  0.0860216  0  0  0  0  0  0  0  0  0 
1704708901.703777000  -2.51833  -0.270274  0.985992  0  0  -0.0133662  -0.0913693  0.135525  -0.0354625  0  0  0  0.174234  0.723318  0.0949044  0  0  0  0  0  0  0  0  0 
1704708901.708790000  -2.51879  -0.269587  0.985816  0  0  -0.0133711  -0.0904765  0.139161  -0.0349663  0  0  0  0.182868  0.731298  0.103537  0  0  0  0  0  0  0  0  0 
1704708901.713794000  -2.51924  -0.268882  0.985642  0  0  -0.0133758  -0.0895411  0.142837  -0.0344276  0  0  0  0.191251  0.739029  0.11192  0  0  0  0  0  0  0  0  0 
1704708901.718784000  -2.51968  -0.268158  0.985472  0  0  -0.0133806  -0.0885644  0.146551  -0.0338475  0  0  0  0.199385  0.746509  0.120053  0  0  0  0  0  0  0  0  0 
1704708901.723794000  -2.52012  -0.267416  0.985304  0  0  -0.0133855  -0.0875477  0.150302  -0.0332274  0  0  0  0.207268  0.75374  0.127936  0  0  0  0  0  0  0  0  0 
1704708901.728787000  -2.52056  -0.266655  0.985139  0  0  -0.0133909  -0.0864921  0.154088  -0.0325686  0  0  0  0.214901  0.76072  0.135569  0  0  0  0  0  0  0  0  0 
1704708901.733783000  -2.52099  -0.265875  0.984978  0  0  -0.013397  -0.0853991  0.157909  -0.0318722  0  0  0  0.222285  0.76745  0.142951  0  0  0  0  0  0  0  0  0 
1704708901.738767000  -2.52141  -0.265076  0.984821  0  0  -0.013404  -0.0842697  0.161762  -0.0311395  0  0  0  0.229418  0.773931  0.150084  0  0  0  0  0  0  0  0  0 
1704708901.743779000  -2.52183  -0.264258  0.984667  0  0  -0.0134123  -0.0831053  0.165647  -0.0303717  0  0  0  0.236302  0.780161  0.156967  0  0  0  0  0  0  0  0  0 
1704708901.748769000  -2.52224  -0.26342  0.984517  0  0  -0.0134219  -0.0819071  0.169563  -0.0295702  0  0  0  0.242935  0.786142  0.1636  0  0  0  0  0  0  0  0  0 
1704708901.753783000  -2.52265  -0.262562  0.984371  0  0  -0.0134334  -0.0806763  0.173508  -0.0287362  0  0  0  0.249319  0.791872  0.169983  0  0  0  0  0  0  0  0  0 
1704708901.758770000  -2.52305  -0.261685  0.98423  0  0  -0.0134468  -0.0794143  0.177482  -0.0278708  0  0  0  0.255452  0.797353  0.176116  0  0  0  0  0  0  0  0  0 
1704708901.763775000  -2.52344  -0.260787  0.984093  0  0  -0.0134624  -0.0781222  0.181482  -0.0269754  0  0  0  0.261336  0.802583  0.181999  0  0  0  0  0  0  0  0  0 
1704708901.768797000  -2.52383  -0.25987  0.98396  0  0  -0.0134805  -0.0768014  0.185507  -0.0260512  0  0  0  0.266969  0.807564  0.187631  0  0  0  0  0  0  0  0  0 
1704708901.773793000  -2.52421  -0.258932  0.983832  0  0  -0.0135013  -0.075453  0.189557  -0.0250995  0  0  0  0.272353  0.812294  0.193014  0  0  0  0  0  0  0  0  0 
1704708901.778783000  -2.52459  -0.257974  0.983709  0  0  -0.013525  -0.0740783  0.19363  -0.0241215  0  0  0  0.277486  0.816775  0.198147  0  0  0  0  0  0  0  0  0 
1704708901.783783000  -2.52495  -0.256996  0.983591  0  0  -0.0135518  -0.0726785  0.197724  -0.0231185  0  0  0  0.28237  0.821005  0.20303  0  0  0  0  0  0  0  0  0 
1704708901.788796000  -2.52531  -0.255997  0.983478  0  0  -0.0135819  -0.071255  0.201839  -0.0220916  0  0  0  0.287003  0.824986  0.207663  0  0  0  0  0  0  0  0  0 
1704708901.793792000  -2.52567  -0.254977  0.98337  0  0  -0.0136155  -0.0698089  0.205974  -0.0210423  0  0  0  0.291387  0.828716  0.212046  0  0  0  0  0  0  0  0  0 
1704708901.798779000  -2.52601  -0.253937  0.983268  0  0  -0.0136528  -0.0683415  0.210126  -0.0199716  0  0  0  0.29552  0.832196  0.216178  0  0  0  0  0  0  0  0  0 
1704708901.803796000  -2.52635  -0.252876  0.983171  0  0  -0.0136939  -0.0668541  0.214295  -0.0188809  0  0  0  0.299404  0.835427  0.220061  0  0  0  0  0  0  0  0  0 
1704708901.808784000  -2.52668  -0.251794  0.983079  0  0  -0.013739  -0.0653479  0.21848  -0.0177714  0  0  0  0.303037  0.838407  0.223694  0  0  0  0  0  0  0  0  0 
1704708901.813796000  -2.527  -0.250691  0.982993  0  0  -0.0137883  -0.0638242  0.222679  -0.0166444  0  0  0  0.306421  0.841138  0.227077  0  0  0  0  0  0  0  0  0 
1704708901.818793000  -2.52732  -0.249567  0.982912  0  0  -0.0138418  -0.0622841  0.226891  -0.015501  0  0  0  0.309554  0.843618  0.23021  0  0  0  0  0  0  0  0  0 
1704708901.823779000  -2.52763  -0.248422  0.982838  0  0  -0.0138997  -0.060729  0.231115  -0.0143427  0  0  0  0.312438  0.845849  0.233093  0  0  0  0  0  0  0  0  0 
1704708901.828785000  -2.52793  -0.247256  0.982769  0  0  -0.013962  -0.0591602  0.235349  -0.0131705  0  0  0  0.315071  0.847829  0.235725  0  0  0  0  0  0  0  0  0 
1704708901.833769000  -2.52822  -0.246069  0.982706  0  0  -0.0140291  -0.0575787  0.239592  -0.0119858  0  0  0  0.317455  0.84956  0.238108  0  0  0  0  0  0  0  0  0 
1704708901.838789000  -2.5285  -0.24486  0.982649  0  0  -0.0141008  -0.055986  0.243844  -0.0107899  0  0  0  0.319588  0.85104  0.240241  0  0  0  0  0  0  0  0  0 
1704708901.843773000  -2.52878  -0.24363  0.982598  0  0  -0.0141773  -0.0543833  0.248102  -0.0095838  0  0  0  0.321472  0.852271  0.242124  0  0  0  0  0  0  0  0  0 
1704708901.848773000  -2.52904  -0.242379  0.982553  0  0  -0.0142587  -0.0527717  0.252366  -0.008369  0  0  0  0.323105  0.853251  0.243757  0  0  0  0  0  0  0  0  0 
1704708901.853789000  -2.5293  -0.241107  0.982515  0  0  -0.014345  -0.0511526  0.256634  -0.0071467  0  0  0  0.324489  0.853982  0.24514  0  0  0  0  0  0  0  0  0 
1704708901.858787000  -2.52956  -0.239813  0.982482  0  0  -0.0144363  -0.0495273  0.260906  -0.0059181  0  0  0  0.325622  0.854462  0.246273  0  0  0  0  0  0  0  0  0 
1704708901.863785000  -2.5298  -0.238498  0.982455  0  0  -0.0145326  -0.0478968  0.265179  -0.0046844  0  0  0  0.326506  0.854693  0.247155  0  0  0  0  0  0  0  0  0 
1704708901.868787000  -2.53004  -0.237161  0.982435  0  0  -0.014634  -0.0462626  0.269452  -0.0034469  0  0  0  0.327139  0.854673  0.247788  0  0  0  0  0  0  0  0  0 
1704708901.873794000  -2.53026  -0.235803  0.982421  0  0  -0.0147405  -0.0446259  0.273725  -0.0022069  0  0  0  0.327522  0.854421  0.248171  0  0  0  0  0  0  0  0  0 
1704708901.878787000  -2.53048  -0.234424  0.982413  0  0  -0.0148522  -0.0429878  0.277997  -0.0009656  0  0  0  0.327656  0.854285  0.248304  0  0  0  0  0  0  0  0  0 
1704708901.883776000  -2.53048  -0.234422  0.982427  0  0  -0.0148201  -0.0429176  0.278122  -0.0009132  0  0  0  0.327656  0.854285  0.248304  0  0  0  0  0  0  0  0  0 
1704708901.888788000  -2.53069  -0.233021  0.982426  0  0  -0.0149368  -0.0412791  0.282393  0.0003285  0  0  0  0.327781  0.85416  0.248429  0  0  0  0  0  0  0  0  0 
1704708901.893784000  -2.53089  -0.231598  0.98243  0  0  -0.0150585  -0.0396393  0.286663  0.0015715  0  0  0  0.328156  0.853785  0.248804  0  0  0  0  0  0  0  0  0 
1704708901.898786000  -2.53109  -0.230154  0.982441  0  0  -0.0151854  -0.0379971  0.290931  0.002817  0  0  0  0.328781  0.85316  0.249429  0  0  0  0  0  0  0  0  0 
1704708901.903785000  -2.53127  -0.228689  0.982459  0  0  -0.0153175  -0.0363511  0.295194  0.0040662  0  0  0  0.329656  0.852285  0.250304  0  0  0  0  0  0  0  0  0 
1704708901.908787000  -2.53145  -0.227202  0.982482  0  0  -0.0154548  -0.0347001  0.299453  0.0053204  0  0  0  0.330781  0.85116  0.251429  0  0  0  0  0  0  0  0  0 
1704708901.913790000  -2.53162  -0.225694  0.982512  0  0  -0.0155973  -0.0330429  0.303706  0.0065809  0  0  0  0.332156  0.849785  0.252804  0  0  0  0  0  0  0  0  0 
1704708901.918778000  -2.53178  -0.224165  0.982548  0  0  -0.0157451  -0.0313781  0.307951  0.0078489  0  0  0  0.333781  0.84816  0.254429  0  0  0  0  0  0  0  0  0 
1704708901.923780000  -2.53193  -0.222615  0.98259  0  0  -0.0158982  -0.0297046  0.312187  0.0091256  0  0  0  0.335656  0.846285  0.256304  0  0  0  0  0  0  0  0  0 
1704708901.928780000  -2.53208  -0.221043  0.982639  0  0  -0.0160568  -0.0280212  0.316413  0.0104123  0  0  0  0.337781  0.84416  0.258429  0  0  0  0  0  0  0  0  0 
1704708901.933796000  -2.53221  -0.219451  0.982694  0  0  -0.016221  -0.0263264  0.320628  0.0117103  0  0  0  0.340156  0.841785  0.260804  0  0  0  0  0  0  0  0  0 
1704708901.938789000  -2.53234  -0.217837  0.982756  0  0  -0.0163907  -0.0246192  0.32483  0.0130208  0  0  0  0.342781  0.83916  0.263429  0  0  0  0  0  0  0  0  0 
1704708901.943782000  -2.53246  -0.216202  0.982825  0  0  -0.0165662  -0.0228982  0.329019  0.014345  0  0  0  0.345656  0.836285  0.266304  0  0  0  0  0  0  0  0  0 
1704708901.948781000  -2.53257  -0.214547  0.9829  0  0  -0.0167474  -0.0211622  0.333193  0.0156843  0  0  0  0.348781  0.83316  0.269429  0  0  0  0  0  0  0  0  0 
1704708901.953784000  -2.53267  -0.212871  0.982982  0  0  -0.0169346  -0.01941  0.33735  0.0170394  0  0  0  0.352156  0.829785  0.272598  0  0  0  0  0  0  0  0  0 
1704708901.958775000  -2.53276  -0.211173  0.98307  0  0  -0.0171278  -0.0176402  0.34149  0.0184098  0  0  0  0.355781  0.82616  0.27552  0  0  0  0  0  0  0  0  0 
1704708901.963776000  -2.53285  -0.209456  0.983166  0  0  -0.017327  -0.0158517  0.345611  0.0197942  0  0  0  0.359656  0.822285  0.278191  0  0  0  0  0  0  0  0  0 
1704708901.968780000  -2.53292  -0.207717  0.983268  0  0  -0.0175323  -0.0140432  0.349713  0.0211913  0  0  0  0.363781  0.81816  0.280613  0  0  0  0  0  0  0  0  0 
1704708901.973789000  -2.53299  -0.205959  0.983378  0  0  -0.0177438  -0.0122135  0.353793  0.0225999  0  0  0  0.368156  0.813785  0.282784  0  0  0  0  0  0  0  0  0 
1704708901.978778000  -2.53304  -0.204179  0.983494  0  0  -0.0179615  -0.0103613  0.35785  0.0240187  0  0  0  0.372781  0.80916  0.284706  0  0  0  0  0  0  0  0  0 
1704708901.983775000  -2.53309  -0.20238  0.983618  0  0  -0.0181853  -0.0084853  0.361884  0.0254466  0  0  0  0.377656  0.804285  0.286378  0  0  0  0  0  0  0  0  0 
1704708901.988776000  -2.53313  -0.200561  0.983749  0  0  -0.0184155  -0.0065843  0.365893  0.0268821  0  0  0  0.382781  0.79916  0.287799  0  0  0  0  0  0  0  0  0 
1704708901.993779000  -2.53316  -0.198721  0.983887  0  0  -0.0186519  -0.0046571  0.369875  0.0283241  0  0  0  0.388156  0.793785  0.288971  0  0  0  0  0  0  0  0  0 
1704708901.998771000  -2.53318  -0.196862  0.984032  0  0  -0.0188945  -0.0027023  0.37383  0.0297714  0  0  0  0.393781  0.78816  0.289892  0  0  0  0  0  0  0  0  0 
1704708902.003776000  -2.53318  -0.194983  0.984184  0  0  -0.0191434  -0.0007188  0.377756  0.0312226  0  0  0  0.399656  0.782285  0.290564  0  0  0  0  0  0  0  0  0 
1704708902.008774000  -2.53318  -0.193084  0.984344  0  0  -0.0193985  0.0012947  0.381652  0.0326766  0  0  0  0.405781  0.77616  0.290985  0  0  0  0  0  0  0  0  0 
1704708902.013776000  -2.53317  -0.191166  0.984511  0  0  -0.0196599  0.0033394  0.385517  0.0341321  0  0  0  0.412156  0.769785  0.291157  0  0  0  0  0  0  0  0  0 
1704708902.018782000  -2.53315  -0.189229  0.984685  0  0  -0.0199275  0.0054167  0.38935  0.0355878  0  0  0  0.418781  0.76316  0.291078  0  0  0  0  0  0  0  0  0 
1704708902.023782000  -2.53312  -0.187273  0.984867  0  0  -0.0202014  0.0075276  0.393149  0.0370424  0  0  0  0.425656  0.756285  0.29075  0  0  0  0  0  0  0  0  0 
1704708902.028784000  -2.53307  -0.185298  0.985056  0  0  -0.0204816  0.0096736  0.396912  0.0384948  0  0  0  0.432781  0.74916  0.290171  0  0  0  0  0  0  0  0  0 
1704708902.033786000  -2.53302  -0.183304  0.985252  0  0  -0.0207679  0.0118559  0.40064  0.0399437  0  0  0  0.440156  0.741785  0.289343  0  0  0  0  0  0  0  0  0 
1704708902.038781000  -2.53296  -0.181292  0.985455  0  0  -0.0210606  0.0140756  0.40433  0.0413879  0  0  0  0.447781  0.73416  0.288264  0  0  0  0  0  0  0  0  0 
1704708902.043774000  -2.53288  -0.179261  0.985666  0  0  -0.0213595  0.0163339  0.407981  0.042826  0  0  0  0.455533  0.726285  0.286936  0  0  0  0  0  0  0  0  0 
1704708902.048777000  -2.53279  -0.177212  0.985884  0  0  -0.0216646  0.0186305  0.411592  0.0442568  0  0  0  0.463056  0.71816  0.285357  0  0  0  0  0  0  0  0  0 
1704708902.053783000  -2.53269  -0.175145  0.986108  0  0  -0.021976  0.0209641  0.415162  0.0456791  0  0  0  0.47033  0.709785  0.283529  0  0  0  0  0  0  0  0  0 
1704708902.058782000  -2.53258  -0.17306  0.98634  0  0  -0.0222936  0.0233334  0.41869  0.0470917  0  0  0  0.477354  0.70116  0.28145  0  0  0  0  0  0  0  0  0 
1704708902.063794000  -2.53246  -0.170958  0.986579  0  0  -0.0226175  0.0257372  0.422173  0.0484932  0  0  0  0.484127  0.692285  0.279122  0  0  0  0  0  0  0  0  0 
1704708902.068783000  -2.53232  -0.168839  0.986825  0  0  -0.0229476  0.0281743  0.425612  0.0498825  0  0  0  0.490651  0.68316  0.276543  0  0  0  0  0  0  0  0  0 
1704708902.073794000  -2.53218  -0.166702  0.987078  0  0  -0.023284  0.0306433  0.429005  0.0512582  0  0  0  0.496924  0.673785  0.273715  0  0  0  0  0  0  0  0  0 
1704708902.078777000  -2.53202  -0.164549  0.987338  0  0  -0.0236266  0.0331431  0.432349  0.0526192  0  0  0  0.502948  0.66416  0.270636  0  0  0  0  0  0  0  0  0 
1704708902.083788000  -2.53185  -0.162379  0.987604  0  0  -0.0239755  0.0356724  0.435646  0.0539642  0  0  0  0.508722  0.654285  0.267308  0  0  0  0  0  0  0  0  0 
1704708902.088773000  -2.53166  -0.160192  0.987877  0  0  -0.0243307  0.0382299  0.438892  0.0552919  0  0  0  0.514245  0.64416  0.263729  0  0  0  0  0  0  0  0  0 
1704708902.093785000  -2.53146  -0.15799  0.988157  0  0  -0.024692  0.0408144  0.442087  0.056601  0  0  0  0.519519  0.633785  0.259901  0  0  0  0  0  0  0  0  0 
1704708902.098778000  -2.53125  -0.155771  0.988443  0  0  -0.0250597  0.0434247  0.445229  0.0578904  0  0  0  0.524543  0.62316  0.255822  0  0  0  0  0  0  0  0  0 
1704708902.103779000  -2.53103  -0.153538  0.988736  0  0  -0.0254336  0.0460594  0.448318  0.0591588  0  0  0  0.529316  0.612285  0.251494  0  0  0  0  0  0  0  0  0 
1704708902.108775000  -2.53079  -0.151288  0.989035  0  0  -0.0258137  0.0487174  0.451352  0.060405  0  0  0  0.53384  0.60116  0.246915  0  0  0  0  0  0  0  0  0 
1704708902.113791000  -2.53054  -0.149024  0.98934  0  0  -0.0262001  0.0513974  0.454329  0.0616276  0  0  0  0.538114  0.589785  0.242087  0  0  0  0  0  0  0  0  0 
1704708902.118772000  -2.53028  -0.146745  0.989651  0  0  -0.0265927  0.0540981  0.457249  0.0628254  0  0  0  0.542137  0.57816  0.237008  0  0  0  0  0  0  0  0  0 
1704708902.123780000  -2.53  -0.144452  0.989968  0  0  -0.0269916  0.0568184  0.46011  0.0639973  0  0  0  0.545911  0.566285  0.23168  0  0  0  0  0  0  0  0  0 
1704708902.128774000  -2.52971  -0.142144  0.990291  0  0  -0.0273967  0.0595568  0.462912  0.0651418  0  0  0  0.549434  0.55416  0.226102  0  0  0  0  0  0  0  0  0 
1704708902.133787000  -2.52941  -0.139823  0.99062  0  0  -0.0278081  0.0623123  0.465652  0.0662578  0  0  0  0.552708  0.541785  0.220273  0  0  0  0  0  0  0  0  0 
1704708902.138772000  -2.52909  -0.137488  0.990954  0  0  -0.0282257  0.0650835  0.468329  0.0673441  0  0  0  0.555732  0.52916  0.214195  0  0  0  0  0  0  0  0  0 
1704708902.143773000  -2.52876  -0.13514  0.991293  0  0  -0.0286496  0.0678692  0.470943  0.0683994  0  0  0  0.558505  0.516285  0.207866  0  0  0  0  0  0  0  0  0 
1704708902.148775000  -2.52841  -0.132778  0.991638  0  0  -0.0290798  0.0706681  0.473492  0.0694224  0  0  0  0.561029  0.50316  0.201288  0  0  0  0  0  0  0  0  0 
1704708902.153784000  -2.52805  -0.130405  0.991987  0  0  -0.0295161  0.0734791  0.475974  0.0704118  0  0  0  0.563303  0.489785  0.194459  0  0  0  0  0  0  0  0  0 
1704708902.158769000  -2.52767  -0.128019  0.992342  0  0  -0.0299588  0.0763007  0.478389  0.0713665  0  0  0  0.565326  0.47616  0.187381  0  0  0  0  0  0  0  0  0 
1704708902.163780000  -2.52729  -0.125621  0.992701  0  0  -0.0304077  0.0791319  0.480735  0.0722852  0  0  0  0.5671  0.462285  0.180052  0  0  0  0  0  0  0  0  0 
1704708902.168774000  -2.52688  -0.123212  0.993064  0  0  -0.0308628  0.0819713  0.483011  0.0731666  0  0  0  0.568624  0.44816  0.172474  0  0  0  0  0  0  0  0  0 
1704708902.173798000  -2.52647  -0.120791  0.993432  0  0  -0.0313242  0.0848177  0.485216  0.0740095  0  0  0  0.569897  0.433785  0.164645  0  0  0  0  0  0  0  0  0 
1704708902.178776000  -2.52603  -0.11836  0.993804  0  0  -0.0317918  0.0876699  0.487349  0.0748127  0  0  0  0.570921  0.41916  0.156567  0  0  0  0  0  0  0  0  0 
1704708902.183787000  -2.52559  -0.115918  0.99418  0  0  -0.0322657  0.0905265  0.489408  0.0755748  0  0  0  0.571694  0.404285  0.148238  0  0  0  0  0  0  0  0  0 
1704708902.188774000  -2.52513  -0.113466  0.99456  0  0  -0.0327458  0.0933864  0.491391  0.0762948  0  0  0  0.572218  0.38916  0.139778  0  0  0  0  0  0  0  0  0 
1704708902.193802000  -2.52466  -0.111004  0.994943  0  0  -0.0332322  0.0962483  0.493299  0.076973  0  0  0  0.572492  0.373785  0.131543  0  0  0  0  0  0  0  0  0 
1704708902.198781000  -2.52417  -0.108533  0.99533  0  0  -0.0337248  0.0991109  0.495129  0.0776106  0  0  0  0.572515  0.35816  0.123558  0  0  0  0  0  0  0  0  0 
1704708902.203780000  -2.52366  -0.106053  0.995719  0  0  -0.0342237  0.101973  0.49688  0.078209  0  0  0  0.572289  0.342285  0.115823  0  0  0  0  0  0  0  0  0 
1704708902.208783000  -2.52315  -0.103564  0.996112  0  0  -0.0347289  0.104833  0.498551  0.0787693  0  0  0  0.571813  0.32616  0.108338  0  0  0  0  0  0  0  0  0 
1704708902.213794000  -2.52262  -0.101067  0.996507  0  0  -0.0352402  0.107691  0.500141  0.0792928  0  0  0  0.571086  0.309785  0.101103  0  0  0  0  0  0  0  0  0 
1704708902.218778000  -2.52207  -0.0985628  0.996905  0  0  -0.0357579  0.110544  0.501649  0.0797807  0  0  0  0.57011  0.29316  0.094118  0  0  0  0  0  0  0  0  0 
1704708902.223788000  -2.52151  -0.096051  0.997305  0  0  -0.0362818  0.113391  0.503072  0.0802344  0  0  0  0.568883  0.276415  0.0873831  0  0  0  0  0  0  0  0  0 
1704708902.228770000  -2.52094  -0.0935322  0.997707  0  0  -0.0368119  0.116232  0.504413  0.080655  0  0  0  0.567407  0.259901  0.0808981  0  0  0  0  0  0  0  0  0 
1704708902.233795000  -2.52035  -0.091007  0.998111  0  0  -0.0373483  0.119065  0.505672  0.0810438  0  0  0  0.565681  0.243637  0.0746631  0  0  0  0  0  0  0  0  0 
1704708902.238776000  -2.51975  -0.0884756  0.998517  0  0  -0.0378909  0.121889  0.50685  0.081402  0  0  0  0.563704  0.227622  0.0686782  0  0  0  0  0  0  0  0  0 
1704708902.243766000  -2.51913  -0.0859386  0.998925  0  0  -0.0384398  0.124702  0.507949  0.081731  0  0  0  0.561478  0.211858  0.0629432  0  0  0  0  0  0  0  0  0 
1704708902.248767000  -2.5185  -0.0833963  0.999335  0  0  -0.0389949  0.127503  0.508969  0.0820319  0  0  0  0.559002  0.196344  0.0574583  0  0  0  0  0  0  0  0  0 
1704708902.253779000  -2.51785  -0.080849  0.999745  0  0  -0.0395563  0.130291  0.509912  0.082306  0  0  0  0.556275  0.18108  0.0522233  0  0  0  0  0  0  0  0  0 
1704708902.258768000  -2.5172  -0.0782973  1.00016  0  0  -0.040124  0.133065  0.51078  0.0825545  0  0  0  0.553299  0.166065  0.0472384  0  0  0  0  0  0  0  0  0 
1704708902.263773000  -2.51652  -0.0757414  1.00057  0  0  -0.0406978  0.135824  0.511573  0.0827788  0  0  0  0.550073  0.151301  0.0425034  0  0  0  0  0  0  0  0  0 
1704708902.268784000  -2.51584  -0.0731817  1.00099  0  0  -0.041278  0.138566  0.512294  0.08298  0  0  0  0.546596  0.136787  0.0380184  0  0  0  0  0  0  0  0  0 
1704708902.273809000  -2.51514  -0.0706185  1.0014  0  0  -0.0418644  0.141289  0.512942  0.0831594  0  0  0  0.54287  0.122523  0.0337835  0  0  0  0  0  0  0  0  0 
1704708902.278786000  -2.51442  -0.0680524  1.00182  0  0  -0.042457  0.143994  0.513519  0.0833182  0  0  0  0.538893  0.108508  0.0297985  0  0  0  0  0  0  0  0  0 
1704708902.283786000  -2.5137  -0.0654835  1.00223  0  0  -0.0430559  0.146678  0.514027  0.0834578  0  0  0  0.534667  0.0947442  0.0260636  0  0  0  0  0  0  0  0  0 
1704708902.288780000  -2.51296  -0.0629122  1.00265  0  0  -0.043661  0.14934  0.514467  0.0835793  0  0  0  0.530191  0.0812299  0.0225786  0  0  0  0  0  0  0  0  0 
1704708902.293792000  -2.5122  -0.0603389  1.00307  0  0  -0.0442724  0.151979  0.51484  0.083684  0  0  0  0.525464  0.0679657  0.0193437  0  0  0  0  0  0  0  0  0 
1704708902.298775000  -2.51144  -0.0577639  1.00349  0  0  -0.04489  0.154594  0.515147  0.0837731  0  0  0  0.520488  0.0549514  0.0163587  0  0  0  0  0  0  0  0  0 
1704708902.303776000  -2.51066  -0.0551875  1.00391  0  0  -0.0455139  0.157184  0.51539  0.083848  0  0  0  0.515262  0.0421872  0.0136237  0  0  0  0  0  0  0  0  0 
1704708902.308789000  -2.50987  -0.0526101  1.00433  0  0  -0.046144  0.159747  0.515569  0.0839098  0  0  0  0.509785  0.0296729  0.0111388  0  0  0  0  0  0  0  0  0 
1704708902.313785000  -2.50906  -0.050032  1.00475  0  0  -0.0467804  0.162281  0.515687  0.0839598  0  0  0  0.504059  0.0174087  0.0089038  0  0  0  0  0  0  0  0  0 
1704708902.318781000  -2.50824  -0.0474534  1.00517  0  0  -0.0474231  0.164787  0.515744  0.0839992  0  0  0  0.498083  0.0053944  0.0069189  0  0  0  0  0  0  0  0  0 
1704708902.323772000  -2.50741  -0.0448746  1.00559  0  0  -0.0480719  0.167262  0.515741  0.0840294  0  0  0  0.491856  -0.0063698  0.0051839  0  0  0  0  0  0  0  0  0 
