ts fx fy fz tx ty tz exfx exfy exfz extx exty extz xd yd zd rolld pitchd yawd vxd vyd vzd wxd wyd wzd axd ayd azd e_x e_y e_z e_vx e_vy e_vz e_rx e_ry e_rz e_wx e_wy e_wz
1704708900.446019000  0  0  11.2362  0.0706574  -0.144718  0.0255767  nan  nan  nan  nan  nan  nan  -2.5  -0.3  1  0.0113016  -0.0327724  -0.00037033  0  0  0  0  0  0  0  0  0  0.0267873  0.000738995  -0.00239876  -0.018591  0.0124609  0.00138807  -0.014036  0.0326926  -0.0282955  -0.0121835  -0.011336  -0.0367534 
1704708900.449754000  0  0  11.2846  0.0823223  -0.155498  0.023077  nan  nan  nan  nan  nan  nan  -2.5  -0.3  1  0.0121423  -0.0326852  -0.000396821  0  0  0  0  0  0  0  0  0  0.0267191  0.000792049  -0.00242368  -0.0183713  0.0134577  -0.00260681  -0.0150554  0.0327698  -0.0280967  -0.0261347  0.0095134  -0.00749564 
1704708900.454753000  0  0  11.2115  0.108094  -0.150927  0.0202706  nan  nan  nan  nan  nan  nan  -2.5  -0.3  1  0.0117286  -0.0318411  -0.000373406  0  0  0  0  0  0  0  0  0  0.0268245  0.000620861  -0.00224177  -0.0199238  0.0132249  0.00309693  -0.0152856  0.0320333  -0.027783  -0.0755601  0.00714805  0.024448 
1704708900.459754000  0  0  11.2023  0.076347  -0.124373  0.0239829  nan  nan  nan  nan  nan  nan  -2.5  -0.3  1  0.0113253  -0.031803  -0.000360134  0  0  0  0  0  0  0  0  0  0.0267673  0.000657257  -0.00222928  -0.019878  0.01263  0.00385566  -0.014608  0.03139  -0.0282259  -0.0183005  -0.0400432  -0.0175275 
1704708900.464756000  0  0  11.2866  0.0878519  -0.144035  0.0244872  nan  nan  nan  nan  nan  nan  -2.5  -0.3  1  0.0126841  -0.0323987  -0.0004109  0  0  0  0  0  0  0  0  0  0.026682  0.000734419  -0.00227665  -0.018641  0.0142678  -0.00307552  -0.0161495  0.0321009  -0.0283944  -0.0271285  -0.00725956  -0.0221467 
1704708900.469749000  0  0  11.2618  0.109977  -0.138546  0.018944  nan  nan  nan  nan  nan  nan  -2.5  -0.3  1  0.012002  -0.0319159  -0.000383008  0  0  0  0  0  0  0  0  0  0.0267875  0.000571098  -0.00215007  -0.0195696  0.0137429  -0.00128247  -0.0160549  0.0316227  -0.0277929  -0.0722497  -0.0138371  0.041129 
1704708900.474752000  0  0  11.2459  0.0846274  -0.113769  0.0226875  nan  nan  nan  nan  nan  nan  -2.5  -0.3  1  0.0119512  -0.0313018  -0.000374052  0  0  0  0  0  0  0  0  0  0.0266866  0.000634898  -0.00213832  -0.0201712  0.0135165  3.75045e-05  -0.0157881  0.0304455  -0.0280878  -0.0240044  -0.052561  -0.00271682 
1704708900.479753000  0  0  11.2891  0.0847365  -0.133254  0.0243177  nan  nan  nan  nan  nan  nan  -2.5  -0.3  1  0.0118938  -0.0327716  -0.000389728  0  0  0  0  0  0  0  0  0  0.0268363  0.00049103  -0.00207159  -0.0185076  0.0138209  -0.00370201  -0.0157818  0.0319986  -0.0284305  -0.0242806  -0.0278787  -0.0196667 
1704708900.484748000  0  0  11.3045  0.112462  -0.12865  0.0182959  nan  nan  nan  nan  nan  nan  -2.5  -0.3  1  0.0121248  -0.0319902  -0.000387827  0  0  0  0  0  0  0  0  0  0.0267952  0.00050691  -0.0021019  -0.0193423  0.0140964  -0.0049282  -0.0166947  0.0310393  -0.0277132  -0.071333  -0.0282621  0.0484327 
1704708900.489759000  0  0  11.2916  0.101229  -0.123551  0.0215097  nan  nan  nan  nan  nan  nan  -2.5  -0.3  1  0.0125083  -0.0312705  -0.000391097  0  0  0  0  0  0  0  0  0  0.0266946  0.000576394  -0.00210768  -0.0200683  0.014406  -0.00384298  -0.0171131  0.0301497  -0.0278869  -0.0450173  -0.0302756  0.00999788 
1704708900.494752000  0  0  11.2771  0.0921281  -0.131155  0.024328  nan  nan  nan  nan  nan  nan  -2.5  -0.3  1  0.011915  -0.0322395  -0.000384086  0  0  0  0  0  0  0  0  0  0.0268405  0.000424499  -0.00202003  -0.0192279  0.0139797  -0.00281289  -0.0165101  0.0311158  -0.0283523  -0.0323631  -0.0239562  -0.0205768 
1704708900.500219000  0  0  11.3178  0.105436  -0.147813  0.020237  nan  nan  nan  nan  nan  nan  -2.5  -0.3  1  0.0115635  -0.0336519  -0.000389077  0  0  0  0  0  0  0  0  0  0.0269254  0.000315881  -0.00199679  -0.0174927  0.0138324  -0.00625559  -0.0166121  0.0326918  -0.0278899  -0.0580407  -0.00513986  0.0259365 
1704708900.504752000  0  0  11.3164  0.105371  -0.153521  0.0210894  nan  nan  nan  nan  nan  nan  -2.5  -0.3  1  0.012367  -0.0320762  -0.00039664  0  0  0  0  0  0  0  0  0  0.0268298  0.000382557  -0.00201736  -0.0192677  0.0146935  -0.00611349  -0.0175351  0.0313815  -0.0278774  -0.0494185  0.0183332  0.0151565 
1704708900.509764000  0  0  11.2482  0.0912438  -0.13294  0.0232633  nan  nan  nan  nan  nan  nan  -2.5  -0.3  1  0.0115324  -0.0327886  -0.000378081  0  0  0  0  0  0  0  0  0  0.0269583  0.000245895  -0.00191881  -0.0189064  0.0138603  -0.000621882  -0.0166778  0.0317243  -0.0281497  -0.029052  -0.0259835  -0.00929382 
1704708900.514756000  0  0  11.4011  0.100561  -0.156648  0.0231393  nan  nan  nan  nan  nan  nan  -2.5  -0.3  1  0.0121661  -0.0340762  -0.000414515  0  0  0  0  0  0  0  0  0  0.0268858  0.000319388  -0.00203207  -0.0165535  0.0146948  -0.0131411  -0.0175885  0.0331907  -0.0281799  -0.0393086  0.00794177  -0.00744257 
1704708900.519754000  0  0  11.3884  0.122489  -0.168808  0.0196188  nan  nan  nan  nan  nan  nan  -2.5  -0.3  1  0.0131197  -0.0318779  -0.000418183  0  0  0  0  0  0  0  0  0  0.0268227  0.000358079  -0.00207979  -0.0192442  0.0157997  -0.0120169  -0.0190972  0.0314915  -0.0277439  -0.0692833  0.0478945  0.0322032 
1704708900.525235000  0  0  11.2615  0.101553  -0.121548  0.0231622  nan  nan  nan  nan  nan  nan  -2.5  -0.3  1  0.0119284  -0.0323546  -0.000385891  0  0  0  0  0  0  0  0  0  0.0269381  0.000232567  -0.00196748  -0.0193557  0.0144027  -0.0016413  -0.0178937  0.0311318  -0.0281158  -0.0384836  -0.0433171  -0.0083695 
1704708900.529783000  0  0  11.4303  0.102656  -0.158161  0.0268864  nan  nan  nan  nan  nan  nan  -2.5  -0.3  1  0.0126757  -0.0348139  -0.000441226  0  0  0  0  0  0  0  0  0  0.0268857  0.000307074  -0.00210969  -0.0155035  0.0154083  -0.0154187  -0.0187924  0.0338501  -0.0287024  -0.0324226  0.00490218  -0.0490559 
1704708900.534774000  0  0  11.4585  0.135793  -0.167188  0.0189555  nan  nan  nan  nan  nan  nan  -2.5  -0.3  1  0.0137173  -0.0320627  -0.000439767  0  0  0  0  0  0  0  0  0  0.0268194  0.000350638  -0.00219805  -0.0187516  0.0166791  -0.017625  -0.0205754  0.0315841  -0.0278755  -0.0822922  0.043802  0.0418121 
1704708900.539789000  0  0  11.3013  0.102078  -0.101936  0.0213566  nan  nan  nan  nan  nan  nan  -2.5  -0.3  1  0.0136143  -0.0309447  -0.00042125  0  0  0  0  0  0  0  0  0  0.0267052  0.000428633  -0.0021454  -0.0204658  0.0161369  -0.00459257  -0.0201514  0.0292882  -0.0279616  -0.0187627  -0.0655786  0.0126587 
1704708900.544716000  0  0  11.4804  0.0889215  -0.150179  0.0258048  nan  nan  nan  nan  nan  nan  -2.5  -0.3  1  0.013022  -0.0347645  -0.00045264  2e-07  2e-07  -2e-07  0  0  0  0.000125  0.000125  -0.000125  0.0269224  0.000275792  -0.00223497  -0.0154379  0.0160059  -0.0193494  -0.019433  0.033457  -0.0286027  0.000940496  -0.00744643  -0.0365329 
1704708900.549709000  0  0  11.5067  0.132694  -0.157123  0.0155646  nan  nan  nan  nan  nan  nan  -2.5  -0.3  1  0.0142538  -0.0315899  -0.000450233  1.7e-06  1.7e-06  -1.7e-06  0  0  0  0.0005  0.0005  -0.0005  0.0268037  0.000368867  -0.00232884  -0.019086  0.0174616  -0.0214213  -0.021441  0.0307706  -0.0273879  -0.0681315  0.0311575  0.0793221 
1704708900.554753000  0  0  11.3499  0.0940846  -0.0885246  0.0194074  nan  nan  nan  nan  nan  nan  -2.5  -0.3  1  0.0139374  -0.0299928  -0.000417986  5.6e-06  5.6e-06  -5.6e-06  0  0  0  0.001125  0.001125  -0.001125  0.0267112  0.000428982  -0.00230877  -0.0213711  0.0167599  -0.00840367  -0.0206979  0.0278438  -0.0275402  0.00225158  -0.0791135  0.0328095 
1704708900.559763000  0  0  11.4934  0.0719441  -0.133579  0.0273664  nan  nan  nan  nan  nan  nan  -2.5  -0.3  1  0.0130103  -0.0335719  -0.000436821  1.33e-05  1.33e-05  -1.33e-05  0  0  0  0.002  0.002  -0.002  0.0269211  0.00026718  -0.00240769  -0.0166731  0.0162668  -0.0202334  -0.0193535  0.0317069  -0.0286266  0.034164  -0.0245449  -0.0558136 
1704708900.564744000  0  0  11.5261  0.108857  -0.139728  0.0171069  nan  nan  nan  nan  nan  nan  -2.5  -0.3  1  0.0138475  -0.0313983  -0.000435043  2.6e-05  2.6e-05  -2.6e-05  0  0  0  0.003125  0.003125  -0.003125  0.0268134  0.000358327  -0.00251822  -0.0189543  0.0173276  -0.0228572  -0.0207178  0.0298426  -0.0274991  -0.0271112  0.00490459  0.0611554 
1704708900.569768000  0  0  11.4383  0.0688951  -0.0966758  0.0217317  nan  nan  nan  nan  nan  nan  -2.5  -0.3  1  0.0136225  -0.0305732  -0.000416945  4.5e-05  4.5e-05  -4.5e-05  0  0  0  0.0045  0.0045  -0.0045  0.026764  0.000392589  -0.00256097  -0.0200281  0.0170049  -0.0155524  -0.0198722  0.0281327  -0.0277664  0.0450339  -0.065469  0.00601769 
1704708900.574765000  0  0  11.5243  0.0504893  -0.11578  0.0298235  nan  nan  nan  nan  nan  nan  -2.5  -0.299999  0.999999  0.0136151  -0.0314034  -0.000428517  7.15e-05  7.15e-05  -7.15e-05  0  0  0  0.006125  0.006125  -0.006125  0.0266823  0.000478553  -0.00270469  -0.0182847  0.0171397  -0.0225559  -0.0192748  0.0289284  -0.0289488  0.0763497  -0.0345815  -0.0833063 
1704708900.579760000  0  0  11.5676  0.0755699  -0.133688  0.0195436  nan  nan  nan  nan  nan  nan  -2.5  -0.299999  0.999999  0.0128039  -0.0317817  -0.000408585  0.0001067  0.0001067  -0.0001067  0  0  0  0.008  0.008  -0.008  0.0268287  0.000332816  -0.00275522  -0.017735  0.0167243  -0.026243  -0.0186477  0.0296588  -0.0279863  0.0204192  -0.00548511  0.0355683 
1704708900.584761000  0  0  11.4453  0.0622953  -0.11409  0.0204803  nan  nan  nan  nan  nan  nan  -2.5  -0.299998  0.999998  0.013052  -0.0302243  -0.000397151  0.0001519  0.0001519  -0.0001519  0  0  0  0.010125  0.010125  -0.010125  0.0267555  0.000390115  -0.00278393  -0.0197181  0.0170084  -0.0161822  -0.018527  0.0277291  -0.0279227  0.0458575  -0.026928  0.0232235 
1704708900.589768000  0  0  11.4818  0.0426591  -0.114115  0.0267693  nan  nan  nan  nan  nan  nan  -2.5  -0.299997  0.999997  0.0124509  -0.0301086  -0.000379041  0.0002083  0.0002083  -0.0002083  0  0  0  0.0125  0.0125  -0.0125  0.0266664  0.000468311  -0.00290285  -0.0192453  0.0164217  -0.0191868  -0.0173512  0.0274909  -0.0287483  0.0743129  -0.0246858  -0.0471329 
1704708900.594762000  0  0  11.5511  0.0492439  -0.138262  0.0205422  nan  nan  nan  nan  nan  nan  -2.5  -0.299996  0.999996  0.0114377  -0.031609  -0.000367591  0.0002773  0.0002773  -0.0002773  0  0  0  0.015125  0.015125  -0.015125  0.0268453  0.000282324  -0.00293492  -0.0171514  0.0159629  -0.0251401  -0.0161095  0.0293476  -0.0282179  0.0497196  0.00652583  0.0254012 
1704708900.600234000  0  0  11.4386  0.0629992  -0.131124  0.01913  nan  nan  nan  nan  nan  nan  -2.49999  -0.299995  0.999995  0.0118296  -0.0296676  -0.000359521  0.00036  0.00036  -0.00036  0  0  0  0.018  0.018  -0.018  0.0267829  0.000320309  -0.00297583  -0.0195129  0.0165989  -0.0159627  -0.016529  0.0274693  -0.0278795  0.0260679  0.00953023  0.0396692 
1704708900.604763000  0  0  11.4378  0.0465047  -0.112362  0.0249902  nan  nan  nan  nan  nan  nan  -2.49999  -0.299993  0.999993  0.011071  -0.0295401  -0.000338905  0.0004577  0.0004577  -0.0004577  0  0  0  0.021125  0.021125  -0.021125  0.0267041  0.000386905  -0.00305572  -0.0191075  0.015882  -0.0160139  -0.0154072  0.026991  -0.0284919  0.0487369  -0.0235921  -0.0274591 
1704708900.609773000  0  0  11.5507  0.0562618  -0.145995  0.0240652  nan  nan  nan  nan  nan  nan  -2.49999  -0.29999  0.99999  0.0103533  -0.031652  -0.00034366  0.0005717  0.0005717  -0.0005717  0  0  0  0.0245  0.0245  -0.0245  0.0268941  0.000199541  -0.00308591  -0.0160184  0.0159432  -0.0256794  -0.0146345  0.0295758  -0.0286118  0.022114  0.0198933  -0.0146965 
1704708900.614762000  0  0  11.4369  0.0821772  -0.139877  0.0191275  nan  nan  nan  nan  nan  nan  -2.49999  -0.299987  0.999987  0.0110225  -0.0290517  -0.000341291  0.0007031  0.0007031  -0.0007028  0  0  0  0.028125  0.028125  -0.027929  0.0267873  0.000286893  -0.00311573  -0.0190284  0.0169291  -0.0164789  -0.0156902  0.0272067  -0.0279798  -0.020005  0.0294516  0.0407039 
1704708900.619760000  0  0  11.4097  0.05954  -0.116884  0.0248793  nan  nan  nan  nan  nan  nan  -2.49998  -0.299983  0.999983  0.0100566  -0.0287251  -0.000316148  0.0008533  0.0008533  -0.0008505  0  0  0  0.032  0.032  -0.0311112  0.0267294  0.000331027  -0.00318082  -0.0189119  0.0160646  -0.0143683  -0.0144833  0.0264918  -0.0286029  0.0141665  -0.00995746  -0.0249618 
1704708900.625230000  0  0  11.5053  0.0689859  -0.147935  0.0258874  nan  nan  nan  nan  nan  nan  -2.49998  -0.299978  0.999978  0.00926759  -0.0303863  -0.000316372  0.0010235  0.0010235  -0.0010135  0  0  0  0.036125  0.036125  -0.0340435  0.0269136  0.000153112  -0.00317974  -0.0163676  0.0160805  -0.0226241  -0.0137942  0.0286991  -0.0290169  -0.0110649  0.0318379  -0.0334233 
1704708900.629767000  0  0  11.4246  0.0996221  -0.134987  0.0203507  nan  nan  nan  nan  nan  nan  -2.49997  -0.299973  0.999973  0.0099556  -0.0283031  -0.000325446  0.001215  0.001215  -0.0011906  0  0  0  0.0405  0.0405  -0.0367257  0.0268141  0.000235547  -0.00321369  -0.0185099  0.0172428  -0.0161001  -0.0151062  0.0266764  -0.0283703  -0.0602675  0.0245507  0.0293194 
1704708900.634763000  0  0  11.3953  0.083616  -0.121034  0.0248983  nan  nan  nan  nan  nan  nan  -2.49997  -0.299966  0.999966  0.00886438  -0.0274983  -0.000297931  0.001429  0.001429  -0.0013804  0  0  0  0.045125  0.0451249  -0.0391579  0.0267945  0.000253562  -0.00327112  -0.018993  0.0163753  -0.0137651  -0.014092  0.0257412  -0.0288534  -0.0375857  0.0052494  -0.0226952 
1704708900.639823000  0  0  11.4621  0.0883918  -0.127765  0.0260836  nan  nan  nan  nan  nan  nan  -2.49996  -0.299958  0.999959  0.00943638  -0.0268089  -0.000319256  0.0016667  0.0016662  -0.0015817  0  0  0  0.05  0.0497414  -0.0413402  0.0267029  0.000345976  -0.00340058  -0.0188453  0.0175492  -0.0192764  -0.0148482  0.0252776  -0.0291616  -0.0401804  0.0229757  -0.034429 
1704708900.644762000  0  0  11.4065  0.112308  -0.133919  0.0211938  nan  nan  nan  nan  nan  nan  -2.49995  -0.299949  0.999951  0.00830958  -0.0275276  -0.000308919  0.0019294  0.001926  -0.0017934  0  0  0  0.055125  0.0541079  -0.0432724  0.0269083  0.000133579  -0.0032597  -0.017906  0.0170881  -0.0151296  -0.0144158  0.0262694  -0.0287126  -0.0919907  0.0261596  0.0222039 
1704708900.650269000  0  0  11.3845  0.107292  -0.129122  0.0229505  nan  nan  nan  nan  nan  nan  -2.49994  -0.299939  0.999941  0.00800319  -0.0256914  -0.000301595  0.0022183  0.0022069  -0.002014  0  0  0  0.0605  0.0582243  -0.0449547  0.02684  0.000202328  -0.00332457  -0.0194644  0.0170498  -0.0133349  -0.0145084  0.0246322  -0.0288588  -0.081106  0.0316276  0.00170706 
1704708900.654762000  0  0  11.3983  0.0966359  -0.113374  0.0250093  nan  nan  nan  nan  nan  nan  -2.49993  -0.299927  0.99993  0.00785767  -0.0249108  -0.000309524  0.0025347  0.0025078  -0.0022425  0  0  0  0.0660084  0.0620908  -0.0463869  0.0267584  0.000276186  -0.00339852  -0.0195347  0.0172035  -0.0144622  -0.0144391  0.0237151  -0.0291358  -0.0604324  0.00856915  -0.0212585 
1704708900.659710000  0  0  11.4316  0.115904  -0.130145  0.0226301  nan  nan  nan  nan  nan  nan  -2.49991  -0.299914  0.999919  0.00855335  -0.0249188  -0.000346822  0.002878  0.0028274  -0.0024775  0  0  0  0.0712918  0.0657072  -0.0475692  0.0266685  0.000369807  -0.00349657  -0.0185615  0.0183661  -0.017168  -0.0157268  0.0240824  -0.02889  -0.0871202  0.0387318  0.00602353 
1704708900.664825000  0  0  11.377  0.120711  -0.138074  0.0208379  nan  nan  nan  nan  nan  nan  -2.4999  -0.299899  0.999906  0.00719074  -0.0237326  -0.000326242  0.0032472  0.0031644  -0.0027178  0  0  0  0.0763253  0.0690737  -0.0485014  0.0268625  0.000175258  -0.00333866  -0.0200064  0.0174511  -0.0130505  -0.0149124  0.0235533  -0.0286641  -0.104228  0.0594571  0.0261672 
1704708900.669767000  0  0  11.3365  0.0941445  -0.108112  0.0251005  nan  nan  nan  nan  nan  nan  -2.49988  -0.299882  0.999891  0.00613127  -0.0235163  -0.000323973  0.0036409  0.0035177  -0.0029621  0  0  0  0.0811088  0.0721902  -0.0491836  0.0268357  0.000196046  -0.00336413  -0.0197208  0.0164326  -0.0096699  -0.0138737  0.0229509  -0.0291204  -0.0606505  0.00507589  -0.0225522 
1704708900.674776000  0  0  11.4743  0.104696  -0.144607  0.0249557  nan  nan  nan  nan  nan  nan  -2.49986  -0.299864  0.999876  0.00716573  -0.0243915  -0.000381068  0.0040578  0.0038859  -0.0032092  0  0  0  0.0856423  0.0750566  -0.0496159  0.0267594  0.000294075  -0.00352427  -0.0174979  0.0179896  -0.0208896  -0.015285  0.0244806  -0.0292225  -0.0687694  0.0639929  -0.0197211 
1704708900.679771000  0  0  11.3662  0.122408  -0.147223  0.0186987  nan  nan  nan  nan  nan  nan  -2.49984  -0.299843  0.999859  0.00596578  -0.022131  -0.000367019  0.0044969  0.0042679  -0.0034578  0  0  0  0.0899258  0.0776731  -0.0497981  0.0269367  0.000101351  -0.00330273  -0.0204989  0.0171488  -0.012376  -0.0148015  0.0229839  -0.0285056  -0.108642  0.0829954  0.0513216 
1704708900.684769000  0  0  11.3532  0.0767569  -0.0993186  0.0250729  nan  nan  nan  nan  nan  nan  -2.49982  -0.299821  0.999841  0.00475937  -0.0214498  -0.00036818  0.0049567  0.0046622  -0.0037067  0  0  0  0.0939593  0.0800396  -0.0497304  0.0268421  0.000174577  -0.00335571  -0.0206705  0.015755  -0.0111485  -0.0132332  0.0216802  -0.0290922  -0.0317686  -0.000820757  -0.0224885 
1704708900.689756000  0  0  11.4732  0.0782223  -0.149836  0.0271336  nan  nan  nan  nan  nan  nan  -2.49979  -0.299797  0.999822  0.00598299  -0.0228517  -0.000436211  0.005436  0.0050678  -0.0039547  0  0  0  0.0977427  0.082156  -0.0494126  0.0268094  0.000251816  -0.0034926  -0.0180419  0.0174733  -0.0208603  -0.0145448  0.0239137  -0.0295808  -0.0226326  0.0796663  -0.0433616 
1704708900.694770000  0  0  11.387  0.105569  -0.147807  0.0166288  nan  nan  nan  nan  nan  nan  -2.49976  -0.29977  0.999802  0.00444736  -0.020382  -0.00042594  0.0059337  0.0054834  -0.0042005  0  0  0  0.101276  0.0840225  -0.0488449  0.0269681  5.96721e-05  -0.00328877  -0.0212927  0.0161374  -0.0140568  -0.0137506  0.0222358  -0.0283891  -0.0846333  0.0910443  0.0760309 
1704708900.700240000  0  0  11.344  0.0531354  -0.0987504  0.0238767  nan  nan  nan  nan  nan  nan  -2.49973  -0.299742  0.99978  0.00353738  -0.0201091  -0.000444629  0.0064484  0.0059076  -0.0044427  0  0  0  0.10456  0.085639  -0.0480271  0.0269297  9.11879e-05  -0.00331467  -0.0212336  0.0151032  -0.0103156  -0.0122372  0.0212386  -0.028969  0.00631162  0.00210602  -0.00876919 
1704708900.704775000  0  0  11.4213  0.071936  -0.15254  0.0244023  nan  nan  nan  nan  nan  nan  -2.4997  -0.299711  0.999757  0.00446541  -0.0204949  -0.000505513  0.0069789  0.0063393  -0.0046803  0  0  0  0.107593  0.0870054  -0.0469594  0.0268499  0.000170736  -0.00342074  -0.0200075  0.0163065  -0.0164679  -0.0134141  0.0226597  -0.0291722  -0.0204623  0.0966099  -0.0133063 
1704708900.709770000  0  0  11.3548  0.101122  -0.136818  0.0128904  nan  nan  nan  nan  nan  nan  -2.49966  -0.299678  0.999733  0.00312845  -0.0184261  -0.000514442  0.0075239  0.0067773  -0.0049119  0  0  0  0.110377  0.0881219  -0.0456416  0.0269769  -2.43904e-07  -0.00324754  -0.0227006  0.0151087  -0.0111593  -0.0128371  0.0210897  -0.0276609  -0.0841419  0.0796115  0.115479 
1704708900.714725000  0  0  11.3109  0.0576278  -0.100942  0.0223666  nan  nan  nan  nan  nan  nan  -2.49962  -0.299643  0.999708  0.00304516  -0.0176688  -0.000555802  0.0080822  0.0072202  -0.0051363  0  0  0  0.11291  0.0889884  -0.0440738  0.0268653  7.43519e-05  -0.00327014  -0.0231737  0.0149323  -0.00729178  -0.012189  0.0198966  -0.0283596  -0.00311688  0.0188357  0.00401288 
1704708900.719768000  0  0  11.3809  0.0658444  -0.13607  0.0259271  nan  nan  nan  nan  nan  nan  -2.49958  -0.299606  0.999682  0.00333834  -0.0180441  -0.000609634  0.0086526  0.0076667  -0.0053522  0  0  0  0.115194  0.0896048  -0.0422561  0.0268094  0.000137503  -0.00335161  -0.0221466  0.0152632  -0.0128058  -0.0126793  0.0210175  -0.0289763  -0.0150394  0.0787795  -0.034326 
1704708900.725231000  0  0  11.3476  0.091189  -0.12628  0.0173286  nan  nan  nan  nan  nan  nan  -2.49954  -0.299567  0.999655  0.0025661  -0.0175724  -0.000644191  0.0092337  0.0081158  -0.0055585  0  0  0  0.117227  0.0899713  -0.0401883  0.0269555  -2.46578e-05  -0.00318923  -0.0228757  0.0146833  -0.0101786  -0.0125591  0.0209354  -0.027905  -0.0668343  0.0599536  0.0624427 
1704708900.729760000  0  0  11.3064  0.0746807  -0.11049  0.0246616  nan  nan  nan  nan  nan  nan  -2.49949  -0.299525  0.999627  0.00301531  -0.0160708  -0.000699457  0.0098244  0.008566  -0.0057537  0  0  0  0.119011  0.0900877  -0.0378706  0.0268381  4.06762e-05  -0.00319965  -0.0243558  0.0151057  -0.00650145  -0.0128534  0.0194479  -0.0285635  -0.0311099  0.0420592  -0.0226358 
1704708900.734769000  0  0  11.311  0.0733446  -0.119433  0.0283572  nan  nan  nan  nan  nan  nan  -2.49944  -0.299481  0.999597  0.00266925  -0.0166793  -0.000749419  0.0104234  0.0090162  -0.0059367  0  0  0  0.120544  0.0899542  -0.0353028  0.0268063  5.29731e-05  -0.00321926  -0.0233176  0.0146264  -0.00660191  -0.0126786  0.0203553  -0.0292061  -0.0300463  0.0515977  -0.0624042 
1704708900.739771000  0  0  11.3885  0.103957  -0.124461  0.0197879  nan  nan  nan  nan  nan  nan  -2.49938  -0.299435  0.999567  0.00371078  -0.0157862  -0.000819477  0.0110295  0.0094652  -0.0061063  0  0  0  0.121828  0.0895707  -0.0324851  0.0266808  0.000135822  -0.00331213  -0.023861  0.0157343  -0.0126227  -0.0143982  0.0198738  -0.0282366  -0.0754504  0.0660828  0.0350179 
1704708900.744766000  0  0  11.2885  0.096236  -0.118083  0.0220679  nan  nan  nan  nan  nan  nan  -2.49933  -0.299387  0.999536  0.00267766  -0.0155617  -0.000860567  0.0116413  0.0099115  -0.0062612  0  0  0  0.122861  0.0889371  -0.0294173  0.0268913  -7.67544e-05  -0.0030469  -0.024656  0.0147885  -0.00455087  -0.0135538  0.0200053  -0.0283508  -0.067777  0.0521172  0.0076583 
1704708900.750216000  0  0  11.2857  0.0856936  -0.110495  0.0267815  nan  nan  nan  nan  nan  nan  -2.49927  -0.299336  0.999505  0.00253069  -0.0165646  -0.000920518  0.0122577  0.0103541  -0.0064001  0  0  0  0.123645  0.0880536  -0.0260995  0.0268309  -2.36906e-05  -0.0030567  -0.0231688  0.0143711  -0.00398347  -0.0135753  0.0209003  -0.0289911  -0.0464941  0.0287072  -0.044858 
1704708900.754761000  0  0  11.4318  0.119292  -0.146864  0.0215655  nan  nan  nan  nan  nan  nan  -2.49921  -0.299283  0.999472  0.00363717  -0.0165383  -0.00100035  0.0128773  0.0107917  -0.0065219  0  0  0  0.124178  0.0869201  -0.0226395  0.0267277  4.72357e-05  -0.00318181  -0.022634  0.0155151  -0.0156089  -0.0154897  0.0217554  -0.0283987  -0.0960783  0.0935784  0.0144176 
1704708900.759768000  0  0  11.3019  0.118987  -0.136203  0.0193489  nan  nan  nan  nan  nan  nan  -2.49914  -0.299228  0.999439  0.00298597  -0.0154537  -0.00104944  0.013499  0.0112229  -0.0066269  0  0  0  0.124461  0.0855365  -0.0194001  0.026915  -0.000153343  -0.0029014  -0.0246163  0.0149155  -0.00506295  -0.0152343  0.021142  -0.028  -0.0978187  0.0779001  0.0381385 
1704708900.764759000  0  0  11.3403  0.0961045  -0.127861  0.0252513  nan  nan  nan  nan  nan  nan  -2.49907  -0.299171  0.999406  0.00293027  -0.0163591  -0.00111583  0.0141215  0.0116466  -0.0067163  0  0  0  0.124495  0.083903  -0.0164106  0.0268093  -8.50049e-05  -0.00295477  -0.0231695  0.0144965  -0.00787394  -0.0151764  0.0220758  -0.0285515  -0.0525864  0.0526241  -0.0301261 
1704708900.769769000  0  0  11.519  0.121527  -0.164876  0.0225456  nan  nan  nan  nan  nan  nan  -2.499  -0.299111  0.999372  0.00412496  -0.0168257  -0.0012033  0.0147435  0.0120615  -0.0067914  0  0  0  0.124278  0.0820195  -0.0136711  0.0267771  -5.64474e-05  -0.00309876  -0.0221998  0.0157795  -0.0222528  -0.017074  0.0234898  -0.0283007  -0.0859737  0.113646  0.00118731 
1704708900.775243000  0  0  11.368  0.125508  -0.153996  0.0196529  nan  nan  nan  nan  nan  nan  -2.49892  -0.29905  0.999338  0.00346413  -0.0164349  -0.00125803  0.0153639  0.0124664  -0.0068534  0  0  0  0.123812  0.0798859  -0.0111816  0.0269875  -0.000269037  -0.00276584  -0.0235033  0.0150769  -0.0101336  -0.0168592  0.0237237  -0.0278147  -0.0959118  0.0897336  0.0324866 
1704708900.779761000  0  0  11.3641  0.0935663  -0.14533  0.0258477  nan  nan  nan  nan  nan  nan  -2.49884  -0.298987  0.999304  0.00317821  -0.0166483  -0.00132221  0.0159812  0.01286  -0.0069036  0  0  0  0.123095  0.0775024  -0.0089421  0.02688  -0.000215511  -0.00280153  -0.023093  0.0142914  -0.00951928  -0.0163138  0.0240356  -0.0284775  -0.0370452  0.0695327  -0.0383207 
1704708900.784767000  0  0  11.5009  0.108232  -0.174518  0.0223725  nan  nan  nan  nan  nan  nan  -2.49876  -0.298922  0.999269  0.00452422  -0.0167408  -0.00141424  0.0165944  0.013241  -0.0069433  0  0  0  0.122129  0.0748688  -0.0069526  0.0268219  -0.000155635  -0.00292642  -0.0227111  0.0155914  -0.0205175  -0.0180465  0.0249734  -0.0282288  -0.0504362  0.119282  0.00263128 
1704708900.789768000  0  0  11.4041  0.125804  -0.157898  0.0188744  nan  nan  nan  nan  nan  nan  -2.49868  -0.298854  0.999234  0.00562699  -0.0150863  -0.00149339  0.0172021  0.0136082  -0.0069736  0  0  0  0.120912  0.0719853  -0.0052131  0.0266946  -7.36517e-05  -0.00293573  -0.0248576  0.0163946  -0.0122789  -0.0196244  0.0236509  -0.0276462  -0.0710632  0.0982073  0.0405325 
1704708900.794768000  0  0  11.3597  0.0959577  -0.149962  0.02404  nan  nan  nan  nan  nan  nan  -2.49859  -0.298786  0.999199  0.0054653  -0.0151689  -0.001562  0.0178031  0.0139604  -0.0069958  0  0  0  0.119446  0.0688518  -0.0037236  0.0266317  -3.38846e-05  -0.00293059  -0.0248736  0.0156757  -0.00844952  -0.0191805  0.0239456  -0.0281355  -0.0154544  0.0796231  -0.0191455 
1704708900.800245000  0  0  11.4828  0.100573  -0.154987  0.0233238  nan  nan  nan  nan  nan  nan  -2.4985  -0.298715  0.999164  0.00645099  -0.0157282  -0.00165176  0.0183962  0.0142963  -0.0070112  0  0  0  0.117729  0.0654682  -0.0024842  0.0266065  -3.71266e-06  -0.00305018  -0.0241104  0.0165098  -0.0183717  -0.0202525  0.0249098  -0.0281198  -0.0148234  0.0808037  -0.0103499 
1704708900.804768000  0  0  11.4678  0.116819  -0.152737  0.0194331  nan  nan  nan  nan  nan  nan  -2.49841  -0.298643  0.999129  0.00739582  -0.0151678  -0.00173408  0.01898  0.0146147  -0.0070211  0  0  0  0.115763  0.0618347  -0.0014947  0.0264884  6.66846e-05  -0.00310432  -0.0248348  0.0170863  -0.0169342  -0.0215144  0.0246774  -0.0275554  -0.0357059  0.0784413  0.0326407 
1704708900.809762000  0  0  11.3663  0.0962056  -0.138515  0.022261  nan  nan  nan  nan  nan  nan  -2.49831  -0.298569  0.999094  0.00765998  -0.0141821  -0.00180263  0.0195534  0.0149143  -0.0070266  0  0  0  0.113546  0.0579512  -0.0007552  0.0264542  6.89375e-05  -0.00306349  -0.0264556  0.0168403  -0.00847842  -0.0214437  0.0238434  -0.0277357  0.00487048  0.0576718  -0.000906334 
1704708900.814908000  0  0  11.4727  0.0935982  -0.124597  0.0242227  nan  nan  nan  nan  nan  nan  -2.49821  -0.298493  0.999059  0.00864596  -0.0151531  -0.00189731  0.020115  0.0151938  -0.007029  0  0  0  0.11108  0.0538176  -0.0002657  0.026338  0.000159797  -0.00319698  -0.0251001  0.0174584  -0.0170325  -0.0222574  0.0245868  -0.0279747  0.017572  0.0229953  -0.0230364 
1704708900.819773000  0  0  11.5197  0.114821  -0.14243  0.0211286  nan  nan  nan  nan  nan  nan  -2.49811  -0.298417  0.999024  0.00920715  -0.0157153  -0.00198349  0.0206638  0.015452  -0.0070297  0  0  0  0.108363  0.0494341  -2.62e-05  0.0263336  0.000155675  -0.0032558  -0.0246324  0.017673  -0.0208431  -0.0231458  0.025571  -0.0276155  -0.0167001  0.0496075  0.0120475 
1704708900.824725000  0  0  11.3773  0.108988  -0.118262  0.0204227  nan  nan  nan  nan  nan  nan  -2.498  -0.298339  0.998989  0.00974358  -0.013947  -0.00204729  0.0211983  0.0156877  -0.0070297  0  0  0  0.105397  0.0448012  -0  0.0263053  0.000143945  -0.00318039  -0.0274296  0.0176477  -0.00910517  -0.023556  0.0237182  -0.0274099  -0.00125996  0.018317  0.0188157 
1704708900.829767000  0  0  11.4233  0.0909151  -0.0970082  0.024443  nan  nan  nan  nan  nan  nan  -2.4979  -0.29826  0.998954  0.0104319  -0.0149653  -0.00214032  0.0217173  0.0159001  -0.0070297  0  0  0  0.10218  0.0401933  -0  0.0261914  0.000232897  -0.00327044  -0.0262166  0.0177855  -0.0127527  -0.0238308  0.0241581  -0.0278106  0.0374132  -0.0282385  -0.0274312 
1704708900.834907000  0  0  11.5065  0.125138  -0.143911  0.019402  nan  nan  nan  nan  nan  nan  -2.49779  -0.29818  0.998918  0.0117881  -0.015989  -0.00224548  0.0222196  0.0160901  -0.0070297  0  0  0  0.0987137  0.0358354  -0  0.0261961  0.000234696  -0.00333833  -0.0252116  0.0190564  -0.0196047  -0.0256  0.0259402  -0.0272741  -0.0147569  0.0491719  0.0302161 
1704708900.839777000  0  0  11.3716  0.126483  -0.110958  0.0168572  nan  nan  nan  nan  nan  nan  -2.49768  -0.298099  0.998883  0.0126268  -0.0135721  -0.00230128  0.022704  0.0162589  -0.0070297  0  0  0  0.0949972  0.0317274  -0  0.0260408  0.000324863  -0.00332004  -0.028631  0.0192245  -0.00837687  -0.026422  0.0232787  -0.0267369  -0.00988407  0.00775211  0.0566535 
1704708900.844723000  0  0  11.3966  0.090962  -0.0902178  0.0237085  nan  nan  nan  nan  nan  nan  -2.49756  -0.298017  0.998848  0.0123634  -0.015544  -0.00239498  0.0231692  0.0164078  -0.0070297  0  0  0  0.0910307  0.0278695  -0  0.0260728  0.000293955  -0.00332684  -0.0266681  0.0184978  -0.0104252  -0.0254858  0.0245665  -0.0274076  0.0525451  -0.0455766  -0.0222803 
1704708900.850268000  0  0  11.5061  0.127884  -0.154443  0.0201749  nan  nan  nan  nan  nan  nan  -2.49744  -0.297935  0.998813  0.0137184  -0.0173744  -0.00251405  0.0236139  0.016538  -0.0070297  0  0  0  0.0868142  0.0242616  -0  0.026093  0.000305103  -0.00340308  -0.0247085  0.0198929  -0.0194696  -0.0272723  0.0274098  -0.0270571  -0.00486178  0.0567147  0.0183847 
1704708900.854773000  0  0  11.3899  0.136984  -0.121406  0.0154281  nan  nan  nan  nan  nan  nan  -2.49732  -0.297852  0.998778  0.0141938  -0.0147644  -0.00255817  0.0240369  0.0166508  -0.0070297  0  0  0  0.0823476  0.0209036  -0  0.0259314  0.00038338  -0.00338689  -0.0284442  0.019725  -0.0097925  -0.0279067  0.0245983  -0.0262317  -0.0172277  0.0165083  0.0694656 
1704708900.859774000  0  0  11.4318  0.0865399  -0.118439  0.0258515  nan  nan  nan  nan  nan  nan  -2.4972  -0.297769  0.998743  0.0144425  -0.0170371  -0.00266756  0.024437  0.0167474  -0.0070297  0  0  0  0.0776311  0.0177957  -0  0.0259638  0.000385007  -0.00340041  -0.0261537  0.0197002  -0.0132483  -0.0271578  0.0265651  -0.0272921  0.0767723  -0.00751983  -0.0502223 
1704708900.864726000  0  0  11.4792  0.108685  -0.162328  0.0230084  nan  nan  nan  nan  nan  nan  -2.49708  -0.297685  0.998708  0.0158091  -0.0176076  -0.00277277  0.0248128  0.0168292  -0.0070297  0  0  0  0.0726646  0.0149378  -0  0.0258407  0.000492332  -0.00349758  -0.0256836  0.0209167  -0.0170462  -0.0285381  0.0279692  -0.0271157  0.0451818  0.0673388  -0.0164472 
1704708900.869767000  0  0  11.4063  0.113455  -0.153979  0.0154337  nan  nan  nan  nan  nan  nan  -2.49696  -0.2976  0.998672  0.015379  -0.0173579  -0.00283415  0.0251632  0.0168972  -0.0070297  0  0  0  0.0674481  0.0123299  -0  0.0258747  0.000447167  -0.00343172  -0.026881  0.0200124  -0.0110972  -0.0280718  0.0279654  -0.0260392  0.0313507  0.0506775  0.06747 
1704708900.874757000  0  0  11.4317  0.0767118  -0.157357  0.0245145  nan  nan  nan  nan  nan  nan  -2.49683  -0.297516  0.998637  0.0163597  -0.0177345  -0.00293024  0.0254869  0.0169529  -0.0070297  0  0  0  0.0619822  0.0099719  -0  0.0257396  0.000551892  -0.00351036  -0.0267404  0.0207672  -0.013041  -0.0279881  0.0285298  -0.0269435  0.104066  0.052239  -0.036997 
1704708900.879770000  0  0  11.4172  0.084804  -0.184213  0.0220475  nan  nan  nan  nan  nan  nan  -2.4967  -0.297431  0.998602  0.0160677  -0.0200178  -0.00303465  0.0257831  0.0169974  -0.0070297  0  0  0  0.0565402  0.007864  -0  0.025809  0.00049933  -0.00346076  -0.0247121  0.0202102  -0.0119724  -0.0274636  0.0314586  -0.0267772  0.0830572  0.079007  -0.00782246 
1704708900.884768000  0  0  11.4346  0.0927679  -0.19121  0.0171487  nan  nan  nan  nan  nan  nan  -2.49657  -0.297346  0.998567  0.0162414  -0.0211091  -0.00312875  0.0260527  0.0170319  -0.0070297  0  0  0  0.0513482  0.0060061  -0  0.0258573  0.000473438  -0.00343187  -0.0240479  0.0202783  -0.0135042  -0.0274442  0.0329831  -0.0260411  0.0669507  0.0789761  0.0460531 
1704708900.889769000  0  0  11.3866  0.0802746  -0.18373  0.021572  nan  nan  nan  nan  nan  nan  -2.49644  -0.297261  0.998532  0.0172495  -0.0200873  -0.00320531  0.026297  0.0170578  -0.0070297  0  0  0  0.0464063  0.0043981  -0  0.0257198  0.000579033  -0.00345938  -0.0257704  0.0210317  -0.00943719  -0.0277488  0.0322376  -0.0263933  0.09474  0.0708741  -0.00571692 
1704708900.894775000  0  0  11.3443  0.0695085  -0.182585  0.0222384  nan  nan  nan  nan  nan  nan  -2.49631  -0.297175  0.998497  0.0165198  -0.022855  -0.00330926  0.0265172  0.0170763  -0.0070297  0  0  0  0.0417143  0.0030402  -0  0.0258246  0.000499367  -0.00335839  -0.0232012  0.0200222  -0.00613079  -0.0264588  0.0350439  -0.0264701  0.104404  0.0427655  -0.0132792 
1704708900.900239000  0  0  11.3782  0.0667759  -0.228543  0.0200953  nan  nan  nan  nan  nan  nan  -2.49617  -0.29709  0.998462  0.013167  -0.0290839  -0.00338742  0.0267145  0.0170887  -0.0070297  0  0  0  0.0372724  0.0019323  -0  0.0266824  -0.000251244  -0.0025063  -0.0177096  0.0173435  -0.0108  -0.0226592  0.0422929  -0.0262313  0.0749132  0.0679908  0.0111225 
1704708900.904767000  0  0  11.2746  0.0664504  -0.200378  0.0198755  nan  nan  nan  nan  nan  nan  -2.49604  -0.297004  0.998426  0.0138528  -0.0276029  -0.00345975  0.0268903  0.0170961  -0.0070297  0  0  0  0.0330804  0.0010744  -0  0.0265658  -0.000179171  -0.00246567  -0.0201725  0.0177868  -0.00221993  -0.0229606  0.0406819  -0.0260646  0.0783362  0.0264819  0.0122026 
1704708900.909769000  0  0  11.2489  0.0451776  -0.176873  0.0248128  nan  nan  nan  nan  nan  nan  -2.49591  -0.296919  0.998391  0.0137109  -0.0301212  -0.00356325  0.0270458  0.0170998  -0.0070297  0  0  0  0.0291384  0.0004664  -0  0.026599  -0.000162215  -0.00238815  -0.0176722  0.0174413  -0.000225884  -0.0221317  0.0424605  -0.0266575  0.113256  -0.0368903  -0.0435855 
1704708900.914768000  0  0  11.3664  0.0807473  -0.206006  0.0225589  nan  nan  nan  nan  nan  nan  -2.49577  -0.296833  0.998356  0.0151385  -0.0306537  -0.00368722  0.0271821  0.0171012  -0.0070297  0  0  0  0.0254465  0.0001085  -0  0.0265064  -6.11349e-05  -0.00248622  -0.0168563  0.0191482  -0.00985662  -0.0236937  0.0433624  -0.0265006  0.0564872  0.0130781  -0.0169808 
1704708900.919776000  0  0  11.2037  0.0749407  -0.185832  0.0184909  nan  nan  nan  nan  nan  nan  -2.49563  -0.296748  0.998321  0.0126786  -0.0321517  -0.00370369  0.0273006  0.0171013  -0.0070297  0  0  0  0.0220045  -0  -0  0.0270231  -0.000536057  -0.00178048  -0.0171408  0.0168446  0.00225891  -0.020937  0.0445946  -0.0260125  0.0427389  -0.0386059  0.0289889 
1704708900.924769000  0  0  11.1791  0.0489357  -0.160033  0.0248385  nan  nan  nan  nan  nan  nan  -2.4955  -0.296662  0.998286  0.0132727  -0.0335652  -0.00381444  0.0274026  0.0171013  -0.0070297  0  0  0  0.0188125  -0  -0  0.0269581  -0.000449721  -0.00176127  -0.0157272  0.0173463  0.00430195  -0.0207711  0.0450319  -0.0266841  0.0932228  -0.0942269  -0.0436395 
1704708900.929767000  0  0  11.2188  0.0663262  -0.190473  0.0224751  nan  nan  nan  nan  nan  nan  -2.49536  -0.296577  0.998251  0.0115444  -0.0374944  -0.00387467  0.0274892  0.0171013  -0.0070297  0  0  0  0.0158706  -0  -0  0.0275367  -0.000870816  -0.00116349  -0.0123362  0.0161638  -0.000286014  -0.0191118  0.0490234  -0.0265872  0.0431763  -0.0700696  -0.0150672 
1704708900.934769000  0  0  11.1369  0.0739932  -0.159132  0.0160565  nan  nan  nan  nan  nan  nan  -2.49522  -0.296491  0.998215  0.0105981  -0.0374251  -0.00391136  0.0275617  0.0171013  -0.0070297  0  0  0  0.0131786  -0  -0  0.0277703  -0.00109313  -0.000759645  -0.0136314  0.0153793  0.00575403  -0.0181279  0.0480737  -0.0257606  0.0187901  -0.124013  0.0569006 
1704708900.939768000  0  0  11.0846  0.0564559  -0.137732  0.0228055  nan  nan  nan  nan  nan  nan  -2.49508  -0.296406  0.99818  0.0112507  -0.0378227  -0.00401305  0.0276214  0.0171013  -0.0070297  0  0  0  0.0107366  -0  -0  0.0277048  -0.00101346  -0.000698063  -0.0135204  0.0159391  0.010033  -0.0182698  0.0473287  -0.0263728  0.0551706  -0.15996  -0.0213407 
1704708900.944768000  0  0  11.1374  0.081169  -0.146736  0.0203266  nan  nan  nan  nan  nan  nan  -2.49495  -0.29632  0.998145  0.0102296  -0.0400733  -0.00407034  0.0276695  0.0171013  -0.0070297  0  0  0  0.0085447  -0  -0  0.0280037  -0.00122441  -0.000350559  -0.0114545  0.0151947  0.00491753  -0.0176228  0.0488823  -0.0261827  -0.000208046  -0.156245  0.00774421 
1704708900.950310000  0  0  11.1417  0.0956428  -0.134174  0.0167703  nan  nan  nan  nan  nan  nan  -2.49481  -0.296235  0.99811  0.0106939  -0.0399593  -0.00416062  0.0277073  0.0171013  -0.0070297  0  0  0  0.0066027  -0  -0  0.0281626  -0.0013268  -9.88064e-05  -0.0121746  0.0159981  0.00407669  -0.0183114  0.0477188  -0.0255985  -0.0228213  -0.170664  0.0463561 
1704708900.954776000  0  0  11.0166  0.0946667  -0.105895  0.0215625  nan  nan  nan  nan  nan  nan  -2.49467  -0.296149  0.998075  0.0112416  -0.0389132  -0.00424366  0.0277359  0.0171013  -0.0070297  0  0  0  0.0049108  -0  -0  0.028078  -0.00126571  2.19256e-05  -0.0140399  0.0163871  0.0143125  -0.0188846  0.0454555  -0.0259909  -0.0155949  -0.2064  -0.00962162 
1704708900.959767000  0  0  11.1111  0.100335  -0.092226  0.0222667  nan  nan  nan  nan  nan  nan  -2.49453  -0.296064  0.99804  0.0117309  -0.0401006  -0.00434951  0.0277568  0.0171013  -0.0070297  0  0  0  0.0034688  -0  -0  0.0280279  -0.00118371  8.43937e-06  -0.0122313  0.0169147  0.00650646  -0.0195372  0.0452306  -0.0260657  -0.0209279  -0.23167  -0.0176763 
1704708900.964776000  0  0  11.1781  0.128925  -0.108776  0.0188007  nan  nan  nan  nan  nan  nan  -2.49439  -0.295978  0.998005  0.0123899  -0.039779  -0.00444485  0.027771  0.0171013  -0.0070297  0  0  0  0.0022768  -0  -0  0.0281616  -0.00126531  0.000195509  -0.0127767  0.0179983  0.000548857  -0.0207646  0.044234  -0.0256805  -0.0668161  -0.189402  0.0217959 
1704708900.969768000  0  0  10.9737  0.11774  -0.0627105  0.0202205  nan  nan  nan  nan  nan  nan  -2.49425  -0.295893  0.997969  0.0120864  -0.03842  -0.00448927  0.02778  0.0171013  -0.0070297  0  0  0  0.0013349  -0  -0  0.0282387  -0.00133894  0.000519597  -0.0156377  0.017517  0.0169884  -0.0205515  0.0411166  -0.0257935  -0.0464064  -0.252852  0.0051781 
1704708900.975286000  0  0  11.1156  0.101326  -0.0555269  0.0255451  nan  nan  nan  nan  nan  nan  -2.49411  -0.295807  0.997934  0.0120237  -0.0414016  -0.00459558  0.0277848  0.0171013  -0.0070297  0  0  0  0.0006429  -0  -0  0.0283622  -0.0013691  0.000620767  -0.0117062  0.0176731  0.00501822  -0.0204501  0.0422071  -0.026556  -0.0145099  -0.277252  -0.0537544 
1704708900.979767000  0  0  11.2405  0.141377  -0.0984164  0.0190329  nan  nan  nan  nan  nan  nan  -2.49397  -0.295722  0.997899  0.0134465  -0.0400902  -0.00470966  0.0277868  0.0171013  -0.0070297  0  0  0  0.0002009  -0  -0  0.0282828  -0.00128524  0.000563464  -0.0126394  0.0194317  -0.00530121  -0.0226183  0.040832  -0.0258351  -0.0746669  -0.178821  0.0204397 
1704708900.984768000  0  0  11.0516  0.128606  -0.0442251  0.0168816  nan  nan  nan  nan  nan  nan  -2.49384  -0.295636  0.997864  0.0139004  -0.0370922  -0.00475911  0.0277872  0.0171013  -0.0070297  0  0  0  9e-06  -0  -0  0.0282152  -0.0012149  0.000711792  -0.0170439  0.0195669  0.0101932  -0.0231019  0.0361222  -0.0253461  -0.0446745  -0.243874  0.0424403 
1704708900.989771000  0  0  11.2049  0.0923832  -0.0580624  0.0248456  nan  nan  nan  nan  nan  nan  -2.4937  -0.295551  0.997829  0.0138847  -0.0397836  -0.00486877  0.0277872  0.0171013  -0.0070297  0  0  0  -6.7e-05  -0  -0  0.0281725  -0.00111841  0.000639365  -0.0129705  0.0195462  -0.00237485  -0.0225817  0.0375908  -0.0262014  0.0229847  -0.22971  -0.0485567 
1704708900.994777000  0  0  11.3446  0.131218  -0.115272  0.0172527  nan  nan  nan  nan  nan  nan  -2.49356  -0.295465  0.997794  0.0149998  -0.0392522  -0.00497807  0.0277862  0.0171013  -0.0070297  0  0  0  -0.000375  -0  -0  0.0282277  -0.00113129  0.000638554  -0.0131735  0.0211927  -0.0140493  -0.0243007  0.0373422  -0.0254443  -0.0388685  -0.113005  0.0387847 
1704708901.000284000  0  0  11.1303  0.118896  -0.0644404  0.0142886  nan  nan  nan  nan  nan  nan  -2.49342  -0.29538  0.997759  0.0156809  -0.0361726  -0.00502944  0.027783  0.0171013  -0.0070297  0  0  0  -0.0009331  -0  -0  0.0281345  -0.00101015  0.000759594  -0.017785  0.0214276  0.0035974  -0.0248874  0.0328123  -0.0247215  -0.00882834  -0.172992  0.0686074 
1704708901.004773000  0  0  11.3277  0.0749853  -0.0940775  0.0258016  nan  nan  nan  nan  nan  nan  -2.49328  -0.295294  0.997723  0.0153471  -0.0386233  -0.00512785  0.0277764  0.0171013  -0.0070297  0  0  0  -0.0017411  -0  -0  0.0280785  -0.000927154  0.000631445  -0.0138811  0.0211434  -0.0125439  -0.0237741  0.0348373  -0.0259133  0.0687508  -0.132348  -0.0633872 
1704708901.009770000  0  0  11.4645  0.103149  -0.146015  0.0180293  nan  nan  nan  nan  nan  nan  -2.49314  -0.295209  0.997688  0.0162318  -0.0382378  -0.00522867  0.0277652  0.0171013  -0.0070297  0  0  0  -0.0027991  -0  -0  0.0281339  -0.000949762  0.000585486  -0.0140318  0.0225503  -0.0238865  -0.024811  0.0351015  -0.0252213  0.0219627  -0.0309036  0.0268472 
1704708901.014763000  0  0  11.2596  0.099565  -0.105697  0.0141876  nan  nan  nan  nan  nan  nan  -2.493  -0.295123  0.997653  0.0165996  -0.0363108  -0.00528357  0.027748  0.0171013  -0.0070297  0  0  0  -0.0041072  -0  -0  0.0280301  -0.000841313  0.000663797  -0.0172518  0.0224127  -0.0069479  -0.0249957  0.0323273  -0.0244352  0.0308301  -0.0860173  0.0670071 
1704708901.019777000  0  0  11.3951  0.0492586  -0.126783  0.0260656  nan  nan  nan  nan  nan  nan  -2.49286  -0.295038  0.997618  0.016001  -0.0379827  -0.00536147  0.0277237  0.0171013  -0.0070297  0  0  0  -0.0056652  -0  -0  0.0280045  -0.000762922  0.000522112  -0.014729  0.0217125  -0.0179013  -0.0233045  0.0337853  -0.0257363  0.115884  -0.0572595  -0.0684571 
1704708901.024724000  0  0  11.4963  0.0679648  -0.161217  0.0227745  nan  nan  nan  nan  nan  nan  -2.49273  -0.294952  0.997583  0.0173024  -0.0376226  -0.00547757  0.0276909  0.0171013  -0.0070297  0  0  0  -0.0074733  -0  -0  0.0279365  -0.000640141  0.000378032  -0.0148266  0.0232786  -0.0260624  -0.0243703  0.0339812  -0.0255518  0.0882774  0.00980757  -0.0291636 
1704708901.029768000  0  0  11.3238  0.0695428  -0.146651  0.0175871  nan  nan  nan  nan  nan  nan  -2.49259  -0.294867  0.997548  0.0164028  -0.0379762  -0.00552242  0.0276485  0.0171013  -0.0070297  0  0  0  -0.0095313  -0  -0  0.0280157  -0.000724133  0.000551284  -0.0155478  0.0219996  -0.0120289  -0.0231469  0.0342031  -0.0248869  0.0738657  -0.0213656  0.0290303 
1704708901.034774000  0  0  11.3745  0.0437846  -0.156281  0.0262217  nan  nan  nan  nan  nan  nan  -2.49245  -0.294781  0.997513  0.0163149  -0.0383024  -0.0055973  0.0275952  0.0171013  -0.0070297  0  0  0  -0.0118393  -0  -0  0.0279651  -0.000625143  0.000444107  -0.0151003  0.0217537  -0.0160125  -0.0222402  0.0345305  -0.0259478  0.11704  -0.00511897  -0.0682933 
1704708901.039777000  0  0  11.4217  0.0648617  -0.16696  0.0217807  nan  nan  nan  nan  nan  nan  -2.49231  -0.294696  0.997477  0.0172866  -0.0383226  -0.00570777  0.0275297  0.0171013  -0.0070297  0  0  0  -0.0143974  -0  -0  0.0278895  -0.000505897  0.00033193  -0.01502  0.0228022  -0.0197174  -0.0230167  0.0347552  -0.0256113  0.0820305  0.0141715  -0.0161465 
1704708901.044774000  0  0  11.3694  0.0751288  -0.159304  0.0181539  nan  nan  nan  nan  nan  nan  -2.49217  -0.29461  0.997442  0.017627  -0.0385094  -0.00579701  0.0274508  0.0171013  -0.0070297  0  0  0  -0.0172054  -0  -0  0.0278371  -0.000413387  0.000282949  -0.0152423  0.0229221  -0.0152549  -0.0232409  0.0347836  -0.0250968  0.0635582  -0.0014011  0.0240441 
1704708901.050221000  0  0  11.3599  0.0630155  -0.151052  0.0215372  nan  nan  nan  nan  nan  nan  -2.49204  -0.294525  0.997407  0.0177024  -0.0378687  -0.00586148  0.0273572  0.0171013  -0.0070297  0  0  0  -0.0202634  -0  -0  0.0278217  -0.000327488  0.000206427  -0.0164455  0.0228088  -0.014282  -0.022725  0.0340012  -0.0254382  0.0830391  -0.0107076  -0.0148325 
1704708901.054770000  0  0  11.3899  0.0624274  -0.138849  0.0214076  nan  nan  nan  nan  nan  nan  -2.4919  -0.294439  0.997372  0.0183226  -0.0387824  -0.0059745  0.0272478  0.0171013  -0.0070297  0  0  0  -0.0235715  -0  -0  0.0277431  -0.000228467  0.000121205  -0.0153997  0.0234205  -0.01658  -0.0229239  0.0344813  -0.0254446  0.0860448  -0.0395301  -0.0131496 
1704708901.060278000  0  0  11.4147  0.0884679  -0.15409  0.0168651  nan  nan  nan  nan  nan  nan  -2.49176  -0.294354  0.997337  0.0190758  -0.03934  -0.00608724  0.0271211  0.0171013  -0.0070297  0  0  0  -0.0271295  -0  -0  0.0277416  -0.000138942  2.43235e-05  -0.015023  0.0242187  -0.0184558  -0.0237802  0.0351236  -0.0247802  0.041842  -0.014957  0.0369878 
1704708901.064772000  0  0  11.3415  0.0896646  -0.134722  0.0175524  nan  nan  nan  nan  nan  nan  -2.49163  -0.294268  0.997302  0.0194114  -0.0379101  -0.00614561  0.026976  0.0171013  -0.0070297  0  0  0  -0.0309375  -0  -0  0.0276431  -4.15685e-05  7.11284e-06  -0.0174088  0.0242789  -0.0123115  -0.0239224  0.033356  -0.0246582  0.0407566  -0.0374321  0.0271763 
1704708901.069766000  0  0  11.3514  0.0790234  -0.118743  0.0219387  nan  nan  nan  nan  nan  nan  -2.49149  -0.294183  0.997266  0.0195236  -0.0394418  -0.00625264  0.0268113  0.0171013  -0.0070297  0  0  0  -0.0349956  -0  -0  0.0276529  1.53873e-05  -4.74413e-05  -0.0159673  0.0242983  -0.0129852  -0.0236529  0.0341557  -0.0251031  0.0595594  -0.0767463  -0.0232025 
1704708901.075243000  0  0  11.4313  0.112054  -0.132931  0.019419  nan  nan  nan  nan  nan  nan  -2.49136  -0.294097  0.997231  0.0206777  -0.0396737  -0.00637586  0.0266257  0.0171013  -0.0070297  0  0  0  -0.0393036  -0  -0  0.0276545  0.000116729  -0.000166616  -0.0158578  0.0257042  -0.0194023  -0.0251498  0.034288  -0.024797  0.00727  -0.0495869  0.00523273 
1704708901.079773000  0  0  11.3254  0.113778  -0.107209  0.0192464  nan  nan  nan  nan  nan  nan  -2.49123  -0.294012  0.997196  0.0208732  -0.0383135  -0.00642815  0.0264179  0.0171013  -0.0070297  0  0  0  -0.0438617  -0  -0  0.0275492  0.000219822  -0.000160701  -0.0183819  0.0254876  -0.0105782  -0.0253413  0.0323043  -0.0246553  0.00558457  -0.0827816  0.00597286 
1704708901.084774000  0  0  11.3566  0.0946092  -0.0955409  0.0247833  nan  nan  nan  nan  nan  nan  -2.4911  -0.293926  0.997161  0.0214338  -0.0391418  -0.00654027  0.0261866  0.0171013  -0.0070297  0  0  0  -0.0486697  -0  -0  0.0274715  0.000348965  -0.000247204  -0.0176333  0.0259678  -0.0129599  -0.0254046  0.032359  -0.0253285  0.0445043  -0.106621  -0.056507 
1704708901.089837000  0  0  11.3614  0.107559  -0.129441  0.0219828  nan  nan  nan  nan  nan  nan  -2.49097  -0.293841  0.997126  0.0196946  -0.0432936  -0.00662669  0.0259308  0.0171013  -0.0070297  0  0  0  -0.0537277  -0  -0  0.0280149  -3.27666e-06  3.18536e-05  -0.0142258  0.0245285  -0.0139136  -0.0238628  0.0366505  -0.0252629  0.00441967  -0.0783036  -0.0221564 
1704708901.094764000  0  0  11.3173  0.0981085  -0.134553  0.0199829  nan  nan  nan  nan  nan  nan  -2.49084  -0.293755  0.997091  0.017939  -0.044758  -0.00664983  0.0256489  0.0171013  -0.0070297  0  0  0  -0.0590358  -0  -0  0.0283208  -0.000244537  0.000251033  -0.0139623  0.0227468  -0.010671  -0.0220189  0.0379122  -0.0251346  0.00635679  -0.0796869  0.00155884 
1704708901.100282000  0  0  11.2682  0.0724316  -0.138214  0.0240812  nan  nan  nan  nan  nan  nan  -2.49071  -0.29367  0.997056  0.0168739  -0.0475136  -0.00672151  0.02534  0.0171013  -0.0070297  0  0  0  -0.0645938  -0  -0  0.028653  -0.000409427  0.000466327  -0.0122038  0.0216563  -0.00698097  -0.0204545  0.0402038  -0.0257655  0.0433183  -0.0934465  -0.0433602 
1704708901.104765000  0  0  11.3217  0.076063  -0.155518  0.0209317  nan  nan  nan  nan  nan  nan  -2.49058  -0.293584  0.99702  0.0169938  -0.0487695  -0.00682143  0.0250026  0.0171013  -0.0070297  0  0  0  -0.0704018  -0  -0  0.0285948  -0.000323741  0.000396639  -0.0109425  0.0216996  -0.0112776  -0.0204659  0.0413271  -0.0254555  0.0361606  -0.0691743  -0.00709213 
1704708901.109762000  0  0  11.3255  0.0783314  -0.17241  0.0190243  nan  nan  nan  nan  nan  nan  -2.49046  -0.293499  0.996985  0.0166159  -0.0496475  -0.00689047  0.0246355  0.0171013  -0.0070297  0  0  0  -0.0764599  -0  -0  0.0287945  -0.000437636  0.000523177  -0.0110283  0.0214725  -0.0118536  -0.0200113  0.042269  -0.0252463  0.0274408  -0.0440557  0.0146589 
1704708901.114766000  0  0  11.2535  0.0659563  -0.148073  0.0210648  nan  nan  nan  nan  nan  nan  -2.49034  -0.293413  0.99695  0.016848  -0.0492109  -0.00696755  0.0242376  0.0171013  -0.0070297  0  0  0  -0.0827679  -0  -0  0.0287284  -0.000334083  0.00052391  -0.0126249  0.0214005  -0.00582795  -0.0198165  0.0411464  -0.0253826  0.0503988  -0.0824015  -0.00948316 
1704708901.119766000  0  0  11.29  0.0549597  -0.164239  0.0220396  nan  nan  nan  nan  nan  nan  -2.49022  -0.293328  0.996915  0.0158544  -0.0532706  -0.00705584  0.0238074  0.0171013  -0.0070297  0  0  0  -0.0893259  -0  -0  0.0289542  -0.000428684  0.000617745  -0.00866483  0.0203913  -0.00900481  -0.018503  0.0448295  -0.0255971  0.060308  -0.0839538  -0.0195244 
1704708901.125190000  0  0  11.3776  0.0734039  -0.189341  0.0188575  nan  nan  nan  nan  nan  nan  -2.4901  -0.293242  0.99688  0.0159194  -0.0539638  -0.00714313  0.0233439  0.0171013  -0.0070297  0  0  0  -0.096134  -0  -0  0.0291026  -0.000479865  0.000633678  -0.00845687  0.0207269  -0.0163393  -0.0186804  0.0456892  -0.0252477  0.0250516  -0.0416584  0.0167588 
1704708901.129761000  0  0  11.213  0.0666732  -0.139647  0.0189427  nan  nan  nan  nan  nan  nan  -2.48998  -0.293157  0.996845  0.0160085  -0.0523091  -0.00719438  0.0228457  0.0171013  -0.0070297  0  0  0  -0.103192  -0  -0  0.0290131  -0.000396154  0.000696205  -0.0122097  0.0203765  -0.00272187  -0.0185081  0.0429693  -0.0250916  0.0369279  -0.116024  0.0141329 
1704708901.134768000  0  0  11.2995  0.0391963  -0.150548  0.0252285  nan  nan  nan  nan  nan  nan  -2.48987  -0.293071  0.99681  0.0156772  -0.0571872  -0.00732632  0.0223116  0.0171013  -0.0070297  0  0  0  -0.1105  -0  -0  0.0292058  -0.000438843  0.000721616  -0.00692733  0.020155  -0.00988999  -0.0175434  0.0470317  -0.02594  0.0830067  -0.131597  -0.0559554 
1704708901.139766000  0  0  11.3857  0.0960945  -0.185268  0.0190356  nan  nan  nan  nan  nan  nan  -2.48976  -0.292986  0.996774  0.0171733  -0.0562963  -0.00746948  0.0217403  0.0171013  -0.0070297  0  0  0  -0.118058  -0  -0  0.0291515  -0.000322098  0.000613977  -0.00832619  0.021935  -0.016882  -0.0197528  0.0463769  -0.0252764  -0.0104637  -0.0561315  0.0148195 
1704708901.144763000  0  0  11.2658  0.0853784  -0.133148  0.0175697  nan  nan  nan  nan  nan  nan  -2.48965  -0.2929  0.996739  0.0163726  -0.055942  -0.00749152  0.0211306  0.0171013  -0.0070297  0  0  0  -0.125866  -0  -0  0.0292326  -0.000360604  0.000730383  -0.0107044  0.0207935  -0.00707887  -0.0188319  0.0447229  -0.0250144  0.00249688  -0.145155  0.0305229 
1704708901.150167000  0  0  11.3544  0.0444813  -0.136888  0.0281394  nan  nan  nan  nan  nan  nan  -2.48955  -0.292815  0.996704  0.0159302  -0.0615394  -0.0076287  0.0204812  0.0171013  -0.0070297  0  0  0  -0.133924  -0  -0  0.0294386  -0.000384966  0.000750729  -0.00456171  0.0203863  -0.0143695  -0.0176173  0.0490169  -0.0264252  0.0731166  -0.177178  -0.0874909 
1704708901.154767000  0  0  11.4554  0.11142  -0.178332  0.0185092  nan  nan  nan  nan  nan  nan  -2.48945  -0.292729  0.996669  0.0174672  -0.0601189  -0.00777138  0.0197909  0.0171013  -0.0070297  0  0  0  -0.142232  -0  -0  0.0293813  -0.000281292  0.000623507  -0.0065866  0.022291  -0.0225679  -0.0201327  0.0479296  -0.0253867  -0.037619  -0.0842891  0.0225023 
1704708901.159767000  0  0  11.2939  0.102143  -0.102157  0.0153468  nan  nan  nan  nan  nan  nan  -2.48935  -0.292644  0.996634  0.0167923  -0.0585694  -0.00777775  0.0190585  0.0171013  -0.0070297  0  0  0  -0.15079  -0  -0  0.0294311  -0.00029799  0.00074511  -0.0108254  0.0211859  -0.00930709  -0.0195028  0.0445137  -0.024791  -0.0248604  -0.205213  0.0560745 
1704708901.164767000  0  0  11.393  0.0609567  -0.116816  0.0272252  nan  nan  nan  nan  nan  nan  -2.48926  -0.292558  0.996599  0.0172361  -0.0619314  -0.00793438  0.0182826  0.0171013  -0.0070297  0  0  0  -0.159598  -0  -0  0.029421  -0.00018834  0.000620705  -0.0070056  0.0216414  -0.0171981  -0.0192346  0.0468071  -0.0260739  0.0550453  -0.196993  -0.0795755 
1704708901.169766000  0  0  11.4622  0.114994  -0.155932  0.0165048  nan  nan  nan  nan  nan  nan  -2.48917  -0.292472  0.996564  0.0178061  -0.062039  -0.00804448  0.0174621  0.0171013  -0.0070297  0  0  0  -0.168656  -0  -0  0.0295349  -0.000203706  0.000614501  -0.00778274  0.0225221  -0.0229599  -0.0206383  0.0469277  -0.0250191  -0.0401168  -0.119871  0.0438808 
1704708901.175244000  0  0  11.3163  0.105099  -0.0913837  0.0133769  nan  nan  nan  nan  nan  nan  -2.48908  -0.292387  0.996528  0.0174284  -0.0614559  -0.00808381  0.0165956  0.0171013  -0.0070297  0  0  0  -0.17793  -0  -0  0.0296182  -0.000208885  0.000718184  -0.0108963  0.0217775  -0.0109564  -0.0203223  0.0443742  -0.0242735  -0.0232329  -0.225475  0.0755236 
1704708901.179772000  0  0  11.3749  0.0691469  -0.104097  0.0273901  nan  nan  nan  nan  nan  nan  -2.489  -0.292301  0.996493  0.0174384  -0.0638447  -0.00819891  0.0156831  0.0171013  -0.0070297  0  0  0  -0.187052  -0  -0  0.0295884  -0.000119208  0.000621439  -0.00856292  0.0216686  -0.015534  -0.0197211  0.0457596  -0.0258584  0.04314  -0.212794  -0.0837922 
1704708901.184774000  0  0  11.424  0.103612  -0.133192  0.0197431  nan  nan  nan  nan  nan  nan  -2.48893  -0.292216  0.996458  0.0175095  -0.064524  -0.00828821  0.0147255  0.0171013  -0.0070297  0  0  0  -0.195924  -0  -0  0.0296843  -0.000134181  0.000624561  -0.00868548  0.0218707  -0.019611  -0.020309  0.0460712  -0.025278  -0.0203807  -0.157471  0.00599069 
1704708901.189767000  0  0  11.319  0.104532  -0.0965759  0.0167476  nan  nan  nan  nan  nan  nan  -2.48886  -0.29213  0.996423  0.0183227  -0.0639906  -0.00840381  0.0137243  0.0171013  -0.0070297  0  0  0  -0.204546  -0  -0  0.0296221  -2.24137e-05  0.000614119  -0.0110612  0.0224425  -0.0107971  -0.0211626  0.0440555  -0.0246448  -0.0143682  -0.212159  0.0371028 
1704708901.194774000  0  0  11.3224  0.0747724  -0.107578  0.0268549  nan  nan  nan  nan  nan  nan  -2.48879  -0.292045  0.996388  0.0176715  -0.0660547  -0.00847146  0.0126805  0.0171013  -0.0070297  0  0  0  -0.212918  -0  -0  0.0297304  -3.2716e-05  0.000641547  -0.00974692  0.0216254  -0.0110536  -0.0200525  0.0452089  -0.0259251  0.0349386  -0.200765  -0.0764353 
1704708901.199773000  0  0  11.4079  0.0895832  -0.122711  0.0206229  nan  nan  nan  nan  nan  nan  -2.48873  -0.291959  0.996353  0.01805  -0.0666886  -0.00858067  0.0115955  0.0171013  -0.0070297  0  0  0  -0.22104  -0  -0  0.0296895  7.74271e-05  0.000518383  -0.0092477  0.0220077  -0.0178733  -0.0205573  0.0452142  -0.0253767  0.00996089  -0.170549  -0.00402 
1704708901.204774000  0  0  11.3625  0.094209  -0.122322  0.0182689  nan  nan  nan  nan  nan  nan  -2.48867  -0.291874  0.996317  0.0182461  -0.0672282  -0.00867646  0.0104705  0.0171013  -0.0070297  0  0  0  -0.228912  -0  -0  0.0297373  8.67957e-05  0.000557895  -0.0100053  0.0221323  -0.0141324  -0.0207824  0.0449499  -0.0250129  0.00278002  -0.168894  0.0217674 
1704708901.209717000  0  0  11.2681  0.0681536  -0.115812  0.0238497  nan  nan  nan  nan  nan  nan  -2.48862  -0.291788  0.996282  0.0176037  -0.0683228  -0.00872542  0.0093068  0.0171013  -0.0070297  0  0  0  -0.236534  -0  -0  0.0298428  6.18774e-05  0.000662415  -0.0105511  0.0211806  -0.0064149  -0.0196319  0.0450819  -0.0257129  0.0443065  -0.18313  -0.040992 
1704708901.214775000  0  0  11.4424  0.0660184  -0.138001  0.0209517  nan  nan  nan  nan  nan  nan  -2.48858  -0.291703  0.996247  0.0178101  -0.06983  -0.0088392  0.0081056  0.0171013  -0.0070297  0  0  0  -0.243905  -0  -0  0.0298189  0.00017255  0.000493259  -0.00818387  0.0215012  -0.0205093  -0.0195977  0.0460515  -0.0254849  0.0482619  -0.147672  -0.00704677 
1704708901.219774000  0  0  11.4008  0.0861615  -0.146417  0.0165915  nan  nan  nan  nan  nan  nan  -2.48854  -0.291617  0.996212  0.0185823  -0.0695634  -0.00896105  0.0068682  0.0171013  -0.0070297  0  0  0  -0.251027  -0  -0  0.0298547  0.000196437  0.000521975  -0.00981792  0.0223397  -0.0171006  -0.0204997  0.0453712  -0.0248377  0.0162738  -0.124581  0.0409827 
1704708901.225246000  0  0  11.3053  0.0688969  -0.129581  0.0205207  nan  nan  nan  nan  nan  nan  -2.48851  -0.291532  0.996177  0.0178534  -0.0705299  -0.00900048  0.0055957  0.0171013  -0.0070297  0  0  0  -0.257899  -0  -0  0.0299462  0.000203539  0.000602896  -0.0104287  0.0212017  -0.00924618  -0.0193884  0.0452996  -0.0251782  0.0405796  -0.157594  -0.00472714 
1704708901.229766000  0  0  11.4849  0.061289  -0.159934  0.02185  nan  nan  nan  nan  nan  nan  -2.48849  -0.291446  0.996142  0.0179654  -0.072415  -0.00911506  0.0042896  0.0171013  -0.0070297  0  0  0  -0.264521  -0  -0  0.0299304  0.000292695  0.000428752  -0.00741019  0.0214599  -0.0237653  -0.0191949  0.0469732  -0.0253592  0.0540149  -0.112285  -0.0195334 
1704708901.234774000  0  0  11.4571  0.0831936  -0.164443  0.0180231  nan  nan  nan  nan  nan  nan  -2.48847  -0.291361  0.996107  0.0187591  -0.0721401  -0.00924027  0.0029509  0.0171013  -0.0070297  0  0  0  -0.270893  -0  -0  0.0299908  0.000300498  0.000447448  -0.00891533  0.0223923  -0.0214933  -0.0201246  0.0463664  -0.0248804  0.0187594  -0.0976849  0.0235148 
1704708901.239834000  0  0  11.3274  0.0692317  -0.135578  0.0219108  nan  nan  nan  nan  nan  nan  -2.48846  -0.291275  0.996071  0.0185333  -0.0722291  -0.00929844  0.0015811  0.0171013  -0.0070297  0  0  0  -0.277015  -0  -0  0.0299329  0.000404494  0.000455089  -0.0104996  0.021608  -0.0106599  -0.0195645  0.0453409  -0.0252176  0.0415302  -0.14598  -0.0217089 
1704708901.244772000  0  0  11.463  0.058143  -0.161244  0.024699  nan  nan  nan  nan  nan  nan  -2.48845  -0.29119  0.996036  0.0180408  -0.0741347  -0.00937007  0.0001812  0.0171013  -0.0070297  0  0  0  -0.282887  -0  -0  0.0300534  0.000388591  0.000403037  -0.00799564  0.0212567  -0.0217637  -0.0187397  0.0469936  -0.0257298  0.0561193  -0.109853  -0.0514398 
1704708901.250173000  0  0  11.4908  0.0817364  -0.162768  0.020443  nan  nan  nan  nan  nan  nan  -2.48846  -0.291104  0.996001  0.0184763  -0.0743925  -0.00947999  -0.0012474  0.0171013  -0.0070297  0  0  0  -0.288509  -0  -0  0.0301554  0.000380758  0.000397685  -0.00837004  0.0218708  -0.0240394  -0.019379  0.0467798  -0.0253462  0.014814  -0.104839  -0.00207495 
