    ts      x      y      z   roll  pitch    yaw     vx     vy     vz     wx     wy     wz     ax     ay     az    dwx    dwy    dwz
 0.0050000  -2.5000000  -0.3000000   1.0000000   0.0000000   0.0000000  -0.0000000   0.0000002   0.0000002  -0.0000002   0.0000000   0.0000000   0.0000000   0.0001250   0.0001250  -0.0001250   0.0000000   0.0000000   0.0000000
 0.0100000  -2.5000000  -0.3000000   1.0000000   0.0000000   0.0000000  -0.0000000   0.0000017   0.0000017  -0.0000017   0.0000000   0.0000000   0.0000000   0.0005000   0.0005000  -0.0005000   0.0000000   0.0000000   0.0000000
 0.0150000  -2.5000000  -0.3000000   1.0000000   0.0000000   0.0000000  -0.0000000   0.0000056   0.0000056  -0.0000056   0.0000000   0.0000000   0.0000000   0.0011250   0.0011250  -0.0011250   0.0000000   0.0000000   0.0000000
 0.0200000  -2.5000000  -0.3000000   1.0000000   0.0000000   0.0000000  -0.0000001   0.0000133   0.0000133  -0.0000133   0.0000000   0.0000000   0.0000000   0.0020000   0.0020000  -0.0020000   0.0000000   0.0000000   0.0000000
 0.0250000  -2.5000000  -0.3000000   1.0000000   0.0000000   0.0000000  -0.0000003   0.0000260   0.0000260  -0.0000260   0.0000000   0.0000000   0.0000000   0.0031250   0.0031250  -0.0031250   0.0000000   0.0000000   0.0000000
 0.0300000  -2.5000000  -0.3000000   1.0000000   0.0000000   0.0000000  -0.0000005   0.0000450   0.0000450  -0.0000450   0.0000000   0.0000000   0.0000000   0.0045000   0.0045000  -0.0045000   0.0000000   0.0000000   0.0000000
 0.0350000  -2.5000000  -0.2999990   0.9999990   0.0000000   0.0000000  -0.0000010   0.0000715   0.0000715  -0.0000715   0.0000000   0.0000000   0.0000000   0.0061250   0.0061250  -0.0061250   0.0000000   0.0000000   0.0000000
 0.0400000  -2.5000000  -0.2999990   0.9999990   0.0000000   0.0000000  -0.0000017   0.0001067   0.0001067  -0.0001067   0.0000000   0.0000000   0.0000000   0.0080000   0.0080000  -0.0080000   0.0000000   0.0000000   0.0000000
 0.0450000  -2.5000000  -0.2999980   0.9999980   0.0000000   0.0000000  -0.0000027   0.0001519   0.0001519  -0.0001519   0.0000000   0.0000000   0.0000000   0.0101250   0.0101250  -0.0101250   0.0000000   0.0000000   0.0000000
 0.0500000  -2.5000000  -0.2999970   0.9999970   0.0000000   0.0000000  -0.0000042   0.0002083   0.0002083  -0.0002083   0.0000000   0.0000000   0.0000000   0.0125000   0.0125000  -0.0125000   0.0000000   0.0000000   0.0000000
 0.0550000  -2.5000000  -0.2999960   0.9999960   0.0000000   0.0000000  -0.0000061   0.0002773   0.0002773  -0.0002773   0.0000000   0.0000000   0.0000000   0.0151250   0.0151250  -0.0151250   0.0000000   0.0000000   0.0000000
 0.0600000  -2.4999900  -0.2999950   0.9999950   0.0000000   0.0000000  -0.0000086   0.0003600   0.0003600  -0.0003600   0.0000000   0.0000000   0.0000000   0.0180000   0.0180000  -0.0180000   0.0000000   0.0000000   0.0000000
 0.0650000  -2.4999900  -0.2999930   0.9999930   0.0000000   0.0000000  -0.0000119   0.0004577   0.0004577  -0.0004577   0.0000000   0.0000000   0.0000000   0.0211250   0.0211250  -0.0211250   0.0000000   0.0000000   0.0000000
 0.0700000  -2.4999900  -0.2999900   0.9999900   0.0000000   0.0000000  -0.0000160   0.0005717   0.0005717  -0.0005717   0.0000000   0.0000000   0.0000000   0.0245000   0.0245000  -0.0245000   0.0000000   0.0000000   0.0000000
 0.0750000  -2.4999900  -0.2999870   0.9999870   0.0000000   0.0000000  -0.0000211   0.0007031   0.0007031  -0.0007028   0.0000000   0.0000000   0.0000000   0.0281250   0.0281250  -0.0279290   0.0000000   0.0000000   0.0000000
 0.0800000  -2.4999800  -0.2999830   0.9999830   0.0000000   0.0000000  -0.0000273   0.0008533   0.0008533  -0.0008505   0.0000000   0.0000000   0.0000000   0.0320000   0.0320000  -0.0311112   0.0000000   0.0000000   0.0000000
 0.0850000  -2.4999800  -0.2999780   0.9999780   0.0000000   0.0000000  -0.0000348   0.0010235   0.0010235  -0.0010135   0.0000000   0.0000000   0.0000000   0.0361250   0.0361250  -0.0340435   0.0000000   0.0000000   0.0000000
 0.0900000  -2.4999700  -0.2999730   0.9999730   0.0000000   0.0000000  -0.0000437   0.0012150   0.0012150  -0.0011906   0.0000000   0.0000000   0.0000000   0.0405000   0.0405000  -0.0367257   0.0000000   0.0000000   0.0000000
 0.0950000  -2.4999700  -0.2999660   0.9999660   0.0000000   0.0000000  -0.0000542   0.0014290   0.0014290  -0.0013804   0.0000000   0.0000000   0.0000000   0.0451250   0.0451249  -0.0391579   0.0000000   0.0000000   0.0000000
 0.1000000  -2.4999600  -0.2999580   0.9999590   0.0000000   0.0000000  -0.0000663   0.0016667   0.0016662  -0.0015817   0.0000000   0.0000000   0.0000000   0.0500000   0.0497414  -0.0413402   0.0000000   0.0000000   0.0000000
 0.1050000  -2.4999500  -0.2999490   0.9999510   0.0000000   0.0000000  -0.0000802   0.0019294   0.0019260  -0.0017934   0.0000000   0.0000000   0.0000000   0.0551250   0.0541079  -0.0432724   0.0000000   0.0000000   0.0000000
 0.1100000  -2.4999400  -0.2999390   0.9999410   0.0000000   0.0000000  -0.0000960   0.0022183   0.0022069  -0.0020140   0.0000000   0.0000000   0.0000000   0.0605000   0.0582243  -0.0449547   0.0000000   0.0000000   0.0000000
 0.1150000  -2.4999300  -0.2999270   0.9999300   0.0000000   0.0000000  -0.0001138   0.0025347   0.0025078  -0.0022425   0.0000000   0.0000000   0.0000000   0.0660084   0.0620908  -0.0463869   0.0000000   0.0000000   0.0000000
 0.1200000  -2.4999100  -0.2999140   0.9999190   0.0000000   0.0000000  -0.0001337   0.0028780   0.0028274  -0.0024775   0.0000000   0.0000000   0.0000000   0.0712918   0.0657072  -0.0475692   0.0000000   0.0000000   0.0000000
 0.1250000  -2.4999000  -0.2998990   0.9999060   0.0000000   0.0000000  -0.0001556   0.0032472   0.0031644  -0.0027178   0.0000000   0.0000000   0.0000000   0.0763253   0.0690737  -0.0485014   0.0000000   0.0000000   0.0000000
 0.1300000  -2.4998800  -0.2998820   0.9998910   0.0000000   0.0000000  -0.0001798   0.0036409   0.0035177  -0.0029621   0.0000000   0.0000000   0.0000000   0.0811088   0.0721902  -0.0491836   0.0000000   0.0000000   0.0000000
 0.1350000  -2.4998600  -0.2998640   0.9998760   0.0000000   0.0000000  -0.0002063   0.0040578   0.0038859  -0.0032092   0.0000000   0.0000000   0.0000000   0.0856423   0.0750566  -0.0496159   0.0000000   0.0000000   0.0000000
 0.1400000  -2.4998400  -0.2998430   0.9998590   0.0000000   0.0000000  -0.0002350   0.0044969   0.0042679  -0.0034578   0.0000000   0.0000000   0.0000000   0.0899258   0.0776731  -0.0497981   0.0000000   0.0000000   0.0000000
 0.1450000  -2.4998200  -0.2998210   0.9998410   0.0000000   0.0000000  -0.0002661   0.0049567   0.0046622  -0.0037067   0.0000000   0.0000000   0.0000000   0.0939593   0.0800396  -0.0497304   0.0000000   0.0000000   0.0000000
 0.1500000  -2.4997900  -0.2997970   0.9998220   0.0000000   0.0000000  -0.0002995   0.0054360   0.0050678  -0.0039547   0.0000000   0.0000000   0.0000000   0.0977427   0.0821560  -0.0494126   0.0000000   0.0000000   0.0000000
 0.1550000  -2.4997600  -0.2997700   0.9998020   0.0000000   0.0000000  -0.0003353   0.0059337   0.0054834  -0.0042005   0.0000000   0.0000000   0.0000000   0.1012760   0.0840225  -0.0488449   0.0000000   0.0000000   0.0000000
 0.1600000  -2.4997300  -0.2997420   0.9997800   0.0000000   0.0000000  -0.0003735   0.0064484   0.0059076  -0.0044427   0.0000000   0.0000000   0.0000000   0.1045600   0.0856390  -0.0480271   0.0000000   0.0000000   0.0000000
 0.1650000  -2.4997000  -0.2997110   0.9997570   0.0000000   0.0000000  -0.0004140   0.0069789   0.0063393  -0.0046803   0.0000000   0.0000000   0.0000000   0.1075930   0.0870054  -0.0469594   0.0000000   0.0000000   0.0000000
 0.1700000  -2.4996600  -0.2996780   0.9997330   0.0000000   0.0000000  -0.0004568   0.0075239   0.0067773  -0.0049119   0.0000000   0.0000000   0.0000000   0.1103770   0.0881219  -0.0456416   0.0000000   0.0000000   0.0000000
 0.1750000  -2.4996200  -0.2996430   0.9997080   0.0000000   0.0000000  -0.0005020   0.0080822   0.0072202  -0.0051363   0.0000000   0.0000000   0.0000000   0.1129100   0.0889884  -0.0440738   0.0000000   0.0000000   0.0000000
 0.1800000  -2.4995800  -0.2996060   0.9996820   0.0000000   0.0000000  -0.0005494   0.0086526   0.0076667  -0.0053522   0.0000000   0.0000000   0.0000000   0.1151940   0.0896048  -0.0422561   0.0000000   0.0000000   0.0000000
 0.1850000  -2.4995400  -0.2995670   0.9996550   0.0000000   0.0000000  -0.0005991   0.0092337   0.0081158  -0.0055585   0.0000000   0.0000000   0.0000000   0.1172270   0.0899713  -0.0401883   0.0000000   0.0000000   0.0000000
 0.1900000  -2.4994900  -0.2995250   0.9996270   0.0000000   0.0000000  -0.0006510   0.0098244   0.0085660  -0.0057537   0.0000000   0.0000000   0.0000000   0.1190110   0.0900877  -0.0378706   0.0000000   0.0000000   0.0000000
 0.1950000  -2.4994400  -0.2994810   0.9995970   0.0000000   0.0000000  -0.0007049   0.0104234   0.0090162  -0.0059367   0.0000000   0.0000000   0.0000000   0.1205440   0.0899542  -0.0353028   0.0000000   0.0000000   0.0000000
 0.2000000  -2.4993800  -0.2994350   0.9995670   0.0000000   0.0000000  -0.0007609   0.0110295   0.0094652  -0.0061063   0.0000000   0.0000000   0.0000000   0.1218280   0.0895707  -0.0324851   0.0000000   0.0000000   0.0000000
 0.2050000  -2.4993300  -0.2993870   0.9995360   0.0000000   0.0000000  -0.0008189   0.0116413   0.0099115  -0.0062612   0.0000000   0.0000000   0.0000000   0.1228610   0.0889371  -0.0294173   0.0000000   0.0000000   0.0000000
 0.2100000  -2.4992700  -0.2993360   0.9995050   0.0000000   0.0000000  -0.0008786   0.0122577   0.0103541  -0.0064001   0.0000000   0.0000000   0.0000000   0.1236450   0.0880536  -0.0260995   0.0000000   0.0000000   0.0000000
 0.2150000  -2.4992100  -0.2992830   0.9994720   0.0000000   0.0000000  -0.0009402   0.0128773   0.0107917  -0.0065219   0.0000000   0.0000000   0.0000000   0.1241780   0.0869201  -0.0226395   0.0000000   0.0000000   0.0000000
 0.2200000  -2.4991400  -0.2992280   0.9994390   0.0000000   0.0000000  -0.0010033   0.0134990   0.0112229  -0.0066269   0.0000000   0.0000000   0.0000000   0.1244610   0.0855365  -0.0194001   0.0000000   0.0000000   0.0000000
 0.2250000  -2.4990700  -0.2991710   0.9994060   0.0000000   0.0000000  -0.0010679   0.0141215   0.0116466  -0.0067163   0.0000000   0.0000000   0.0000000   0.1244950   0.0839030  -0.0164106   0.0000000   0.0000000   0.0000000
 0.2300000  -2.4990000  -0.2991110   0.9993720   0.0000000   0.0000000  -0.0011339   0.0147435   0.0120615  -0.0067914   0.0000000   0.0000000   0.0000000   0.1242780   0.0820195  -0.0136711   0.0000000   0.0000000   0.0000000
 0.2350000  -2.4989200  -0.2990500   0.9993380   0.0000000   0.0000000  -0.0012011   0.0153639   0.0124664  -0.0068534   0.0000000   0.0000000   0.0000000   0.1238120   0.0798859  -0.0111816   0.0000000   0.0000000   0.0000000
 0.2400000  -2.4988400  -0.2989870   0.9993040   0.0000000   0.0000000  -0.0012693   0.0159812   0.0128600  -0.0069036   0.0000000   0.0000000   0.0000000   0.1230950   0.0775024  -0.0089421   0.0000000   0.0000000   0.0000000
 0.2450000  -2.4987600  -0.2989220   0.9992690   0.0000000   0.0000000  -0.0013385   0.0165944   0.0132410  -0.0069433   0.0000000   0.0000000   0.0000000   0.1221290   0.0748688  -0.0069526   0.0000000   0.0000000   0.0000000
 0.2500000  -2.4986800  -0.2988540   0.9992340   0.0000000   0.0000000  -0.0014085   0.0172021   0.0136082  -0.0069736   0.0000000   0.0000000   0.0000000   0.1209120   0.0719853  -0.0052131   0.0000000   0.0000000   0.0000000
 0.2550000  -2.4985900  -0.2987860   0.9991990   0.0000000   0.0000000  -0.0014791   0.0178031   0.0139604  -0.0069958   0.0000000   0.0000000   0.0000000   0.1194460   0.0688518  -0.0037236   0.0000000   0.0000000   0.0000000
 0.2600000  -2.4985000  -0.2987150   0.9991640   0.0000000   0.0000000  -0.0015503   0.0183962   0.0142963  -0.0070112   0.0000000   0.0000000   0.0000000   0.1177290   0.0654682  -0.0024842   0.0000000   0.0000000   0.0000000
 0.2650000  -2.4984100  -0.2986430   0.9991290   0.0000000   0.0000000  -0.0016219   0.0189800   0.0146147  -0.0070211   0.0000000   0.0000000   0.0000000   0.1157630   0.0618347  -0.0014947   0.0000000   0.0000000   0.0000000
 0.2700000  -2.4983100  -0.2985690   0.9990940   0.0000000   0.0000000  -0.0016940   0.0195534   0.0149143  -0.0070266   0.0000000   0.0000000   0.0000000   0.1135460   0.0579512  -0.0007552   0.0000000   0.0000000   0.0000000
 0.2750000  -2.4982100  -0.2984930   0.9990590   0.0000000   0.0000000  -0.0017663   0.0201150   0.0151938  -0.0070290   0.0000000   0.0000000   0.0000000   0.1110800   0.0538176  -0.0002657   0.0000000   0.0000000   0.0000000
 0.2800000  -2.4981100  -0.2984170   0.9990240   0.0000000   0.0000000  -0.0018388   0.0206638   0.0154520  -0.0070297   0.0000000   0.0000000   0.0000000   0.1083630   0.0494341  -0.0000262   0.0000000   0.0000000   0.0000000
 0.2850000  -2.4980000  -0.2983390   0.9989890   0.0000000   0.0000000  -0.0019114   0.0211983   0.0156877  -0.0070297   0.0000000   0.0000000   0.0000000   0.1053970   0.0448012  -0.0000000   0.0000000   0.0000000   0.0000000
 0.2900000  -2.4979000  -0.2982600   0.9989540   0.0000000   0.0000000  -0.0019842   0.0217173   0.0159001  -0.0070297   0.0000000   0.0000000   0.0000000   0.1021800   0.0401933  -0.0000000   0.0000000   0.0000000   0.0000000
 0.2950000  -2.4977900  -0.2981800   0.9989180   0.0000000   0.0000000  -0.0020570   0.0222196   0.0160901  -0.0070297   0.0000000   0.0000000   0.0000000   0.0987137   0.0358354  -0.0000000   0.0000000   0.0000000   0.0000000
 0.3000000  -2.4976800  -0.2980990   0.9988830   0.0000000   0.0000000  -0.0021299   0.0227040   0.0162589  -0.0070297   0.0000000   0.0000000   0.0000000   0.0949972   0.0317274  -0.0000000   0.0000000   0.0000000   0.0000000
 0.3050000  -2.4975600  -0.2980170   0.9988480   0.0000000   0.0000000  -0.0022028   0.0231692   0.0164078  -0.0070297   0.0000000   0.0000000   0.0000000   0.0910307   0.0278695  -0.0000000   0.0000000   0.0000000   0.0000000
 0.3100000  -2.4974400  -0.2979350   0.9988130   0.0000000   0.0000000  -0.0022757   0.0236139   0.0165380  -0.0070297   0.0000000   0.0000000   0.0000000   0.0868142   0.0242616  -0.0000000   0.0000000   0.0000000   0.0000000
 0.3150000  -2.4973200  -0.2978520   0.9987780   0.0000000   0.0000000  -0.0023486   0.0240369   0.0166508  -0.0070297   0.0000000   0.0000000   0.0000000   0.0823476   0.0209036  -0.0000000   0.0000000   0.0000000   0.0000000
 0.3200000  -2.4972000  -0.2977690   0.9987430   0.0000000   0.0000000  -0.0024215   0.0244370   0.0167474  -0.0070297   0.0000000   0.0000000   0.0000000   0.0776311   0.0177957  -0.0000000   0.0000000   0.0000000   0.0000000
 0.3250000  -2.4970800  -0.2976850   0.9987080   0.0000000   0.0000000  -0.0024944   0.0248128   0.0168292  -0.0070297   0.0000000   0.0000000   0.0000000   0.0726646   0.0149378  -0.0000000   0.0000000   0.0000000   0.0000000
 0.3300000  -2.4969600  -0.2976000   0.9986720   0.0000000   0.0000000  -0.0025672   0.0251632   0.0168972  -0.0070297   0.0000000   0.0000000   0.0000000   0.0674481   0.0123299  -0.0000000   0.0000000   0.0000000   0.0000000
 0.3350000  -2.4968300  -0.2975160   0.9986370   0.0000000   0.0000000  -0.0026401   0.0254869   0.0169529  -0.0070297   0.0000000   0.0000000   0.0000000   0.0619822   0.0099719  -0.0000000   0.0000000   0.0000000   0.0000000
 0.3400000  -2.4967000  -0.2974310   0.9986020   0.0000000   0.0000000  -0.0027130   0.0257831   0.0169974  -0.0070297   0.0000000   0.0000000   0.0000000   0.0565402   0.0078640  -0.0000000   0.0000000   0.0000000   0.0000000
 0.3450000  -2.4965700  -0.2973460   0.9985670   0.0000000   0.0000000  -0.0027859   0.0260527   0.0170319  -0.0070297   0.0000000   0.0000000   0.0000000   0.0513482   0.0060061  -0.0000000   0.0000000   0.0000000   0.0000000
 0.3500000  -2.4964400  -0.2972610   0.9985320   0.0000000   0.0000000  -0.0028588   0.0262970   0.0170578  -0.0070297   0.0000000   0.0000000   0.0000000   0.0464063   0.0043981  -0.0000000   0.0000000   0.0000000   0.0000000
 0.3550000  -2.4963100  -0.2971750   0.9984970   0.0000000   0.0000000  -0.0029317   0.0265172   0.0170763  -0.0070297   0.0000000   0.0000000   0.0000000   0.0417143   0.0030402  -0.0000000   0.0000000   0.0000000   0.0000000
 0.3600000  -2.4961700  -0.2970900   0.9984620   0.0000000   0.0000000  -0.0030045   0.0267145   0.0170887  -0.0070297   0.0000000   0.0000000   0.0000000   0.0372724   0.0019323  -0.0000000   0.0000000   0.0000000   0.0000000
 0.3650000  -2.4960400  -0.2970040   0.9984260   0.0000000   0.0000000  -0.0030774   0.0268903   0.0170961  -0.0070297   0.0000000   0.0000000   0.0000000   0.0330804   0.0010744  -0.0000000   0.0000000   0.0000000   0.0000000
 0.3700000  -2.4959100  -0.2969190   0.9983910   0.0000000   0.0000000  -0.0031503   0.0270458   0.0170998  -0.0070297   0.0000000   0.0000000   0.0000000   0.0291384   0.0004664  -0.0000000   0.0000000   0.0000000   0.0000000
 0.3750000  -2.4957700  -0.2968330   0.9983560   0.0000000   0.0000000  -0.0032232   0.0271821   0.0171012  -0.0070297   0.0000000   0.0000000   0.0000000   0.0254465   0.0001085  -0.0000000   0.0000000   0.0000000   0.0000000
 0.3800000  -2.4956300  -0.2967480   0.9983210   0.0000000   0.0000000  -0.0032961   0.0273006   0.0171013  -0.0070297   0.0000000   0.0000000   0.0000000   0.0220045  -0.0000000  -0.0000000   0.0000000   0.0000000   0.0000000
 0.3850000  -2.4955000  -0.2966620   0.9982860   0.0000000   0.0000000  -0.0033690   0.0274026   0.0171013  -0.0070297   0.0000000   0.0000000   0.0000000   0.0188125  -0.0000000  -0.0000000   0.0000000   0.0000000   0.0000000
 0.3900000  -2.4953600  -0.2965770   0.9982510   0.0000000   0.0000000  -0.0034419   0.0274892   0.0171013  -0.0070297   0.0000000   0.0000000   0.0000000   0.0158706  -0.0000000  -0.0000000   0.0000000   0.0000000   0.0000000
 0.3950000  -2.4952200  -0.2964910   0.9982150   0.0000000   0.0000000  -0.0035148   0.0275617   0.0171013  -0.0070297   0.0000000   0.0000000   0.0000000   0.0131786  -0.0000000  -0.0000000   0.0000000   0.0000000   0.0000000
 0.4000000  -2.4950800  -0.2964060   0.9981800   0.0000000   0.0000000  -0.0035876   0.0276214   0.0171013  -0.0070297   0.0000000   0.0000000   0.0000000   0.0107366  -0.0000000  -0.0000000   0.0000000   0.0000000   0.0000000
 0.4050000  -2.4949500  -0.2963200   0.9981450   0.0000000   0.0000000  -0.0036605   0.0276695   0.0171013  -0.0070297   0.0000000   0.0000000   0.0000000   0.0085447  -0.0000000  -0.0000000   0.0000000   0.0000000   0.0000000
 0.4100000  -2.4948100  -0.2962350   0.9981100   0.0000000   0.0000000  -0.0037334   0.0277073   0.0171013  -0.0070297   0.0000000   0.0000000   0.0000000   0.0066027  -0.0000000  -0.0000000   0.0000000   0.0000000   0.0000000
 0.4150000  -2.4946700  -0.2961490   0.9980750   0.0000000   0.0000000  -0.0038063   0.0277359   0.0171013  -0.0070297   0.0000000   0.0000000   0.0000000   0.0049108  -0.0000000  -0.0000000   0.0000000   0.0000000   0.0000000
 0.4200000  -2.4945300  -0.2960640   0.9980400   0.0000000   0.0000000  -0.0038792   0.0277568   0.0171013  -0.0070297   0.0000000   0.0000000   0.0000000   0.0034688  -0.0000000  -0.0000000   0.0000000   0.0000000   0.0000000
 0.4250000  -2.4943900  -0.2959780   0.9980050   0.0000000   0.0000000  -0.0039521   0.0277710   0.0171013  -0.0070297   0.0000000   0.0000000   0.0000000   0.0022768  -0.0000000  -0.0000000   0.0000000   0.0000000   0.0000000
 0.4300000  -2.4942500  -0.2958930   0.9979690   0.0000000   0.0000000  -0.0040250   0.0277800   0.0171013  -0.0070297   0.0000000   0.0000000   0.0000000   0.0013349  -0.0000000  -0.0000000   0.0000000   0.0000000   0.0000000
 0.4350000  -2.4941100  -0.2958070   0.9979340   0.0000000   0.0000000  -0.0040979   0.0277848   0.0171013  -0.0070297   0.0000000   0.0000000   0.0000000   0.0006429  -0.0000000  -0.0000000   0.0000000   0.0000000   0.0000000
 0.4400000  -2.4939700  -0.2957220   0.9978990   0.0000000   0.0000000  -0.0041707   0.0277868   0.0171013  -0.0070297   0.0000000   0.0000000   0.0000000   0.0002009  -0.0000000  -0.0000000   0.0000000   0.0000000   0.0000000
 0.4450000  -2.4938400  -0.2956360   0.9978640   0.0000000   0.0000000  -0.0042436   0.0277872   0.0171013  -0.0070297   0.0000000   0.0000000   0.0000000   0.0000090  -0.0000000  -0.0000000   0.0000000   0.0000000   0.0000000
 0.4500000  -2.4937000  -0.2955510   0.9978290   0.0000000   0.0000000  -0.0043165   0.0277872   0.0171013  -0.0070297   0.0000000   0.0000000   0.0000000  -0.0000670  -0.0000000  -0.0000000   0.0000000   0.0000000   0.0000000
 0.4550000  -2.4935600  -0.2954650   0.9977940   0.0000000   0.0000000  -0.0043894   0.0277862   0.0171013  -0.0070297   0.0000000   0.0000000   0.0000000  -0.0003750  -0.0000000  -0.0000000   0.0000000   0.0000000   0.0000000
 0.4600000  -2.4934200  -0.2953800   0.9977590   0.0000000   0.0000000  -0.0044623   0.0277830   0.0171013  -0.0070297   0.0000000   0.0000000   0.0000000  -0.0009331  -0.0000000  -0.0000000   0.0000000   0.0000000   0.0000000
 0.4650000  -2.4932800  -0.2952940   0.9977230   0.0000000   0.0000000  -0.0045352   0.0277764   0.0171013  -0.0070297   0.0000000   0.0000000   0.0000000  -0.0017411  -0.0000000  -0.0000000   0.0000000   0.0000000   0.0000000
 0.4700000  -2.4931400  -0.2952090   0.9976880   0.0000000   0.0000000  -0.0046081   0.0277652   0.0171013  -0.0070297   0.0000000   0.0000000   0.0000000  -0.0027991  -0.0000000  -0.0000000   0.0000000   0.0000000   0.0000000
 0.4750000  -2.4930000  -0.2951230   0.9976530   0.0000000   0.0000000  -0.0046809   0.0277480   0.0171013  -0.0070297   0.0000000   0.0000000   0.0000000  -0.0041072  -0.0000000  -0.0000000   0.0000000   0.0000000   0.0000000
 0.4800000  -2.4928600  -0.2950380   0.9976180   0.0000000   0.0000000  -0.0047538   0.0277237   0.0171013  -0.0070297   0.0000000   0.0000000   0.0000000  -0.0056652  -0.0000000  -0.0000000   0.0000000   0.0000000   0.0000000
 0.4850000  -2.4927300  -0.2949520   0.9975830   0.0000000   0.0000000  -0.0048267   0.0276909   0.0171013  -0.0070297   0.0000000   0.0000000   0.0000000  -0.0074733  -0.0000000  -0.0000000   0.0000000   0.0000000   0.0000000
 0.4900000  -2.4925900  -0.2948670   0.9975480   0.0000000   0.0000000  -0.0048996   0.0276485   0.0171013  -0.0070297   0.0000000   0.0000000   0.0000000  -0.0095313  -0.0000000  -0.0000000   0.0000000   0.0000000   0.0000000
 0.4950000  -2.4924500  -0.2947810   0.9975130   0.0000000   0.0000000  -0.0049725   0.0275952   0.0171013  -0.0070297   0.0000000   0.0000000   0.0000000  -0.0118393  -0.0000000  -0.0000000   0.0000000   0.0000000   0.0000000
 0.5000000  -2.4923100  -0.2946960   0.9974770   0.0000000   0.0000000  -0.0050454   0.0275297   0.0171013  -0.0070297   0.0000000   0.0000000   0.0000000  -0.0143974  -0.0000000  -0.0000000   0.0000000   0.0000000   0.0000000
 0.5050000  -2.4921700  -0.2946100   0.9974420   0.0000000   0.0000000  -0.0051183   0.0274508   0.0171013  -0.0070297   0.0000000   0.0000000   0.0000000  -0.0172054  -0.0000000  -0.0000000   0.0000000   0.0000000   0.0000000
 0.5100000  -2.4920400  -0.2945250   0.9974070   0.0000000   0.0000000  -0.0051912   0.0273572   0.0171013  -0.0070297   0.0000000   0.0000000   0.0000000  -0.0202634  -0.0000000  -0.0000000   0.0000000   0.0000000   0.0000000
 0.5150000  -2.4919000  -0.2944390   0.9973720   0.0000000   0.0000000  -0.0052640   0.0272478   0.0171013  -0.0070297   0.0000000   0.0000000   0.0000000  -0.0235715  -0.0000000  -0.0000000   0.0000000   0.0000000   0.0000000
 0.5200000  -2.4917600  -0.2943540   0.9973370   0.0000000   0.0000000  -0.0053369   0.0271211   0.0171013  -0.0070297   0.0000000   0.0000000   0.0000000  -0.0271295  -0.0000000  -0.0000000   0.0000000   0.0000000   0.0000000
 0.5250000  -2.4916300  -0.2942680   0.9973020   0.0000000   0.0000000  -0.0054098   0.0269760   0.0171013  -0.0070297   0.0000000   0.0000000   0.0000000  -0.0309375  -0.0000000  -0.0000000   0.0000000   0.0000000   0.0000000
 0.5300000  -2.4914900  -0.2941830   0.9972660   0.0000000   0.0000000  -0.0054827   0.0268113   0.0171013  -0.0070297   0.0000000   0.0000000   0.0000000  -0.0349956  -0.0000000  -0.0000000   0.0000000   0.0000000   0.0000000
 0.5350000  -2.4913600  -0.2940970   0.9972310   0.0000000   0.0000000  -0.0055556   0.0266257   0.0171013  -0.0070297   0.0000000   0.0000000   0.0000000  -0.0393036  -0.0000000  -0.0000000   0.0000000   0.0000000   0.0000000
 0.5400000  -2.4912300  -0.2940120   0.9971960   0.0000000   0.0000000  -0.0056285   0.0264179   0.0171013  -0.0070297   0.0000000   0.0000000   0.0000000  -0.0438617  -0.0000000  -0.0000000   0.0000000   0.0000000   0.0000000
 0.5450000  -2.4911000  -0.2939260   0.9971610   0.0000000   0.0000000  -0.0057014   0.0261866   0.0171013  -0.0070297   0.0000000   0.0000000   0.0000000  -0.0486697  -0.0000000  -0.0000000   0.0000000   0.0000000   0.0000000
 0.5500000  -2.4909700  -0.2938410   0.9971260   0.0000000   0.0000000  -0.0057742   0.0259308   0.0171013  -0.0070297   0.0000000   0.0000000   0.0000000  -0.0537277  -0.0000000  -0.0000000   0.0000000   0.0000000   0.0000000
 0.5550000  -2.4908400  -0.2937550   0.9970910   0.0000000   0.0000000  -0.0058471   0.0256489   0.0171013  -0.0070297   0.0000000   0.0000000   0.0000000  -0.0590358  -0.0000000  -0.0000000   0.0000000   0.0000000   0.0000000
 0.5600000  -2.4907100  -0.2936700   0.9970560   0.0000000   0.0000000  -0.0059200   0.0253400   0.0171013  -0.0070297   0.0000000   0.0000000   0.0000000  -0.0645938  -0.0000000  -0.0000000   0.0000000   0.0000000   0.0000000
 0.5650000  -2.4905800  -0.2935840   0.9970200   0.0000000   0.0000000  -0.0059929   0.0250026   0.0171013  -0.0070297   0.0000000   0.0000000   0.0000000  -0.0704018  -0.0000000  -0.0000000   0.0000000   0.0000000   0.0000000
 0.5700000  -2.4904600  -0.2934990   0.9969850   0.0000000   0.0000000  -0.0060658   0.0246355   0.0171013  -0.0070297   0.0000000   0.0000000   0.0000000  -0.0764599  -0.0000000  -0.0000000   0.0000000   0.0000000   0.0000000
 0.5750000  -2.4903400  -0.2934130   0.9969500   0.0000000   0.0000000  -0.0061387   0.0242376   0.0171013  -0.0070297   0.0000000   0.0000000   0.0000000  -0.0827679  -0.0000000  -0.0000000   0.0000000   0.0000000   0.0000000
 0.5800000  -2.4902200  -0.2933280   0.9969150   0.0000000   0.0000000  -0.0062116   0.0238074   0.0171013  -0.0070297   0.0000000   0.0000000   0.0000000  -0.0893259  -0.0000000  -0.0000000   0.0000000   0.0000000   0.0000000
 0.5850000  -2.4901000  -0.2932420   0.9968800   0.0000000   0.0000000  -0.0062844   0.0233439   0.0171013  -0.0070297   0.0000000   0.0000000   0.0000000  -0.0961340  -0.0000000  -0.0000000   0.0000000   0.0000000   0.0000000
 0.5900000  -2.4899800  -0.2931570   0.9968450   0.0000000   0.0000000  -0.0063573   0.0228457   0.0171013  -0.0070297   0.0000000   0.0000000   0.0000000  -0.1031920  -0.0000000  -0.0000000   0.0000000   0.0000000   0.0000000
 0.5950000  -2.4898700  -0.2930710   0.9968100   0.0000000   0.0000000  -0.0064302   0.0223116   0.0171013  -0.0070297   0.0000000   0.0000000   0.0000000  -0.1105000  -0.0000000  -0.0000000   0.0000000   0.0000000   0.0000000
 0.6000000  -2.4897600  -0.2929860   0.9967740   0.0000000   0.0000000  -0.0065031   0.0217403   0.0171013  -0.0070297   0.0000000   0.0000000   0.0000000  -0.1180580  -0.0000000  -0.0000000   0.0000000   0.0000000   0.0000000
 0.6050000  -2.4896500  -0.2929000   0.9967390   0.0000000   0.0000000  -0.0065760   0.0211306   0.0171013  -0.0070297   0.0000000   0.0000000   0.0000000  -0.1258660  -0.0000000  -0.0000000   0.0000000   0.0000000   0.0000000
 0.6100000  -2.4895500  -0.2928150   0.9967040   0.0000000   0.0000000  -0.0066489   0.0204812   0.0171013  -0.0070297   0.0000000   0.0000000   0.0000000  -0.1339240  -0.0000000  -0.0000000   0.0000000   0.0000000   0.0000000
 0.6150000  -2.4894500  -0.2927290   0.9966690   0.0000000   0.0000000  -0.0067218   0.0197909   0.0171013  -0.0070297   0.0000000   0.0000000   0.0000000  -0.1422320  -0.0000000  -0.0000000   0.0000000   0.0000000   0.0000000
 0.6200000  -2.4893500  -0.2926440   0.9966340   0.0000000   0.0000000  -0.0067947   0.0190585   0.0171013  -0.0070297   0.0000000   0.0000000   0.0000000  -0.1507900  -0.0000000  -0.0000000   0.0000000   0.0000000   0.0000000
 0.6250000  -2.4892600  -0.2925580   0.9965990   0.0000000   0.0000000  -0.0068675   0.0182826   0.0171013  -0.0070297   0.0000000   0.0000000   0.0000000  -0.1595980  -0.0000000  -0.0000000   0.0000000   0.0000000   0.0000000
 0.6300000  -2.4891700  -0.2924720   0.9965640   0.0000000   0.0000000  -0.0069404   0.0174621   0.0171013  -0.0070297   0.0000000   0.0000000   0.0000000  -0.1686560  -0.0000000  -0.0000000   0.0000000   0.0000000   0.0000000
 0.6350000  -2.4890800  -0.2923870   0.9965280   0.0000000   0.0000000  -0.0070133   0.0165956   0.0171013  -0.0070297   0.0000000   0.0000000   0.0000000  -0.1779300  -0.0000000  -0.0000000   0.0000000   0.0000000   0.0000000
 0.6400000  -2.4890000  -0.2923010   0.9964930   0.0000000   0.0000000  -0.0070862   0.0156831   0.0171013  -0.0070297   0.0000000   0.0000000   0.0000000  -0.1870520  -0.0000000  -0.0000000   0.0000000   0.0000000   0.0000000
 0.6450000  -2.4889300  -0.2922160   0.9964580   0.0000000   0.0000000  -0.0071591   0.0147255   0.0171013  -0.0070297   0.0000000   0.0000000   0.0000000  -0.1959240  -0.0000000  -0.0000000   0.0000000   0.0000000   0.0000000
 0.6500000  -2.4888600  -0.2921300   0.9964230   0.0000000   0.0000000  -0.0072320   0.0137243   0.0171013  -0.0070297   0.0000000   0.0000000   0.0000000  -0.2045460  -0.0000000  -0.0000000   0.0000000   0.0000000   0.0000000
 0.6550000  -2.4887900  -0.2920450   0.9963880   0.0000000   0.0000000  -0.0073049   0.0126805   0.0171013  -0.0070297   0.0000000   0.0000000   0.0000000  -0.2129180  -0.0000000  -0.0000000   0.0000000   0.0000000   0.0000000
 0.6600000  -2.4887300  -0.2919590   0.9963530   0.0000000   0.0000000  -0.0073777   0.0115955   0.0171013  -0.0070297   0.0000000   0.0000000   0.0000000  -0.2210400  -0.0000000  -0.0000000   0.0000000   0.0000000   0.0000000
 0.6650000  -2.4886700  -0.2918740   0.9963170   0.0000000   0.0000000  -0.0074506   0.0104705   0.0171013  -0.0070297   0.0000000   0.0000000   0.0000000  -0.2289120  -0.0000000  -0.0000000   0.0000000   0.0000000   0.0000000
 0.6700000  -2.4886200  -0.2917880   0.9962820   0.0000000   0.0000000  -0.0075235   0.0093068   0.0171013  -0.0070297   0.0000000   0.0000000   0.0000000  -0.2365340  -0.0000000  -0.0000000   0.0000000   0.0000000   0.0000000
 0.6750000  -2.4885800  -0.2917030   0.9962470   0.0000000   0.0000000  -0.0075964   0.0081056   0.0171013  -0.0070297   0.0000000   0.0000000   0.0000000  -0.2439050  -0.0000000  -0.0000000   0.0000000   0.0000000   0.0000000
 0.6800000  -2.4885400  -0.2916170   0.9962120   0.0000000   0.0000000  -0.0076693   0.0068682   0.0171013  -0.0070297   0.0000000   0.0000000   0.0000000  -0.2510270  -0.0000000  -0.0000000   0.0000000   0.0000000   0.0000000
 0.6850000  -2.4885100  -0.2915320   0.9961770   0.0000000   0.0000000  -0.0077422   0.0055957   0.0171013  -0.0070297   0.0000000   0.0000000   0.0000000  -0.2578990  -0.0000000  -0.0000000   0.0000000   0.0000000   0.0000000
 0.6900000  -2.4884900  -0.2914460   0.9961420   0.0000000   0.0000000  -0.0078151   0.0042896   0.0171013  -0.0070297   0.0000000   0.0000000   0.0000000  -0.2645210  -0.0000000  -0.0000000   0.0000000   0.0000000   0.0000000
 0.6950000  -2.4884700  -0.2913610   0.9961070   0.0000000   0.0000000  -0.0078880   0.0029509   0.0171013  -0.0070297   0.0000000   0.0000000   0.0000000  -0.2708930  -0.0000000  -0.0000000   0.0000000   0.0000000   0.0000000
 0.7000000  -2.4884600  -0.2912750   0.9960710   0.0000000   0.0000000  -0.0079608   0.0015811   0.0171013  -0.0070297   0.0000000   0.0000000   0.0000000  -0.2770150  -0.0000000  -0.0000000   0.0000000   0.0000000   0.0000000
 0.7050000  -2.4884500  -0.2911900   0.9960360   0.0000000   0.0000000  -0.0080337   0.0001812   0.0171013  -0.0070297   0.0000000   0.0000000   0.0000000  -0.2828870  -0.0000000  -0.0000000   0.0000000   0.0000000   0.0000000
 0.7100000  -2.4884600  -0.2911040   0.9960010   0.0000000   0.0000000  -0.0081066  -0.0012474   0.0171013  -0.0070297   0.0000000   0.0000000   0.0000000  -0.2885090  -0.0000000  -0.0000000   0.0000000   0.0000000   0.0000000
 0.7150000  -2.4884700  -0.2910190   0.9959660   0.0000000   0.0000000  -0.0081795  -0.0027035   0.0171013  -0.0070297   0.0000000   0.0000000   0.0000000  -0.2938810  -0.0000000  -0.0000007   0.0000000   0.0000000   0.0000000
 0.7200000  -2.4884800  -0.2909330   0.9959310   0.0000000   0.0000000  -0.0082524  -0.0041858   0.0171013  -0.0070299   0.0000000   0.0000000   0.0000000  -0.2990030  -0.0000000  -0.0001439   0.0000000   0.0000000   0.0000000
 0.7250000  -2.4885100  -0.2908480   0.9958960   0.0000000   0.0000000  -0.0083253  -0.0056931   0.0171013  -0.0070315   0.0000000   0.0000000   0.0000000  -0.3038750  -0.0000000  -0.0005371   0.0000000   0.0000000   0.0000000
 0.7300000  -2.4885400  -0.2907620   0.9958610   0.0000000   0.0000000  -0.0083982  -0.0072241   0.0171013  -0.0070357   0.0000000   0.0000000   0.0000000  -0.3084970  -0.0000000  -0.0011803   0.0000000   0.0000000   0.0000000
 0.7350000  -2.4885800  -0.2906770   0.9958250   0.0000000   0.0000000  -0.0084711  -0.0087776   0.0171013  -0.0070437   0.0000000   0.0000000   0.0000000  -0.3128690  -0.0000000  -0.0020736   0.0000000   0.0000000   0.0000000
 0.7400000  -2.4886300  -0.2905910   0.9957900   0.0000000   0.0000000  -0.0085439  -0.0103524   0.0171013  -0.0070569   0.0000000   0.0000000   0.0000000  -0.3169910  -0.0000000  -0.0032168   0.0000000   0.0000000   0.0000000
 0.7450000  -2.4886800  -0.2905060   0.9957550   0.0000000   0.0000000  -0.0086168  -0.0119471   0.0171013  -0.0070763   0.0000000   0.0000000   0.0000000  -0.3208630   0.0000338  -0.0046100   0.0000000   0.0000000   0.0000000
 0.7500000  -2.4887500  -0.2904200   0.9957190   0.0000000   0.0000000  -0.0086897  -0.0135606   0.0171021  -0.0071034   0.0000000   0.0000000   0.0000000  -0.3244850   0.0002889  -0.0062532   0.0000000   0.0000000   0.0000000
 0.7550000  -2.4888200  -0.2903350   0.9956840   0.0000000   0.0000000  -0.0087626  -0.0151916   0.0171047  -0.0071393   0.0000000   0.0000000   0.0000000  -0.3278570   0.0007939  -0.0081465   0.0000000   0.0000000   0.0000000
 0.7600000  -2.4889000  -0.2902490   0.9956480   0.0000000   0.0000000  -0.0088355  -0.0168388   0.0171104  -0.0071853   0.0000000   0.0000000   0.0000000  -0.3309790   0.0015489  -0.0102897   0.0000000   0.0000000   0.0000000
 0.7650000  -2.4889900  -0.2901640   0.9956120   0.0000000   0.0000000  -0.0089084  -0.0185009   0.0171206  -0.0072426   0.0000000   0.0000000   0.0000000  -0.3338510   0.0025540  -0.0126829   0.0000000   0.0000000   0.0000000
 0.7700000  -2.4890900  -0.2900780   0.9955750   0.0000000   0.0000000  -0.0089813  -0.0201769   0.0171364  -0.0073125   0.0000000   0.0000000   0.0000000  -0.3364730   0.0038090  -0.0153261   0.0000000   0.0000000   0.0000000
 0.7750000  -2.4891900  -0.2899920   0.9955390   0.0000000   0.0000000  -0.0090541  -0.0218653   0.0171591  -0.0073963   0.0000000   0.0000000   0.0000000  -0.3388450   0.0053141  -0.0182194   0.0000000   0.0000000   0.0000000
 0.7800000  -2.4893000  -0.2899060   0.9955010   0.0000000   0.0000000  -0.0091270  -0.0235649   0.0171899  -0.0074951   0.0000000   0.0000000   0.0000000  -0.3409670   0.0070691  -0.0213626   0.0000000   0.0000000   0.0000000
 0.7850000  -2.4894300  -0.2898200   0.9954640   0.0000000   0.0000000  -0.0091999  -0.0252745   0.0172302  -0.0076103   0.0000000   0.0000000   0.0000000  -0.3428390   0.0090742  -0.0247558   0.0000000   0.0000000   0.0000000
 0.7900000  -2.4895600  -0.2897340   0.9954250   0.0000000   0.0000000  -0.0092728  -0.0269929   0.0172811  -0.0077431   0.0000000   0.0000000   0.0000000  -0.3444610   0.0113292  -0.0283990   0.0000000   0.0000000   0.0000000
 0.7950000  -2.4897000  -0.2896480   0.9953860   0.0000000   0.0000000  -0.0093457  -0.0287187   0.0173439  -0.0078947   0.0000000   0.0000000   0.0000000  -0.3458330   0.0138342  -0.0322922   0.0000000   0.0000000   0.0000000
 0.8000000  -2.4898400  -0.2895610   0.9953460   0.0000000   0.0000000  -0.0094186  -0.0304508   0.0174198  -0.0080664   0.0000000   0.0000000   0.0000000  -0.3469550   0.0165893  -0.0364355   0.0000000   0.0000000   0.0000000
 0.8050000  -2.4900000  -0.2894730   0.9953060   0.0000000   0.0000000  -0.0094915  -0.0321878   0.0175102  -0.0082595   0.0000000   0.0000000   0.0000000  -0.3478270   0.0195943  -0.0408287   0.0000000   0.0000000   0.0000000
 0.8100000  -2.4901700  -0.2893860   0.9952640   0.0000000   0.0000000  -0.0095643  -0.0339286   0.0176162  -0.0084751   0.0000000   0.0000000   0.0000000  -0.3484490   0.0228494  -0.0454719   0.0000000   0.0000000   0.0000000
 0.8150000  -2.4903400  -0.2892970   0.9952210   0.0000000   0.0000000  -0.0096372  -0.0356719   0.0177391  -0.0087146   0.0000000   0.0000000   0.0000000  -0.3488210   0.0263544  -0.0503651   0.0000000   0.0000000   0.0000000
 0.8200000  -2.4905200  -0.2892080   0.9951770   0.0000000   0.0000000  -0.0097101  -0.0374164   0.0178802  -0.0089792   0.0000000   0.0000000   0.0000000  -0.3489430   0.0301095  -0.0555084   0.0000000   0.0000000   0.0000000
 0.8250000  -2.4907100  -0.2891180   0.9951310   0.0000000   0.0000000  -0.0097830  -0.0391609   0.0180406  -0.0092701   0.0000000   0.0000000   0.0000000  -0.3488150   0.0341145  -0.0609016   0.0000000   0.0000000   0.0000000
 0.8300000  -2.4909100  -0.2890280   0.9950840   0.0000000   0.0000000  -0.0098559  -0.0409041   0.0182217  -0.0095887   0.0000000   0.0000000   0.0000000  -0.3484370   0.0383695  -0.0665448   0.0000000   0.0000000   0.0000000
 0.8350000  -2.4911200  -0.2889360   0.9950350   0.0000000   0.0000000  -0.0099288  -0.0426449   0.0184247  -0.0099358   0.0000000   0.0000000   0.0000000  -0.3478090   0.0428746  -0.0723026   0.0000000   0.0000000   0.0000000
 0.8400000  -2.4913400  -0.2888430   0.9949840   0.0000000   0.0000000  -0.0100017  -0.0443818   0.0186509  -0.0103113   0.0000000   0.0000000   0.0000000  -0.3469310   0.0476296  -0.0778279   0.0000000   0.0000000   0.0000000
 0.8450000  -2.4915700  -0.2887500   0.9949320   0.0000000   0.0000000  -0.0100746  -0.0461138   0.0189014  -0.0107137   0.0000000   0.0000000   0.0000000  -0.3458020   0.0526347  -0.0831032   0.0000000   0.0000000   0.0000000
 0.8500000  -2.4918000  -0.2886540   0.9948770   0.0000000   0.0000000  -0.0101474  -0.0478394   0.0191776  -0.0111419   0.0000000   0.0000000   0.0000000  -0.3444240   0.0578897  -0.0881284   0.0000000   0.0000000   0.0000000
 0.8550000  -2.4920500  -0.2885580   0.9948200   0.0000000   0.0000000  -0.0102203  -0.0495576   0.0194808  -0.0115946   0.0000000   0.0000000   0.0000000  -0.3427960   0.0633948  -0.0929037   0.0000000   0.0000000   0.0000000
 0.8600000  -2.4923000  -0.2884600   0.9947610   0.0000000   0.0000000  -0.0102932  -0.0512670   0.0198120  -0.0120705   0.0000000   0.0000000   0.0000000  -0.3409180   0.0691498  -0.0974289   0.0000000   0.0000000   0.0000000
 0.8650000  -2.4925600  -0.2883600   0.9947000   0.0000000   0.0000000  -0.0103661  -0.0529663   0.0201727  -0.0125684   0.0000000   0.0000000   0.0000000  -0.3387900   0.0751548  -0.1017040   0.0000000   0.0000000   0.0000000
 0.8700000  -2.4928300  -0.2882580   0.9946350   0.0000000   0.0000000  -0.0104390  -0.0546545   0.0205640  -0.0130871   0.0000000   0.0000000   0.0000000  -0.3364120   0.0814099  -0.1057290   0.0000000   0.0000000   0.0000000
 0.8750000  -2.4931000  -0.2881540   0.9945690   0.0000000   0.0000000  -0.0105119  -0.0563301   0.0209872  -0.0136253   0.0000000   0.0000000   0.0000000  -0.3337840   0.0879149  -0.1095050   0.0000000   0.0000000   0.0000000
 0.8800000  -2.4933900  -0.2880480   0.9944990   0.0000000   0.0000000  -0.0105848  -0.0579919   0.0214435  -0.0141818   0.0000000   0.0000000   0.0000000  -0.3309060   0.0946700  -0.1130300   0.0000000   0.0000000   0.0000000
 0.8850000  -2.4936800  -0.2879390   0.9944270   0.0000000   0.0000000  -0.0106576  -0.0596387   0.0219343  -0.0147552   0.0000000   0.0000000   0.0000000  -0.3277780   0.1016750  -0.1163050   0.0000000   0.0000000   0.0000000
 0.8900000  -2.4939900  -0.2878280   0.9943520   0.0000000   0.0000000  -0.0107305  -0.0612693   0.0224607  -0.0153444   0.0000000   0.0000000   0.0000000  -0.3244000   0.1089300  -0.1193300   0.0000000   0.0000000   0.0000000
 0.8950000  -2.4943000  -0.2877150   0.9942730   0.0000000   0.0000000  -0.0108034  -0.0628823   0.0230240  -0.0159481   0.0000000   0.0000000   0.0000000  -0.3207720   0.1164350  -0.1221060   0.0000000   0.0000000   0.0000000
 0.9000000  -2.4946200  -0.2875980   0.9941920   0.0000000   0.0000000  -0.0108763  -0.0644766   0.0236255  -0.0165650   0.0000000   0.0000000   0.0000000  -0.3168940   0.1241900  -0.1246310   0.0000000   0.0000000   0.0000000
 0.9050000  -2.4949400  -0.2874780   0.9941080   0.0000000   0.0000000  -0.0109492  -0.0660508   0.0242663  -0.0171940   0.0000000   0.0000000   0.0000000  -0.3127660   0.1321950  -0.1269060   0.0000000   0.0000000   0.0000000
 0.9100000  -2.4952800  -0.2873550   0.9940200   0.0000000   0.0000000  -0.0110221  -0.0676038   0.0249478  -0.0178337   0.0000000   0.0000000   0.0000000  -0.3083880   0.1404500  -0.1289310   0.0000000   0.0000000   0.0000000
 0.9150000  -2.4956200  -0.2872290   0.9939290   0.0000000   0.0000000  -0.0110950  -0.0691343   0.0256713  -0.0184829   0.0000000   0.0000000   0.0000000  -0.3037600   0.1489550  -0.1307070   0.0000000   0.0000000   0.0000000
 0.9200000  -2.4959700  -0.2870990   0.9938350   0.0000000   0.0000000  -0.0111679  -0.0706410   0.0264378  -0.0191403   0.0000000   0.0000000   0.0000000  -0.2988820   0.1577100  -0.1322320   0.0000000   0.0000000   0.0000000
 0.9250000  -2.4963200  -0.2869640   0.9937380   0.0000000   0.0000000  -0.0112407  -0.0721227   0.0272488  -0.0198048   0.0000000   0.0000000   0.0000000  -0.2937540   0.1667150  -0.1335070   0.0000000   0.0000000   0.0000000
 0.9300000  -2.4966900  -0.2868260   0.9936370   0.0000000   0.0000000  -0.0113136  -0.0735781   0.0281054  -0.0204750   0.0000000   0.0000000   0.0000000  -0.2883760   0.1759700  -0.1345330   0.0000000   0.0000000   0.0000000
 0.9350000  -2.4970600  -0.2866830   0.9935330   0.0000000   0.0000000  -0.0113864  -0.0750060   0.0290089  -0.0211497   0.0000000   0.0000000   0.0000000  -0.2827480   0.1854750  -0.1353080   0.0000000   0.0000000   0.0000000
 0.9400000  -2.4974400  -0.2865360   0.9934260   0.0000000   0.0000000  -0.0114592  -0.0764052   0.0299606  -0.0218276   0.0000000   0.0000000   0.0000000  -0.2768700   0.1952300  -0.1358330   0.0000000   0.0000000   0.0000000
 0.9450000  -2.4978200  -0.2863840   0.9933150   0.0000000   0.0000000  -0.0115318  -0.0777743   0.0309616  -0.0225076   0.0000000   0.0000000   0.0000000  -0.2707420   0.2052360  -0.1361080   0.0000000   0.0000000   0.0000000
 0.9500000  -2.4982200  -0.2862260   0.9932010   0.0000000   0.0000000  -0.0116042  -0.0791122   0.0320133  -0.0231883   0.0000000   0.0000000   0.0000000  -0.2643640   0.2154910  -0.1361340   0.0000000   0.0000000   0.0000000
 0.9550000  -2.4986100  -0.2860630   0.9930830   0.0000000   0.0000000  -0.0116765  -0.0804175   0.0331169  -0.0238685   0.0000000   0.0000000   0.0000000  -0.2577360   0.2259960  -0.1359090   0.0000000   0.0000000   0.0000000
 0.9600000  -2.4990200  -0.2858950   0.9929620   0.0000000   0.0000000  -0.0117484  -0.0816891   0.0342737  -0.0245470   0.0000000   0.0000000   0.0000000  -0.2508580   0.2367510  -0.1354340   0.0000000   0.0000000   0.0000000
 0.9650000  -2.4994300  -0.2857210   0.9928380   0.0000000   0.0000000  -0.0118199  -0.0829257   0.0354849  -0.0252224   0.0000000   0.0000000   0.0000000  -0.2437300   0.2477560  -0.1347090   0.0000000   0.0000000   0.0000000
 0.9700000  -2.4998500  -0.2855400   0.9927100   0.0000000   0.0000000  -0.0118909  -0.0841260   0.0367517  -0.0258937   0.0000000   0.0000000   0.0000000  -0.2363520   0.2590110  -0.1337350   0.0000000   0.0000000   0.0000000
 0.9750000  -2.5002700  -0.2853530   0.9925790   0.0000000   0.0000000  -0.0119613  -0.0852888   0.0380754  -0.0265594   0.0000000   0.0000000   0.0000000  -0.2287240   0.2705160  -0.1325100   0.0000000   0.0000000   0.0000000
 0.9800000  -2.5007000  -0.2851590   0.9924440   0.0000000   0.0000000  -0.0120310  -0.0864128   0.0394572  -0.0272183   0.0000000   0.0000000   0.0000000  -0.2208460   0.2822710  -0.1310350   0.0000000   0.0000000   0.0000000
 0.9850000  -2.5011400  -0.2849580   0.9923060   0.0000000   0.0000000  -0.0120999  -0.0874968   0.0408985  -0.0278693   0.0000000   0.0000000   0.0000000  -0.2127180   0.2942760  -0.1293100   0.0000000   0.0000000   0.0000000
 0.9900000  -2.5015800  -0.2847500   0.9921660   0.0000000   0.0000000  -0.0121679  -0.0885396   0.0424004  -0.0285110   0.0000000   0.0000000   0.0000000  -0.2043400   0.3065310  -0.1273360   0.0000000   0.0000000   0.0000000
 0.9950000  -2.5020200  -0.2845340   0.9920210   0.0000000   0.0000000  -0.0122347  -0.0895398   0.0439642  -0.0291422   0.0000000   0.0000000   0.0000000  -0.1957120   0.3190360  -0.1251110   0.0000000   0.0000000   0.0000000
 1.0000000  -2.5024700  -0.2843100   0.9918740   0.0000000   0.0000000  -0.0123003  -0.0904963   0.0455912  -0.0297617   0.0000000   0.0000000   0.0000000  -0.1868340   0.3317910  -0.1226360   0.0000000   0.0000000   0.0000000
 1.0050000  -2.5029300  -0.2840780   0.9917240   0.0000000   0.0000000  -0.0123644  -0.0914077   0.0472826  -0.0303682   0.0000000   0.0000000   0.0000000  -0.1777060   0.3447960  -0.1199110   0.0000000   0.0000000   0.0000000
 1.0100000  -2.5033900  -0.2838370   0.9915700   0.0000000   0.0000000  -0.0124271  -0.0922729   0.0490396  -0.0309604   0.0000000   0.0000000   0.0000000  -0.1683280   0.3580510  -0.1169370   0.0000000   0.0000000   0.0000000
 1.0150000  -2.5038500  -0.2835880   0.9914140   0.0000000   0.0000000  -0.0124881  -0.0930906   0.0508635  -0.0315371   0.0000000   0.0000000   0.0000000  -0.1586990   0.3715560  -0.1137120   0.0000000   0.0000000   0.0000000
 1.0200000  -2.5043200  -0.2833290   0.9912550   0.0000000   0.0000000  -0.0125473  -0.0938595   0.0527556  -0.0320971   0.0000000   0.0000000   0.0000000  -0.1488210   0.3853110  -0.1102370   0.0000000   0.0000000   0.0000000
 1.0250000  -2.5047900  -0.2830600   0.9910930   0.0000000   0.0000000  -0.0126047  -0.0945784   0.0547170  -0.0326391   0.0000000   0.0000000   0.0000000  -0.1386930   0.3993160  -0.1065120   0.0000000   0.0000000   0.0000000
 1.0300000  -2.5052600  -0.2827810   0.9909290   0.0000000   0.0000000  -0.0126602  -0.0952460   0.0567491  -0.0331618   0.0000000   0.0000000   0.0000000  -0.1283150   0.4135710  -0.1025380   0.0000000   0.0000000   0.0000000
 1.0350000  -2.5057400  -0.2824920   0.9907620   0.0000000   0.0000000  -0.0127136  -0.0958611   0.0588531  -0.0336641   0.0000000   0.0000000   0.0000000  -0.1176870   0.4280760  -0.0983129   0.0000000   0.0000000   0.0000000
 1.0400000  -2.5062200  -0.2821930   0.9905920   0.0000000   0.0000000  -0.0127649  -0.0964225   0.0610298  -0.0341445   0.0000000   0.0000000   0.0000000  -0.1068090   0.4425560  -0.0938381   0.0000000   0.0000000   0.0000000
 1.0450000  -2.5067000  -0.2818820   0.9904200   0.0000000   0.0000000  -0.0128141  -0.0969288   0.0632783  -0.0346020   0.0000000   0.0000000   0.0000000  -0.0956813   0.4567870  -0.0891134   0.0000000   0.0000000   0.0000000
 1.0500000  -2.5071900  -0.2815600   0.9902460   0.0000000   0.0000000  -0.0128610  -0.0973789   0.0655973  -0.0350353   0.0000000   0.0000000   0.0000000  -0.0843033   0.4707670  -0.0841387   0.0000000   0.0000000   0.0000000
 1.0550000  -2.5076800  -0.2812260   0.9900700   0.0000000   0.0000000  -0.0129057  -0.0977714   0.0679855  -0.0354430   0.0000000   0.0000000   0.0000000  -0.0726752   0.4844980  -0.0789139   0.0000000   0.0000000   0.0000000
 1.0600000  -2.5081700  -0.2808800   0.9898920   0.0000000   0.0000000  -0.0129482  -0.0981052   0.0704418  -0.0358240   0.0000000   0.0000000   0.0000000  -0.0607972   0.4979780  -0.0734392   0.0000000   0.0000000   0.0000000
 1.0650000  -2.5086600  -0.2805210   0.9897120   0.0000000   0.0000000  -0.0129883  -0.0983790   0.0729649  -0.0361770   0.0000000   0.0000000   0.0000000  -0.0486692   0.5112080  -0.0677144   0.0000000   0.0000000   0.0000000
 1.0700000  -2.5091500  -0.2801500   0.9895300   0.0000000   0.0000000  -0.0130261  -0.0985915   0.0755535  -0.0365007   0.0000000   0.0000000   0.0000000  -0.0362912   0.5241890  -0.0617397   0.0000000   0.0000000   0.0000000
 1.0750000  -2.5096500  -0.2797660   0.9893470   0.0000000   0.0000000  -0.0130617  -0.0987415   0.0782064  -0.0367939   0.0000000   0.0000000   0.0000000  -0.0236631   0.5369190  -0.0555149   0.0000000   0.0000000   0.0000000
 1.0800000  -2.5101400  -0.2793680   0.9891620   0.0000000   0.0000000  -0.0130949  -0.0988277   0.0809223  -0.0370554   0.0000000   0.0000000   0.0000000  -0.0107851   0.5494000  -0.0490402   0.0000000   0.0000000   0.0000000
 1.0850000  -2.5106300  -0.2789560   0.9889760   0.0000000   0.0000000  -0.0131258  -0.0988493   0.0837000  -0.0372839   0.0000000   0.0000000   0.0000000   0.0020984   0.5616300  -0.0423154   0.0000000   0.0000000   0.0000000
 1.0900000  -2.5111300  -0.2785310   0.9887890   0.0000000   0.0000000  -0.0131545  -0.0988071   0.0865382  -0.0374782   0.0000000   0.0000000   0.0000000   0.0147318   0.5736110  -0.0353407   0.0000000   0.0000000   0.0000000
 1.0950000  -2.5116200  -0.2780910   0.9886020   0.0000000   0.0000000  -0.0131810  -0.0987024   0.0894357  -0.0376369   0.0000000   0.0000000   0.0000000   0.0271153   0.5853410  -0.0281160   0.0000000   0.0000000   0.0000000
 1.1000000  -2.5121100  -0.2776360   0.9884130   0.0000000   0.0000000  -0.0132054  -0.0985364   0.0923912  -0.0377589   0.0000000   0.0000000   0.0000000   0.0392488   0.5968220  -0.0206412   0.0000000   0.0000000   0.0000000
 1.1050000  -2.5126100  -0.2771670   0.9882240   0.0000000   0.0000000  -0.0132276  -0.0983103   0.0954035  -0.0378429   0.0000000   0.0000000   0.0000000   0.0511323   0.6080520  -0.0129165   0.0000000   0.0000000   0.0000000
 1.1100000  -2.5131000  -0.2766820   0.9880350   0.0000000   0.0000000  -0.0132478  -0.0980255   0.0984713  -0.0378877   0.0000000   0.0000000   0.0000000   0.0627658   0.6190330  -0.0049417   0.0000000   0.0000000   0.0000000
 1.1150000  -2.5135900  -0.2761820   0.9878450   0.0000000   0.0000000  -0.0132661  -0.0976831   0.1015930  -0.0378919   0.0000000   0.0000000   0.0000000   0.0741492   0.6297630   0.0032830   0.0000000   0.0000000   0.0000000
 1.1200000  -2.5140700  -0.2756660   0.9876560   0.0000000   0.0000000  -0.0132825  -0.0972844   0.1047680  -0.0378544   0.0000000   0.0000000   0.0000000   0.0852827   0.6402440   0.0117578   0.0000000   0.0000000   0.0000000
 1.1250000  -2.5145600  -0.2751340   0.9874670   0.0000000   0.0000000  -0.0132971  -0.0968307   0.1079950  -0.0377739   0.0000000   0.0000000   0.0000000   0.0961662   0.6504740   0.0204825   0.0000000   0.0000000   0.0000000
 1.1300000  -2.5150400  -0.2745860   0.9872780   0.0000000   0.0000000  -0.0133101  -0.0963232   0.1112730  -0.0376492   0.0000000   0.0000000   0.0000000   0.1068000   0.6604540   0.0294572   0.0000000   0.0000000   0.0000000
 1.1350000  -2.5155200  -0.2740210   0.9870900   0.0000000   0.0000000  -0.0133215  -0.0957631   0.1146000  -0.0374789   0.0000000   0.0000000   0.0000000   0.1171830   0.6701850   0.0386820   0.0000000   0.0000000   0.0000000
 1.1400000  -2.5160000  -0.2734400   0.9869030   0.0000000   0.0000000  -0.0133316  -0.0951517   0.1179740  -0.0372619   0.0000000   0.0000000   0.0000000   0.1273170   0.6796650   0.0481567   0.0000000   0.0000000   0.0000000
 1.1450000  -2.5164700  -0.2728420   0.9867180   0.0000000   0.0000000  -0.0133404  -0.0944903   0.1213960  -0.0369969   0.0000000   0.0000000   0.0000000   0.1372000   0.6888960   0.0578730   0.0000000   0.0000000   0.0000000
 1.1500000  -2.5169400  -0.2722260   0.9865340   0.0000000   0.0000000  -0.0133481  -0.0937802   0.1248630  -0.0366834   0.0000000   0.0000000   0.0000000   0.1468340   0.6978760   0.0675059   0.0000000   0.0000000   0.0000000
 1.1550000  -2.5174100  -0.2715930   0.9863510   0.0000000   0.0000000  -0.0133548  -0.0930224   0.1283740  -0.0363223   0.0000000   0.0000000   0.0000000   0.1562170   0.7066070   0.0768887   0.0000000   0.0000000   0.0000000
 1.1600000  -2.5178700  -0.2709420   0.9861700   0.0000000   0.0000000  -0.0133608  -0.0922184   0.1319280  -0.0359149   0.0000000   0.0000000   0.0000000   0.1653510   0.7150870   0.0860216   0.0000000   0.0000000   0.0000000
 1.1650000  -2.5183300  -0.2702740   0.9859920   0.0000000   0.0000000  -0.0133662  -0.0913693   0.1355250  -0.0354625   0.0000000   0.0000000   0.0000000   0.1742340   0.7233180   0.0949044   0.0000000   0.0000000   0.0000000
 1.1700000  -2.5187900  -0.2695870   0.9858160   0.0000000   0.0000000  -0.0133711  -0.0904765   0.1391610  -0.0349663   0.0000000   0.0000000   0.0000000   0.1828680   0.7312980   0.1035370   0.0000000   0.0000000   0.0000000
 1.1750000  -2.5192400  -0.2688820   0.9856420   0.0000000   0.0000000  -0.0133758  -0.0895411   0.1428370  -0.0344276   0.0000000   0.0000000   0.0000000   0.1912510   0.7390290   0.1119200   0.0000000   0.0000000   0.0000000
 1.1800000  -2.5196800  -0.2681580   0.9854720   0.0000000   0.0000000  -0.0133806  -0.0885644   0.1465510  -0.0338475   0.0000000   0.0000000   0.0000000   0.1993850   0.7465090   0.1200530   0.0000000   0.0000000   0.0000000
 1.1850000  -2.5201200  -0.2674160   0.9853040   0.0000000   0.0000000  -0.0133855  -0.0875477   0.1503020  -0.0332274   0.0000000   0.0000000   0.0000000   0.2072680   0.7537400   0.1279360   0.0000000   0.0000000   0.0000000
 1.1900000  -2.5205600  -0.2666550   0.9851390   0.0000000   0.0000000  -0.0133909  -0.0864921   0.1540880  -0.0325686   0.0000000   0.0000000   0.0000000   0.2149010   0.7607200   0.1355690   0.0000000   0.0000000   0.0000000
 1.1950000  -2.5209900  -0.2658750   0.9849780   0.0000000   0.0000000  -0.0133970  -0.0853991   0.1579090  -0.0318722   0.0000000   0.0000000   0.0000000   0.2222850   0.7674500   0.1429510   0.0000000   0.0000000   0.0000000
 1.2000000  -2.5214100  -0.2650760   0.9848210   0.0000000   0.0000000  -0.0134040  -0.0842697   0.1617620  -0.0311395   0.0000000   0.0000000   0.0000000   0.2294180   0.7739310   0.1500840   0.0000000   0.0000000   0.0000000
 1.2050000  -2.5218300  -0.2642580   0.9846670   0.0000000   0.0000000  -0.0134123  -0.0831053   0.1656470  -0.0303717   0.0000000   0.0000000   0.0000000   0.2363020   0.7801610   0.1569670   0.0000000   0.0000000   0.0000000
 1.2100000  -2.5222400  -0.2634200   0.9845170   0.0000000   0.0000000  -0.0134219  -0.0819071   0.1695630  -0.0295702   0.0000000   0.0000000   0.0000000   0.2429350   0.7861420   0.1636000   0.0000000   0.0000000   0.0000000
 1.2150000  -2.5226500  -0.2625620   0.9843710   0.0000000   0.0000000  -0.0134334  -0.0806763   0.1735080  -0.0287362   0.0000000   0.0000000   0.0000000   0.2493190   0.7918720   0.1699830   0.0000000   0.0000000   0.0000000
 1.2200000  -2.5230500  -0.2616850   0.9842300   0.0000000   0.0000000  -0.0134468  -0.0794143   0.1774820  -0.0278708   0.0000000   0.0000000   0.0000000   0.2554520   0.7973530   0.1761160   0.0000000   0.0000000   0.0000000
 1.2250000  -2.5234400  -0.2607870   0.9840930   0.0000000   0.0000000  -0.0134624  -0.0781222   0.1814820  -0.0269754   0.0000000   0.0000000   0.0000000   0.2613360   0.8025830   0.1819990   0.0000000   0.0000000   0.0000000
 1.2300000  -2.5238300  -0.2598700   0.9839600   0.0000000   0.0000000  -0.0134805  -0.0768014   0.1855070  -0.0260512   0.0000000   0.0000000   0.0000000   0.2669690   0.8075640   0.1876310   0.0000000   0.0000000   0.0000000
 1.2350000  -2.5242100  -0.2589320   0.9838320   0.0000000   0.0000000  -0.0135013  -0.0754530   0.1895570  -0.0250995   0.0000000   0.0000000   0.0000000   0.2723530   0.8122940   0.1930140   0.0000000   0.0000000   0.0000000
 1.2400000  -2.5245900  -0.2579740   0.9837090   0.0000000   0.0000000  -0.0135250  -0.0740783   0.1936300  -0.0241215   0.0000000   0.0000000   0.0000000   0.2774860   0.8167750   0.1981470   0.0000000   0.0000000   0.0000000
 1.2450000  -2.5249500  -0.2569960   0.9835910   0.0000000   0.0000000  -0.0135518  -0.0726785   0.1977240  -0.0231185   0.0000000   0.0000000   0.0000000   0.2823700   0.8210050   0.2030300   0.0000000   0.0000000   0.0000000
 1.2500000  -2.5253100  -0.2559970   0.9834780   0.0000000   0.0000000  -0.0135819  -0.0712550   0.2018390  -0.0220916   0.0000000   0.0000000   0.0000000   0.2870030   0.8249860   0.2076630   0.0000000   0.0000000   0.0000000
 1.2550000  -2.5256700  -0.2549770   0.9833700   0.0000000   0.0000000  -0.0136155  -0.0698089   0.2059740  -0.0210423   0.0000000   0.0000000   0.0000000   0.2913870   0.8287160   0.2120460   0.0000000   0.0000000   0.0000000
 1.2600000  -2.5260100  -0.2539370   0.9832680   0.0000000   0.0000000  -0.0136528  -0.0683415   0.2101260  -0.0199716   0.0000000   0.0000000   0.0000000   0.2955200   0.8321960   0.2161780   0.0000000   0.0000000   0.0000000
 1.2650000  -2.5263500  -0.2528760   0.9831710   0.0000000   0.0000000  -0.0136939  -0.0668541   0.2142950  -0.0188809   0.0000000   0.0000000   0.0000000   0.2994040   0.8354270   0.2200610   0.0000000   0.0000000   0.0000000
 1.2700000  -2.5266800  -0.2517940   0.9830790   0.0000000   0.0000000  -0.0137390  -0.0653479   0.2184800  -0.0177714   0.0000000   0.0000000   0.0000000   0.3030370   0.8384070   0.2236940   0.0000000   0.0000000   0.0000000
 1.2750000  -2.5270000  -0.2506910   0.9829930   0.0000000   0.0000000  -0.0137883  -0.0638242   0.2226790  -0.0166444   0.0000000   0.0000000   0.0000000   0.3064210   0.8411380   0.2270770   0.0000000   0.0000000   0.0000000
 1.2800000  -2.5273200  -0.2495670   0.9829120   0.0000000   0.0000000  -0.0138418  -0.0622841   0.2268910  -0.0155010   0.0000000   0.0000000   0.0000000   0.3095540   0.8436180   0.2302100   0.0000000   0.0000000   0.0000000
 1.2850000  -2.5276300  -0.2484220   0.9828380   0.0000000   0.0000000  -0.0138997  -0.0607290   0.2311150  -0.0143427   0.0000000   0.0000000   0.0000000   0.3124380   0.8458490   0.2330930   0.0000000   0.0000000   0.0000000
 1.2900000  -2.5279300  -0.2472560   0.9827690   0.0000000   0.0000000  -0.0139620  -0.0591602   0.2353490  -0.0131705   0.0000000   0.0000000   0.0000000   0.3150710   0.8478290   0.2357250   0.0000000   0.0000000   0.0000000
 1.2950000  -2.5282200  -0.2460690   0.9827060   0.0000000   0.0000000  -0.0140291  -0.0575787   0.2395920  -0.0119858   0.0000000   0.0000000   0.0000000   0.3174550   0.8495600   0.2381080   0.0000000   0.0000000   0.0000000
 1.3000000  -2.5285000  -0.2448600   0.9826490   0.0000000   0.0000000  -0.0141008  -0.0559860   0.2438440  -0.0107899   0.0000000   0.0000000   0.0000000   0.3195880   0.8510400   0.2402410   0.0000000   0.0000000   0.0000000
 1.3050000  -2.5287800  -0.2436300   0.9825980   0.0000000   0.0000000  -0.0141773  -0.0543833   0.2481020  -0.0095838   0.0000000   0.0000000   0.0000000   0.3214720   0.8522710   0.2421240   0.0000000   0.0000000   0.0000000
 1.3100000  -2.5290400  -0.2423790   0.9825530   0.0000000   0.0000000  -0.0142587  -0.0527717   0.2523660  -0.0083690   0.0000000   0.0000000   0.0000000   0.3231050   0.8532510   0.2437570   0.0000000   0.0000000   0.0000000
 1.3150000  -2.5293000  -0.2411070   0.9825150   0.0000000   0.0000000  -0.0143450  -0.0511526   0.2566340  -0.0071467   0.0000000   0.0000000   0.0000000   0.3244890   0.8539820   0.2451400   0.0000000   0.0000000   0.0000000
