ts fx fy fz tx ty tz exfx exfy exfz extx exty extz xd yd zd rolld pitchd yawd vxd vyd vzd wxd wyd wzd axd ayd azd e_x e_y e_z e_vx e_vy e_vz e_rx e_ry e_rz e_wx e_wy e_wz
1701449747.232275000  0  0  12.0656  -0.0767271  -0.0257279  -0.00981236  nan  nan  nan  nan  nan  nan  -2  -1  1.5  -0.0442766  -0.0363183  0.00160875  0  0  0  0  0  0  0  0  0  0.00842526  -0.0193152  -0.028955  0.0300376  -0.0163795  0.00654988  0.0329895  0.017804  -0.00457656  -0.150049  -0.112341  0.16842 
1701449747.236728000  0  0  12.0097  -0.0824074  -0.00572654  -0.00976557  nan  nan  nan  nan  nan  nan  -2  -1  1.5  -0.0451171  -0.0371465  0.0016767  0  0  0  0  0  0  0  0  0  0.00865009  -0.019507  -0.0288455  0.0304208  -0.0167954  0.0110328  0.0332898  0.0176796  -0.00395174  -0.141452  -0.151199  0.161587 
1701449747.241415000  0  0  12.0549  -0.0739961  -0.00529174  -0.00996899  nan  nan  nan  nan  nan  nan  -2  -1  1.5  -0.0445378  -0.036632  0.00163222  0  0  0  0  0  0  0  0  0  0.00878842  -0.0195825  -0.028827  0.0296058  -0.0160776  0.00725424  0.0320474  0.0164493  -0.00324162  -0.146844  -0.14075  0.157029 
1701449747.246277000  0  0  12.053  -0.0705333  -0.0126763  -0.0111486  nan  nan  nan  nan  nan  nan  -2  -1  1.5  -0.0447576  -0.0371286  0.00166251  0  0  0  0  0  0  0  0  0  0.00902311  -0.019781  -0.028746  0.029742  -0.0159178  0.00728516  0.031551  0.0164706  -0.00240809  -0.149203  -0.126177  0.163438 
1701449747.251254000  0  0  11.9765  -0.0746771  0.00825972  -0.0115607  nan  nan  nan  nan  nan  nan  -2  -1  1.5  -0.0452633  -0.0374075  0.00169395  0  0  0  0  0  0  0  0  0  0.00917207  -0.019865  -0.0286508  0.0294667  -0.0160208  0.013505  0.0314448  0.0156762  -0.00165529  -0.139938  -0.16074  0.161061 
1701449747.256268000  0  0  12.0148  -0.0699395  0.00115365  -0.0120031  nan  nan  nan  nan  nan  nan  -2  -1  1.5  -0.0452213  -0.037528  0.00169782  0  0  0  0  0  0  0  0  0  0.00940243  -0.0200603  -0.0285902  0.0292738  -0.015721  0.0102187  0.0307015  0.0152191  -0.000872392  -0.142575  -0.142323  0.158762 
1701449747.261273000  0  0  12.0151  -0.0641717  -0.00645549  -0.0132367  nan  nan  nan  nan  nan  nan  -2  -1  1.5  -0.0447976  -0.0375844  0.00168442  0  0  0  0  0  0  0  0  0  0.00954984  -0.0201357  -0.0285416  0.0290197  -0.0149875  0.0101185  0.0295649  0.0147797  1.12797e-05  -0.143654  -0.123062  0.165346 
1701449747.266252000  0  0  11.9701  -0.0610679  0.00361847  -0.014202  nan  nan  nan  nan  nan  nan  -2  -1  1.5  -0.045568  -0.0380236  0.00173344  0  0  0  0  0  0  0  0  0  0.0097706  -0.0203284  -0.0284325  0.0289269  -0.0153556  0.0136982  0.0295637  0.0144202  0.000845703  -0.14985  -0.139902  0.169068 
1701449747.271268000  0  0  12.0103  -0.0670364  -0.000645354  -0.0146311  nan  nan  nan  nan  nan  nan  -2  -1  1.5  -0.0453486  -0.0380927  0.00172822  0  0  0  0  0  0  0  0  0  0.00998883  -0.0205242  -0.0283693  0.0287028  -0.0148301  0.0102346  0.0288527  0.0139522  0.00166658  -0.131372  -0.12707  0.166223 
1701449747.276721000  0  0  11.9828  -0.0634431  -0.0089745  -0.0153983  nan  nan  nan  nan  nan  nan  -2  -1  1.5  -0.0457772  -0.0386029  0.00176793  0  0  0  0  0  0  0  0  0  0.0102266  -0.0207363  -0.0282581  0.0287381  -0.0147868  0.0123415  0.0285609  0.013998  0.00257498  -0.135874  -0.110833  0.166729 
1701449747.281258000  0  0  11.9862  -0.0645055  -0.00156334  -0.0156122  nan  nan  nan  nan  nan  nan  -2  -1  1.5  -0.0455736  -0.0383813  0.00174995  0  0  0  0  0  0  0  0  0  0.0103547  -0.0208041  -0.0282062  0.0281702  -0.0143818  0.011968  0.0278284  0.0131733  0.00328205  -0.12701  -0.118068  0.162332 
1701449747.286700000  0  0  12.0056  -0.0731732  -0.0061608  -0.0159413  nan  nan  nan  nan  nan  nan  -2  -1  1.5  -0.0455735  -0.038617  0.00176069  0  0  0  0  0  0  0  0  0  0.0105841  -0.0210067  -0.028121  0.0280576  -0.0140279  0.0101921  0.0274446  0.0129152  0.00411052  -0.106144  -0.106498  0.158161 
1701449747.291273000  0  0  11.9767  -0.0618219  -0.0142185  -0.0164129  nan  nan  nan  nan  nan  nan  -2  -1  1.5  -0.0454181  -0.0387142  0.00175909  0  0  0  0  0  0  0  0  0  0.010713  -0.0210705  -0.0280522  0.0277747  -0.0135314  0.0124778  0.0266426  0.0127201  0.00482328  -0.121468  -0.088588  0.156928 
1701449747.296217000  0  0  11.9932  -0.0658715  -0.0161705  -0.0167122  nan  nan  nan  nan  nan  nan  -2  -1  1.5  -0.0457779  -0.0388635  0.00177989  0  0  0  0  0  0  0  0  0  0.0109183  -0.0212657  -0.0279732  0.0275894  -0.0136583  0.0109676  0.0265427  0.0125245  0.00555742  -0.11245  -0.082884  0.153328 
1701449747.301275000  0  0  11.9955  -0.0733082  -0.0119783  -0.0162546  nan  nan  nan  nan  nan  nan  -2  -1  1.5  -0.0451208  -0.03868  0.00174602  0  0  0  0  0  0  0  0  0  0.0110561  -0.0213301  -0.0279198  0.027045  -0.012652  0.01066  0.0256247  0.0118715  0.00620578  -0.089131  -0.085261  0.141125 
1701449747.306273000  0  0  11.9792  -0.0616176  -0.0234522  -0.0161515  nan  nan  nan  nan  nan  nan  -2  -1  1.5  -0.0455166  -0.0390911  0.00178007  0  0  0  0  0  0  0  0  0  0.01126  -0.0215225  -0.0278207  0.0270701  -0.0126663  0.0118465  0.0253699  0.0121291  0.00682058  -0.110168  -0.064683  0.133688 
1701449747.311696000  0  0  11.9892  -0.0759205  -0.0247496  -0.016241  nan  nan  nan  nan  nan  nan  -2  -1  1.5  -0.0458754  -0.0392704  0.00180235  0  0  0  0  0  0  0  0  0  0.011471  -0.0217218  -0.0277325  0.0268846  -0.0127499  0.0108562  0.0254859  0.0120382  0.00748302  -0.0826295  -0.0612521  0.128182 
1701449747.316267000  0  0  11.9964  -0.0856186  -0.0212453  -0.0167144  nan  nan  nan  nan  nan  nan  -2  -1  1.5  -0.0450447  -0.039037  0.00175915  0  0  0  0  0  0  0  0  0  0.0115919  -0.0217734  -0.027688  0.026333  -0.0115667  0.0101383  0.0246433  0.0114784  0.00808813  -0.0554812  -0.0631104  0.128048 
1701449747.321282000  0  0  11.9827  -0.0705825  -0.033895  -0.0174575  nan  nan  nan  nan  nan  nan  -2  -1  1.5  -0.0456739  -0.0393391  0.00179755  6e-07  6e-07  -6e-07  0  0  0  0.000375  0.000375  -0.000375  0.0117879  -0.0219654  -0.0275861  0.0262902  -0.0118575  0.0110721  0.0246626  0.0117569  0.00874631  -0.0857309  -0.0403732  0.130756 
1701449747.326277000  0  0  11.9823  -0.0814684  -0.0324635  -0.0174622  nan  nan  nan  nan  nan  nan  -2  -1  1.5  -0.045421  -0.0390844  0.00177602  5e-06  5e-06  -5e-06  0  0  0  0.0015  0.0015  -0.0015  0.0119179  -0.0220237  -0.0275309  0.0258042  -0.0112452  0.0108728  0.0242636  0.0113188  0.00935019  -0.0602881  -0.0392058  0.124776 
1701449747.331277000  0  0  11.9846  -0.0917341  -0.0351403  -0.0183294  nan  nan  nan  nan  nan  nan  -2  -1  1.5  -0.0455757  -0.0390282  0.00177952  1.69e-05  1.69e-05  -1.69e-05  0  0  0  0.003375  0.003375  -0.003375  0.0121148  -0.0222135  -0.0274462  0.0255445  -0.0107983  0.0103277  0.0244248  0.0111584  0.0100191  -0.0412396  -0.0323771  0.128927 
1701449747.336215000  0  0  11.9565  -0.0751683  -0.0429894  -0.0193772  nan  nan  nan  nan  nan  nan  -2  -1  1.5  -0.0463553  -0.0390394  0.00181062  4e-05  4e-05  -4e-05  0  0  0  0.006  0.006  -0.006  0.0123041  -0.0223968  -0.0273398  0.0253583  -0.0109438  0.0122153  0.0245927  0.0112202  0.0107173  -0.0759165  -0.0172475  0.135042 
1701449747.341272000  0  0  11.9499  -0.0904364  -0.0287792  -0.0199001  nan  nan  nan  nan  nan  nan  -2  -1  1.5  -0.0464096  -0.0386731  0.00179594  7.81e-05  7.81e-05  -7.81e-05  0  0  0  0.009375  0.009375  -0.009375  0.0124328  -0.0224519  -0.0272769  0.0249928  -0.0104243  0.012305  0.0245768  0.0105036  0.0114056  -0.0452338  -0.0390742  0.134696 
1701449747.346263000  0  0  11.9535  -0.0909739  -0.0355407  -0.020734  nan  nan  nan  nan  nan  nan  -2  -0.999999  1.5  -0.046938  -0.0383573  0.0018018  0.000135  0.000135  -0.000135  0  0  0  0.0135  0.0135  -0.0135  0.0126259  -0.022647  -0.0271821  0.024694  -0.0101785  0.0114147  0.0249376  0.0101861  0.012116  -0.0474785  -0.022631  0.138015 
1701449747.351262000  0  0  11.9062  -0.0763285  -0.0370289  -0.0213754  nan  nan  nan  nan  nan  nan  -2  -0.999998  1.5  -0.0470931  -0.0377712  0.00178065  0.0002144  0.0002144  -0.0002144  0  0  0  0.018375  0.018375  -0.018375  0.0127485  -0.0226955  -0.0270965  0.0240734  -0.00940082  0.0147012  0.0245245  0.00959657  0.0128241  -0.0729687  -0.0142306  0.138952 
1701449747.356217000  0  0  11.8922  -0.0901868  -0.0171998  -0.0210596  nan  nan  nan  nan  nan  nan  -2  -0.999997  1.5  -0.0483945  -0.0374757  0.00181631  0.00032  0.00032  -0.00032  0  0  0  0.024  0.024  -0.024  0.0129367  -0.0228914  -0.0269847  0.0239367  -0.00988387  0.0151193  0.0257055  0.00882371  0.0133668  -0.0561167  -0.0467786  0.129578 
1701449747.361746000  0  0  11.9008  -0.087136  -0.0235222  -0.0213888  nan  nan  nan  nan  nan  nan  -1.99999  -0.999995  1.49999  -0.0487843  -0.0364783  0.00178328  0.0004556  0.0004556  -0.0004556  0  0  0  0.030375  0.030375  -0.030375  0.0131199  -0.0230835  -0.0268702  0.0230698  -0.00919808  0.013534  0.0257676  0.00781442  0.0140486  -0.0627901  -0.0248482  0.126874 
1701449747.366274000  0  0  11.8488  -0.078237  -0.013172  -0.0217659  nan  nan  nan  nan  nan  nan  -1.99999  -0.999992  1.49999  -0.0495879  -0.0358499  0.001783  0.000625  0.000625  -0.000625  0  0  0  0.0375  0.0375  -0.0375  0.0132285  -0.0231278  -0.0267828  0.0227123  -0.00895627  0.0170011  0.0260392  0.00693414  0.0145975  -0.0830869  -0.03745  0.126099 
1701449747.371279000  0  0  11.8489  -0.0913674  0.00624735  -0.0219544  nan  nan  nan  nan  nan  nan  -1.99999  -0.999989  1.49999  -0.050876  -0.0347305  0.00177422  0.0008319  0.0008319  -0.0008319  0  0  0  0.045375  0.045375  -0.045375  0.0134001  -0.0233139  -0.0266731  0.0218775  -0.00922394  0.0160121  0.0271168  0.00531569  0.0151625  -0.0667394  -0.061399  0.122805 
1701449747.376270000  0  0  11.8595  -0.0954113  0.00632708  -0.0224702  nan  nan  nan  nan  nan  nan  -1.99998  -0.999984  1.49998  -0.0508416  -0.0331425  0.00169476  0.00108  0.00108  -0.00108  0  0  0  0.054  0.054  -0.054  0.0134996  -0.0233526  -0.0266072  0.0207166  -0.00804413  0.0141151  0.0268767  0.0035914  0.0157913  -0.0564427  -0.045695  0.122963 
1701449747.381279000  0  0  11.7962  -0.0865106  0.0191306  -0.022731  nan  nan  nan  nan  nan  nan  -1.99998  -0.999978  1.49998  -0.0526816  -0.0324276  0.00172152  0.0013731  0.0013731  -0.0013731  0  0  0  0.063375  0.063375  -0.063375  0.0136689  -0.0235422  -0.0264622  0.0203859  -0.008466  0.0182143  0.0281158  0.00247803  0.0163427  -0.0856437  -0.0610591  0.120711 
1701449747.386281000  0  0  11.7999  -0.0984703  0.02869  -0.0229144  nan  nan  nan  nan  nan  nan  -1.99997  -0.99997  1.49997  -0.053977  -0.0308684  0.00168354  0.001715  0.001715  -0.001715  0  0  0  0.0735  0.0735  -0.0735  0.0138157  -0.0237235  -0.0263449  0.0193387  -0.00847992  0.0166729  0.0291338  0.000568706  0.0168982  -0.0710904  -0.0626121  0.117448 
1701449747.391282000  0  0  11.7735  -0.101565  0.0324034  -0.0232062  nan  nan  nan  nan  nan  nan  -1.99996  -0.99996  1.49996  -0.0544457  -0.0291444  0.00160923  0.0021094  0.0021094  -0.0021094  0  0  0  0.084375  0.084375  -0.084375  0.0139089  -0.0237606  -0.0262548  0.0181891  -0.00745362  0.0175956  0.0293108  -0.00137147  0.0174573  -0.066529  -0.0521893  0.115504 
1701449747.396288000  0  0  11.7088  -0.0860102  0.0396518  -0.0235635  nan  nan  nan  nan  nan  nan  -1.99995  -0.999949  1.49995  -0.0565999  -0.0279339  0.00160984  0.00256  0.00256  -0.00256  0  0  0  0.096  0.096  -0.096  0.0140545  -0.0239313  -0.0260862  0.017587  -0.00798601  0.021545  0.0306072  -0.00288798  0.0179759  -0.109566  -0.0527342  0.114784 
1701449747.401271000  0  0  11.7184  -0.0975765  0.0462411  -0.0233799  nan  nan  nan  nan  nan  nan  -1.99993  -0.999935  1.49993  -0.0571204  -0.0257497  0.00150707  0.0030706  0.0030706  -0.0030706  0  0  0  0.108375  0.108375  -0.108375  0.0141312  -0.0239655  -0.0260031  0.016199  -0.00705735  0.0193294  0.0307711  -0.00526437  0.0184794  -0.0879409  -0.04405  0.107455 
1701449747.406271000  0  0  11.6794  -0.102614  0.046576  -0.0230807  nan  nan  nan  nan  nan  nan  -1.99992  -0.999918  1.49992  -0.0590006  -0.024231  0.00147486  0.003645  0.003645  -0.003645  0  0  0  0.1215  0.1215  -0.1215  0.0142889  -0.0241756  -0.02584  0.0154644  -0.00709264  0.0209757  0.0322396  -0.0068762  0.018875  -0.0913761  -0.0298909  0.0997588 
1701449747.411373000  0  0  11.6703  -0.0839677  0.0390006  -0.022367  nan  nan  nan  nan  nan  nan  -1.9999  -0.999898  1.4999  -0.0613529  -0.0224601  0.00143391  0.0042869  0.0042869  -0.0042869  0  0  0  0.135375  0.135375  -0.135375  0.0144245  -0.0243828  -0.0256862  0.0146373  -0.00783517  0.0201098  0.0335577  -0.00850157  0.0191918  -0.140795  0.00021321  0.08767 
1701449747.416220000  0  0  11.6733  -0.0956859  0.047555  -0.0217638  nan  nan  nan  nan  nan  nan  -1.99988  -0.999875  1.49988  -0.0623345  -0.0201007  0.0013212  0.005  0.005  -0.005  0  0  0  0.15  0.15  -0.15  0.0144946  -0.0244173  -0.025607  0.0133154  -0.00717106  0.0182502  0.0340396  -0.0108338  0.0194916  -0.121792  0.0045613  0.0771315 
1701449747.421282000  0  0  11.6086  -0.0972267  0.0421303  -0.022006  nan  nan  nan  nan  nan  nan  -1.99985  -0.999848  1.49985  -0.0645053  -0.0182668  0.00126088  0.0057881  0.0057881  -0.0057881  0  0  0  0.165375  0.165375  -0.165375  0.0146102  -0.024605  -0.0254335  0.0125356  -0.00712562  0.0218148  0.0355267  -0.0124123  0.0198296  -0.132392  0.0299329  0.0767785 
1701449747.426286000  0  0  11.6205  -0.0829594  0.0294287  -0.022709  nan  nan  nan  nan  nan  nan  -1.99982  -0.999817  1.49982  -0.0660432  -0.0156736  0.0011342  0.006655  0.006655  -0.006655  0  0  0  0.1815  0.1815  -0.1815  0.0146703  -0.0246424  -0.0253532  0.0111573  -0.00703707  0.0191104  0.035916  -0.0143828  0.0202664  -0.164509  0.0734643  0.081199 
1701449747.431282000  0  0  11.5882  -0.116019  0.0537012  -0.0225659  nan  nan  nan  nan  nan  nan  -1.99978  -0.999781  1.49978  -0.0683308  -0.0135534  0.00104413  0.0076044  0.0076044  -0.0076044  0  0  0  0.198375  0.198375  -0.198375  0.0147651  -0.024812  -0.0251876  0.0103396  -0.00719732  0.0198376  0.0379539  -0.0165124  0.020584  -0.117138  0.0445112  0.0762334 
1701449747.436221000  0  0  11.5379  -0.108593  0.0534256  -0.0231278  nan  nan  nan  nan  nan  nan  -1.99974  -0.999741  1.49974  -0.0699193  -0.01079  0.000893847  0.00864  0.00864  -0.00864  0  0  0  0.216  0.216  -0.216  0.0148125  -0.0248428  -0.0250703  0.00888697  -0.00651526  0.0220718  0.0386661  -0.0188691  0.0209912  -0.138541  0.0667446  0.0791854 
1701449747.441280000  0  0  11.562  -0.0957131  0.014305  -0.0245602  nan  nan  nan  nan  nan  nan  -1.99969  -0.999695  1.49969  -0.0725398  -0.00837122  0.000771107  0.0097656  0.0097656  -0.0097656  0  0  0  0.234375  0.234375  -0.234375  0.0148849  -0.0250133  -0.0249524  0.00801729  -0.00732064  0.0181321  0.0400044  -0.0198989  0.0215566  -0.176614  0.15446  0.0914365 
1701449747.446282000  0  0  11.5137  -0.12859  0.0440959  -0.0243156  nan  nan  nan  nan  nan  nan  -1.99964  -0.999643  1.49964  -0.0754986  -0.0061892  0.000658563  0.010985  0.010985  -0.0109839  0  0  0  0.2535  0.2535  -0.252793  0.0149693  -0.0251653  -0.0248023  0.00746054  -0.00791864  0.0201009  0.0425751  -0.0219091  0.0219127  -0.134511  0.113372  0.0848184 
1701449747.451288000  0  0  11.5022  -0.110665  0.0201986  -0.0248397  nan  nan  nan  nan  nan  nan  -1.99958  -0.999585  1.49958  -0.0770222  -0.00290096  0.000445281  0.0123019  0.0123019  -0.0122923  0  0  0  0.273375  0.273375  -0.270462  0.014998  -0.0251972  -0.0247071  0.00574211  -0.00713608  0.0191885  0.042924  -0.0239534  0.0223828  -0.173571  0.179974  0.0866681 
1701449747.456276000  0  0  11.4943  -0.10416  0.00224343  -0.0247524  nan  nan  nan  nan  nan  nan  -1.99952  -0.99952  1.49952  -0.0802831  -0.000592192  0.000303645  0.01372  0.01372  -0.0136872  0  0  0  0.294  0.294  -0.287381  0.0150724  -0.0253728  -0.0245863  0.00528302  -0.00818263  0.0180891  0.0448734  -0.0248332  0.0227633  -0.204514  0.223979  0.0817717 
1701449747.461757000  0  0  11.4754  -0.128108  0.0162179  -0.0244987  nan  nan  nan  nan  nan  nan  -1.99945  -0.999447  1.49945  -0.0832814  0.00220733  0.000110245  0.0152431  0.0152431  -0.0151649  0  0  0  0.315375  0.315375  -0.30355  0.0151498  -0.025522  -0.0244579  0.00429012  -0.00875143  0.0179239  0.0470208  -0.0266425  0.0231387  -0.176374  0.212675  0.0748464 
1701449747.466295000  0  0  11.4732  -0.120002  -0.00423362  -0.024881  nan  nan  nan  nan  nan  nan  -1.99937  -0.999367  1.49937  -0.0851638  0.00586294  -0.000163518  0.016875  0.016875  -0.0167215  0  0  0  0.3375  0.3375  -0.318969  0.0151552  -0.0255613  -0.02438  0.00245791  -0.00818791  0.016528  0.0477555  -0.0287097  0.0235349  -0.199347  0.272596  0.0756633 
1701449747.471293000  0  0  11.4174  -0.111381  0.00316442  -0.0247883  nan  nan  nan  nan  nan  nan  -1.99928  -0.999278  1.49928  -0.0890184  0.00840592  -0.000366556  0.0186194  0.0186194  -0.0183533  0  0  0  0.360375  0.360375  -0.333638  0.0152234  -0.0257412  -0.0242235  0.00205769  -0.00919682  0.0196186  0.0500893  -0.0299797  0.0238704  -0.238059  0.269485  0.0711492 
1701449747.476286000  0  0  11.3947  -0.124093  0.0180961  -0.0243654  nan  nan  nan  nan  nan  nan  -1.99918  -0.999181  1.49918  -0.0920105  0.0121247  -0.000683835  0.02048  0.02048  -0.0200566  0  0  0  0.384  0.384  -0.347557  0.0152258  -0.0257885  -0.0241211  0.000392337  -0.00960671  0.0200752  0.051889  -0.0325561  0.02417  -0.229192  0.263324  0.0628671 
1701449747.481283000  0  0  11.3932  -0.130498  0.00368601  -0.0249596  nan  nan  nan  nan  nan  nan  -1.99907  -0.999073  1.49908  -0.0946913  0.0158291  -0.00101261  0.0224606  0.0224606  -0.0218276  0  0  0  0.408375  0.408375  -0.360726  0.0152698  -0.0259501  -0.0240055  -0.00127105  -0.00947491  0.0188356  0.0533317  -0.0344642  0.0245954  -0.229655  0.309699  0.0660408 
1701449747.486286000  0  0  11.3278  -0.117025  0.0215824  -0.0253371  nan  nan  nan  nan  nan  nan  -1.99896  -0.998956  1.49897  -0.0981556  0.019356  -0.00135461  0.024565  0.024565  -0.0236626  0  0  0  0.4335  0.4335  -0.373145  0.0152726  -0.0259979  -0.0238786  -0.00238553  -0.0097912  0.0230119  0.0550474  -0.0367072  0.0249744  -0.272386  0.294542  0.0669701 
1701449747.491231000  0  0  11.3227  -0.118502  0.0328282  -0.0254341  nan  nan  nan  nan  nan  nan  -1.99883  -0.998828  1.49884  -0.102284  0.0231367  -0.00175769  0.0267969  0.0267969  -0.0255578  0  0  0  0.459375  0.459375  -0.384814  0.0153024  -0.0261731  -0.0237291  -0.00389329  -0.0111929  0.0222455  0.0574751  -0.0391523  0.025353  -0.291767  0.294545  0.0643966 
1701449747.496224000  0  0  11.3326  -0.138622  0.0280298  -0.025255  nan  nan  nan  nan  nan  nan  -1.99869  -0.998688  1.49871  -0.105091  0.0272544  -0.00218683  0.02916  0.02916  -0.0275095  0  0  0  0.486  0.486  -0.395732  0.0153295  -0.0263362  -0.0236033  -0.00576657  -0.0110273  0.0203032  0.0590274  -0.0414771  0.0257125  -0.265809  0.32553  0.0585626 
1701449747.501285000  0  0  11.2652  -0.111897  0.0416684  -0.0259718  nan  nan  nan  nan  nan  nan  -1.99854  -0.998536  1.49857  -0.109138  0.0314187  -0.00267848  0.0316581  0.0316581  -0.0295139  0  0  0  0.513375  0.513375  -0.405901  0.0153041  -0.0263924  -0.0234621  -0.00723259  -0.0116278  0.0249283  0.0607858  -0.0441628  0.0261454  -0.335435  0.322961  0.0631943 
1701449747.506240000  0  0  11.2744  -0.111055  0.0524657  -0.0263839  nan  nan  nan  nan  nan  nan  -1.99837  -0.998371  1.49842  -0.113329  0.0356266  -0.00320903  0.034295  0.034295  -0.0315673  0  0  0  0.5415  0.5415  -0.41532  0.0153074  -0.0265709  -0.0233231  -0.00896924  -0.0129379  0.0233008  0.0628783  -0.0468633  0.0265901  -0.35637  0.326211  0.0638987 
1701449747.511717000  0  0  11.2741  -0.138056  0.0588711  -0.0252314  nan  nan  nan  nan  nan  nan  -1.99819  -0.998193  1.49825  -0.116044  0.0399736  -0.00372646  0.0370744  0.0370744  -0.0336659  0  0  0  0.570375  0.570375  -0.423989  0.0153228  -0.0267191  -0.0231793  -0.0107746  -0.0122472  0.0224497  0.0640748  -0.049379  0.0268525  -0.313376  0.336545  0.0468678 
1701449747.516283000  0  0  11.2006  -0.107153  0.0649706  -0.0254526  nan  nan  nan  nan  nan  nan  -1.998  -0.998  1.49808  -0.120591  0.0447822  -0.00440029  0.04  0.04  -0.0358059  0  0  0  0.6  0.6  -0.431908  0.0152589  -0.0267939  -0.0230181  -0.0125422  -0.0129271  0.0278648  0.0660299  -0.0526108  0.0271968  -0.393169  0.354079  0.0461888 
1701449747.521295000  0  0  11.2379  -0.110959  0.0759957  -0.025303  nan  nan  nan  nan  nan  nan  -1.99779  -0.997792  1.49789  -0.124053  0.0494803  -0.00504448  0.0430756  0.0430756  -0.0379837  0  0  0  0.630375  0.630306  -0.439077  0.01519  -0.0268616  -0.0229172  -0.0145969  -0.0136388  0.0242388  0.0672572  -0.0556033  0.0275187  -0.396848  0.359559  0.0411006 
1701449747.526294000  0  0  11.245  -0.126448  0.0881283  -0.0246258  nan  nan  nan  nan  nan  nan  -1.99757  -0.997569  1.4977  -0.127624  0.0542066  -0.00572546  0.0463048  0.0463022  -0.0401954  0  0  0  0.661272  0.660227  -0.445496  0.0151647  -0.0270324  -0.0227686  -0.0165815  -0.0139034  0.0231022  0.0688883  -0.0586263  0.0277616  -0.380876  0.363106  0.0302059 
1701449747.531294000  0  0  11.2267  -0.100982  0.0783904  -0.0255742  nan  nan  nan  nan  nan  nan  -1.99733  -0.997329  1.49749  -0.131828  0.0589569  -0.0064758  0.0496872  0.0496766  -0.0424374  0  0  0  0.691571  0.689397  -0.451165  0.0151244  -0.0272074  -0.0226045  -0.0184891  -0.0146588  0.024253  0.0702307  -0.0612203  0.0281965  -0.444159  0.406446  0.0377126 
1701449747.536656000  0  0  11.2373  -0.101987  0.0857481  -0.0258216  nan  nan  nan  nan  nan  nan  -1.99707  -0.997072  1.49727  -0.136017  0.0631853  -0.00718861  0.0532192  0.053195  -0.0447058  0  0  0  0.721119  0.717818  -0.456084  0.0150854  -0.0273652  -0.0224658  -0.0200299  -0.0159457  0.0231598  0.071672  -0.0633638  0.0285724  -0.455408  0.41145  0.0370452 
1701449747.541278000  0  0  11.2691  -0.117559  0.078643  -0.0256767  nan  nan  nan  nan  nan  nan  -1.9968  -0.996797  1.49704  -0.138833  0.0680614  -0.00792739  0.0568972  0.0568535  -0.046997  0  0  0  0.749918  0.745488  -0.460253  0.0149719  -0.0274542  -0.0223668  -0.0224863  -0.016095  0.0203545  0.0724813  -0.0660607  0.0288628  -0.43171  0.450473  0.0323301 
1701449747.546291000  0  0  11.2583  -0.102527  0.057913  -0.0268316  nan  nan  nan  nan  nan  nan  -1.9965  -0.996503  1.4968  -0.142353  0.0727117  -0.00870813  0.0607172  0.0606486  -0.0493071  0  0  0  0.777966  0.772409  -0.463672  0.014895  -0.0276175  -0.0222318  -0.0245269  -0.0163811  0.0212453  0.0731583  -0.0678755  0.0293622  -0.468002  0.508628  0.0417734 
1701449747.551285000  0  0  11.2705  -0.0974187  0.0665331  -0.0266664  nan  nan  nan  nan  nan  nan  -1.99619  -0.99619  1.49655  -0.146417  0.0767919  -0.00947504  0.0646756  0.0645764  -0.0516324  0  0  0  0.805265  0.79858  -0.466341  0.0147786  -0.0277101  -0.0221309  -0.0260572  -0.0179671  0.0204092  0.0744023  -0.0696192  0.0297046  -0.489664  0.50743  0.0362832 
1701449747.556225000  0  0  11.3373  -0.108784  0.0563209  -0.0259588  nan  nan  nan  nan  nan  nan  -1.99586  -0.995857  1.49629  -0.149397  0.0811644  -0.0102241  0.0687686  0.0686331  -0.0539693  0  0  0  0.831813  0.824  -0.46826  0.0146791  -0.0278846  -0.0220529  -0.0285893  -0.0190106  0.015133  0.0749415  -0.0711897  0.0299584  -0.471894  0.542304  0.024902 
1701449747.561294000  0  0  11.2972  -0.102742  0.0302066  -0.0262001  nan  nan  nan  nan  nan  nan  -1.9955  -0.995504  1.49601  -0.152636  0.0854794  -0.0110073  0.0729924  0.0728151  -0.0563138  0  0  0  0.857612  0.848671  -0.469428  0.0145848  -0.0280458  -0.0219018  -0.0301952  -0.0187229  0.0187164  0.0754105  -0.0721595  0.0303106  -0.488294  0.603454  0.0243951 
1701449747.566293000  0  0  11.3301  -0.0800482  0.0291434  -0.0262868  nan  nan  nan  nan  nan  nan  -1.99513  -0.995129  1.49572  -0.156259  0.0889954  -0.0117225  0.0773434  0.0771186  -0.0586623  0  0  0  0.88266  0.872591  -0.469847  0.0144435  -0.0281506  -0.0218249  -0.0314776  -0.02037  0.0165503  0.0757757  -0.0727437  0.0305875  -0.53704  0.610955  0.0227101 
1701449747.571292000  0  0  11.4216  -0.104996  0.00506154  -0.0257857  nan  nan  nan  nan  nan  nan  -1.99473  -0.994732  1.49543  -0.158696  0.0928007  -0.0123916  0.0818178  0.0815398  -0.061011  0  0  0  0.906958  0.895762  -0.469516  0.0143274  -0.0283299  -0.0217863  -0.0339005  -0.0214991  0.00962406  0.0758324  -0.073036  0.0308273  -0.487665  0.661808  0.0140479 
1701449747.576236000  0  0  11.3934  -0.113647  -0.000390088  -0.0261998  nan  nan  nan  nan  nan  nan  -1.99431  -0.994313  1.49511  -0.16138  0.0970841  -0.0131752  0.0864118  0.086075  -0.0633562  0  0  0  0.930507  0.918183  -0.468435  0.0141563  -0.0284296  -0.0216818  -0.0357004  -0.021113  0.0125467  0.0760921  -0.0739531  0.0311404  -0.472754  0.681148  0.0160939 
1701449747.581292000  0  0  11.3998  -0.0765602  -0.00722422  -0.0272532  nan  nan  nan  nan  nan  nan  -1.99386  -0.993871  1.49479  -0.165336  0.100188  -0.0139124  0.0911216  0.0907204  -0.0656941  0  0  0  0.953305  0.939853  -0.466604  0.0140356  -0.0286193  -0.0215976  -0.0365785  -0.0228347  0.0129082  0.0764746  -0.0736606  0.0315766  -0.550446  0.692126  0.0248999 
1701449747.586293000  0  0  11.4697  -0.106041  -0.0129166  -0.0269148  nan  nan  nan  nan  nan  nan  -1.9934  -0.993406  1.49446  -0.167946  0.10366  -0.0145879  0.0959436  0.0954722  -0.068021  0  0  0  0.975354  0.960774  -0.464023  0.0139022  -0.0288049  -0.0215604  -0.0387211  -0.0241447  0.00806293  0.0767325  -0.0736566  0.031843  -0.493857  0.703474  0.0180043 
1701449747.591292000  0  0  11.4305  -0.11368  -0.0129439  -0.0262472  nan  nan  nan  nan  nan  nan  -1.9929  -0.992916  1.49411  -0.170863  0.10774  -0.0154139  0.100874  0.100327  -0.0703331  0  0  0  0.996652  0.980944  -0.460692  0.0137008  -0.028918  -0.0214677  -0.0403475  -0.0240629  0.0122135  0.0771679  -0.0743237  0.0320433  -0.482584  0.709666  0.00765677 
1701449747.596240000  0  0  11.461  -0.0767209  -0.0265998  -0.0268555  nan  nan  nan  nan  nan  nan  -1.99239  -0.992402  1.49375  -0.174148  0.111024  -0.0161613  0.105909  0.10528  -0.0726267  0  0  0  1.0172  1.00036  -0.456611  0.0135475  -0.0291166  -0.021401  -0.0419832  -0.0256524  0.0108842  0.0769336  -0.0739636  0.0323624  -0.554347  0.733665  0.0120698 
1701449747.601283000  0  0  11.5179  -0.0983988  -0.0121645  -0.0257126  nan  nan  nan  nan  nan  nan  -1.99184  -0.991864  1.49339  -0.176315  0.114271  -0.0167865  0.111045  0.110329  -0.074898  0  0  0  1.037  1.01904  -0.45178  0.0133296  -0.0292429  -0.0213871  -0.0438661  -0.0266303  0.00739093  0.0766088  -0.0739662  0.0323893  -0.508003  0.704818  -0.00248538 
1701449747.606279000  0  0  11.4846  -0.110084  -0.00928166  -0.0252395  nan  nan  nan  nan  nan  nan  -1.99128  -0.991299  1.49301  -0.179264  0.11791  -0.017585  0.116278  0.11547  -0.0771432  0  0  0  1.05605  1.03696  -0.446199  0.0131798  -0.0294426  -0.0212794  -0.045383  -0.0267662  0.0112774  0.0770474  -0.0742871  0.0325346  -0.488668  0.702005  -0.00985185 
1701449747.611702000  0  0  11.5198  -0.0814114  -0.032527  -0.0259217  nan  nan  nan  nan  nan  nan  -1.99068  -0.990709  1.49261  -0.181381  0.120847  -0.0181675  0.121604  0.120698  -0.0793587  0  0  0  1.07435  1.05413  -0.439868  0.0130246  -0.0296026  -0.0212184  -0.046926  -0.0273679  0.00975659  0.075736  -0.0730451  0.0327305  -0.533948  0.737068  -0.00328341 
1701449747.616262000  0  0  11.5195  -0.0924255  0.00699384  -0.0257979  nan  nan  nan  nan  nan  nan  -1.99006  -0.990092  1.49221  -0.184908  0.124008  -0.0189778  0.12702  0.12601  -0.0815406  0  0  0  1.09189  1.07055  -0.432787  0.012762  -0.0297895  -0.0211268  -0.048234  -0.0291204  0.0111224  0.0767579  -0.0739408  0.0329006  -0.521322  0.666268  -0.0065321 
1701449747.621232000  0  0  11.5488  -0.0926392  -0.00583289  -0.0254697  nan  nan  nan  nan  nan  nan  -1.98941  -0.989448  1.4918  -0.18695  0.127318  -0.0196382  0.132522  0.131402  -0.0836853  0  0  0  1.10869  1.08622  -0.424955  0.0125778  -0.0300189  -0.0210599  -0.0503611  -0.0295658  0.0101682  0.0760864  -0.0737746  0.0329747  -0.514717  0.690392  -0.0113757 
1701449747.626284000  0  0  11.5655  -0.0761054  -0.0257144  -0.0252749  nan  nan  nan  nan  nan  nan  -1.98873  -0.988778  1.49138  -0.188764  0.130159  -0.0201866  0.138105  0.13687  -0.0857889  0  0  0  1.12474  1.10114  -0.416374  0.0123287  -0.0301574  -0.0210135  -0.051642  -0.0297746  0.0103637  0.074862  -0.0728034  0.0329851  -0.53652  0.72122  -0.0139144 
1701449747.631279000  0  0  11.5674  -0.0722058  0.000508782  -0.0244926  nan  nan  nan  nan  nan  nan  -1.98803  -0.98808  1.49094  -0.191608  0.132688  -0.0208208  0.143768  0.142412  -0.0878478  0  0  0  1.14004  1.11531  -0.407043  0.0121251  -0.0303734  -0.0209256  -0.0525528  -0.0309324  0.0117866  0.0747074  -0.0726134  0.0329815  -0.542896  0.667026  -0.0236575 
1701449747.635283000  0  0  11.6327  -0.081949  -0.00561263  -0.0245069  nan  nan  nan  nan  nan  nan  -1.9873  -0.987354  1.4905  -0.193765  0.136596  -0.0216356  0.149505  0.148022  -0.0898581  0  0  0  1.15459  1.12873  -0.396962  0.0117593  -0.0306438  -0.0208298  -0.0559748  -0.0324899  0.00806376  0.0746934  -0.0737265  0.0330441  -0.523281  0.689509  -0.024105 
1701449747.641217000  0  0  11.6332  -0.0667278  -0.0253423  -0.0255321  nan  nan  nan  nan  nan  nan  -1.98653  -0.986599  1.49004  -0.194338  0.138502  -0.0218409  0.155312  0.153698  -0.0918162  0  0  0  1.16839  1.1414  -0.386131  0.0116102  -0.0307459  -0.0208102  -0.0562528  -0.0311853  0.00974627  0.0719707  -0.0713194  0.0330413  -0.528675  0.706823  -0.0112613 
1701449747.646266000  0  0  11.6424  -0.0524152  -0.00652055  -0.0260754  nan  nan  nan  nan  nan  nan  -1.98574  -0.985816  1.48958  -0.196805  0.140676  -0.0223704  0.161187  0.159435  -0.0937182  0  0  0  1.18144  1.15332  -0.37455  0.0113702  -0.0309527  -0.020726  -0.0570192  -0.0323454  0.0107904  0.0712843  -0.0706771  0.0331967  -0.550985  0.663271  -0.00602504 
1701449747.651265000  0  0  11.7331  -0.0690971  -0.0326835  -0.0257538  nan  nan  nan  nan  nan  nan  -1.98492  -0.985005  1.48911  -0.196906  0.143373  -0.0226581  0.167125  0.16523  -0.0955604  0  0  0  1.19373  1.16449  -0.362219  0.0110717  -0.0311109  -0.0207296  -0.0596624  -0.0324414  0.00522186  0.0691337  -0.0695377  0.0330512  -0.497836  0.705114  -0.00858978 
1701449747.656256000  0  0  11.7024  -0.0707935  -0.0271989  -0.0258835  nan  nan  nan  nan  nan  nan  -1.98407  -0.984164  1.48862  -0.199132  0.145557  -0.0231587  0.173123  0.171079  -0.0973391  0  0  0  1.20528  1.17491  -0.349138  0.0108065  -0.031336  -0.0206175  -0.0599446  -0.0326064  0.00956438  0.0687914  -0.0685804  0.0331387  -0.491294  0.685337  -0.00784377 
1701449747.661586000  0  0  11.72  -0.0512525  -0.028805  -0.02633  nan  nan  nan  nan  nan  nan  -1.98319  -0.983294  1.48813  -0.200988  0.147233  -0.0235045  0.179177  0.176978  -0.0990506  0  0  0  1.21608  1.18458  -0.335307  0.0105641  -0.0315227  -0.0205637  -0.0604588  -0.033535  0.0101518  0.0675131  -0.0669216  0.0332181  -0.518616  0.673288  -0.00305602 
1701449747.666271000  0  0  11.8099  -0.075488  -0.0446993  -0.0266558  nan  nan  nan  nan  nan  nan  -1.98228  -0.982394  1.48763  -0.201151  0.149518  -0.0237117  0.185283  0.182923  -0.100691  0  0  0  1.22613  1.1935  -0.320726  0.0102135  -0.0317346  -0.0205384  -0.0628045  -0.0339347  0.0047504  0.0659157  -0.0657665  0.0331547  -0.455448  0.694451  0.00165026 
1701449747.671271000  0  0  11.7569  -0.0728069  -0.0358679  -0.0264422  nan  nan  nan  nan  nan  nan  -1.98134  -0.981465  1.48713  -0.203647  0.151506  -0.0242197  0.191437  0.188912  -0.102257  0  0  0  1.23543  1.20167  -0.305395  0.00992649  -0.0319748  -0.0204234  -0.0626967  -0.0342162  0.0111247  0.0659855  -0.0648201  0.0332664  -0.461453  0.66808  -0.00213681 
1701449747.676262000  0  0  11.8508  -0.0530691  -0.0479855  -0.0256517  nan  nan  nan  nan  nan  nan  -1.98037  -0.980505  1.48661  -0.204085  0.152908  -0.0242846  0.197636  0.194939  -0.103744  0  0  0  1.24398  1.20909  -0.289314  0.00960741  -0.0321555  -0.0204153  -0.0642346  -0.0353774  0.00561174  0.063804  -0.0628184  0.0330085  -0.480859  0.6739  -0.00943978 
1701449747.681272000  0  0  11.8802  -0.0922436  -0.0478271  -0.0244866  nan  nan  nan  nan  nan  nan  -1.97936  -0.979515  1.48609  -0.204656  0.154508  -0.0244062  0.203876  0.201001  -0.105148  0  0  0  1.25177  1.21576  -0.272482  0.00929706  -0.0323993  -0.0203373  -0.0650917  -0.0352539  0.00519134  0.0629663  -0.0612768  0.0327488  -0.394802  0.659401  -0.0214058 
1701449747.686217000  0  0  11.8485  -0.0908581  -0.0469791  -0.0250288  nan  nan  nan  nan  nan  nan  -1.97833  -0.978495  1.48556  -0.206531  0.156605  -0.0248375  0.210152  0.207095  -0.106467  0  0  0  1.25882  1.22169  -0.254901  0.00897172  -0.0326893  -0.0201956  -0.065668  -0.0353898  0.0099254  0.0627275  -0.0604141  0.0328041  -0.395376  0.649768  -0.015182 
1701449747.691268000  0  0  11.9267  -0.0822117  -0.0524857  -0.0255913  nan  nan  nan  nan  nan  nan  -1.97726  -0.977444  1.48502  -0.206695  0.157462  -0.024732  0.216463  0.213217  -0.107696  0  0  0  1.26512  1.22686  -0.23657  0.00864534  -0.0328651  -0.020187  -0.0665207  -0.0362261  0.00577289  0.0608123  -0.0580514  0.0326246  -0.39505  0.639045  -0.00635498 
1701449747.696263000  0  0  11.9383  -0.106161  -0.0413243  -0.0255191  nan  nan  nan  nan  nan  nan  -1.97616  -0.976363  1.48448  -0.20725  0.158888  -0.0248028  0.222802  0.219362  -0.108833  0  0  0  1.27067  1.23128  -0.218113  0.00829827  -0.0331137  -0.0200977  -0.0670577  -0.0359926  0.00688809  0.0600082  -0.0567839  0.0325022  -0.339753  0.60506  -0.00603277 
1701449747.701269000  0  0  11.9344  -0.0909912  -0.0674539  -0.0255343  nan  nan  nan  nan  nan  nan  -1.97503  -0.975251  1.48394  -0.207647  0.160582  -0.0248985  0.229168  0.225528  -0.109879  0  0  0  1.27547  1.23495  -0.2004  0.00796262  -0.0332864  -0.0200432  -0.0677797  -0.0354391  0.00933209  0.0584833  -0.0550348  0.0323335  -0.356064  0.641228  -0.00415678 
1701449747.706217000  0  0  11.9716  -0.0978599  -0.0592126  -0.0252995  nan  nan  nan  nan  nan  nan  -1.97387  -0.974107  1.48338  -0.208742  0.161463  -0.0249372  0.235556  0.231711  -0.110838  0  0  0  1.27952  1.23787  -0.183438  0.00759284  -0.033578  -0.019931  -0.0682102  -0.0366112  0.00822303  0.0579823  -0.0532236  0.0322368  -0.337717  0.608082  -0.00612409 
1701449747.711689000  0  0  11.991  -0.112078  -0.0457231  -0.0247781  nan  nan  nan  nan  nan  nan  -1.97268  -0.972933  1.48283  -0.208459  0.16194  -0.0246547  0.241962  0.237906  -0.111714  0  0  0  1.28282  1.24004  -0.167225  0.00732334  -0.0337513  -0.0198989  -0.0680344  -0.0360071  0.00837175  0.0564453  -0.0510422  0.0318843  -0.295141  0.561035  -0.00911668 
1701449747.716264000  0  0  12.0085  -0.0952974  -0.0718592  -0.0252995  nan  nan  nan  nan  nan  nan  -1.97145  -0.971728  1.48227  -0.208529  0.163723  -0.0246978  0.248383  0.24411  -0.112511  0  0  0  1.28536  1.24146  -0.151762  0.00689828  -0.0340113  -0.0198093  -0.0693583  -0.0356234  0.00872383  0.054862  -0.0497259  0.0317168  -0.314136  0.601197  -0.00092433 
1701449747.721258000  0  0  12.0287  -0.0965856  -0.0438035  -0.0238932  nan  nan  nan  nan  nan  nan  -1.97019  -0.970492  1.4817  -0.208742  0.163775  -0.0243979  0.254814  0.250319  -0.113233  0  0  0  1.28716  1.24213  -0.137049  0.00655792  -0.0341951  -0.0197588  -0.0686854  -0.0358849  0.00862675  0.0536812  -0.0475612  0.0312863  -0.300695  0.52517  -0.0141984 
1701449747.726229000  0  0  12.0513  -0.100515  -0.045436  -0.0227933  nan  nan  nan  nan  nan  nan  -1.9689  -0.969225  1.48113  -0.208588  0.164755  -0.0242231  0.261253  0.25653  -0.113883  0  0  0  1.28821  1.24205  -0.123086  0.00619395  -0.0344613  -0.0196576  -0.0693477  -0.0355822  0.0082117  0.0522984  -0.0460946  0.030808  -0.280116  0.514942  -0.0231631 
1701449747.731282000  0  0  12.0727  -0.081234  -0.0813213  -0.0227147  nan  nan  nan  nan  nan  nan  -1.96758  -0.967927  1.48056  -0.208021  0.165655  -0.0239536  0.267695  0.262738  -0.114465  0  0  0  1.28851  1.24122  -0.109873  0.00580749  -0.0347258  -0.0195601  -0.0698954  -0.0348091  0.00781265  0.0500961  -0.0437302  0.0304211  -0.298416  0.564961  -0.0202768 
1701449747.736277000  0  0  12.0447  -0.0792702  -0.0482001  -0.0223459  nan  nan  nan  nan  nan  nan  -1.96623  -0.966598  1.47999  -0.208764  0.16626  -0.0238422  0.274137  0.268941  -0.114983  0  0  0  1.28806  1.23964  -0.0974106  0.00541205  -0.0350056  -0.0194175  -0.0692797  -0.0347204  0.0113102  0.0493729  -0.0425296  0.03013  -0.29569  0.487673  -0.0219756 
1701449747.741283000  0  0  12.1314  -0.0746156  -0.0575045  -0.0221077  nan  nan  nan  nan  nan  nan  -1.96484  -0.965238  1.47941  -0.207039  0.16662  -0.0232469  0.280575  0.275134  -0.115441  0  0  0  1.28686  1.23731  -0.0856977  0.00505136  -0.035179  -0.0194133  -0.070523  -0.0343763  0.00538397  0.04649  -0.0403707  0.0294757  -0.278477  0.486419  -0.0184112 
1701449747.746285000  0  0  12.1323  -0.0671145  -0.0698823  -0.0226796  nan  nan  nan  nan  nan  nan  -1.96342  -0.963847  1.47884  -0.206663  0.167173  -0.0229182  0.287004  0.281313  -0.115841  0  0  0  1.2849  1.23423  -0.0747349  0.00464428  -0.0354513  -0.0193086  -0.0704912  -0.0337091  0.0063195  0.0447565  -0.0384264  0.0291704  -0.277531  0.493288  -0.00820909 
1701449747.751268000  0  0  12.1292  -0.0642083  -0.0496659  -0.0231339  nan  nan  nan  nan  nan  nan  -1.96197  -0.962425  1.47826  -0.206098  0.167201  -0.0224414  0.293422  0.287475  -0.116189  0  0  0  1.2822  1.2304  -0.0645221  0.00429592  -0.0356223  -0.0192528  -0.06989  -0.0330734  0.00747725  0.0430032  -0.0365727  0.0288043  -0.267213  0.435801  0.00113064 
1701449747.756272000  0  0  12.1833  -0.0659379  -0.0477742  -0.0233831  nan  nan  nan  nan  nan  nan  -1.96049  -0.960972  1.47767  -0.205165  0.167795  -0.0220108  0.299825  0.293615  -0.116488  0  0  0  1.27875  1.22582  -0.0550592  0.00385159  -0.0359088  -0.0191591  -0.0710027  -0.0330455  0.00387595  0.0410524  -0.0352455  0.0284552  -0.245807  0.419807  0.00773615 
1701449747.760225000  0  0  12.2099  -0.0702592  -0.0512175  -0.0242391  nan  nan  nan  nan  nan  nan  -1.95897  -0.959488  1.47709  -0.205423  0.16888  -0.0218813  0.306209  0.299732  -0.116741  0  0  0  1.27455  1.22049  -0.0463464  0.00324863  -0.0363515  -0.019027  -0.0720759  -0.0336727  0.00257743  0.0404865  -0.0346239  0.0283174  -0.231957  0.420975  0.0198151 
1701449747.766287000  0  0  12.1872  -0.0681644  -0.0493062  -0.0247373  nan  nan  nan  nan  nan  nan  -1.95742  -0.957975  1.47651  -0.203554  0.167919  -0.0209557  0.312569  0.305819  -0.116953  0  0  0  1.2696  1.21441  -0.0383835  0.00304703  -0.0363385  -0.0190213  -0.0703165  -0.0316777  0.00483855  0.0376406  -0.0314565  0.02797  -0.209964  0.388012  0.0295161 
1701449747.771256000  0  0  12.2096  -0.0787463  -0.0415185  -0.0238327  nan  nan  nan  nan  nan  nan  -1.95585  -0.95643  1.47592  -0.202705  0.168176  -0.0204505  0.318903  0.311874  -0.117126  0  0  0  1.2639  1.20759  -0.0311707  0.00258075  -0.0366464  -0.018891  -0.0706311  -0.0313243  0.00341875  0.0362478  -0.0301822  0.0275865  -0.175988  0.360713  0.0220439 
1701449747.776259000  0  0  12.2  -0.0735008  -0.0593346  -0.0228285  nan  nan  nan  nan  nan  nan  -1.95424  -0.954856  1.47534  -0.20136  0.167769  -0.0197188  0.325207  0.317894  -0.117265  0  0  0  1.25745  1.20001  -0.0247079  0.00223336  -0.0367974  -0.0188625  -0.0697773  -0.0301084  0.00455833  0.0342641  -0.0276547  0.0270209  -0.168228  0.373093  0.0151476 
1701449747.781273000  0  0  12.2075  -0.0864455  -0.0567476  -0.021271  nan  nan  nan  nan  nan  nan  -1.95259  -0.953251  1.47475  -0.200925  0.167664  -0.0192003  0.331477  0.323873  -0.117374  0  0  0  1.25024  1.19168  -0.018995  0.0017744  -0.0370885  -0.0187522  -0.0695447  -0.0302233  0.00424597  0.0334889  -0.0259934  0.0264931  -0.135207  0.352634  0.000955766 
1701449747.786206000  0  0  12.2249  -0.0957718  -0.0496736  -0.0199419  nan  nan  nan  nan  nan  nan  -1.95092  -0.951617  1.47416  -0.199029  0.166605  -0.0182329  0.337708  0.329809  -0.117457  0  0  0  1.24229  1.1826  -0.0140322  0.00141774  -0.0372549  -0.0187287  -0.068466  -0.0290938  0.0028393  0.0316287  -0.0234956  0.0256761  -0.0994399  0.315507  -0.0074873 
1701449747.791265000  0  0  12.187  -0.0938937  -0.0608716  -0.0204196  nan  nan  nan  nan  nan  nan  -1.94922  -0.949953  1.47357  -0.19796  0.166731  -0.0176391  0.343898  0.335698  -0.117516  0  0  0  1.23359  1.17277  -0.0098193  0.000991968  -0.0374833  -0.0186187  -0.0679557  -0.0277236  0.00596569  0.0302427  -0.0219418  0.0252484  -0.0904449  0.323608  0.00276076 
1701449747.796265000  0  0  12.1758  -0.112545  -0.0491113  -0.01978  nan  nan  nan  nan  nan  nan  -1.94748  -0.94826  1.47299  -0.197157  0.166257  -0.0169669  0.350043  0.341536  -0.117556  0  0  0  1.22414  1.16219  -0.0063565  0.000531378  -0.0377497  -0.0185021  -0.067157  -0.027341  0.00676993  0.029673  -0.0203639  0.0247379  -0.0479006  0.28557  -0.000128927 
1701449747.801278000  0  0  12.2125  -0.111121  -0.0446786  -0.0192345  nan  nan  nan  nan  nan  nan  -1.94572  -0.946538  1.4724  -0.194739  0.164853  -0.0158315  0.356138  0.347319  -0.117581  0  0  0  1.21394  1.15086  -0.0036437  0.000204042  -0.0378822  -0.0185012  -0.0663096  -0.0263299  0.00348246  0.0274961  -0.0177659  0.0239333  -0.0307214  0.252804  0.00109798 
1701449747.806408000  0  0  12.21  -0.0997031  -0.0689805  -0.0198054  nan  nan  nan  nan  nan  nan  -1.94392  -0.944787  1.47181  -0.193147  0.164418  -0.0150235  0.362181  0.353043  -0.117594  0  0  0  1.20299  1.13878  -0.0016808  -0.000220131  -0.0381128  -0.0183959  -0.0659739  -0.025373  0.00335222  0.0258076  -0.0156364  0.0234771  -0.0380235  0.281816  0.0127969 
1701449747.811229000  0  0  12.1859  -0.102468  -0.0652414  -0.0192119  nan  nan  nan  nan  nan  nan  -1.94209  -0.943008  1.47122  -0.191326  0.163077  -0.0139991  0.368167  0.358705  -0.117599  0  0  0  1.19128  1.12595  -0.000468  -0.000598215  -0.0382934  -0.0183398  -0.0642127  -0.0239318  0.00480906  0.0242487  -0.0131089  0.0228036  -0.0181519  0.251085  0.0121129 
1701449747.816218000  0  0  12.2195  -0.101879  -0.0623241  -0.0188105  nan  nan  nan  nan  nan  nan  -1.94024  -0.9412  1.47063  -0.189322  0.16262  -0.0131099  0.374093  0.364301  -0.1176  0  0  0  1.17883  1.11237  -5.1e-06  -0.00106581  -0.0385546  -0.0182487  -0.0645948  -0.0233223  0.00155111  0.0225276  -0.01166  0.0221638  -0.00349672  0.23192  0.0134938 
1701449747.821265000  0  0  12.1996  -0.096275  -0.0779867  -0.0188504  nan  nan  nan  nan  nan  nan  -1.93835  -0.939365  1.47005  -0.18759  0.16164  -0.0121644  0.379954  0.369828  -0.1176  0  0  0  1.16563  1.09804  -0  -0.00150993  -0.0387858  -0.0181423  -0.0634604  -0.0221487  0.00251396  0.0210057  -0.00931271  0.0216477  -0.000702344  0.24165  0.0191529 
1701449747.826282000  0  0  12.1655  -0.0970762  -0.0761768  -0.0179326  nan  nan  nan  nan  nan  nan  -1.93644  -0.937502  1.46946  -0.185088  0.159681  -0.0109079  0.385748  0.37528  -0.1176  0  0  0  1.15168  1.08296  -0  -0.00180733  -0.0388843  -0.0181093  -0.0611619  -0.0201398  0.00448336  0.0189935  -0.00629611  0.0208441  0.0194119  0.210278  0.0157161 
1701449747.831227000  0  0  12.1989  -0.0939622  -0.0851576  -0.0176179  nan  nan  nan  nan  nan  nan  -1.9345  -0.935612  1.46887  -0.182871  0.159136  -0.0099596  0.39147  0.380656  -0.1176  0  0  0  1.13698  1.06713  -0  -0.00230578  -0.0391557  -0.0179958  -0.0616389  -0.0195039  0.00109097  0.0171914  -0.0046863  0.0201973  0.0297631  0.213429  0.018251 
1701449747.836632000  0  0  12.1568  -0.0901653  -0.0943607  -0.0172307  nan  nan  nan  nan  nan  nan  -1.93252  -0.933696  1.46828  -0.180343  0.156665  -0.00861072  0.397116  0.385951  -0.1176  0  0  0  1.12153  1.05055  -0  -0.00258445  -0.0392173  -0.0179191  -0.0587666  -0.0176112  0.00353563  0.0152382  -0.00111616  0.0194922  0.0401393  0.19899  0.0204608 
1701449747.841262000  0  0  12.127  -0.0945243  -0.0859719  -0.0165578  nan  nan  nan  nan  nan  nan  -1.93053  -0.931753  1.46769  -0.178206  0.155179  -0.00750555  0.402684  0.39116  -0.1176  0  0  0  1.10533  1.03322  -0  -0.00299107  -0.0394394  -0.0178402  -0.0572855  -0.0161734  0.00519677  0.0137683  0.00100299  0.0187451  0.0623803  0.162716  0.0195213 
1701449747.846258000  0  0  12.1465  -0.0947479  -0.098097  -0.0162516  nan  nan  nan  nan  nan  nan  -1.9285  -0.929784  1.46711  -0.175456  0.153791  -0.0063214  0.408168  0.396282  -0.1176  0  0  0  1.08837  1.01514  -0  -0.00341831  -0.0396542  -0.0177409  -0.0568293  -0.0150112  0.00273657  0.0118005  0.00329233  0.0180117  0.080931  0.165904  0.0230288 
1701449747.851259000  0  0  12.1009  -0.0934902  -0.0905336  -0.0153898  nan  nan  nan  nan  nan  nan  -1.92644  -0.92779  1.46652  -0.172539  0.150942  -0.00486109  0.413566  0.40131  -0.1176  0  0  0  1.07067  0.996314  -0  -0.00369232  -0.0397233  -0.0176971  -0.0537502  -0.0128625  0.00541249  0.00977292  0.00667656  0.0171585  0.0970696  0.119643  0.0207875 
1701449747.856269000  0  0  12.1023  -0.0909726  -0.100519  -0.0148107  nan  nan  nan  nan  nan  nan  -1.92436  -0.925771  1.46593  -0.169829  0.149385  -0.0036624  0.418874  0.406243  -0.1176  0  0  0  1.05222  0.976735  -0  -0.00410539  -0.0399156  -0.0175719  -0.0530045  -0.0116481  0.00434529  0.00792922  0.00887339  0.016388  0.108996  0.119403  0.0212538 
1701449747.861273000  0  0  12.1013  -0.0999641  -0.0991895  -0.0141525  nan  nan  nan  nan  nan  nan  -1.92225  -0.923728  1.46534  -0.167164  0.147691  -0.00244999  0.424087  0.411077  -0.1176  0  0  0  1.03302  0.956405  -0  -0.00453493  -0.040139  -0.0174392  -0.0520997  -0.0104733  0.00344923  0.00646742  0.0109282  0.0155974  0.140428  0.0978398  0.0209329 
1701449747.866267000  0  0  12.0592  -0.0974108  -0.0879184  -0.0135221  nan  nan  nan  nan  nan  nan  -1.92012  -0.921661  1.46475  -0.16385  0.144588  -0.000913788  0.429203  0.415806  -0.1176  0  0  0  1.01307  0.935326  -0  -0.00478234  -0.0401883  -0.0173949  -0.0491577  -0.00824144  0.00575438  0.00432064  0.0141164  0.0146974  0.155072  0.0459656  0.0220523 
1701449747.871265000  0  0  12.0847  -0.104073  -0.0917833  -0.0135661  nan  nan  nan  nan  nan  nan  -1.91796  -0.91957  1.46417  -0.160774  0.14322  0.000294784  0.434217  0.420429  -0.1176  0  0  0  0.992366  0.913497  -0  -0.00523169  -0.040407  -0.0172632  -0.0492795  -0.0071964  0.00269747  0.00259136  0.0156271  0.0139357  0.184305  0.0397974  0.030219 
1701449747.876217000  0  0  12.0629  -0.103052  -0.0856264  -0.0133612  nan  nan  nan  nan  nan  nan  -1.91578  -0.917457  1.46358  -0.157121  0.139796  0.00190677  0.439125  0.42494  -0.1176  0  0  0  0.970915  0.890917  -0  -0.00548187  -0.0404584  -0.0172304  -0.046449  -0.00508322  0.0032977  0.00035796  0.0189868  0.0130849  0.202811  -0.00342593  0.0361658 
1701449747.881260000  0  0  12.0337  -0.0992883  -0.0766607  -0.012954  nan  nan  nan  nan  nan  nan  -1.91357  -0.915321  1.46299  -0.153948  0.137577  0.00324737  0.443924  0.429336  -0.1176  0  0  0  0.948713  0.867588  -0  -0.00585944  -0.0405824  -0.0171039  -0.0449591  -0.00336422  0.00459157  -0.0014211  0.0207776  0.0123324  0.211651  -0.0378329  0.0386008 
1701449747.886254000  0  0  12.0311  -0.10018  -0.0829486  -0.0122992  nan  nan  nan  nan  nan  nan  -1.91134  -0.913163  1.4624  -0.150511  0.135526  0.00459081  0.448611  0.433615  -0.1176  0  0  0  0.925762  0.843508  -0  -0.00625326  -0.0407444  -0.0169792  -0.0441729  -0.00177017  0.00369879  -0.00331414  0.0226343  0.0115151  0.230851  -0.0423386  0.0385881 
1701449747.891205000  0  0  11.9702  -0.0992738  -0.0664375  -0.0110306  nan  nan  nan  nan  nan  nan  -1.90909  -0.910985  1.46181  -0.146724  0.131686  0.0062353  0.453181  0.43777  -0.1176  0  0  0  0.90206  0.818679  -0  -0.00647386  -0.0407674  -0.0169172  -0.0406539  0.000799213  0.0074069  -0.00546626  0.0257312  0.010543  0.248837  -0.103852  0.0324522 
1701449747.896254000  0  0  11.9826  -0.0913981  -0.0666816  -0.010828  nan  nan  nan  nan  nan  nan  -1.90681  -0.908786  1.46123  -0.143051  0.129501  0.00760529  0.45763  0.4418  -0.1176  0  0  0  0.877609  0.793099  -0  -0.00687739  -0.0409113  -0.0167875  -0.0401089  0.00222611  0.0052593  -0.00757366  0.0271813  0.00971639  0.252474  -0.116704  0.038186 
1701449747.901276000  0  0  11.9833  -0.0870296  -0.084632  -0.0105541  nan  nan  nan  nan  nan  nan  -1.90451  -0.906567  1.46064  -0.138012  0.125729  0.00936014  0.461956  0.4457  -0.1176  0  0  0  0.852407  0.76677  -0  -0.00706761  -0.0408822  -0.0167729  -0.0378855  0.00511836  0.00387248  -0.010799  0.0306921  0.00872756  0.27341  -0.113103  0.0446509 
1701449747.906264000  0  0  11.9052  -0.0846479  -0.0705295  -0.0103027  nan  nan  nan  nan  nan  nan  -1.90219  -0.904329  1.46005  -0.134813  0.123119  0.0106979  0.466153  0.449467  -0.1176  0  0  0  0.826455  0.739691  -0  -0.00749105  -0.0410264  -0.0165642  -0.0357169  0.00714385  0.00902323  -0.0122897  0.0321415  0.00803068  0.282361  -0.154643  0.0484774 
1701449747.911291000  0  0  11.974  -0.0811933  -0.0815548  -0.00911562  nan  nan  nan  nan  nan  nan  -1.89985  -0.902073  1.45946  -0.129414  0.11916  0.0124683  0.470219  0.453096  -0.1176  0  0  0  0.799754  0.711861  -0  -0.00766513  -0.0409782  -0.0165865  -0.0344231  0.00928036  0.00209352  -0.0157187  0.0354471  0.00692866  0.306999  -0.163004  0.0446587 
1701449747.916266000  0  0  11.9336  -0.0788044  -0.0839576  -0.00827483  nan  nan  nan  nan  nan  nan  -1.89749  -0.899798  1.45887  -0.125327  0.116249  0.0139167  0.474149  0.456584  -0.1176  0  0  0  0.772302  0.683282  -0  -0.00805739  -0.0410599  -0.0164368  -0.0326913  0.0115452  0.00415023  -0.0178697  0.0373796  0.00604954  0.32201  -0.175977  0.04294 
1701449747.921219000  0  0  11.8929  -0.0785115  -0.0720788  -0.00828042  nan  nan  nan  nan  nan  nan  -1.89511  -0.897507  1.45829  -0.122075  0.113637  0.0152148  0.477941  0.459927  -0.1176  0  0  0  0.744101  0.653952  -0  -0.00853539  -0.0412247  -0.016251  -0.0312741  0.0128071  0.00634951  -0.0191492  0.0385494  0.00537903  0.333195  -0.210497  0.0497149 
1701449747.926282000  0  0  11.9744  -0.0833557  -0.079713  -0.00732656  nan  nan  nan  nan  nan  nan  -1.89271  -0.895199  1.4577  -0.116387  0.109056  0.0170042  0.481589  0.463122  -0.1176  0  0  0  0.715149  0.623873  -0  -0.00867109  -0.0411316  -0.0162966  -0.0296608  0.0149181  -0.00164134  -0.0224025  0.042045  0.00429953  0.372814  -0.227388  0.0485868 
1701449747.931280000  0  0  11.9208  -0.080287  -0.0777916  -0.00699316  nan  nan  nan  nan  nan  nan  -1.89029  -0.892876  1.45711  -0.112473  0.10568  0.0184242  0.485091  0.466166  -0.1176  0  0  0  0.685448  0.593663  -0  -0.00904162  -0.0412073  -0.016145  -0.0275752  0.0169023  0.00153487  -0.0241024  0.0439428  0.00352156  0.382316  -0.248691  0.0521989 
1701449747.936689000  0  0  11.9138  -0.0785464  -0.0744353  -0.00604594  nan  nan  nan  nan  nan  nan  -1.88786  -0.890538  1.45652  -0.108009  0.102113  0.0199011  0.488442  0.46906  -0.1176  0  0  0  0.654996  0.564197  -0  -0.00928784  -0.0411071  -0.0160505  -0.0261873  0.0187146  0.00094409  -0.0260686  0.0457042  0.00264873  0.396924  -0.271608  0.049087 
1701449747.941296000  0  0  11.9814  -0.0987246  -0.0758813  -0.0046711  nan  nan  nan  nan  nan  nan  -1.88541  -0.888186  1.45593  -0.103282  0.0978994  0.0214447  0.49164  0.471809  -0.1176  0  0  0  0.624115  0.535481  -0  -0.00960486  -0.0412053  -0.0160532  -0.024661  0.0205483  -0.0057308  -0.0280517  0.0485201  0.00161104  0.455525  -0.294622  0.0422784 
1701449747.946217000  0  0  11.9546  -0.096636  -0.0853683  -0.00436042  nan  nan  nan  nan  nan  nan  -1.88294  -0.88582  1.45535  -0.0992664  0.0939412  0.0228617  0.494685  0.474416  -0.1176  0  0  0  0.593893  0.507515  -0  -0.00990631  -0.0412493  -0.0159878  -0.0223941  0.0225764  -0.00459246  -0.0295009  0.0509645  0.000803964  0.46468  -0.298136  0.0464657 
1701449747.951270000  0  0  11.9479  -0.104861  -0.0877975  -0.00434088  nan  nan  nan  nan  nan  nan  -1.88046  -0.883442  1.45476  -0.0944508  0.0889536  0.0244225  0.49758  0.476885  -0.1176  0  0  0  0.564421  0.480298  -0  -0.00998629  -0.041106  -0.0160088  -0.0194134  0.025129  -0.00513896  -0.0314079  0.0542719  -1.60509e-05  0.498675  -0.323706  0.0544216 
1701449747.956739000  0  0  11.9862  -0.121551  -0.0854463  -0.00358706  nan  nan  nan  nan  nan  nan  -1.87797  -0.881052  1.45417  -0.0895378  0.0848902  0.0258666  0.50033  0.47922  -0.1176  0  0  0  0.535699  0.453832  -0  -0.0101241  -0.0408922  -0.0160188  -0.0178601  0.0273024  -0.00923809  -0.0327811  0.0561574  -0.000869325  0.544688  -0.345755  0.0535315 
1701449747.961210000  0  0  11.9522  -0.116863  -0.0881081  -0.00329867  nan  nan  nan  nan  nan  nan  -1.87546  -0.87865  1.45358  -0.0869803  0.0823809  0.0269501  0.502938  0.481425  -0.1176  0  0  0  0.507727  0.428116  -0  -0.0107196  -0.0411791  -0.0158643  -0.0165165  0.0283173  -0.0072241  -0.0328454  0.0569563  -0.00149305  0.535904  -0.347781  0.0561639 
1701449747.966277000  0  0  11.9472  -0.138201  -0.0863505  -0.00232487  nan  nan  nan  nan  nan  nan  -1.87294  -0.876237  1.45299  -0.0823038  0.077523  0.0283902  0.505409  0.483503  -0.1176  0  0  0  0.480505  0.40315  -0  -0.0107642  -0.0409992  -0.0159037  -0.0135422  0.0309429  -0.00771101  -0.0340229  0.0597937  -0.00238269  0.589413  -0.377401  0.0528878 
1701449747.971282000  0  0  11.9719  -0.14367  -0.0815619  -0.00189598  nan  nan  nan  nan  nan  nan  -1.8704  -0.873815  1.45241  -0.0785959  0.0744529  0.0295797  0.507745  0.485458  -0.1176  0  0  0  0.454033  0.378934  -0  -0.0110915  -0.041001  -0.0158778  -0.0124224  0.0325058  -0.010404  -0.0344058  0.0605948  -0.00312373  0.603874  -0.394349  0.054937 
1701449747.976275000  0  0  11.9469  -0.126748  -0.0910744  -0.0018964  nan  nan  nan  nan  nan  nan  -1.86786  -0.871383  1.45182  -0.0741022  0.0696893  0.0309342  0.50995  0.487293  -0.1176  0  0  0  0.428311  0.355468  -0  -0.011145  -0.0408354  -0.0159068  -0.00921911  0.0353306  -0.00917908  -0.0360202  0.0633952  -0.00384164  0.584882  -0.401087  0.0621214 
1701449747.981219000  0  0  11.9301  -0.141738  -0.072023  -0.000286402  nan  nan  nan  nan  nan  nan  -1.8653  -0.868942  1.45123  -0.0705757  0.0665417  0.032075  0.512029  0.489014  -0.1176  0  0  0  0.403339  0.332751  -0  -0.011472  -0.0408336  -0.0158437  -0.00749351  0.0372339  -0.00841578  -0.036133  0.0638712  -0.00467522  0.6159  -0.443569  0.0503322 
1701449747.986269000  0  0  11.9463  -0.138198  -0.0687596  0.00112967  nan  nan  nan  nan  nan  nan  -1.86274  -0.866493  1.45064  -0.066966  0.0636162  0.03319  0.513985  0.490622  -0.1176  0  0  0  0.379117  0.310785  -0  -0.0117514  -0.0407723  -0.0158234  -0.00631973  0.0389477  -0.01028  -0.0365406  0.0642309  -0.00554817  0.61257  -0.453405  0.0413608 
1701449747.991218000  0  0  11.9362  -0.123101  -0.0800027  0.00142721  nan  nan  nan  nan  nan  nan  -1.86017  -0.864036  1.45005  -0.0627488  0.0591082  0.0344263  0.515821  0.492123  -0.1176  0  0  0  0.355645  0.289569  -0  -0.0117988  -0.0406001  -0.0158582  -0.00332816  0.0415809  -0.0101189  -0.0379172  0.0665698  -0.00632314  0.59504  -0.452437  0.0453913 
1701449747.996219000  0  0  11.9181  -0.136385  -0.0568225  0.00240948  nan  nan  nan  nan  nan  nan  -1.85758  -0.861572  1.44947  -0.0592053  0.0561185  0.035504  0.517543  0.493519  -0.1176  0  0  0  0.332923  0.269103  -0  -0.0120606  -0.0405308  -0.0158213  -0.00170454  0.0436659  -0.00907533  -0.0380336  0.0665567  -0.00713236  0.622678  -0.498676  0.0412051 
1701449748.001310000  0  0  11.9402  -0.11824  -0.0671972  0.00249302  nan  nan  nan  nan  nan  nan  -1.85499  -0.859101  1.44888  -0.0550977  0.0518617  0.0366664  0.519152  0.494815  -0.1176  0  0  0  0.310951  0.249387  -0  -0.0120199  -0.040263  -0.0158954  0.000742628  0.0459358  -0.0113927  -0.0392107  0.0683376  -0.00785607  0.597218  -0.494312  0.0473979 
1701449748.006272000  0  0  11.9287  -0.124624  -0.0590086  0.00302949  nan  nan  nan  nan  nan  nan  -1.85239  -0.856624  1.44829  -0.0520201  0.04952  0.0376513  0.520653  0.496014  -0.1176  0  0  0  0.28973  0.230421  -0  -0.0123458  -0.0402192  -0.0158402  0.00180304  0.0475977  -0.010795  -0.0390764  0.0678756  -0.00855931  0.608752  -0.506438  0.0477245 
1701449748.011211000  0  0  11.927  -0.130842  -0.0512347  0.00401609  nan  nan  nan  nan  nan  nan  -1.84978  -0.854141  1.4477  -0.0480478  0.045308  0.0387601  0.522051  0.49712  -0.1176  0  0  0  0.269258  0.212205  -0  -0.0123662  -0.0400094  -0.0158823  0.00464902  0.0501956  -0.0110825  -0.0397565  0.0692187  -0.00937794  0.627443  -0.534342  0.0435783 
1701449748.016225000  0  0  11.949  -0.122624  -0.0525239  0.00478155  nan  nan  nan  nan  nan  nan  -1.84717  -0.851653  1.44711  -0.0451383  0.0429617  0.0397137  0.523347  0.498137  -0.1176  0  0  0  0.249536  0.194738  -0  -0.0125791  -0.0398963  -0.0158647  0.0054867  0.0515037  -0.013159  -0.0396791  0.068811  -0.0101131  0.610295  -0.528013  0.041362 
1701449748.021206000  0  0  11.9415  -0.145806  -0.0319655  0.00609808  nan  nan  nan  nan  nan  nan  -1.84455  -0.84916  1.44653  -0.0421857  0.040846  0.0406518  0.524547  0.499069  -0.1176  0  0  0  0.230564  0.178022  -0  -0.0128495  -0.0397954  -0.0158487  0.0063763  0.0531503  -0.0126788  -0.0390133  0.0677094  -0.010957  0.650534  -0.558995  0.0333438 
1701449748.026257000  0  0  11.955  -0.142161  -0.0292771  0.00712847  nan  nan  nan  nan  nan  nan  -1.84192  -0.846662  1.44594  -0.0386188  0.0369524  0.0416762  0.525654  0.499919  -0.1176  0  0  0  0.212342  0.162056  -0  -0.0127914  -0.0395003  -0.0159231  0.00885963  0.0552681  -0.0140223  -0.0393184  0.0685666  -0.0118177  0.646051  -0.572259  0.0290714 
1701449748.031213000  0  0  11.9768  -0.138147  -0.0325867  0.00785472  nan  nan  nan  nan  nan  nan  -1.83929  -0.844161  1.44535  -0.0359017  0.0348993  0.0425848  0.526672  0.500691  -0.1176  0  0  0  0.19487  0.14684  -0  -0.0130403  -0.0393896  -0.0159277  0.00969662  0.0566569  -0.0159339  -0.0389353  0.0677887  -0.0126129  0.6345  -0.558483  0.0279451 
1701449748.036281000  0  0  11.9688  -0.163861  -0.0063341  0.00878948  nan  nan  nan  nan  nan  nan  -1.83666  -0.841656  1.44476  -0.0331934  0.032587  0.0434967  0.527604  0.501389  -0.1176  0  0  0  0.178148  0.132374  -0  -0.0132092  -0.0392055  -0.0159299  0.010908  0.058118  -0.0153108  -0.0378475  0.0665682  -0.0134429  0.675919  -0.599759  0.024561 
1701449748.041290000  0  0  11.9865  -0.150815  -0.0149405  0.00945287  nan  nan  nan  nan  nan  nan  -1.83402  -0.839147  1.44417  -0.0301216  0.0291121  0.0444485  0.528455  0.502016  -0.1176  0  0  0  0.162176  0.118658  -0  -0.0131475  -0.0389101  -0.0160129  0.0131346  0.0598826  -0.0168615  -0.0378687  0.0671626  -0.0142482  0.650023  -0.588015  0.0243209 
1701449748.046291000  0  0  11.9891  -0.161628  -0.0117251  0.0104577  nan  nan  nan  nan  nan  nan  -1.83137  -0.836636  1.44359  -0.0276936  0.0273573  0.0453209  0.529227  0.502576  -0.1176  0  0  0  0.146954  0.105691  -0  -0.0133509  -0.0387384  -0.0160429  0.0138431  0.0611342  -0.0170102  -0.0368851  0.0658878  -0.0151019  0.662599  -0.582717  0.0202972 
