ts fx fy fz tx ty tz exfx exfy exfz extx exty extz xd yd zd rolld pitchd yawd vxd vyd vzd wxd wyd wzd axd ayd azd e_x e_y e_z e_vx e_vy e_vz e_rx e_ry e_rz e_wx e_wy e_wz
1701767820.791356000  0  0  11.935  0.0274546  -0.152561  0.0125771  nan  nan  nan  nan  nan  nan  -2  -1  1.5  0.00191779  -0.0332147  -6.36872e-05  0  0  0  0  0  0  0  0  0  0.0245899  -0.000472086  -0.0228072  -0.0105872  0.00359056  0.0038116  -0.00508406  0.0288019  -0.0171119  -0.00813585  0.0401442  0.0139056 
1701767820.795179000  0  0  11.9009  0.00660637  -0.132401  0.0128507  nan  nan  nan  nan  nan  nan  -2  -1  1.5  0.00176387  -0.0334744  -5.90335e-05  0  0  0  0  0  0  0  0  0  0.0245531  -0.000461152  -0.0227674  -0.0102877  0.00335557  0.00657544  -0.00457744  0.0287954  -0.0171003  0.0288997  -0.000114852  0.0103691 
1701767820.800156000  0  0  11.9711  0.00318636  -0.143023  0.013189  nan  nan  nan  nan  nan  nan  -2  -1  1.5  0.00150828  -0.0330957  -4.99084e-05  0  0  0  0  0  0  0  0  0  0.0245314  -0.000578233  -0.0228501  -0.0104825  0.00328979  0.000895585  -0.0041344  0.0286535  -0.0171251  0.0316638  0.0224328  0.00638916 
1701767820.805248000  0  0  11.9315  0.017846  -0.158333  0.0132403  nan  nan  nan  nan  nan  nan  -2  -1  1.5  0.00144076  -0.0329524  -4.74681e-05  0  0  0  0  0  0  0  0  0  0.024477  -0.000563915  -0.0228131  -0.0106968  0.00316193  0.00410536  -0.00423083  0.0289753  -0.0170931  0.00323172  0.0500942  0.00542682 
1701767820.810113000  0  0  11.8732  -0.000807476  -0.14046  0.0133668  nan  nan  nan  nan  nan  nan  -2  -1  1.5  0.000870346  -0.0332491  -2.89329e-05  0  0  0  0  0  0  0  0  0  0.0244631  -0.000691812  -0.0228195  -0.0104879  0.00268479  0.00898068  -0.00331622  0.0290848  -0.0171167  0.0321242  0.0133396  0.00408127 
1701767820.815538000  0  0  11.9441  0.00320522  -0.155754  0.0129677  nan  nan  nan  nan  nan  nan  -2  -1  1.5  0.000347899  -0.0330063  -1.14808e-05  0  0  0  0  0  0  0  0  0  0.0244421  -0.000821226  -0.0229011  -0.0105013  0.00228635  0.00323067  -0.00274664  0.0292635  -0.0170687  0.0188586  0.0422828  0.00859052 
1701767820.820162000  0  0  11.8997  0.0217176  -0.176299  0.0114329  nan  nan  nan  nan  nan  nan  -2  -1  1.5  0.000531047  -0.0329338  -1.74862e-05  0  0  0  0  0  0  0  0  0  0.0243929  -0.000809802  -0.0228555  -0.0106501  0.00250126  0.00681752  -0.00325702  0.0298661  -0.0168161  -0.0134706  0.0778299  0.0252496 
1701767820.825112000  0  0  11.8773  0.00870839  -0.164306  0.0112784  nan  nan  nan  nan  nan  nan  -2  -1  1.5  0.000114718  -0.033042  -3.78982e-06  0  0  0  0  0  0  0  0  0  0.0243751  -0.000934551  -0.0228646  -0.0105494  0.00222808  0.00870287  -0.00265416  0.0300681  -0.016701  0.00700147  0.0519849  0.0260302 
1701767820.830115000  0  0  11.9417  0.0319784  -0.174108  0.0107412  nan  nan  nan  nan  nan  nan  -2  -1  1.5  0.000386811  -0.0326925  -1.26436e-05  0  0  0  0  0  0  0  0  0  0.0243222  -0.000922362  -0.0228782  -0.0106586  0.00256262  0.0033446  -0.00337274  0.0301854  -0.0165034  -0.0329275  0.0705098  0.0307694 
1701767820.835161000  0  0  11.9192  0.0390677  -0.184311  0.0110161  nan  nan  nan  nan  nan  nan  -2  -1  1.5  4.20317e-05  -0.0328707  -1.38136e-06  0  0  0  0  0  0  0  0  0  0.0243008  -0.00104671  -0.0228944  -0.0104561  0.00238165  0.00524079  -0.00339593  0.0309418  -0.016412  -0.0468929  0.0839582  0.026418 
1701767820.840174000  0  0  11.8775  0.0327207  -0.1764  0.0117043  nan  nan  nan  nan  nan  nan  -2  -1  1.5  0.00050725  -0.0328377  -1.66539e-05  0  0  0  0  0  0  0  0  0  0.0242481  -0.00103191  -0.0228369  -0.0105344  0.00296218  0.00858278  -0.00384506  0.0310851  -0.0163955  -0.0300669  0.0668166  0.0176508 
1701767820.845114000  0  0  11.919  0.0492383  -0.183325  0.0113166  nan  nan  nan  nan  nan  nan  -2  -1  1.5  -5.28336e-05  -0.0328791  1.73681e-06  0  0  0  0  0  0  0  0  0  0.0242351  -0.00115968  -0.0228917  -0.0102987  0.00250714  0.00522875  -0.00383833  0.0315935  -0.0162741  -0.0631639  0.0759888  0.0212837 
1701767820.850649000  0  0  11.9089  0.0517421  -0.178201  0.0113959  nan  nan  nan  nan  nan  nan  -2  -1  1.5  -5.50634e-05  -0.0328713  1.80968e-06  0  0  0  0  0  0  0  0  0  0.0242186  -0.00128306  -0.0229192  -0.0103088  0.00277842  0.00611458  -0.00424887  0.0318637  -0.0161873  -0.0643946  0.063256  0.0194242 
1701767820.855269000  0  0  11.9049  0.0581895  -0.17328  0.0116334  nan  nan  nan  nan  nan  nan  -2  -1  1.5  4.63235e-05  -0.032721  -1.51548e-06  0  0  0  0  0  0  0  0  0  0.0241702  -0.0012726  -0.0228889  -0.0104145  0.00288924  0.0063792  -0.00470416  0.031879  -0.0161423  -0.0731008  0.0532732  0.0160052 
1701767820.860176000  0  0  11.9312  0.0659769  -0.166168  0.0120416  nan  nan  nan  nan  nan  nan  -2  -1  1.5  -0.000114463  -0.0329603  3.77206e-06  0  0  0  0  0  0  0  0  0  0.0241645  -0.00139421  -0.0229514  -0.00998854  0.00294658  0.00431244  -0.00506892  0.0321948  -0.0161306  -0.0853197  0.0361426  0.0107862 
1701767820.865646000  0  0  11.9287  0.0649048  -0.167207  0.0116353  nan  nan  nan  nan  nan  nan  -2  -1  1.5  -0.000127512  -0.0324943  4.14268e-06  0  0  0  0  0  0  0  0  0  0.0241464  -0.00151424  -0.0229938  -0.0105754  0.00319606  0.00460118  -0.00544409  0.0319661  -0.0160347  -0.079724  0.0403269  0.0149065 
1701767820.870225000  0  0  11.8925  0.0747798  -0.159009  0.0113007  nan  nan  nan  nan  nan  nan  -2  -1  1.5  -9.82268e-05  -0.0322927  3.17145e-06  0  0  0  0  0  0  0  0  0  0.0240969  -0.00150319  -0.0229471  -0.0108624  0.00321069  0.00751295  -0.00601777  0.031781  -0.0159205  -0.0941962  0.0256332  0.0179461 
1701767820.875180000  0  0  11.8926  0.065797  -0.138967  0.0116924  nan  nan  nan  nan  nan  nan  -2  -1  1.5  -0.0001653  -0.0324751  5.36719e-06  6e-07  6e-07  -6e-07  0  0  0  0.000375  0.000375  -0.000375  0.0240852  -0.00162053  -0.0229889  -0.0105467  0.00343134  0.00756436  -0.0062001  0.0315995  -0.0159094  -0.0745531  -0.012782  0.0129395 
1701767820.880170000  0  0  11.9228  0.0727826  -0.149204  0.0120457  nan  nan  nan  nan  nan  nan  -2  -1  1.5  0.000151168  -0.0316233  -4.77962e-06  5e-06  5e-06  -5e-06  0  0  0  0.0015  0.0015  -0.0015  0.024027  -0.00160255  -0.0229804  -0.0112921  0.00395521  0.00491005  -0.00694  0.0309889  -0.0158911  -0.0817172  0.0133091  0.00833988 
1701767820.885115000  0  0  11.8811  0.0632078  -0.127701  0.0122011  nan  nan  nan  nan  nan  nan  -2  -1  1.5  -0.000435738  -0.0315613  1.37502e-05  1.69e-05  1.69e-05  -1.69e-05  0  0  0  0.003375  0.003375  -0.003375  0.0240104  -0.00172058  -0.0230002  -0.0112421  0.00368471  0.00826118  -0.00659031  0.0305558  -0.0158898  -0.0657848  -0.0257124  0.00638424 
1701767820.890528000  0  0  11.929  0.0397869  -0.106429  0.0117543  nan  nan  nan  nan  nan  nan  -2  -1  1.5  -0.000801552  -0.0309739  2.49232e-05  4e-05  4e-05  -4e-05  0  0  0  0.006  0.006  -0.006  0.0239798  -0.00183128  -0.0230786  -0.0114472  0.00378299  0.00420131  -0.00600865  0.0293774  -0.0158263  -0.0242942  -0.0574145  0.0113339 
1701767820.895098000  0  0  11.9558  0.0491443  -0.126956  0.0108144  nan  nan  nan  nan  nan  nan  -2  -1  1.5  -0.00095  -0.0299744  2.87714e-05  7.81e-05  7.81e-05  -7.81e-05  0  0  0  0.009375  0.009375  -0.009375  0.0239237  -0.0018155  -0.0230815  -0.0121224  0.0039845  0.00163322  -0.00618135  0.0287475  -0.0156477  -0.0414201  -0.0105657  0.0212972 
1701767820.900174000  0  0  11.886  0.0195301  -0.0877825  0.0103456  nan  nan  nan  nan  nan  nan  -2  -0.999999  1.5  -0.00162295  -0.0301019  4.93467e-05  0.000135  0.000135  -0.000135  0  0  0  0.0135  0.0135  -0.0135  0.0238968  -0.00192165  -0.0231017  -0.0115946  0.00387253  0.00711853  -0.00514404  0.0279767  -0.0155105  0.00826489  -0.0818207  0.0257857 
1701767820.905168000  0  0  11.9589  0.0287682  -0.105372  0.00990899  nan  nan  nan  nan  nan  nan  -2  -0.999998  1.5  -0.00173448  -0.0286761  5.07313e-05  0.0002144  0.0002144  -0.0002144  0  0  0  0.018375  0.018375  -0.018375  0.0238337  -0.00190168  -0.0231286  -0.0124765  0.00429677  0.000622574  -0.00516381  0.0266727  -0.0153393  -0.0100293  -0.0346452  0.029531 
1701767820.910107000  0  0  11.9752  0.0310801  -0.126073  0.0101276  nan  nan  nan  nan  nan  nan  -2  -0.999997  1.5  -0.00320107  -0.0277427  9.04951e-05  0.00032  0.00032  -0.00032  0  0  0  0.024  0.024  -0.024  0.0237958  -0.00202913  -0.0232127  -0.0128559  0.00335309  -0.00111054  -0.00396084  0.0262317  -0.0152671  -0.0257205  0.0108139  0.026076 
1701767820.915101000  0  0  11.8908  -0.00618775  -0.0916845  0.0110268  nan  nan  nan  nan  nan  nan  -1.99999  -0.999995  1.49999  -0.00359526  -0.0274215  0.000101275  0.0004556  0.0004556  -0.0004556  0  0  0  0.030375  0.030375  -0.030375  0.0237294  -0.00201135  -0.023143  -0.0125702  0.00364689  0.005183  -0.0028519  0.0251945  -0.0152916  0.038613  -0.0484207  0.0150804 
1701767820.920815000  0  0  11.9507  0.0132908  -0.123074  0.0110013  nan  nan  nan  nan  nan  nan  -1.99999  -0.999992  1.49999  -0.00469579  -0.0260114  0.000126331  0.000625  0.000625  -0.000625  0  0  0  0.0375  0.0375  -0.0375  0.0236806  -0.00213755  -0.0232546  -0.0132315  0.00336315  -0.000272965  -0.00206638  0.0244009  -0.0152395  -0.00757103  0.0216592  0.0148782 
1701767820.925109000  0  0  11.9159  0.00760767  -0.125755  0.0115796  nan  nan  nan  nan  nan  nan  -1.99999  -0.999989  1.49999  -0.00612478  -0.0251392  0.000160058  0.0008319  0.0008319  -0.0008319  0  0  0  0.045375  0.045375  -0.045375  0.0236496  -0.00225843  -0.0233103  -0.0134004  0.00277608  0.00197265  -0.000699739  0.0238326  -0.015285  -0.00877773  0.0322507  0.00810485 
1701767820.930179000  0  0  11.8202  -0.0232223  -0.0974211  0.0131295  nan  nan  nan  nan  nan  nan  -1.99998  -0.999984  1.49998  -0.00680094  -0.0245944  0.00017585  0.00108  0.00108  -0.00108  0  0  0  0.054  0.054  -0.054  0.0235819  -0.00224359  -0.0232348  -0.0131191  0.00303514  0.00897422  0.000576639  0.0228308  -0.0154862  0.0411395  -0.015201  -0.00925748 
1701767820.935175000  0  0  11.9081  -0.00118631  -0.13486  0.0120508  nan  nan  nan  nan  nan  nan  -1.99998  -0.999978  1.49998  -0.00816046  -0.0229881  0.000199481  0.0013731  0.0013731  -0.0013731  0  0  0  0.063375  0.063375  -0.063375  0.0235425  -0.00237039  -0.023359  -0.0137049  0.0026632  0.000979889  0.00151925  0.0221754  -0.0154018  -0.0116044  0.0657056  0.00338304 
1701767820.940670000  0  0  11.8292  -0.0117919  -0.132127  0.0118496  nan  nan  nan  nan  nan  nan  -1.99997  -0.99997  1.49997  -0.00981577  -0.0221952  0.000233852  0.001715  0.001715  -0.001715  0  0  0  0.0735  0.0735  -0.0735  0.0234979  -0.00249392  -0.0233651  -0.013541  0.00214231  0.00658692  0.00316482  0.0218119  -0.015378  -0.00553248  0.0635855  0.00566038 
1701767820.945189000  0  0  11.8  -0.0156274  -0.123561  0.0116984  nan  nan  nan  nan  nan  nan  -1.99996  -0.99996  1.49996  -0.010633  -0.0206933  0.000241124  0.0021094  0.0021094  -0.0021094  0  0  0  0.084375  0.084375  -0.084375  0.0234335  -0.00248311  -0.0233301  -0.0140342  0.00248383  0.00789499  0.00402496  0.0204982  -0.0153496  -0.00577479  0.0585383  0.00726591 
1701767820.950166000  0  0  11.8529  0.0122065  -0.149501  0.0112178  nan  nan  nan  nan  nan  nan  -1.99995  -0.999949  1.49995  -0.011592  -0.0191996  0.000249858  0.00256  0.00256  -0.00256  0  0  0  0.096  0.096  -0.096  0.0233665  -0.00246993  -0.0233482  -0.0142288  0.00263107  0.00239369  0.00429669  0.0199849  -0.0152557  -0.0639426  0.115141  0.0123344 
1701767820.955114000  0  0  11.7864  0.000629803  -0.138733  0.0113723  nan  nan  nan  nan  nan  nan  -1.99993  -0.999935  1.49993  -0.0134889  -0.0179243  0.000276581  0.0030706  0.0030706  -0.0030706  0  0  0  0.108375  0.108375  -0.108375  0.0233204  -0.00260019  -0.0233552  -0.0143387  0.00212114  0.00675673  0.00599077  0.0191488  -0.0152516  -0.0563747  0.101297  0.010362 
1701767820.960160000  0  0  11.7807  0.000430498  -0.135684  0.0110468  nan  nan  nan  nan  nan  nan  -1.99992  -0.999918  1.49992  -0.015339  -0.0162592  0.000293109  0.003645  0.003645  -0.003645  0  0  0  0.1215  0.1215  -0.1215  0.0232863  -0.00272631  -0.0234076  -0.0147576  0.00168383  0.00607352  0.00749348  0.0180251  -0.0151864  -0.069801  0.105537  0.0137787 
1701767820.965159000  0  0  11.7969  0.0243374  -0.144563  0.0110863  nan  nan  nan  nan  nan  nan  -1.9999  -0.999898  1.4999  -0.0165346  -0.0147589  0.000298347  0.0042869  0.0042869  -0.0042869  0  0  0  0.135375  0.135375  -0.135375  0.023216  -0.00271704  -0.0234038  -0.0147455  0.00186114  0.00337768  0.00773469  0.0173798  -0.0151275  -0.119834  0.129231  0.012696 
1701767820.970165000  0  0  11.7378  0.0098589  -0.133272  0.0109206  nan  nan  nan  nan  nan  nan  -1.99988  -0.999875  1.49988  -0.018298  -0.0129336  0.000303379  0.005  0.005  -0.005  0  0  0  0.15  0.15  -0.15  0.0231778  -0.00283961  -0.023421  -0.015248  0.00183167  0.00693756  0.00912845  0.0160974  -0.0150658  -0.1037  0.118448  0.0141497 
1701767820.975164000  0  0  11.7222  0.0208458  -0.134137  0.0107872  nan  nan  nan  nan  nan  nan  -1.99985  -0.999848  1.49985  -0.0205371  -0.0112832  0.000312753  0.0057881  0.0057881  -0.0057881  0  0  0  0.165375  0.165375  -0.165375  0.0231368  -0.00295485  -0.0234568  -0.0153416  0.00118954  0.00684786  0.0105033  0.0151997  -0.0150048  -0.138322  0.128437  0.0152082 
1701767820.980160000  0  0  11.7055  0.0402636  -0.129461  0.0108775  nan  nan  nan  nan  nan  nan  -1.99982  -0.999817  1.49982  -0.0216743  -0.00924395  0.000297985  0.006655  0.006655  -0.006655  0  0  0  0.1815  0.1815  -0.1815  0.0230611  -0.00294385  -0.0234301  -0.0157631  0.00180743  0.00664047  0.0104814  0.0138559  -0.0149435  -0.176956  0.131447  0.013466 
1701767820.985163000  0  0  11.6892  0.0294508  -0.120957  0.0110355  nan  nan  nan  nan  nan  nan  -1.99978  -0.999781  1.49978  -0.0236466  -0.00692602  0.000280406  0.0076044  0.0076044  -0.0076044  0  0  0  0.198375  0.198375  -0.198375  0.0230178  -0.00305863  -0.0234626  -0.0165134  0.00172009  0.00645955  0.0117453  0.0122022  -0.0149143  -0.166958  0.129653  0.0111997 
1701767820.990591000  0  0  11.6333  0.0394247  -0.114718  0.0114928  nan  nan  nan  nan  nan  nan  -1.99974  -0.999741  1.49974  -0.0259891  -0.00515937  0.000272317  0.00864  0.00864  -0.00864  0  0  0  0.216  0.216  -0.216  0.0229776  -0.00315921  -0.0234721  -0.0164724  0.00133997  0.00947554  0.0128297  0.0111601  -0.0149415  -0.196883  0.126763  0.00575511 
1701767820.995115000  0  0  11.6242  0.0465679  -0.108032  0.0120435  nan  nan  nan  nan  nan  nan  -1.99969  -0.999695  1.49969  -0.0274795  -0.00238642  0.000228394  0.0097656  0.0097656  -0.0097656  0  0  0  0.234375  0.234375  -0.234375  0.0228906  -0.00315325  -0.0234401  -0.0174919  0.00180225  0.00842854  0.0132309  0.00905742  -0.0149897  -0.21486  0.132737  -0.000646845 
1701767821.000160000  0  0  11.6033  0.0427377  -0.0978979  0.0124473  nan  nan  nan  nan  nan  nan  -1.99964  -0.999643  1.49964  -0.03013  0.000110704  0.000187063  0.010985  0.010985  -0.0109839  0  0  0  0.2535  0.2535  -0.252793  0.0228475  -0.00325893  -0.0234708  -0.0181498  0.0011553  0.0085177  0.0147513  0.00725709  -0.0150479  -0.221187  0.129031  -0.00511262 
1701767821.005164000  0  0  11.5441  0.0369851  -0.0822746  0.0123108  nan  nan  nan  nan  nan  nan  -1.99958  -0.999585  1.49958  -0.0321257  0.00261605  0.000137329  0.0123019  0.0123019  -0.0122923  0  0  0  0.273375  0.273375  -0.270462  0.0227574  -0.00325112  -0.0234031  -0.0185945  0.0013449  0.0116557  0.0157062  0.00525466  -0.0150546  -0.218467  0.116206  -0.00333843 
1701767821.010167000  0  0  11.5864  0.0320806  -0.0948086  0.0119217  nan  nan  nan  nan  nan  nan  -1.99952  -0.99952  1.49952  -0.0344051  0.00558142  6.38956e-05  0.01372  0.01372  -0.0136872  0  0  0  0.294  0.294  -0.287381  0.0227091  -0.00335139  -0.0234659  -0.0196527  0.00114809  0.00669631  0.0169145  0.00343496  -0.0150038  -0.219774  0.158016  0.00101767 
1701767821.015636000  0  0  11.5473  0.0191893  -0.0799622  0.0111728  nan  nan  nan  nan  nan  nan  -1.99945  -0.999447  1.49945  -0.037576  0.00844861  -2.3111e-05  0.0152431  0.0152431  -0.0151649  0  0  0  0.315375  0.315375  -0.30355  0.022658  -0.00345092  -0.0234843  -0.0204329  0.000213609  0.00852123  0.018982  0.00138851  -0.0148788  -0.213013  0.14715  0.0091283 
1701767821.020161000  0  0  11.5132  0.000688045  -0.0629829  0.0109616  nan  nan  nan  nan  nan  nan  -1.99937  -0.999367  1.49937  -0.0401285  0.011388  -0.000120219  0.016875  0.016875  -0.0167215  0  0  0  0.3375  0.3375  -0.318969  0.0225608  -0.00345674  -0.0234295  -0.0210881  -3.58731e-05  0.00983962  0.020872  -0.00103121  -0.0148009  -0.193398  0.135453  0.0109895 
1701767821.025162000  0  0  11.5401  0.00667421  -0.0836077  0.010323  nan  nan  nan  nan  nan  nan  -1.99928  -0.999278  1.49928  -0.042466  0.0148621  -0.000247788  0.0186194  0.0186194  -0.0183533  0  0  0  0.360375  0.360375  -0.333638  0.0224499  -0.00345644  -0.0234139  -0.0223772  -0.00019409  0.00625932  0.0220316  -0.00309726  -0.0146432  -0.216039  0.19571  0.0173941 
1701767821.030167000  0  0  11.4788  -0.0101341  -0.0692171  0.0106973  nan  nan  nan  nan  nan  nan  -1.99918  -0.999181  1.49918  -0.046228  0.0181126  -0.000402961  0.02048  0.02048  -0.0200566  0  0  0  0.384  0.384  -0.347557  0.0223884  -0.00357437  -0.0234129  -0.0232373  -0.00138463  0.0101483  0.0248003  -0.00536195  -0.0145669  -0.207894  0.187764  0.0119531 
1701767821.035173000  0  0  11.4905  -0.0420158  -0.0475383  0.0116154  nan  nan  nan  nan  nan  nan  -1.99907  -0.999073  1.49908  -0.0496796  0.020837  -0.000545253  0.0224606  0.0224606  -0.0218276  0  0  0  0.408375  0.408375  -0.360726  0.0223315  -0.0036886  -0.0234614  -0.0234682  -0.00244451  0.0081248  0.0277079  -0.00741447  -0.0146113  -0.170881  0.16329  0.000920229 
1701767821.040667000  0  0  11.5206  -0.0309285  -0.0801287  0.011482  nan  nan  nan  nan  nan  nan  -1.99896  -0.998956  1.49897  -0.0527764  0.0243919  -0.000737085  0.024565  0.024565  -0.0236626  0  0  0  0.4335  0.4335  -0.373145  0.0222701  -0.0037931  -0.0235272  -0.0247125  -0.00308822  0.00471884  0.0294147  -0.0089931  -0.0145384  -0.208758  0.242994  0.00185821 
1701767821.045133000  0  0  11.4541  -0.0508191  -0.057334  0.0120289  nan  nan  nan  nan  nan  nan  -1.99883  -0.998828  1.49884  -0.0565139  0.0280735  -0.000971128  0.0267969  0.0267969  -0.0255578  0  0  0  0.459375  0.459375  -0.384814  0.0221465  -0.00382291  -0.0234464  -0.0256111  -0.00403719  0.00912606  0.0323956  -0.0117619  -0.0145299  -0.196401  0.222877  -0.00506178 
1701767821.050178000  0  0  11.4769  -0.0764651  -0.0482063  0.0130316  nan  nan  nan  nan  nan  nan  -1.99869  -0.998688  1.49871  -0.0601852  0.0312979  -0.00119804  0.02916  0.02916  -0.0275095  0  0  0  0.486  0.486  -0.395732  0.0220931  -0.00395604  -0.0234862  -0.0262471  -0.00511687  0.00643096  0.0354234  -0.0138441  -0.0146307  -0.172965  0.223778  -0.0165879 
1701767821.055182000  0  0  11.519  -0.0528812  -0.0880829  0.0122086  nan  nan  nan  nan  nan  nan  -1.99854  -0.998536  1.49857  -0.0633383  0.0355195  -0.00148868  0.0316581  0.0316581  -0.0295139  0  0  0  0.513375  0.513375  -0.405901  0.0219569  -0.00398178  -0.023496  -0.0279712  -0.0058217  0.00220235  0.0369554  -0.0156642  -0.0144896  -0.234227  0.320276  -0.0077118 
1701767821.060168000  0  0  11.4351  -0.0796378  -0.06461  0.0124144  nan  nan  nan  nan  nan  nan  -1.99837  -0.998371  1.49842  -0.0680445  0.0388428  -0.00180146  0.034295  0.034295  -0.0315673  0  0  0  0.5415  0.5415  -0.41532  0.0218994  -0.00413244  -0.0234755  -0.0281216  -0.00722757  0.0084699  0.0407028  -0.0176323  -0.0144298  -0.21519  0.291437  -0.0108819 
1701767821.065597000  0  0  11.4789  -0.0793643  -0.0723301  0.0117223  nan  nan  nan  nan  nan  nan  -1.99819  -0.998193  1.49825  -0.0719396  0.0422908  -0.00211482  0.0370744  0.0370744  -0.0336659  0  0  0  0.570375  0.570375  -0.423989  0.0218427  -0.00427616  -0.0235275  -0.0288717  -0.00845541  0.00436626  0.0431807  -0.0191431  -0.0142678  -0.238534  0.320777  -0.0038505 
1701767821.070176000  0  0  11.5063  -0.0551532  -0.106585  0.0107191  nan  nan  nan  nan  nan  nan  -1.998  -0.998  1.49808  -0.0755401  0.0468308  -0.00251854  0.04  0.04  -0.0358059  0  0  0  0.6  0.6  -0.431908  0.0216914  -0.00433035  -0.0235225  -0.0306662  -0.0092965  0.00164363  0.0449148  -0.02108  -0.0139862  -0.30291  0.407106  0.00587255 
1701767821.075108000  0  0  11.4074  -0.0735035  -0.0799434  0.0111052  nan  nan  nan  nan  nan  nan  -1.99779  -0.997792  1.49789  -0.0805418  0.0506082  -0.00296034  0.0430756  0.0430756  -0.0379837  0  0  0  0.630375  0.630306  -0.439077  0.021616  -0.00447874  -0.0235029  -0.0308814  -0.0105305  0.00947465  0.0484669  -0.0231766  -0.0138419  -0.298889  0.373111  -0.000396287 
1701767821.080170000  0  0  11.4751  -0.0543708  -0.095379  0.0110123  nan  nan  nan  nan  nan  nan  -1.99757  -0.997569  1.4977  -0.0836361  0.0549554  -0.00337775  0.0463048  0.0463022  -0.0401954  0  0  0  0.661272  0.660227  -0.445496  0.0214604  -0.00452729  -0.023524  -0.0324953  -0.0110639  0.00363678  0.0495539  -0.0250858  -0.0136882  -0.347154  0.421547  -0.000771035 
1701767821.085162000  0  0  11.4816  -0.0300153  -0.122655  0.0108563  nan  nan  nan  nan  nan  nan  -1.99733  -0.997329  1.49749  -0.0878593  0.0587733  -0.00383709  0.0496872  0.0496766  -0.0424374  0  0  0  0.691571  0.689397  -0.451165  0.0213749  -0.00468301  -0.0235754  -0.0333335  -0.0123463  0.00310453  0.0512334  -0.02591  -0.0134729  -0.411316  0.483683  -0.000974111 
1701767821.090629000  0  0  11.3914  -0.0434339  -0.0944279  0.0114779  nan  nan  nan  nan  nan  nan  -1.99707  -0.997072  1.49727  -0.0921095  0.0623451  -0.00430197  0.0532192  0.053195  -0.0447058  0  0  0  0.721119  0.717818  -0.456084  0.0213102  -0.00481486  -0.0235527  -0.0333391  -0.0128314  0.0104984  0.0533093  -0.0273282  -0.0133874  -0.403578  0.440275  -0.00959948 
1701767821.095164000  0  0  11.4608  -0.0143676  -0.116723  0.0114006  nan  nan  nan  nan  nan  nan  -1.9968  -0.996797  1.49704  -0.0953438  0.0667856  -0.00480683  0.0568972  0.0568535  -0.046997  0  0  0  0.749918  0.745488  -0.460253  0.021131  -0.00489984  -0.0235483  -0.0353908  -0.013826  0.00481245  0.0539887  -0.0290563  -0.0132452  -0.467961  0.500764  -0.0100562 
1701767821.100158000  0  0  11.4552  -0.00180974  -0.12537  0.0118347  nan  nan  nan  nan  nan  nan  -1.9965  -0.996503  1.4968  -0.0993031  0.0703632  -0.00530094  0.0607172  0.0606486  -0.0493071  0  0  0  0.777966  0.772409  -0.463672  0.0210411  -0.00506056  -0.0235557  -0.0361145  -0.0149  0.00548464  0.0551236  -0.0297365  -0.013145  -0.503517  0.524315  -0.0164835 
1701767821.105112000  0  0  11.3985  -0.0121785  -0.101049  0.0126628  nan  nan  nan  nan  nan  nan  -1.99619  -0.99619  1.49655  -0.10284  0.0747003  -0.00586409  0.0646756  0.0645764  -0.0516324  0  0  0  0.805265  0.79858  -0.466341  0.0208637  -0.00513249  -0.023485  -0.0372857  -0.0151359  0.0102871  0.0563219  -0.0318377  -0.0131503  -0.493804  0.495005  -0.0267812 
1701767821.110167000  0  0  11.4632  0.0250528  -0.126769  0.0123425  nan  nan  nan  nan  nan  nan  -1.99586  -0.995857  1.49629  -0.106171  0.0781545  -0.00634182  0.0687686  0.0686331  -0.0539693  0  0  0  0.831813  0.824  -0.46826  0.0207669  -0.00528712  -0.0235444  -0.038607  -0.0163997  0.00544182  0.056262  -0.0320962  -0.0130504  -0.567716  0.548824  -0.0237765 
1701767821.115592000  0  0  11.4407  0.0314809  -0.122275  0.012547  nan  nan  nan  nan  nan  nan  -1.9955  -0.995504  1.49601  -0.109679  0.0813823  -0.00682629  0.0729924  0.0728151  -0.0563138  0  0  0  0.857612  0.848671  -0.469428  0.0206809  -0.00541988  -0.0235527  -0.0390194  -0.0170214  0.00779682  0.0564286  -0.0323216  -0.013013  -0.582105  0.541908  -0.0267076 
1701767821.120108000  0  0  11.432  0.022434  -0.104329  0.012494  nan  nan  nan  nan  nan  nan  -1.99513  -0.995129  1.49572  -0.112903  0.085847  -0.00744282  0.0773434  0.0771186  -0.0586623  0  0  0  0.88266  0.872591  -0.469847  0.0204701  -0.00552981  -0.023482  -0.0409543  -0.0175704  0.00890863  0.0571942  -0.0345505  -0.01293  -0.571055  0.526523  -0.0268751 
1701767821.125160000  0  0  11.4753  0.0547716  -0.117376  0.0114969  nan  nan  nan  nan  nan  nan  -1.99473  -0.994732  1.49543  -0.11628  0.0888375  -0.00792482  0.0818178  0.0815398  -0.061011  0  0  0  0.906958  0.895762  -0.469516  0.0203813  -0.00569825  -0.0235296  -0.0418714  -0.0189429  0.00609784  0.0568575  -0.0345347  -0.0127435  -0.632632  0.552471  -0.0162763 
1701767821.130169000  0  0  11.4405  0.0396074  -0.100758  0.0114613  nan  nan  nan  nan  nan  nan  -1.99431  -0.994313  1.49511  -0.119466  0.0929507  -0.00853742  0.0864118  0.086075  -0.0633562  0  0  0  0.930507  0.918183  -0.468435  0.0201722  -0.00578916  -0.0234573  -0.04329  -0.0193241  0.00957162  0.0571883  -0.0360962  -0.012628  -0.605347  0.5336  -0.0169856 
1701767821.135165000  0  0  11.482  0.0340397  -0.0986621  0.0114707  nan  nan  nan  nan  nan  nan  -1.99386  -0.993871  1.49479  -0.122276  0.0961456  -0.00902101  0.0911216  0.0907204  -0.0656941  0  0  0  0.953305  0.939853  -0.466604  0.0200453  -0.00594883  -0.0234865  -0.0445963  -0.0201925  0.00697836  0.0570765  -0.0366129  -0.0125603  -0.593183  0.534163  -0.0177808 
1701767821.140675000  0  0  11.5093  0.0513116  -0.103402  0.0109481  nan  nan  nan  nan  nan  nan  -1.9934  -0.993406  1.49446  -0.125076  0.098611  -0.00942431  0.0959436  0.0954722  -0.068021  0  0  0  0.975354  0.960774  -0.464023  0.0199819  -0.00607918  -0.0235315  -0.045064  -0.0210389  0.00569745  0.0562084  -0.0360768  -0.0124516  -0.61974  0.53871  -0.0123353 
1701767821.145164000  0  0  11.4903  0.0348414  -0.086943  0.0110257  nan  nan  nan  nan  nan  nan  -1.9929  -0.992916  1.49411  -0.128408  0.103109  -0.0101508  0.100874  0.100327  -0.0703331  0  0  0  0.996652  0.980944  -0.460692  0.0197159  -0.0062227  -0.023443  -0.0473122  -0.0219524  0.00811074  0.0570477  -0.0383102  -0.0123017  -0.594521  0.52634  -0.0148037 
1701767821.150166000  0  0  11.5287  0.0296385  -0.0805825  0.0112674  nan  nan  nan  nan  nan  nan  -1.99239  -0.992402  1.49375  -0.131097  0.106589  -0.010698  0.105909  0.10528  -0.0726267  0  0  0  1.0172  1.00036  -0.456611  0.0194832  -0.00633606  -0.0234229  -0.0490713  -0.0230432  0.00595759  0.0569123  -0.0392153  -0.0122639  -0.58287  0.521946  -0.0182039 
1701767821.155158000  0  0  11.5606  0.0329214  -0.0801768  0.0114588  nan  nan  nan  nan  nan  nan  -1.99184  -0.991864  1.49339  -0.134097  0.109056  -0.0111566  0.111045  0.110329  -0.074898  0  0  0  1.037  1.01904  -0.45178  0.0193567  -0.00652445  -0.023442  -0.0498044  -0.0244011  0.0044786  0.0568528  -0.0391332  -0.0122303  -0.588889  0.520379  -0.0209317 
1701767821.160161000  0  0  11.5815  0.0213173  -0.0909567  0.0119528  nan  nan  nan  nan  nan  nan  -1.99128  -0.991299  1.49301  -0.136896  0.112342  -0.0117136  0.116278  0.11547  -0.0771432  0  0  0  1.05605  1.03696  -0.446199  0.0191992  -0.00670345  -0.0234639  -0.0515079  -0.0254498  0.00403953  0.0569466  -0.0395007  -0.0122145  -0.566544  0.54532  -0.0272649 
1701767821.165681000  0  0  11.5867  0.0199285  -0.0872233  0.0126179  nan  nan  nan  nan  nan  nan  -1.99068  -0.990709  1.49261  -0.139454  0.114504  -0.0120979  0.121604  0.120698  -0.0793587  0  0  0  1.07435  1.05413  -0.439868  0.0190598  -0.00683928  -0.0235046  -0.0516917  -0.0261789  0.00493169  0.0564283  -0.0387846  -0.0123223  -0.558997  0.531265  -0.034501 
1701767821.170167000  0  0  11.6414  0.0135777  -0.0859337  0.0129594  nan  nan  nan  nan  nan  nan  -1.99006  -0.990092  1.49221  -0.142103  0.117668  -0.0126403  0.12702  0.12601  -0.0815406  0  0  0  1.09189  1.07055  -0.432787  0.0187627  -0.00702415  -0.0234728  -0.0535873  -0.0277617  0.00172953  0.0566651  -0.0395503  -0.0123771  -0.548475  0.53573  -0.0382212 
1701767821.175165000  0  0  11.662  0.00843172  -0.104632  0.0127024  nan  nan  nan  nan  nan  nan  -1.98941  -0.989448  1.4918  -0.144843  0.120479  -0.0131537  0.132522  0.131402  -0.0836853  0  0  0  1.10869  1.08622  -0.424955  0.0185691  -0.00723431  -0.0234977  -0.0549219  -0.0289854  0.00156169  0.0567317  -0.0392394  -0.0123539  -0.538795  0.570267  -0.0352411 
1701767821.180161000  0  0  11.6311  -0.00284181  -0.0948544  0.0127225  nan  nan  nan  nan  nan  nan  -1.98873  -0.988778  1.49138  -0.147371  0.123361  -0.0136606  0.138105  0.13687  -0.0857889  0  0  0  1.12474  1.10114  -0.416374  0.0182961  -0.00737504  -0.0234553  -0.0555749  -0.029369  0.00551446  0.0568016  -0.039471  -0.0123865  -0.516891  0.552842  -0.0351656 
1701767821.185164000  0  0  11.7047  0.00758652  -0.115484  0.0121031  nan  nan  nan  nan  nan  nan  -1.98803  -0.98808  1.49094  -0.149462  0.125091  -0.0139476  0.143768  0.142412  -0.0878478  0  0  0  1.14004  1.11531  -0.407043  0.0181262  -0.00761351  -0.0234788  -0.0564746  -0.0307994  0.00102805  0.0561139  -0.0381421  -0.0123925  -0.531421  0.581875  -0.0273635 
1701767821.190165000  0  0  11.7164  0.0111089  -0.133638  0.0113063  nan  nan  nan  nan  nan  nan  -1.9873  -0.987354  1.4905  -0.151984  0.127649  -0.0144172  0.149505  0.148022  -0.0898581  0  0  0  1.15459  1.12873  -0.396962  0.017916  -0.00784892  -0.0234867  -0.0576312  -0.0318548  0.00178313  0.0558425  -0.0374089  -0.0122522  -0.535969  0.611439  -0.0188061 
1701767821.195166000  0  0  11.6766  -0.00460278  -0.119442  0.0111208  nan  nan  nan  nan  nan  nan  -1.98653  -0.986599  1.49004  -0.154464  0.13004  -0.0148624  0.155312  0.153698  -0.0918162  0  0  0  1.16839  1.1414  -0.386131  0.017629  -0.00800593  -0.0234252  -0.0577596  -0.0322732  0.00662919  0.0559843  -0.0371241  -0.0122016  -0.50585  0.580425  -0.0169944 
1701767821.200158000  0  0  11.7656  0.0103922  -0.13958  0.0111364  nan  nan  nan  nan  nan  nan  -1.98574  -0.985816  1.48958  -0.155789  0.131748  -0.0150512  0.161187  0.159435  -0.0937182  0  0  0  1.18144  1.15332  -0.37455  0.0174025  -0.0082477  -0.0234695  -0.0590605  -0.0333264  0.00110261  0.0545557  -0.0356624  -0.0122745  -0.522697  0.607255  -0.0164608 
1701767821.205160000  0  0  11.7619  0.0255131  -0.160514  0.0110326  nan  nan  nan  nan  nan  nan  -1.98492  -0.985005  1.48911  -0.157668  0.134214  -0.0154332  0.167125  0.16523  -0.0955604  0  0  0  1.19373  1.16449  -0.362219  0.0171085  -0.00841172  -0.0234424  -0.0599736  -0.0337538  0.00323202  0.0535415  -0.034654  -0.0122648  -0.543608  0.639846  -0.0152595 
1701767821.210166000  0  0  11.7314  0.0168998  -0.142914  0.0124108  nan  nan  nan  nan  nan  nan  -1.98407  -0.984164  1.48862  -0.159833  0.135759  -0.0157111  0.173123  0.171079  -0.0973391  0  0  0  1.20528  1.17491  -0.349138  0.0168916  -0.00865106  -0.0234126  -0.0595455  -0.0340486  0.00752223  0.0532009  -0.0335416  -0.0124295  -0.523248  0.59441  -0.0308397 
1701767821.215589000  0  0  11.8695  0.047568  -0.176499  0.0134186  nan  nan  nan  nan  nan  nan  -1.98319  -0.983294  1.48813  -0.159812  0.136387  -0.0155366  0.179177  0.176978  -0.0990506  0  0  0  1.21608  1.18458  -0.335307  0.0167358  -0.00885882  -0.0235257  -0.0606242  -0.0346887  -0.00184657  0.0500141  -0.0305106  -0.0128918  -0.555266  0.633695  -0.0388137 
1701767821.220161000  0  0  11.8316  0.0639594  -0.17665  0.0137951  nan  nan  nan  nan  nan  nan  -1.98228  -0.982394  1.48763  -0.162114  0.138908  -0.0159878  0.185283  0.182923  -0.100691  0  0  0  1.22613  1.1935  -0.320726  0.016387  -0.00909219  -0.0234334  -0.0612869  -0.0352067  0.00320494  0.049394  -0.0301195  -0.0130196  -0.582343  0.630399  -0.0422428 
1701767821.225172000  0  0  11.7901  0.0455775  -0.149683  0.0145283  nan  nan  nan  nan  nan  nan  -1.98134  -0.981465  1.48713  -0.163679  0.140261  -0.016147  0.191437  0.188912  -0.102257  0  0  0  1.23543  1.20167  -0.305395  0.0161667  -0.00934926  -0.0234002  -0.0606929  -0.0347983  0.00851046  0.0485728  -0.0291051  -0.0133228  -0.538025  0.567132  -0.0483759 
1701767821.230176000  0  0  11.9026  0.0779588  -0.183244  0.0143174  nan  nan  nan  nan  nan  nan  -1.98037  -0.980505  1.48661  -0.163844  0.141681  -0.0161125  0.197636  0.194939  -0.103744  0  0  0  1.24398  1.20909  -0.289314  0.0158544  -0.00953031  -0.0234272  -0.0624469  -0.0356017  0.00135581  0.0456461  -0.0271253  -0.0136927  -0.575862  0.61604  -0.0420414 
1701767821.235175000  0  0  11.858  0.0801947  -0.173401  0.0148746  nan  nan  nan  nan  nan  nan  -1.97936  -0.979515  1.48609  -0.165451  0.143077  -0.0162791  0.203876  0.201001  -0.105148  0  0  0  1.25177  1.21576  -0.272482  0.0156127  -0.00979553  -0.0233723  -0.062  -0.0353641  0.00704647  0.0443949  -0.0258026  -0.0139613  -0.568823  0.584186  -0.0463199 
1701767821.240672000  0  0  11.8308  0.0676654  -0.155136  0.0149923  nan  nan  nan  nan  nan  nan  -1.97833  -0.978495  1.48556  -0.166071  0.143704  -0.0161709  0.210152  0.207095  -0.106467  0  0  0  1.25882  1.22169  -0.254901  0.0154457  -0.00996793  -0.0233609  -0.0610354  -0.0345071  0.0112602  0.0424821  -0.0239192  -0.0143376  -0.526167  0.530329  -0.0440278 
1701767821.245158000  0  0  11.9634  0.0964916  -0.1782  0.0138618  nan  nan  nan  nan  nan  nan  -1.97726  -0.977444  1.48502  -0.166623  0.145077  -0.0161711  0.216463  0.213217  -0.107696  0  0  0  1.26512  1.22686  -0.23657  0.0150459  -0.0102445  -0.0233423  -0.0632081  -0.036297  0.00260741  0.0402299  -0.0224908  -0.014516  -0.563098  0.563316  -0.0281126 
1701767821.250740000  0  0  11.9409  0.0852065  -0.164431  0.0139874  nan  nan  nan  nan  nan  nan  -1.97616  -0.976363  1.48448  -0.166594  0.145477  -0.0159176  0.222802  0.219362  -0.108833  0  0  0  1.27067  1.23128  -0.218113  0.014876  -0.0103918  -0.0233566  -0.0621854  -0.0349605  0.0064501  0.0376312  -0.0202972  -0.0148875  -0.51662  0.515596  -0.025968 
1701767821.255158000  0  0  11.9485  0.0721439  -0.147244  0.0139747  nan  nan  nan  nan  nan  nan  -1.97503  -0.975251  1.48394  -0.167832  0.147412  -0.0161043  0.229168  0.225528  -0.109879  0  0  0  1.27547  1.23495  -0.2004  0.014468  -0.0106761  -0.0232583  -0.0633117  -0.0355342  0.00784371  0.0370308  -0.020382  -0.0150863  -0.484971  0.482003  -0.0238208 
1701767821.260167000  0  0  12.0289  0.0872974  -0.158286  0.0134384  nan  nan  nan  nan  nan  nan  -1.97387  -0.974107  1.48338  -0.168234  0.147631  -0.0158738  0.235556  0.231711  -0.110838  0  0  0  1.27952  1.23787  -0.183438  0.0142052  -0.0109724  -0.0232595  -0.0637288  -0.0365162  0.00316835  0.0348672  -0.0181553  -0.0152912  -0.495373  0.483599  -0.0150681 
1701767821.265167000  0  0  12.0424  0.0656395  -0.146602  0.0141646  nan  nan  nan  nan  nan  nan  -1.97268  -0.972933  1.48283  -0.167938  0.148854  -0.0156996  0.241962  0.237906  -0.111714  0  0  0  1.28282  1.24004  -0.167225  0.0138881  -0.0111469  -0.0232356  -0.0643656  -0.0356963  0.00380086  0.0328782  -0.0172959  -0.0157529  -0.433759  0.452325  -0.0195282 
1701767821.270158000  0  0  12.0357  0.0631783  -0.14437  0.0142318  nan  nan  nan  nan  nan  nan  -1.97145  -0.971728  1.48227  -0.169274  0.149326  -0.0156424  0.248383  0.24411  -0.112511  0  0  0  1.28536  1.24146  -0.151762  0.0136451  -0.0114672  -0.0231744  -0.0639626  -0.0364324  0.00605466  0.0322503  -0.0158071  -0.0159362  -0.423059  0.434166  -0.0185362 
1701767821.275179000  0  0  12.0818  0.0607227  -0.142645  0.0140649  nan  nan  nan  nan  nan  nan  -1.97019  -0.970492  1.4817  -0.169299  0.149374  -0.0153074  0.254814  0.250319  -0.113233  0  0  0  1.28716  1.24213  -0.137049  0.013357  -0.0117348  -0.0231805  -0.0638253  -0.0366825  0.00384255  0.030414  -0.0139303  -0.0162497  -0.401254  0.41345  -0.0133149 
1701767821.280176000  0  0  12.128  0.046275  -0.152525  0.0137632  nan  nan  nan  nan  nan  nan  -1.9689  -0.969225  1.48113  -0.168553  0.150377  -0.0150089  0.261253  0.25653  -0.113883  0  0  0  1.28821  1.24205  -0.123086  0.0130283  -0.0119152  -0.0231757  -0.0649718  -0.0361772  0.00153174  0.0283215  -0.0127124  -0.0166456  -0.353108  0.422004  -0.00558504 
1701767821.285181000  0  0  12.0807  0.0394265  -0.135591  0.0136886  nan  nan  nan  nan  nan  nan  -1.96758  -0.967927  1.48056  -0.169638  0.150427  -0.0148249  0.267695  0.262738  -0.114465  0  0  0  1.28851  1.24122  -0.109873  0.0127462  -0.0122207  -0.0231229  -0.0635184  -0.0361997  0.00676779  0.0278905  -0.0112354  -0.0167663  -0.335445  0.374548  -0.0034445 
1701767821.290180000  0  0  12.1282  0.0292633  -0.13513  0.0141723  nan  nan  nan  nan  nan  nan  -1.96623  -0.966598  1.47999  -0.168665  0.150675  -0.0143511  0.274137  0.268941  -0.114983  0  0  0  1.28806  1.23964  -0.0974106  0.0124286  -0.0123997  -0.0231219  -0.0638838  -0.0356679  0.00405778  0.0258011  -0.00976652  -0.0172794  -0.295896  0.360112  -0.00435913 
1701767821.295180000  0  0  12.1832  0.0224001  -0.153161  0.0147053  nan  nan  nan  nan  nan  nan  -1.96484  -0.965238  1.47941  -0.168731  0.151024  -0.0140484  0.280575  0.275134  -0.115441  0  0  0  1.28686  1.23731  -0.0856977  0.0121072  -0.0127206  -0.0231195  -0.0646272  -0.036404  0.000824965  0.0247167  -0.00806931  -0.0176171  -0.272194  0.38056  -0.00764583 
1701767821.300173000  0  0  12.1124  0.00461542  -0.12432  0.0159382  nan  nan  nan  nan  nan  nan  -1.96342  -0.963847  1.47884  -0.169351  0.15088  -0.0137417  0.287004  0.281313  -0.115841  0  0  0  1.2849  1.23423  -0.0747349  0.0117977  -0.0130283  -0.0230514  -0.062738  -0.035698  0.00758796  0.024506  -0.00687977  -0.0180202  -0.234686  0.311934  -0.0190254 
1701767821.305192000  0  0  12.1969  0.0126864  -0.140494  0.0161501  nan  nan  nan  nan  nan  nan  -1.96197  -0.962425  1.47826  -0.168121  0.150888  -0.0131686  0.293422  0.287475  -0.116189  0  0  0  1.2822  1.2304  -0.0645221  0.0114775  -0.0132077  -0.0230756  -0.0636764  -0.0358165  0.00162348  0.0222871  -0.00510201  -0.0186249  -0.230414  0.327926  -0.0156265 
1701767821.310183000  0  0  12.1978  0.0137067  -0.153457  0.0156395  nan  nan  nan  nan  nan  nan  -1.96049  -0.960972  1.47767  -0.168167  0.150986  -0.0128016  0.299825  0.293615  -0.116488  0  0  0  1.27875  1.22582  -0.0550592  0.0111598  -0.0135362  -0.0230279  -0.0634726  -0.0358246  0.00241403  0.0213362  -0.00340027  -0.0189038  -0.223707  0.338196  -0.00645599 
1701767821.315179000  0  0  12.1418  -0.00488995  -0.127176  0.0160109  nan  nan  nan  nan  nan  nan  -1.95897  -0.959488  1.47709  -0.167385  0.150422  -0.0121895  0.306209  0.299732  -0.116741  0  0  0  1.27455  1.22049  -0.0463464  0.0108528  -0.0137059  -0.0229664  -0.0615264  -0.0341915  0.00749335  0.0201142  -0.00189994  -0.0194275  -0.175271  0.271831  -0.00586205 
1701767821.320173000  0  0  12.2529  0.0211904  -0.161735  0.0157836  nan  nan  nan  nan  nan  nan  -1.95742  -0.957975  1.47651  -0.166563  0.150327  -0.0116441  0.312569  0.305819  -0.116953  0  0  0  1.2696  1.21441  -0.0383835  0.0105157  -0.0140481  -0.0230068  -0.063023  -0.0352507  -0.00078497  0.0181469  0.000107561  -0.0198345  -0.209332  0.32248  0.00104968 
1701767821.325183000  0  0  12.2156  0.0239539  -0.170228  0.0162119  nan  nan  nan  nan  nan  nan  -1.95585  -0.95643  1.47592  -0.166247  0.149775  -0.0110946  0.318903  0.311874  -0.117126  0  0  0  1.2639  1.20759  -0.0311707  0.010206  -0.0143578  -0.0229426  -0.0616018  -0.0344569  0.00269058  0.0169009  0.0023172  -0.0202386  -0.203396  0.319138  -0.00026272 
1701767821.330184000  0  0  12.1609  0.0188152  -0.153448  0.0174432  nan  nan  nan  nan  nan  nan  -1.95424  -0.954856  1.47534  -0.164787  0.148916  -0.010314  0.325207  0.317894  -0.117265  0  0  0  1.25745  1.20001  -0.0247079  0.00991262  -0.0145162  -0.0228903  -0.0595964  -0.0323041  0.00731015  0.0149  0.00418477  -0.0209614  -0.17471  0.268395  -0.00842645 
1701767821.335181000  0  0  12.2748  0.0534455  -0.193851  0.0170503  nan  nan  nan  nan  nan  nan  -1.95259  -0.953251  1.47475  -0.164284  0.148274  -0.00971018  0.331477  0.323873  -0.117374  0  0  0  1.25024  1.19168  -0.018995  0.00954451  -0.0149516  -0.0228873  -0.0606023  -0.0339209  -0.00156943  0.0130954  0.00674497  -0.0213229  -0.227369  0.325648  0.000100604 
1701767821.340669000  0  0  12.1758  0.0458946  -0.187387  0.0175031  nan  nan  nan  nan  nan  nan  -1.95092  -0.951617  1.47416  -0.162996  0.146793  -0.00884595  0.337708  0.329809  -0.117457  0  0  0  1.24229  1.1826  -0.0140322  0.0093721  -0.0151293  -0.0228422  -0.0575062  -0.0313851  0.00644241  0.0110604  0.00954007  -0.0218807  -0.193545  0.287006  1.85533e-05 
1701767821.345182000  0  0  12.1534  0.0525221  -0.188062  0.0179896  nan  nan  nan  nan  nan  nan  -1.94922  -0.949953  1.47357  -0.161681  0.146725  -0.00820324  0.343898  0.335698  -0.117516  0  0  0  1.23359  1.17277  -0.0098193  0.00895063  -0.0154261  -0.0227428  -0.0571281  -0.0299674  0.00825142  0.00907647  0.0108084  -0.0225004  -0.188548  0.276686  0.000133872 
1701767821.350181000  0  0  12.2109  0.0910636  -0.207405  0.0180489  nan  nan  nan  nan  nan  nan  -1.94748  -0.94826  1.47299  -0.160352  0.145312  -0.00733738  0.350043  0.341536  -0.117556  0  0  0  1.22414  1.16219  -0.0063565  0.00862742  -0.0157003  -0.0227518  -0.0565344  -0.0301548  0.00348634  0.00625688  0.0137953  -0.0230209  -0.239691  0.287894  0.00459796 
1701767821.355180000  0  0  12.1319  0.0808484  -0.194074  0.018647  nan  nan  nan  nan  nan  nan  -1.94572  -0.946538  1.4724  -0.157899  0.144301  -0.00636712  0.356138  0.347319  -0.117581  0  0  0  1.21394  1.15086  -0.0036437  0.00836062  -0.0158305  -0.0226739  -0.0545127  -0.026872  0.00946824  0.0032874  0.0157847  -0.0238037  -0.191941  0.242928  0.00495032 
1701767821.360172000  0  0  12.1363  0.10122  -0.204644  0.0183039  nan  nan  nan  nan  nan  nan  -1.94392  -0.944787  1.47181  -0.156904  0.143154  -0.00558784  0.362181  0.353043  -0.117594  0  0  0  1.20299  1.13878  -0.0016808  0.00803765  -0.01615  -0.0226008  -0.0536325  -0.0266386  0.00879571  0.00123071  0.0181243  -0.0242065  -0.213762  0.242544  0.0132666 
1701767821.365656000  0  0  12.1535  0.114483  -0.203948  0.0184095  nan  nan  nan  nan  nan  nan  -1.94209  -0.943008  1.47122  -0.154001  0.140783  -0.00434014  0.368167  0.358705  -0.117599  0  0  0  1.19128  1.12595  -0.000468  0.00787459  -0.0162544  -0.0226197  -0.0517411  -0.0247545  0.00669948  -0.00264686  0.021427  -0.0249036  -0.204614  0.210767  0.0189173 
1701767821.370181000  0  0  12.1464  0.10339  -0.201394  0.0181925  nan  nan  nan  nan  nan  nan  -1.94024  -0.9412  1.47063  -0.152109  0.140315  -0.00353196  0.374093  0.364301  -0.1176  0  0  0  1.17883  1.11237  -5.1e-06  0.00746546  -0.0165342  -0.0225288  -0.0516004  -0.0234053  0.00673724  -0.00481589  0.0227066  -0.0254603  -0.162473  0.193887  0.0271969 
1701767821.375182000  0  0  12.0968  0.115151  -0.194946  0.0184369  nan  nan  nan  nan  nan  nan  -1.93835  -0.939365  1.47005  -0.150909  0.138554  -0.0026233  0.379954  0.369828  -0.1176  0  0  0  1.16563  1.09804  -0  0.00716067  -0.0168251  -0.022446  -0.049402  -0.0223717  0.0101248  -0.00675838  0.0250206  -0.0258827  -0.168125  0.159702  0.028366 
1701767821.380175000  0  0  12.1362  0.104926  -0.189419  0.0190066  nan  nan  nan  nan  nan  nan  -1.93644  -0.937502  1.46946  -0.147424  0.136608  -0.00136705  0.385748  0.37528  -0.1176  0  0  0  1.15168  1.08296  -0  0.00691146  -0.0169348  -0.0224347  -0.0485315  -0.0203376  0.00600757  -0.010327  0.027403  -0.0267109  -0.114844  0.12673  0.029527 
1701767821.385182000  0  0  12.1354  0.106546  -0.199903  0.018723  nan  nan  nan  nan  nan  nan  -1.9345  -0.935612  1.46887  -0.145945  0.135442  -0.000507293  0.39147  0.380656  -0.1176  0  0  0  1.13698  1.06713  -0  0.00659485  -0.0172429  -0.022353  -0.0480561  -0.0198843  0.00545312  -0.012048  0.0292079  -0.0271104  -0.102249  0.131094  0.0370667 
1701767821.390180000  0  0  12.0672  0.0911283  -0.171619  0.0192539  nan  nan  nan  nan  nan  nan  -1.93252  -0.933696  1.46828  -0.143084  0.132899  0.000740665  0.397116  0.385951  -0.1176  0  0  0  1.12153  1.05055  -0  0.00636281  -0.0173312  -0.0222769  -0.0450304  -0.017171  0.0100145  -0.0146799  0.0315526  -0.0278001  -0.047202  0.0529545  0.0373274 
1701767821.395181000  0  0  12.1392  0.080153  -0.180243  0.0193555  nan  nan  nan  nan  nan  nan  -1.93053  -0.931753  1.46769  -0.140546  0.131417  0.00178844  0.402684  0.39116  -0.1176  0  0  0  1.10533  1.03322  -0  0.00607044  -0.0175994  -0.0222632  -0.045442  -0.0167638  0.00345686  -0.016772  0.0332037  -0.0283942  -0.00600327  0.0550128  0.0419982 
1701767821.400169000  0  0  12.0916  0.0797161  -0.176918  0.0187833  nan  nan  nan  nan  nan  nan  -1.9285  -0.929784  1.46711  -0.139099  0.129649  0.00273017  0.408168  0.396282  -0.1176  0  0  0  1.08837  1.01514  -0  0.00575109  -0.0178968  -0.0221813  -0.0437807  -0.015942  0.00667633  -0.0179475  0.0349503  -0.0286916  0.00568456  0.0322923  0.0521251 
1701767821.405176000  0  0  12.0369  0.0527837  -0.14127  0.0199228  nan  nan  nan  nan  nan  nan  -1.92644  -0.92779  1.46652  -0.135805  0.126923  0.00404275  0.413566  0.40131  -0.1176  0  0  0  1.07067  0.996314  -0  0.00554118  -0.0179632  -0.0221139  -0.0411105  -0.0132455  0.0101054  -0.02021  0.0368052  -0.0294738  0.0803646  -0.0560675  0.0457024 
1701767821.410176000  0  0  12.1439  0.0541451  -0.165824  0.0194202  nan  nan  nan  nan  nan  nan  -1.92436  -0.925771  1.46593  -0.133766  0.125475  0.00501446  0.418874  0.406243  -0.1176  0  0  0  1.05222  0.976735  -0  0.00520544  -0.0182836  -0.0221137  -0.0422069  -0.0141205  0.000795556  -0.0215486  0.03826  -0.0298843  0.0899569  -0.0203448  0.0560903 
1701767821.415695000  0  0  12.0582  0.0406731  -0.146176  0.0197305  nan  nan  nan  nan  nan  nan  -1.92225  -0.923728  1.46534  -0.130622  0.122285  0.00635228  0.424087  0.411077  -0.1176  0  0  0  1.03302  0.956405  -0  0.00513305  -0.018313  -0.0220724  -0.0390199  -0.0114453  0.00679796  -0.0235295  0.0405491  -0.0304492  0.135125  -0.0806988  0.0578615 
1701767821.420169000  0  0  12.0551  0.0190022  -0.124534  0.01964  nan  nan  nan  nan  nan  nan  -1.92012  -0.921661  1.46475  -0.128014  0.120503  0.00743139  0.429203  0.415806  -0.1176  0  0  0  1.01307  0.935326  -0  0.00473674  -0.0185803  -0.0219825  -0.0382248  -0.0102294  0.00625284  -0.0247345  0.041362  -0.0309978  0.189553  -0.131463  0.0644783 
1701767821.425746000  0  0  12.1201  0.0326368  -0.142718  0.0190436  nan  nan  nan  nan  nan  nan  -1.91796  -0.91957  1.46417  -0.12492  0.117286  0.00874474  0.434217  0.420429  -0.1176  0  0  0  0.992366  0.913497  -0  0.00464111  -0.0186404  -0.0220348  -0.037166  -0.00990763  8.71793e-05  -0.0267131  0.0439062  -0.031366  0.180487  -0.118501  0.075615 
1701767821.430180000  0  0  12.0459  0.00897591  -0.124508  0.0195805  nan  nan  nan  nan  nan  nan  -1.91578  -0.917457  1.46358  -0.12183  0.11524  0.0099011  0.439125  0.42494  -0.1176  0  0  0  0.970915  0.890917  -0  0.00424233  -0.0189073  -0.0219076  -0.0353183  -0.00725247  0.00522113  -0.0282062  0.0449198  -0.0319772  0.241545  -0.164247  0.0750165 
1701767821.435176000  0  0  12.0859  0.00882264  -0.127527  0.0196166  nan  nan  nan  nan  nan  nan  -1.91357  -0.915321  1.46299  -0.119519  0.112766  0.0110128  0.443924  0.429336  -0.1176  0  0  0  0.948713  0.867588  -0  0.00395413  -0.0191699  -0.021886  -0.0346744  -0.00729088  0.00123703  -0.0290269  0.0463607  -0.0323623  0.249402  -0.171464  0.0784159 
1701767821.440704000  0  0  12.0931  0.0187438  -0.131092  0.0200203  nan  nan  nan  nan  nan  nan  -1.91134  -0.913163  1.4624  -0.115645  0.108712  0.0124758  0.448611  0.433615  -0.1176  0  0  0  0.925762  0.843508  -0  0.00389794  -0.0191849  -0.0219274  -0.0321429  -0.00547247  -0.000376923  -0.0313971  0.0491199  -0.0328982  0.251366  -0.18972  0.078728 
1701767821.445176000  0  0  12.0617  0.0146986  -0.144785  0.0199404  nan  nan  nan  nan  nan  nan  -1.90909  -0.910985  1.46181  -0.112084  0.106421  0.0136829  0.453181  0.43777  -0.1176  0  0  0  0.90206  0.818679  -0  0.00352121  -0.0194289  -0.0218426  -0.0309139  -0.00313417  0.00124172  -0.0334082  0.0507196  -0.0334761  0.277958  -0.177051  0.0855053 
1701767821.450174000  0  0  12.0532  0.028177  -0.147766  0.0201775  nan  nan  nan  nan  nan  nan  -1.90681  -0.908786  1.46123  -0.109516  0.103114  0.0148861  0.45763  0.4418  -0.1176  0  0  0  0.877609  0.793099  -0  0.00323993  -0.0196907  -0.0218064  -0.0288939  -0.00245378  0.00107896  -0.0346231  0.0528649  -0.0338428  0.262179  -0.190826  0.0862096 
1701767821.455177000  0  0  12.0646  0.0312112  -0.149871  0.0210458  nan  nan  nan  nan  nan  nan  -1.90451  -0.906567  1.46064  -0.104609  0.0991206  0.016386  0.461956  0.4457  -0.1176  0  0  0  0.852407  0.76677  -0  0.00309918  -0.0196927  -0.0218153  -0.0266494  0.000406691  -0.00103438  -0.0378957  0.0555916  -0.0345997  0.286218  -0.211701  0.0829242 
1701767821.460175000  0  0  12.0548  0.0494584  -0.181482  0.0203996  nan  nan  nan  nan  nan  nan  -1.90219  -0.904329  1.46005  -0.101284  0.0962842  0.0175835  0.466153  0.449467  -0.1176  0  0  0  0.826455  0.739691  -0  0.00284588  -0.0198984  -0.0217901  -0.0255432  0.00180208  -0.00109536  -0.0398712  0.0577643  -0.0349752  0.267899  -0.168468  0.0947561 
1701767821.465182000  0  0  11.9993  0.0572123  -0.17373  0.0202353  nan  nan  nan  nan  nan  nan  -1.89985  -0.902073  1.45946  -0.0966856  0.0911983  0.0191053  0.470219  0.453096  -0.1176  0  0  0  0.799754  0.711861  -0  0.0027424  -0.019877  -0.0217599  -0.0214558  0.00479924  0.00215889  -0.0430004  0.0614271  -0.0354642  0.281179  -0.217669  0.101702 
1701767821.470161000  0  0  12.0577  0.0698037  -0.181752  0.0193959  nan  nan  nan  nan  nan  nan  -1.89749  -0.899798  1.45887  -0.0929879  0.0880863  0.0203247  0.474149  0.456584  -0.1176  0  0  0  0.772302  0.683282  -0  0.00247279  -0.0201232  -0.0217652  -0.0208432  0.00586953  -0.00351067  -0.04516  0.0631925  -0.035738  0.275864  -0.217868  0.114931 
1701767821.475158000  0  0  12.0469  0.0925396  -0.210709  0.0193131  nan  nan  nan  nan  nan  nan  -1.89511  -0.897507  1.45829  -0.0891429  0.0846173  0.0215716  0.477941  0.459927  -0.1176  0  0  0  0.744101  0.653952  -0  0.00225664  -0.0202937  -0.0217711  -0.0193092  0.00763171  -0.0035456  -0.0477926  0.0658703  -0.0360634  0.254613  -0.18459  0.119219 
1701767821.480161000  0  0  11.9739  0.0817625  -0.188183  0.0204183  nan  nan  nan  nan  nan  nan  -1.89271  -0.895199  1.4577  -0.083844  0.0791834  0.023081  0.481589  0.463122  -0.1176  0  0  0  0.715149  0.623873  -0  0.00218035  -0.0202408  -0.0217366  -0.015083  0.0113641  0.00113215  -0.0512428  0.0693762  -0.0366589  0.307909  -0.261895  0.11136 
1701767821.485168000  0  0  12.0863  0.100251  -0.213397  0.0201141  nan  nan  nan  nan  nan  nan  -1.89029  -0.892876  1.45711  -0.0799191  0.0757664  0.0242758  0.485091  0.466166  -0.1176  0  0  0  0.685448  0.593663  -0  0.00196319  -0.0203999  -0.021815  -0.0148784  0.0119682  -0.00891789  -0.0536498  0.0716128  -0.0369785  0.293075  -0.232045  0.118359 
1701767821.490692000  0  0  12.0346  0.115635  -0.225775  0.0200079  nan  nan  nan  nan  nan  nan  -1.88786  -0.890538  1.45652  -0.075165  0.0705552  0.0256448  0.488442  0.46906  -0.1176  0  0  0  0.654996  0.564197  -0  0.00201775  -0.0202922  -0.0218735  -0.011647  0.0147495  -0.00569875  -0.0567929  0.0753076  -0.0372456  0.291224  -0.24128  0.122358 
1701767821.495175000  0  0  11.9972  0.0908909  -0.197561  0.0210846  nan  nan  nan  nan  nan  nan  -1.88541  -0.888186  1.45593  -0.0706131  0.0660491  0.0269072  0.49164  0.471809  -0.1176  0  0  0  0.624115  0.535481  -0  0.00172194  -0.020459  -0.0218122  -0.00878496  0.0178207  -0.00367561  -0.0592146  0.0776857  -0.0377999  0.362993  -0.319586  0.114441 
1701767821.500167000  0  0  12.1186  0.11099  -0.231727  0.0207576  nan  nan  nan  nan  nan  nan  -1.88294  -0.88582  1.45535  -0.0672214  0.0623285  0.0280102  0.494685  0.474416  -0.1176  0  0  0  0.593893  0.507515  -0  0.00154992  -0.0205935  -0.0219186  -0.00823018  0.0181182  -0.0143588  -0.0610081  0.0801525  -0.0380193  0.339294  -0.273948  0.120723 
1701767821.505176000  0  0  12.0539  0.0990256  -0.222052  0.0216827  nan  nan  nan  nan  nan  nan  -1.88046  -0.883442  1.45476  -0.0622378  0.0570452  0.029285  0.49758  0.476885  -0.1176  0  0  0  0.564421  0.480298  -0  0.00152765  -0.0204869  -0.0219292  -0.00460863  0.021619  -0.0100273  -0.0638095  0.0834406  -0.0384995  0.388996  -0.323549  0.113961 
1701767821.510174000  0  0  12.0528  0.0716309  -0.202286  0.0216192  nan  nan  nan  nan  nan  nan  -1.87797  -0.881052  1.45417  -0.0584741  0.0531152  0.0303707  0.50033  0.47922  -0.1176  0  0  0  0.535699  0.453832  -0  0.00138335  -0.0205936  -0.0219526  -0.00281101  0.0235645  -0.0105274  -0.064781  0.0848921  -0.0387801  0.452723  -0.376436  0.117561 
1701767821.515692000  0  0  12.1282  0.0881542  -0.2084  0.020084  nan  nan  nan  nan  nan  nan  -1.87546  -0.87865  1.45358  -0.0547881  0.04814  0.0314864  0.502938  0.481425  -0.1176  0  0  0  0.507727  0.428116  -0  0.00149225  -0.0204384  -0.0221253  -0.000478894  0.0244861  -0.0172498  -0.0661863  0.0874709  -0.0387289  0.432605  -0.387932  0.13624 
1701767821.520168000  0  0  12.077  0.0533877  -0.193764  0.0189646  nan  nan  nan  nan  nan  nan  -1.87294  -0.876237  1.45299  -0.0506146  0.0443009  0.0325351  0.505409  0.483503  -0.1176  0  0  0  0.480505  0.40315  -0  0.00123116  -0.0205703  -0.022091  0.00188615  0.0275851  -0.0136658  -0.0674858  0.0889899  -0.038896  0.514094  -0.431179  0.151903 
1701767821.525179000  0  0  12.0785  0.0381327  -0.186265  0.0182297  nan  nan  nan  nan  nan  nan  -1.8704  -0.873815  1.45241  -0.0475875  0.0406178  0.0335042  0.507745  0.485458  -0.1176  0  0  0  0.454033  0.378934  -0  0.00111581  -0.0206405  -0.0221504  0.00359318  0.0287881  -0.014071  -0.0674772  0.0900551  -0.0388548  0.544525  -0.455978  0.160677 
1701767821.530174000  0  0  12.1091  0.0366263  -0.164014  0.018031  nan  nan  nan  nan  nan  nan  -1.86786  -0.871383  1.45182  -0.0432175  0.0356113  0.0345639  0.50995  0.487293  -0.1176  0  0  0  0.428311  0.355468  -0  0.00114393  -0.0204953  -0.0222406  0.00667899  0.0313335  -0.0171293  -0.0690252  0.091961  -0.0389052  0.561779  -0.518014  0.163664 
1701767821.535176000  0  0  12.133  0.0160135  -0.167623  0.0176563  nan  nan  nan  nan  nan  nan  -1.8653  -0.868942  1.45123  -0.0401663  0.0329331  0.0354522  0.512029  0.489014  -0.1176  0  0  0  0.403339  0.332751  -0  0.00101697  -0.0205641  -0.022329  0.00717237  0.0326557  -0.0191406  -0.0686739  0.0919178  -0.0389108  0.599773  -0.510397  0.168404 
1701767821.540711000  0  0  12.05  0.00542121  -0.14225  0.0183259  nan  nan  nan  nan  nan  nan  -1.86274  -0.866493  1.45064  -0.0363552  0.027849  0.0364408  0.513985  0.490622  -0.1176  0  0  0  0.379117  0.310785  -0  0.00122085  -0.0203276  -0.0224097  0.0105781  0.0350049  -0.0124575  -0.068867  0.093243  -0.0388934  0.622734  -0.573336  0.159861 
1701767821.545176000  0  0  12.0987  -0.00894693  -0.107985  0.0196941  nan  nan  nan  nan  nan  nan  -1.86017  -0.864036  1.45005  -0.0330171  0.0244372  0.0373309  0.515821  0.492123  -0.1176  0  0  0  0.355645  0.289569  -0  0.000996417  -0.0204333  -0.022444  0.0123813  0.0369462  -0.0166875  -0.0691133  0.093148  -0.0391971  0.653736  -0.640992  0.145795 
1701767821.550176000  0  0  12.1659  -0.00294058  -0.133501  0.0193079  nan  nan  nan  nan  nan  nan  -1.85758  -0.861572  1.44947  -0.0308011  0.0223111  0.0381412  0.517543  0.493519  -0.1176  0  0  0  0.332923  0.269103  -0  0.00088701  -0.0204992  -0.0225876  0.0123269  0.0372949  -0.0220211  -0.0682215  0.0925559  -0.039236  0.633519  -0.584513  0.151012 
1701767821.555175000  0  0  12.0414  -0.0288616  -0.0884607  0.0195456  nan  nan  nan  nan  nan  nan  -1.85499  -0.859101  1.44888  -0.0263967  0.0168744  0.03908  0.519152  0.494815  -0.1176  0  0  0  0.310951  0.249387  -0  0.000972358  -0.0202987  -0.0225915  0.0167058  0.0409205  -0.0119735  -0.0688971  0.0937838  -0.0393528  0.691577  -0.68589  0.149209 
1701767821.560168000  0  0  12.1228  -0.021262  -0.0829303  0.0181582  nan  nan  nan  nan  nan  nan  -1.85239  -0.856624  1.44829  -0.0239314  0.0143739  0.0398846  0.520653  0.496014  -0.1176  0  0  0  0.28973  0.230421  -0  0.000895186  -0.0203238  -0.0227111  0.0172758  0.0417424  -0.018481  -0.0680468  0.0925948  -0.0392088  0.668554  -0.686012  0.165111 
1701767821.565176000  0  0  12.1791  -0.00429614  -0.122428  0.0166137  nan  nan  nan  nan  nan  nan  -1.84978  -0.854141  1.4477  -0.0205738  0.0108685  0.0407144  0.522051  0.49712  -0.1176  0  0  0  0.269258  0.212205  -0  0.000980344  -0.0201136  -0.0228402  0.018965  0.0435116  -0.0231742  -0.068493  0.0935279  -0.0390125  0.638728  -0.6156  0.182454 
1701767821.570175000  0  0  12.0137  -0.0409278  -0.0697079  0.01689  nan  nan  nan  nan  nan  nan  -1.84717  -0.851653  1.44711  -0.0173749  0.00658276  0.0415392  0.523347  0.498137  -0.1176  0  0  0  0.249536  0.194738  -0  0.00091784  -0.0201579  -0.0228113  0.0223388  0.0462659  -0.00938063  -0.0676727  0.0932037  -0.0389443  0.704444  -0.718058  0.178318 
1701767821.575175000  0  0  12.1494  -0.00699642  -0.093242  0.0160155  nan  nan  nan  nan  nan  nan  -1.84455  -0.84916  1.44653  -0.0155115  0.00469444  0.0423027  0.524547  0.499069  -0.1176  0  0  0  0.230564  0.178022  -0  0.000879201  -0.0201419  -0.0229856  0.0223596  0.0464386  -0.020259  -0.0667878  0.092005  -0.0387218  0.62844  -0.659962  0.187024 
1701767821.580168000  0  0  12.1375  -0.00370257  -0.110513  0.0159648  nan  nan  nan  nan  nan  nan  -1.84192  -0.846662  1.44594  -0.0118158  0.000543483  0.0430972  0.525654  0.499919  -0.1176  0  0  0  0.212342  0.162056  -0  0.000991961  -0.0199071  -0.023067  0.0251889  0.0491217  -0.0193166  -0.0674942  0.0931421  -0.0386063  0.628352  -0.635881  0.186503 
1701767821.585178000  0  0  12.022  -0.02716  -0.0886974  0.0166832  nan  nan  nan  nan  nan  nan  -1.83929  -0.844161  1.44535  -0.00894264  -0.00310156  0.0438657  0.526672  0.500691  -0.1176  0  0  0  0.19487  0.14684  -0  0.000977374  -0.0198658  -0.0230902  0.0277029  0.0512918  -0.0095249  -0.066691  0.0928609  -0.0385794  0.667877  -0.676926  0.177254 
1701767821.590704000  0  0  12.113  0.00818461  -0.11817  0.0167126  nan  nan  nan  nan  nan  nan  -1.83666  -0.841656  1.44476  -0.00643334  -0.00646608  0.0446202  0.527604  0.501389  -0.1176  0  0  0  0.178148  0.132374  -0  0.00128008  -0.0195252  -0.0232809  0.0293157  0.0521789  -0.0167536  -0.0664126  0.0930284  -0.0383984  0.594627  -0.619522  0.175076 
1701767821.595183000  0  0  12.1129  0.00236412  -0.114693  0.0176665  nan  nan  nan  nan  nan  nan  -1.83402  -0.839147  1.44417  -0.00344594  -0.00939839  0.0453579  0.528455  0.502016  -0.1176  0  0  0  0.162176  0.118658  -0  0.00113888  -0.019546  -0.0232908  0.0313567  0.0546825  -0.0167399  -0.0666722  0.0930557  -0.0385462  0.608656  -0.626727  0.164631 
1701767821.600176000  0  0  12.052  0.00373801  -0.11649  0.0178279  nan  nan  nan  nan  nan  nan  -1.83137  -0.836636  1.44359  -0.00127101  -0.0121935  0.0460941  0.529227  0.502576  -0.1176  0  0  0  0.146954  0.105691  -0  0.00114755  -0.0194887  -0.0233471  0.0329353  0.0560118  -0.011396  -0.0658677  0.0926152  -0.038544  0.598506  -0.61908  0.162591 
1701767821.605186000  0  0  12.0789  0.023037  -0.12661  0.017259  nan  nan  nan  nan  nan  nan  -1.82873  -0.834122  1.443  0.00157945  -0.0161765  0.0468125  0.529925  0.503074  -0.1176  0  0  0  0.132482  0.0934753  -0  0.00133486  -0.0192028  -0.023433  0.0358825  0.057906  -0.0135275  -0.0662454  0.0935797  -0.0384058  0.563384  -0.607712  0.16832 
