ts fx fy fz tx ty tz exfx exfy exfz extx exty extz xd yd zd rolld pitchd yawd vxd vyd vzd wxd wyd wzd axd ayd azd e_x e_y e_z e_vx e_vy e_vz e_rx e_ry e_rz e_wx e_wy e_wz
1703169060.440422000  0  0  12.1938  0.11868  -0.22741  0.0238753  nan  nan  nan  nan  nan  nan  -2.5  -0.3  1  0.0234188  -0.0508423  -0.00119037  0  0  0  0  0  0  0  0  0  0.030973  0.00918276  -0.0299352  -0.0159805  0.00694762  -0.00852387  -0.0195759  0.0423251  -0.0245569  -0.0292709  0.000702607  -0.00439856 
1703169060.444389000  0  0  12.1588  0.1028  -0.209723  0.0247217  nan  nan  nan  nan  nan  nan  -2.5  -0.3  1  0.0227308  -0.0494989  -0.00112488  0  0  0  0  0  0  0  0  0  0.0308968  0.00920229  -0.0299355  -0.0178651  0.00583461  -0.00603845  -0.0186915  0.0407801  -0.0247029  -0.00539638  -0.0194491  -0.0132885 
1703169060.449394000  0  0  12.1164  0.0854368  -0.194962  0.0261478  nan  nan  nan  nan  nan  nan  -2.5  -0.3  1  0.0230841  -0.0505859  -0.00116744  0  0  0  0  0  0  0  0  0  0.0310694  0.00924089  -0.0299916  -0.0170722  0.00610526  -0.00287942  -0.0186162  0.0413024  -0.0249638  0.030969  -0.0571078  -0.0280868 
1703169060.454388000  0  0  12.2291  0.100078  -0.218496  0.02482  nan  nan  nan  nan  nan  nan  -2.5  -0.3  1  0.022644  -0.0499665  -0.00113116  0  0  0  0  0  0  0  0  0  0.0309907  0.00926991  -0.0300799  -0.0170671  0.005704  -0.0107221  -0.0184281  0.0410407  -0.0249272  -0.00258983  -0.00363604  -0.011822 
1703169060.459383000  0  0  12.1885  0.0845761  -0.200508  0.0256296  nan  nan  nan  nan  nan  nan  -2.5  -0.3  1  0.0217996  -0.0495963  -0.00108091  0  0  0  0  0  0  0  0  0  0.031101  0.00928196  -0.030137  -0.01814  0.00437643  -0.0077102  -0.0172854  0.0403517  -0.0251129  0.0175047  -0.0342797  -0.0197698 
1703169060.464381000  0  0  12.153  0.0744619  -0.192197  0.0265047  nan  nan  nan  nan  nan  nan  -2.5  -0.3  1  0.0223345  -0.0492862  -0.00110052  0  0  0  0  0  0  0  0  0  0.0311042  0.00929933  -0.0301437  -0.0187891  0.00498787  -0.00515571  -0.0174344  0.0396562  -0.0253223  0.0409058  -0.0440991  -0.0282567 
1703169060.469395000  0  0  12.2015  0.09227  -0.210551  0.0244612  nan  nan  nan  nan  nan  nan  -2.5  -0.3  1  0.0216425  -0.0491136  -0.00106268  0  0  0  0  0  0  0  0  0  0.0310201  0.00931778  -0.0302047  -0.0185192  0.00408715  -0.00849292  -0.01708  0.039754  -0.0251882  -0.00135588  -0.00586953  -0.00416152 
1703169060.474385000  0  0  12.1683  0.0747409  -0.20308  0.0249689  nan  nan  nan  nan  nan  nan  -2.5  -0.3  1  0.0211679  -0.0491597  -0.00104034  0  0  0  0  0  0  0  0  0  0.031117  0.00932775  -0.0302579  -0.0189189  0.00330929  -0.00601732  -0.0162462  0.0396474  -0.0252958  0.0266384  -0.0206621  -0.00925216 
1703169060.478396000  0  0  12.1885  0.0828743  -0.194165  0.0253283  nan  nan  nan  nan  nan  nan  -2.5  -0.3  1  0.0220625  -0.0474486  -0.00104661  0  0  0  0  0  0  0  0  0  0.0310286  0.00935457  -0.0302964  -0.0209663  0.00454366  -0.00737488  -0.0170673  0.0378458  -0.0253662  0.018644  -0.0190523  -0.0129256 
1703169060.484394000  0  0  12.145  0.0930088  -0.206032  0.0255672  nan  nan  nan  nan  nan  nan  -2.5  -0.3  1  0.0208995  -0.0495009  -0.00103427  0  0  0  0  0  0  0  0  0  0.0311529  0.00934861  -0.0303406  -0.0186743  0.0028165  -0.00418542  -0.0162424  0.039858  -0.0254637  -0.0125764  -0.016755  -0.0147556 
1703169060.489401000  0  0  12.2432  0.0856905  -0.213536  0.0247738  nan  nan  nan  nan  nan  nan  -2.5  -0.3  1  0.021135  -0.0489358  -0.001034  0  0  0  0  0  0  0  0  0  0.031247  0.00937047  -0.030444  -0.0191787  0.0033251  -0.010948  -0.0163025  0.0394599  -0.025436  0.00380791  0.00391346  -0.00510718 
1703169060.494347000  0  0  12.2032  0.10782  -0.187679  0.0227721  nan  nan  nan  nan  nan  nan  -2.5  -0.3  1  0.0221434  -0.0463721  -0.00102664  0  0  0  0  0  0  0  0  0  0.0311256  0.00940007  -0.0304643  -0.0226801  0.00456821  -0.00808165  -0.0176128  0.0366454  -0.0251683  -0.0285706  -0.0191493  0.0168523 
1703169060.499397000  0  0  12.1505  0.0937828  -0.199041  0.0254456  nan  nan  nan  nan  nan  nan  -2.5  -0.3  1  0.0206068  -0.0488227  -0.00100582  0  0  0  0  0  0  0  0  0  0.0311242  0.00938597  -0.0304896  -0.0195161  0.00231478  -0.004273  -0.0162118  0.0390215  -0.025477  -0.014588  -0.0221227  -0.0130654 
1703169060.503397000  0  0  12.2903  0.0960693  -0.218832  0.0253268  nan  nan  nan  nan  nan  nan  -2.5  -0.3  1  0.0209011  -0.0470877  -0.000983964  0  0  0  0  0  0  0  0  0  0.0310341  0.00940497  -0.0305988  -0.020938  0.00301421  -0.0140034  -0.016534  0.0378332  -0.0255298  -0.0157843  0.0339849  -0.0109342 
1703169060.509402000  0  0  12.1839  0.118124  -0.177589  0.022908  nan  nan  nan  nan  nan  nan  -2.5  -0.3  1  0.0219598  -0.0449327  -0.000986541  0  0  0  0  0  0  0  0  0  0.0310683  0.0094312  -0.030611  -0.0246506  0.00417556  -0.00643186  -0.0180275  0.0352224  -0.0251937  -0.0458924  -0.0244141  0.0154482 
1703169060.514396000  0  0  12.1652  0.0924002  -0.195253  0.0269367  nan  nan  nan  nan  nan  nan  -2.5  -0.3  1  0.020415  -0.0474951  -0.000969384  0  0  0  0  0  0  0  0  0  0.0310076  0.00943035  -0.0306367  -0.020973  0.00195714  -0.00502396  -0.0163853  0.0376673  -0.0257022  -0.00962689  -0.0146662  -0.029112 
1703169060.519395000  0  0  12.3339  0.118287  -0.214267  0.0239223  nan  nan  nan  nan  nan  nan  -2.5  -0.3  1  0.0215298  -0.044215  -0.000951777  0  0  0  0  0  0  0  0  0  0.0308706  0.00946276  -0.0307778  -0.0243355  0.00385621  -0.0167698  -0.0179397  0.0351531  -0.0254449  -0.0472524  0.0550286  0.00571384 
1703169060.524395000  0  0  12.1555  0.119921  -0.16352  0.0235174  nan  nan  nan  nan  nan  nan  -2.5  -0.3  1  0.0219102  -0.042641  -0.000934137  0  0  0  0  0  0  0  0  0  0.0307549  0.00947884  -0.0307255  -0.0271344  0.00390307  -0.00420367  -0.0185345  0.0328429  -0.0253356  -0.0439135  -0.0272087  0.00949115 
1703169060.528391000  0  0  12.1305  0.0996386  -0.178975  0.0169907  nan  nan  nan  nan  nan  nan  -2.5  -0.3  1  0.0210844  -0.0440355  -0.0109283  2e-07  2e-07  2e-07  0  0  0  0.000125  0.000125  0.000125  0.0306749  0.00947874  -0.0307375  -0.0247674  0.00207897  -0.00237819  -0.017169  0.0344694  -0.0157229  -0.0161319  -0.0127807  -0.0242596 
1703169060.534395000  0  0  12.2584  0.12853  -0.204377  0.0142667  nan  nan  nan  nan  nan  nan  -2.5  -0.3  1  0.0222805  -0.0430259  -0.0109585  1.7e-06  1.7e-06  1.7e-06  0  0  0  0.0005  0.0005  0.0005  0.030668  0.00951273  -0.0308207  -0.0254541  0.00404627  -0.0112975  -0.0190098  0.0341442  -0.0154908  -0.0569048  0.04543  0.00721749 
1703169060.539395000  0  0  12.1442  0.130381  -0.171606  0.0138196  nan  nan  nan  nan  nan  nan  -2.5  -0.3  1  0.0220684  -0.0415959  -0.0109178  5.6e-06  5.6e-06  5.6e-06  0  0  0  0.001125  0.001125  0.001125  0.0305614  0.00952362  -0.0307907  -0.0276546  0.00353459  -0.00320025  -0.0191361  0.0323324  -0.015379  -0.0594221  -0.00399725  0.0114951 
1703169060.544393000  0  0  12.1456  0.10784  -0.187376  0.0177931  nan  nan  nan  nan  nan  nan  -2.5  -0.3  1  0.0207872  -0.0425466  -0.0108844  1.33e-05  1.33e-05  1.33e-05  0  0  0  0.002  0.002  0.002  0.0304471  0.00952627  -0.0308172  -0.0258932  0.00183523  -0.00317824  -0.0177794  0.0334891  -0.0158966  -0.0266959  0.0165116  -0.0322613 
1703169060.549400000  0  0  12.2169  0.123483  -0.203913  0.0171717  nan  nan  nan  nan  nan  nan  -2.5  -0.3  1  0.0222819  -0.0425106  -0.0109474  2.6e-05  2.6e-05  2.6e-05  0  0  0  0.003125  0.003125  0.003125  0.0305163  0.00955585  -0.0308468  -0.0256134  0.00417626  -0.00810116  -0.0195844  0.0339027  -0.0159464  -0.0394717  0.0472119  -0.0238427 
1703169060.553418000  0  0  12.1728  0.137226  -0.196625  0.0172253  nan  nan  nan  nan  nan  nan  -2.5  -0.3  1  0.022042  -0.0405716  -0.0108947  4.5e-05  4.5e-05  4.5e-05  0  0  0  0.0045  0.0045  0.0045  0.0303948  0.00956854  -0.0308459  -0.0280404  0.00390395  -0.00488656  -0.019814  0.032208  -0.0160379  -0.0663004  0.0510819  -0.0234134 
1703169060.559395000  0  0  12.0991  0.0993114  -0.192736  0.0241437  nan  nan  nan  nan  nan  nan  -2.5  -0.299999  1  0.0205846  -0.0425049  -0.0108758  7.15e-05  7.15e-05  7.15e-05  0  0  0  0.006125  0.006125  0.006125  0.0304288  0.00958511  -0.0307878  -0.0255873  0.00182167  0.000370716  -0.017974  0.0341804  -0.0171475  -0.00617019  0.0200523  -0.0970882 
1703169060.563389000  0  0  12.192  0.113556  -0.213071  0.0236671  nan  nan  nan  nan  nan  nan  -2.5  -0.299999  1  0.0216675  -0.0420033  -0.0109117  0.0001067  0.0001067  0.0001067  0  0  0  0.008  0.008  0.008  0.0303303  0.00961323  -0.030852  -0.025291  0.00373798  -0.00596297  -0.0192418  0.0342228  -0.0174319  -0.0221295  0.0631681  -0.087663 
1703169060.569387000  0  0  12.1199  0.131518  -0.218075  0.0207434  nan  nan  nan  nan  nan  nan  -2.5  -0.299998  1  0.0210388  -0.0407732  -0.0108604  0.0001519  0.0001519  0.0001519  0  0  0  0.010125  0.010125  0.010125  0.0303865  0.00961819  -0.0308065  -0.0272551  0.00296764  -0.000806162  -0.019335  0.03371  -0.0174355  -0.0595717  0.0797949  -0.0508333 
1703169060.574394000  0  0  12.0808  0.0822686  -0.206548  0.0256138  nan  nan  nan  nan  nan  nan  -2.5  -0.299997  1  0.0200763  -0.0426809  -0.0108609  0.0002083  0.0002083  0.0002083  0  0  0  0.0125  0.0125  0.0125  0.0304686  0.009657  -0.0307671  -0.0247094  0.00170551  0.00210689  -0.0175744  0.0355927  -0.0183481  0.0257771  0.0334202  -0.101114 
1703169060.578389000  0  0  12.2097  0.104263  -0.232027  0.0231024  nan  nan  nan  nan  nan  nan  -2.5  -0.299996  1  0.0210359  -0.0418985  -0.0108873  0.0002773  0.0002773  0.0002773  0  0  0  0.015125  0.015125  0.015125  0.0303735  0.00968455  -0.0308439  -0.0245425  0.00363144  -0.00670938  -0.0187867  0.0355554  -0.0183937  -0.00743749  0.0884834  -0.0689649 
1703169060.584395000  0  0  12.0853  0.119473  -0.229037  0.0182602  nan  nan  nan  nan  nan  nan  -2.49999  -0.299995  1.00001  0.020429  -0.0412926  -0.010852  0.00036  0.00036  0.00036  0  0  0  0.018  0.018  0.018  0.0303987  0.00971587  -0.0307575  -0.0256961  0.00278917  0.00214776  -0.0186502  0.0356623  -0.0180292  -0.0416224  0.0808411  -0.012433 
1703169060.589395000  0  0  12.0711  0.0751153  -0.218165  0.0223282  nan  nan  nan  nan  nan  nan  -2.49999  -0.299993  1.00001  0.0196075  -0.0433927  -0.0108626  0.0004577  0.0004577  0.0004577  0  0  0  0.021125  0.021125  0.021125  0.0305986  0.00972125  -0.0307054  -0.0229984  0.00197539  0.00332623  -0.0171557  0.0376369  -0.0186504  0.0362992  0.0348135  -0.0561294 
1703169060.594386000  0  0  12.1995  0.115408  -0.240155  0.0192734  nan  nan  nan  nan  nan  nan  -2.49999  -0.29999  1.00001  0.0205459  -0.0416912  -0.0108725  0.0005717  0.0005717  0.0005717  0  0  0  0.0245  0.0245  0.0245  0.0304795  0.00975195  -0.0307754  -0.0239535  0.00396649  -0.00541844  -0.0186848  0.0368058  -0.0184944  -0.0325083  0.0915268  -0.0195731 
1703169060.599383000  0  0  12.0527  0.0961793  -0.234785  0.0199214  nan  nan  nan  nan  nan  nan  -2.49999  -0.299987  1.00001  0.0190324  -0.0428532  -0.0108365  0.0007031  0.0007031  0.0007031  0  0  0  0.028125  0.028125  0.028125  0.0306308  0.00973343  -0.030672  -0.0230179  0.00203197  0.00508343  -0.0171454  0.0381962  -0.018664  -0.0089864  0.0640166  -0.0256818 
1703169060.603388000  0  0  12.0934  0.0762347  -0.221494  0.0223074  nan  nan  nan  nan  nan  nan  -2.49998  -0.299983  1.00002  0.0185615  -0.0415951  -0.0107992  0.0008533  0.0008533  0.0008533  0  0  0  0.032  0.032  0.032  0.0305286  0.0097427  -0.0306917  -0.0237837  0.00196531  0.00254475  -0.0163074  0.036998  -0.0190923  0.0241389  0.0493013  -0.0505411 
1703169060.609400000  0  0  12.1384  0.11212  -0.232625  0.0197253  nan  nan  nan  nan  nan  nan  -2.49998  -0.299978  1.00002  0.019089  -0.0431046  -0.0108575  0.0010235  0.0010235  0.0010235  0  0  0  0.036125  0.036125  0.036125  0.0308596  0.00971442  -0.0305822  -0.0218282  0.00339982  -0.000564793  -0.0176666  0.0390803  -0.0189025  -0.0371718  0.0492124  -0.0203396 
1703169060.614404000  0  0  12.1108  0.0953135  -0.229511  0.0207954  nan  nan  nan  nan  nan  nan  -2.49997  -0.299973  1.00003  0.0175936  -0.0426198  -0.0107934  0.001215  0.001215  0.001215  0  0  0  0.0405  0.0405  0.0405  0.0307513  0.00971643  -0.0305625  -0.0217855  0.00182803  0.00169211  -0.0161459  0.0388158  -0.0191449  -0.0186279  0.0455786  -0.0308822 
1703169060.619391000  0  0  12.173  0.091066  -0.218247  0.0218636  nan  nan  nan  nan  nan  nan  -2.49997  -0.299966  1.00003  0.0181744  -0.0407825  -0.0107954  0.001429  0.001429  0.001429  0  0  0  0.045125  0.045125  0.045125  0.0308143  0.00977656  -0.0305722  -0.0236251  0.00323454  -0.00233746  -0.0165246  0.03729  -0.0194239  -0.00516427  0.0389791  -0.0409594 
1703169060.624394000  0  0  12.1014  0.107605  -0.216534  0.0214029  nan  nan  nan  nan  nan  nan  -2.49996  -0.299958  1.00004  0.0176543  -0.0426227  -0.010819  0.0016667  0.0016667  0.0016667  0  0  0  0.05  0.05  0.05  0.030969  0.00978141  -0.0305196  -0.0211896  0.00296157  0.00303061  -0.016536  0.0390503  -0.0195119  -0.040497  0.0150542  -0.0341013 
1703169060.628401000  0  0  12.1816  0.102457  -0.234883  0.0212751  nan  nan  nan  nan  nan  nan  -2.49995  -0.299949  1.00005  0.0163974  -0.0420447  -0.0107703  0.0019294  0.0019294  0.0019294  0  0  0  0.055125  0.055125  0.055125  0.0308882  0.00978389  -0.0305603  -0.0207217  0.00203059  -0.00219155  -0.015453  0.0390151  -0.019633  -0.0419159  0.0548045  -0.0310339 
1703169060.634384000  0  0  12.1283  0.105651  -0.203045  0.0206572  nan  nan  nan  nan  nan  nan  -2.49994  -0.299939  1.00006  0.0168751  -0.0405435  -0.0107817  0.0022183  0.0022183  0.0022183  0  0  0  0.0605  0.0605  0.0605  0.0310747  0.0097853  -0.030447  -0.0229005  0.0033277  0.00179442  -0.0163204  0.0373953  -0.0196413  -0.0387873  0.00517248  -0.0231604 
1703169060.639383000  0  0  12.0747  0.1096  -0.210394  0.0221879  nan  nan  nan  nan  nan  nan  -2.49993  -0.299927  1.00007  0.0159756  -0.0438039  -0.0108162  0.0025348  0.0025348  0.0025348  0  0  0  0.066125  0.066125  0.066125  0.0313412  0.00976474  -0.0303354  -0.0186227  0.00272116  0.00583035  -0.0160168  0.0404766  -0.0198731  -0.0507468  -0.0145193  -0.0396257 
1703169060.644395000  0  0  12.2205  0.121557  -0.22988  0.020668  nan  nan  nan  nan  nan  nan  -2.49991  -0.299914  1.00009  0.015176  -0.0417349  -0.0107714  0.00288  0.00288  0.00288  0  0  0  0.072  0.072  0.072  0.031232  0.00977898  -0.0304104  -0.0197346  0.00261988  -0.00393352  -0.0157853  0.0390963  -0.0198542  -0.0790495  0.0431425  -0.0207299 
1703169060.649395000  0  0  12.1318  0.112374  -0.177873  0.0201666  nan  nan  nan  nan  nan  nan  -2.4999  -0.299898  1.0001  0.0157266  -0.0401746  -0.0107945  0.0032552  0.0032552  0.003255  0  0  0  0.078125  0.078125  0.0779792  0.0313346  0.00981949  -0.0303648  -0.0218303  0.00395452  0.00277935  -0.0164284  0.0367157  -0.0198412  -0.05196  -0.0409843  -0.0145775 
1703169060.654397000  0  0  12.1219  0.118276  -0.188782  0.0216174  nan  nan  nan  nan  nan  nan  -2.49988  -0.299881  1.00012  0.0147392  -0.0408256  -0.010792  0.0036617  0.0036617  0.0036594  0  0  0  0.0845  0.0845  0.0837224  0.0312484  0.00983286  -0.0303459  -0.0198936  0.00334643  0.00390807  -0.0159378  0.0372906  -0.0200864  -0.0702593  -0.0242073  -0.029876 
1703169060.659384000  0  0  12.199  0.132869  -0.195374  0.0200651  nan  nan  nan  nan  nan  nan  -2.49986  -0.299862  1.00014  0.0140949  -0.0395024  -0.0107781  0.0041006  0.0041006  0.0040918  0  0  0  0.091125  0.091125  0.0892156  0.0312649  0.00984581  -0.0303866  -0.0205786  0.00342191  -0.00105646  -0.0161189  0.0362163  -0.0199701  -0.0994667  0.00228586  -0.0117463 
1703169060.664394000  0  0  12.1853  0.125234  -0.150449  0.0209302  nan  nan  nan  nan  nan  nan  -2.49984  -0.29984  1.00016  0.014799  -0.0371828  -0.0108062  0.0045733  0.0045733  0.0045511  0  0  0  0.098  0.098  0.0944588  0.0313261  0.0099246  -0.0303779  -0.0231677  0.00510748  0.000332865  -0.0168998  0.0332368  -0.0200935  -0.0741124  -0.0597673  -0.0211434 
1703169060.669403000  0  0  12.1511  0.130263  -0.164792  0.0215027  nan  nan  nan  nan  nan  nan  -2.49982  -0.299816  1.00018  0.0135578  -0.0375697  -0.0108038  0.005081  0.005081  0.005036  0  0  0  0.105125  0.105125  0.099452  0.0312389  0.00994018  -0.0303446  -0.0216036  0.00419664  0.00308783  -0.0162761  0.0336129  -0.0202495  -0.0920692  -0.0333385  -0.0264661 
1703169060.674411000  0  0  12.2202  0.129307  -0.172082  0.0202014  nan  nan  nan  nan  nan  nan  -2.49979  -0.299789  1.00021  0.0129959  -0.0360466  -0.0108054  0.005625  0.005625  0.0055452  0  0  0  0.1125  0.1125  0.104195  0.0311697  0.00997094  -0.0303908  -0.022295  0.00441543  -0.00135489  -0.0161817  0.0323023  -0.020172  -0.0911079  -0.00262884  -0.011028 
1703169060.679399000  0  0  12.2523  0.139514  -0.142381  0.0195481  nan  nan  nan  nan  nan  nan  -2.49976  -0.299759  1.00024  0.0134879  -0.0322879  -0.0108191  0.0062065  0.0062065  0.0060775  0  0  0  0.120125  0.120125  0.108688  0.0310281  0.0100089  -0.0304101  -0.0260727  0.00611175  -0.00324192  -0.0171571  0.0283139  -0.0200941  -0.101771  -0.0204304  -0.00374728 
1703169060.684410000  0  0  12.1802  0.131393  -0.157141  0.0216453  nan  nan  nan  nan  nan  nan  -2.49973  -0.299727  1.00027  0.0118552  -0.0339938  -0.0108378  0.0068267  0.0068267  0.0066317  0  0  0  0.128  0.128  0.112932  0.0311644  0.0100771  -0.0303738  -0.0233121  0.00452229  0.00214786  -0.0159918  0.0301679  -0.0203541  -0.0977658  -0.0101118  -0.0270006 
1703169060.689403000  0  0  12.2999  0.128119  -0.181129  0.021705  nan  nan  nan  nan  nan  nan  -2.49969  -0.299691  1.00031  0.0119074  -0.033758  -0.0108926  0.0074869  0.0074869  0.0072064  0  0  0  0.136125  0.136125  0.116925  0.0312802  0.0101456  -0.0303739  -0.0224292  0.00563401  -0.00605493  -0.0164264  0.0305482  -0.020431  -0.0857436  0.03695  -0.0268243 
1703169060.694414000  0  0  12.3033  0.142986  -0.160602  0.0186793  nan  nan  nan  nan  nan  nan  -2.49965  -0.299652  1.00034  0.012195  -0.0295966  -0.0109122  0.0081883  0.0081883  0.0078005  0  0  0  0.1445  0.1445  0.120668  0.0311302  0.0101889  -0.0303833  -0.026802  0.00709117  -0.00600067  -0.0173191  0.0266334  -0.0201004  -0.107353  0.0379714  0.00726043 
1703169060.699411000  0  0  12.228  0.110265  -0.17441  0.0223209  nan  nan  nan  nan  nan  nan  -2.49961  -0.299609  1.00038  0.00978152  -0.032902  -0.0109387  0.0089323  0.0089323  0.0084127  0  0  0  0.153125  0.153125  0.124161  0.0314321  0.0102157  -0.030278  -0.0221413  0.00458651  -0.000578687  -0.0150888  0.0302326  -0.0204516  -0.0628491  0.0261728  -0.0343256 
1703169060.703412000  0  0  12.3863  0.109728  -0.199996  0.0236411  nan  nan  nan  nan  nan  nan  -2.49956  -0.299563  1.00043  0.00913531  -0.0313839  -0.0109743  0.00972  0.00972  0.0090417  0  0  0  0.162  0.162  0.127404  0.0313313  0.010235  -0.0303916  -0.0222653  0.00497078  -0.0113491  -0.0147154  0.0295208  -0.0207279  -0.0659928  0.0892246  -0.0476059 
1703169060.709404000  0  0  12.3286  0.131915  -0.200394  0.01886  nan  nan  nan  nan  nan  nan  -2.49951  -0.299512  1.00047  0.00955846  -0.028969  -0.0110405  0.0105527  0.0105527  0.0096863  0  0  0  0.171125  0.171125  0.130398  0.0314823  0.0103131  -0.030324  -0.025133  0.00653194  -0.00719222  -0.0160007  0.0281665  -0.0201839  -0.0987814  0.105658  0.00599298 
1703169060.714400000  0  0  12.2751  0.0863969  -0.200897  0.0225233  nan  nan  nan  nan  nan  nan  -2.49946  -0.299457  1.00052  0.00668245  -0.0299887  -0.0110454  0.0114317  0.0114317  0.0103453  0  0  0  0.1805  0.1805  0.133141  0.0314475  0.0103244  -0.0303063  -0.0225762  0.00358177  -0.00319731  -0.0129222  0.0295293  -0.0206062  -0.0365959  0.0910589  -0.035008 
1703169060.719418000  0  0  12.482  0.0996695  -0.235921  0.0199379  nan  nan  nan  nan  nan  nan  -2.4994  -0.299398  1.00058  0.00704247  -0.0271637  -0.0111232  0.0123581  0.0123581  0.0110173  0  0  0  0.190125  0.190125  0.135634  0.0313189  0.0103689  -0.0304638  -0.0242938  0.00543754  -0.0174076  -0.0136509  0.0282295  -0.0204061  -0.0566724  0.181112  -0.00488993 
1703169060.724397000  0  0  12.3239  0.100571  -0.2102  0.0176275  nan  nan  nan  nan  nan  nan  -2.49933  -0.299333  1.00063  0.00594045  -0.0247317  -0.0111714  0.0133333  0.0133333  0.0117012  0  0  0  0.2  0.2  0.137877  0.0312381  0.0103958  -0.0304108  -0.026743  0.00500671  -0.00611491  -0.0129759  0.026388  -0.020023  -0.0663705  0.147144  0.0195613 
1703169060.728423000  0  0  12.2505  0.0616228  -0.209324  0.0209499  nan  nan  nan  nan  nan  nan  -2.49926  -0.299264  1.00069  0.00310607  -0.0245695  -0.0111991  0.0143585  0.0143585  0.0123957  0  0  0  0.210125  0.210125  0.13987  0.0311335  0.0103837  -0.0304041  -0.0255973  0.00231564  -0.000742312  -0.00986753  0.0267498  -0.0203314  -0.0186152  0.141105  -0.0185239 
1703169060.734545000  0  0  12.3941  0.0851737  -0.238672  0.0191789  nan  nan  nan  nan  nan  nan  -2.49919  -0.29919  1.00076  0.00371283  -0.0239615  -0.0113159  0.015435  0.015435  0.0130995  0  0  0  0.2205  0.2205  0.141613  0.0313335  0.0105036  -0.0304633  -0.0252463  0.00426614  -0.0107315  -0.0109993  0.0278551  -0.0201345  -0.0560937  0.191318  0.00138636 
1703169060.739413000  0  0  12.2746  0.0757218  -0.220467  0.0193793  nan  nan  nan  nan  nan  nan  -2.49911  -0.29911  1.00083  0.00173044  -0.0227489  -0.0113764  0.016564  0.016564  0.0138114  0  0  0  0.231125  0.231125  0.143107  0.0312875  0.010512  -0.0304436  -0.0257995  0.0028006  -0.0021589  -0.00931281  0.027293  -0.0200546  -0.0552287  0.158748  -0.00209924 
1703169060.744411000  0  0  12.276  0.0462951  -0.218754  0.0233663  nan  nan  nan  nan  nan  nan  -2.49902  -0.299024  1.0009  -0.000462629  -0.0213917  -0.0114432  0.0177467  0.0177467  0.0145301  0  0  0  0.242  0.242  0.14435  0.0311599  0.010516  -0.030466  -0.0259624  0.00113135  -0.00211048  -0.00694038  0.0267799  -0.0205249  -0.0194238  0.160979  -0.0465955 
1703169060.749407000  0  0  12.3353  0.0658512  -0.226498  0.0220583  nan  nan  nan  nan  nan  nan  -2.49893  -0.298932  1.00097  -0.000310104  -0.021504  -0.0115686  0.0189844  0.0189844  0.0152545  0  0  0  0.253125  0.253125  0.145343  0.0313644  0.0105998  -0.0306662  -0.0247643  0.00256771  -0.00586725  -0.00761407  0.0282612  -0.0204045  -0.0536065  0.160542  -0.0315892 
1703169060.754414000  0  0  12.2911  0.068944  -0.225801  0.020722  nan  nan  nan  nan  nan  nan  -2.49883  -0.298834  1.00105  -0.00222602  -0.0195144  -0.0116601  0.0202783  0.0202783  0.0159831  0  0  0  0.2645  0.2645  0.146086  0.0312351  0.0106051  -0.0306675  -0.0258673  0.00136354  -0.00266305  -0.00623823  0.02723  -0.0202415  -0.0760664  0.170911  -0.0167405 
1703169060.759411000  0  0  12.2728  0.0531883  -0.213657  0.0223069  nan  nan  nan  nan  nan  nan  -2.49873  -0.298729  1.00113  -0.00339767  -0.0189419  -0.0117736  0.0216298  0.0216298  0.0167149  0  0  0  0.276125  0.276125  0.146579  0.0313791  0.0107105  -0.0309013  -0.0256156  0.000947215  -0.000849182  -0.00513519  0.0277458  -0.020402  -0.054972  0.138936  -0.0347476 
1703169060.764411000  0  0  12.3135  0.0738513  -0.218742  0.0209466  nan  nan  nan  nan  nan  nan  -2.49862  -0.298618  1.00122  -0.00367547  -0.01923  -0.0119079  0.02304  0.02304  0.0174485  0  0  0  0.288  0.288  0.146823  0.0315026  0.0107993  -0.0311177  -0.023905  0.00184042  -0.00330847  -0.00551981  0.0291627  -0.0202343  -0.094854  0.13354  -0.0196532 
1703169060.769569000  0  0  12.3432  0.0877784  -0.221801  0.0204121  nan  nan  nan  nan  nan  nan  -2.4985  -0.298499  1.00131  -0.00549623  -0.0163494  -0.0120356  0.0245102  0.0245102  0.0181827  0  0  0  0.300125  0.300125  0.146816  0.0313687  0.0108058  -0.0311568  -0.0260038  0.000855902  -0.00532877  -0.0046535  0.0273946  -0.020093  -0.134683  0.16044  -0.0146319 
1703169060.774420000  0  0  12.2489  0.0705934  -0.190779  0.0225613  nan  nan  nan  nan  nan  nan  -2.49837  -0.298372  1.0014  -0.00672308  -0.0154943  -0.0121745  0.0260417  0.0260417  0.0189163  0  0  0  0.3125  0.3125  0.146559  0.0315263  0.0108664  -0.0311119  -0.0262296  0.000652638  0.00127613  -0.00367717  0.0267607  -0.0203059  -0.109067  0.101214  -0.0391071 
1703169060.779406000  0  0  12.3057  0.0940718  -0.198179  0.022047  nan  nan  nan  nan  nan  nan  -2.49824  -0.298238  1.00149  -0.00749586  -0.0143381  -0.0123305  0.0276356  0.0276356  0.0196479  0  0  0  0.325125  0.325125  0.146052  0.0314129  0.0108777  -0.031148  -0.0258026  0.00115756  -0.00272667  -0.00393623  0.0263275  -0.0202726  -0.15643  0.122066  -0.0330371 
1703169060.784418000  0  0  12.3031  0.109241  -0.214416  0.0197562  nan  nan  nan  nan  nan  nan  -2.4981  -0.298096  1.00159  -0.0092876  -0.0129159  -0.0124837  0.0292933  0.0292933  0.0203764  0  0  0  0.338  0.338  0.145295  0.0315355  0.010925  -0.0311489  -0.0265122  0.000197946  -0.00260478  -0.00330982  0.0261515  -0.0199428  -0.196163  0.158906  -0.00818941 
1703169060.789412000  0  0  12.2343  0.0871207  -0.177334  0.0218212  nan  nan  nan  nan  nan  nan  -2.49795  -0.297945  1.0017  -0.0104332  -0.0117571  -0.0126528  0.031016  0.031016  0.0211004  0  0  0  0.351125  0.351125  0.144289  0.0316901  0.0109835  -0.0311166  -0.0269831  0.00023638  0.00216139  -0.00256863  0.0250793  -0.0200935  -0.157258  0.0917278  -0.0323551 
1703169060.794415000  0  0  12.2865  0.116767  -0.189106  0.0209725  nan  nan  nan  nan  nan  nan  -2.49779  -0.297786  1.00181  -0.0114086  -0.0102282  -0.012837  0.032805  0.032805  0.0218188  0  0  0  0.3645  0.3645  0.143032  0.0315655  0.0109915  -0.0311529  -0.0269885  0.000553106  -0.00156658  -0.0030123  0.0244052  -0.0199686  -0.215723  0.124725  -0.0231819 
1703169060.799411000  0  0  12.2367  0.118038  -0.196711  0.0197089  nan  nan  nan  nan  nan  nan  -2.49762  -0.297617  1.00192  -0.0135892  -0.00913532  -0.0130139  0.0346615  0.0346615  0.0225303  0  0  0  0.378125  0.378125  0.141525  0.0316444  0.011046  -0.0311188  -0.0270624  -0.000804412  0.00179532  -0.00192612  0.0243797  -0.019726  -0.230944  0.141326  -0.0102075 
1703169060.803410000  0  0  12.2541  0.0980109  -0.164421  0.0205513  nan  nan  nan  nan  nan  nan  -2.49744  -0.297439  1.00203  -0.014954  -0.00543716  -0.0132474  0.0365867  0.0365867  0.0232337  0  0  0  0.392  0.392  0.139768  0.0314827  0.0110142  -0.0311449  -0.0300252  -0.000777237  0.000533848  -0.00103505  0.0209188  -0.0196983  -0.198252  0.111902  -0.0211404 
1703169060.809405000  0  0  12.2378  0.123661  -0.173228  0.0199138  nan  nan  nan  nan  nan  nan  -2.49725  -0.297251  1.00215  -0.0158579  -0.00522163  -0.0134427  0.0385819  0.0385819  0.0239276  0  0  0  0.406125  0.406125  0.137761  0.0315717  0.0111086  -0.0311108  -0.0287508  -0.000429699  0.00145541  -0.00175003  0.0216594  -0.0195296  -0.245027  0.122266  -0.0151523 
1703169060.814397000  0  0  12.2565  0.109116  -0.186998  0.0197859  nan  nan  nan  nan  nan  nan  -2.49705  -0.297053  1.00227  -0.018115  -0.00430148  -0.0136508  0.0406483  0.0406483  0.0246109  0  0  0  0.4205  0.4205  0.135505  0.0316344  0.0111594  -0.031116  -0.0283739  -0.0018931  -1.77378e-05  -0.000389078  0.0218754  -0.0193737  -0.229496  0.149309  -0.0154226 
1703169060.819403000  0  0  12.309  0.105702  -0.15688  0.019414  nan  nan  nan  nan  nan  nan  -2.49684  -0.296844  1.00239  -0.0185545  0.000589549  -0.0139489  0.0427873  0.0427873  0.0252822  0  0  0  0.435125  0.435125  0.132998  0.0314576  0.011168  -0.0311457  -0.032893  -0.00062694  -0.00381393  -0.000840775  0.0175701  -0.0192018  -0.216978  0.134259  -0.0128154 
1703169060.824390000  0  0  12.2061  0.106741  -0.157114  0.020637  nan  nan  nan  nan  nan  nan  -2.49662  -0.296625  1.00252  -0.0213115  4.81212e-06  -0.0141538  0.045  0.045  0.0259404  0  0  0  0.45  0.45  0.130241  0.0315299  0.0111922  -0.0310937  -0.0303624  -0.00241387  0.00319005  0.000681433  0.0187927  -0.0191823  -0.236718  0.120695  -0.0284382 
1703169060.828406000  0  0  12.3172  0.0924612  -0.179776  0.020968  nan  nan  nan  nan  nan  nan  -2.49639  -0.296394  1.00265  -0.0241819  0.00231269  -0.0144314  0.0472877  0.0472877  0.0265842  0  0  0  0.465125  0.465125  0.127234  0.0313633  0.0111273  -0.0311804  -0.0312519  -0.00454583  -0.0046919  0.00272288  0.0177091  -0.0190925  -0.229585  0.181753  -0.0336864 
1703169060.834412000  0  0  12.2901  0.0981179  -0.152273  0.019441  nan  nan  nan  nan  nan  nan  -2.49615  -0.296152  1.00279  -0.0243476  0.00728044  -0.0147809  0.0496517  0.0496517  0.0272124  0  0  0  0.4805  0.4805  0.123977  0.0313241  0.0112076  -0.0311347  -0.0361729  -0.00279791  -0.00304183  0.00165657  0.0137668  -0.018827  -0.229447  0.168133  -0.0176726 
1703169060.839412000  0  0  12.1973  0.078394  -0.160431  0.0222993  nan  nan  nan  nan  nan  nan  -2.4959  -0.295898  1.00293  -0.0278972  0.00647622  -0.0150187  0.0520931  0.0520931  0.0278236  0  0  0  0.496125  0.496125  0.120471  0.0312471  0.0111832  -0.0310808  -0.0327627  -0.00542553  0.00320239  0.00419337  0.0153523  -0.0190238  -0.216338  0.167386  -0.0512635 
1703169060.844410000  0  0  12.3729  0.0862099  -0.199199  0.0214933  nan  nan  nan  nan  nan  nan  -2.49563  -0.295631  1.00307  -0.0296749  0.00948413  -0.0153601  0.0546133  0.0546133  0.0284166  0  0  0  0.512  0.512  0.116714  0.0310641  0.0111587  -0.0311885  -0.0346417  -0.00629768  -0.00927175  0.00466037  0.0143294  -0.0189174  -0.23847  0.262283  -0.0424064 
1703169060.849403000  0  0  12.2462  0.0790671  -0.143919  0.0204139  nan  nan  nan  nan  nan  nan  -2.49535  -0.295351  1.00321  -0.0314344  0.014243  -0.0157734  0.0572135  0.0572135  0.0289903  0  0  0  0.528125  0.528125  0.112707  0.0309264  0.0111432  -0.0311318  -0.0387652  -0.00607049  -0.000584632  0.0053891  0.0101114  -0.0186706  -0.231537  0.192272  -0.0317996 
1703169060.853414000  0  0  12.1827  0.05054  -0.146665  0.0234405  nan  nan  nan  nan  nan  nan  -2.49506  -0.295059  1.00336  -0.0352991  0.0146478  -0.0160958  0.059895  0.059895  0.0295433  0  0  0  0.5445  0.5445  0.10845  0.0307462  0.0110479  -0.0311329  -0.0366573  -0.00883458  0.00368166  0.00859879  0.0104546  -0.0188781  -0.207293  0.194212  -0.0673795 
1703169060.859419000  0  0  12.3644  0.0731259  -0.211083  0.0205835  nan  nan  nan  nan  nan  nan  -2.49475  -0.294752  1.00351  -0.0362591  0.0162582  -0.0164277  0.062659  0.062659  0.0300744  0  0  0  0.561125  0.561125  0.103943  0.0308029  0.0111369  -0.0312816  -0.0372825  -0.00895687  -0.00923474  0.00797439  0.0117958  -0.0186097  -0.24854  0.316912  -0.0346668 
1703169060.864410000  0  0  12.2009  0.0553565  -0.163236  0.0202262  nan  nan  nan  nan  nan  nan  -2.49443  -0.294432  1.00366  -0.0387669  0.0185797  -0.0168243  0.0655067  0.0655067  0.0305823  0  0  0  0.578  0.578  0.0991865  0.0309298  0.0111147  -0.0312178  -0.0384459  -0.00945781  0.0019721  0.00962527  0.0102776  -0.0183738  -0.22943  0.231781  -0.0330157 
1703169060.869398000  0  0  12.1943  0.0372797  -0.196659  0.0222173  nan  nan  nan  nan  nan  nan  -2.4941  -0.294097  1.00381  -0.0426068  0.0188266  -0.0171781  0.0684394  0.068439  0.0310658  0  0  0  0.595125  0.594911  0.0941797  0.030772  0.0110493  -0.0312144  -0.0361837  -0.012407  0.00212581  0.0124067  0.0117868  -0.0184776  -0.222667  0.286087  -0.0568167 
1703169060.874391000  0  0  12.311  0.0524436  -0.223255  0.0194148  nan  nan  nan  nan  nan  nan  -2.49375  -0.293747  1.00397  -0.0436691  0.0209646  -0.0175696  0.0714583  0.0714554  0.0315237  0  0  0  0.6125  0.611572  0.0889229  0.0308026  0.0110594  -0.0313432  -0.0373296  -0.0122545  -0.00623799  0.0122057  0.0119794  -0.0180673  -0.252871  0.3409  -0.0264995 
1703169060.878409000  0  0  12.2193  0.0419127  -0.184376  0.0186089  nan  nan  nan  nan  nan  nan  -2.49338  -0.293382  1.00413  -0.0465334  0.0252757  -0.0181149  0.0745648  0.0745544  0.0319546  0  0  0  0.630125  0.627984  0.0834161  0.0305606  0.0109426  -0.0313363  -0.0402718  -0.0132141  1.38942e-05  0.0141213  0.00856622  -0.0176904  -0.252327  0.2968  -0.0209039 
1703169060.884411000  0  0  12.1645  0.0310407  -0.214672  0.0210837  nan  nan  nan  nan  nan  nan  -2.493  -0.293002  1.00429  -0.050281  0.0242898  -0.0184508  0.07776  0.0777348  0.0323574  0  0  0  0.647955  0.644146  0.0776593  0.0306907  0.0109359  -0.0312865  -0.0368553  -0.0160514  0.00341321  0.0164296  0.0118328  -0.0177778  -0.255571  0.324181  -0.0509888 
1703169060.889402000  0  0  12.2287  0.0447907  -0.234123  0.0196445  nan  nan  nan  nan  nan  nan  -2.4926  -0.292605  1.00445  -0.0512552  0.0257949  -0.0188486  0.081044  0.0809954  0.0327308  0  0  0  0.665619  0.660058  0.0716736  0.0307756  0.0108909  -0.0313218  -0.0371295  -0.0155169  -0.00148325  0.016048  0.012515  -0.0175227  -0.280663  0.358042  -0.0359544 
1703169060.894392000  0  0  12.1539  0.0620772  -0.214156  0.0185457  nan  nan  nan  nan  nan  nan  -2.49219  -0.292192  1.00461  -0.053831  0.0300375  -0.019447  0.0844157  0.0843349  0.0330744  0  0  0  0.683032  0.67572  0.0658122  0.0305741  0.0108148  -0.0312778  -0.0400866  -0.016271  0.00349091  0.0167091  0.00993188  -0.0171351  -0.325336  0.344944  -0.0268022 
1703169060.899412000  0  0  12.0771  0.0428672  -0.216517  0.0228884  nan  nan  nan  nan  nan  nan  -2.49176  -0.291761  1.00478  -0.057713  0.0291477  -0.0198218  0.0878739  0.0877522  0.0333894  0  0  0  0.700196  0.691132  0.0602008  0.0307266  0.0107362  -0.0312264  -0.03687  -0.0189672  0.00847819  0.0192765  0.0124884  -0.0174235  -0.313681  0.320596  -0.0779663 
1703169060.904392000  0  0  12.1978  0.0734143  -0.233668  0.0213921  nan  nan  nan  nan  nan  nan  -2.49131  -0.291314  1.00495  -0.0580854  0.0322472  -0.0203286  0.0914173  0.0912458  0.0336769  0  0  0  0.71711  0.706294  0.0548394  0.0305252  0.0106604  -0.0312813  -0.0388998  -0.0179606  -0.000265163  0.0176116  0.0115039  -0.0172591  -0.360028  0.368698  -0.0611223 
1703169060.909396000  0  0  12.0839  0.0915551  -0.217143  0.0197907  nan  nan  nan  nan  nan  nan  -2.49085  -0.290849  1.00512  -0.0609736  0.0345829  -0.0208863  0.0950446  0.0948147  0.0339382  0  0  0  0.733773  0.721205  0.0497281  0.0306379  0.0105664  -0.0311814  -0.0399576  -0.0189054  0.00739783  0.0182782  0.0108134  -0.0168851  -0.406595  0.341209  -0.0454809 
1703169060.914412000  0  0  12.0284  0.0712854  -0.210296  0.0243413  nan  nan  nan  nan  nan  nan  -2.49036  -0.290366  1.00529  -0.0642361  0.0331798  -0.0212375  0.0987546  0.0984575  0.0341746  0  0  0  0.750187  0.735867  0.0448667  0.030837  0.0105235  -0.0310966  -0.0363014  -0.0210199  0.010843  0.0200293  0.0134236  -0.0172816  -0.383277  0.296496  -0.0979584 
1703169060.919360000  0  0  12.1615  0.113289  -0.230361  0.0218591  nan  nan  nan  nan  nan  nan  -2.48986  -0.289864  1.00546  -0.0646486  0.0366895  -0.0218127  0.102546  0.102173  0.0343873  0  0  0  0.76635  0.750279  0.0402553  0.0306347  0.0104292  -0.0311381  -0.0391065  -0.0202675  0.00129932  0.0177973  0.0120672  -0.0170096  -0.447666  0.355126  -0.0700044 
1703169060.924361000  0  0  12.0398  0.12126  -0.200545  0.0203944  nan  nan  nan  nan  nan  nan  -2.48934  -0.289344  1.00563  -0.0679617  0.0383447  -0.022388  0.106418  0.10596  0.0345775  0  0  0  0.782264  0.764441  0.0358939  0.0309749  0.0103067  -0.0310484  -0.0398761  -0.0216749  0.00961161  0.0188711  0.0116046  -0.0165583  -0.477111  0.296515  -0.0570147 
1703169060.928413000  0  0  12.0613  0.0946288  -0.187098  0.0257068  nan  nan  nan  nan  nan  nan  -2.48879  -0.288804  1.00581  -0.0711164  0.0396503  -0.0229493  0.110368  0.109817  0.0347466  0  0  0  0.797928  0.778353  0.0317825  0.0307241  0.0101079  -0.0310655  -0.0391561  -0.0237602  0.00800126  0.0205781  0.0111628  -0.0170076  -0.439645  0.272765  -0.118441 
1703169060.934413000  0  0  12.243  0.159694  -0.214003  0.0203478  nan  nan  nan  nan  nan  nan  -2.48823  -0.288246  1.00598  -0.0699423  0.0425032  -0.0234553  0.114397  0.113743  0.0348958  0  0  0  0.813341  0.792015  0.0279211  0.0306974  0.0101406  -0.0311185  -0.041946  -0.0217353  -0.00496725  0.0158657  0.0108384  -0.0165351  -0.524948  0.334187  -0.0567089 
1703169060.939419000  0  0  12.0929  0.1278  -0.161616  0.0226881  nan  nan  nan  nan  nan  nan  -2.48765  -0.287667  1.00615  -0.0740816  0.0455399  -0.0242167  0.118501  0.117737  0.0350263  0  0  0  0.828505  0.805427  0.0243098  0.0304927  0.0100168  -0.0310243  -0.0430267  -0.0240421  0.00553844  0.0178443  0.00849588  -0.0165216  -0.479321  0.248805  -0.086318 
1703169060.944367000  0  0  12.1956  0.122474  -0.179579  0.0247407  nan  nan  nan  nan  nan  nan  -2.48705  -0.287068  1.00633  -0.0758666  0.0454862  -0.0246599  0.122681  0.121797  0.0351393  0  0  0  0.843418  0.818589  0.0209484  0.0306526  0.00993064  -0.0311567  -0.0420975  -0.0254101  -0.00162807  0.0178002  0.0101058  -0.0167126  -0.467395  0.268801  -0.109842 
1703169060.949404000  0  0  12.2122  0.161798  -0.179815  0.0193349  nan  nan  nan  nan  nan  nan  -2.48642  -0.286449  1.00651  -0.0770377  0.0487443  -0.0253366  0.126935  0.125922  0.0352362  0  0  0  0.858082  0.8315  0.017837  0.0305057  0.00982749  -0.0311764  -0.0445209  -0.0250404  -0.00276224  0.0159477  0.00846757  -0.016014  -0.530402  0.288153  -0.0502455 
1703169060.953403000  0  0  12.1285  0.123867  -0.155884  0.0211017  nan  nan  nan  nan  nan  nan  -2.48578  -0.285809  1.00668  -0.081407  0.0521973  -0.0262103  0.131262  0.130111  0.0353181  0  0  0  0.872495  0.844162  0.0149756  0.030205  0.00958523  -0.0311594  -0.0463282  -0.0278719  0.00331324  0.0187563  0.00592294  -0.0158362  -0.481381  0.266114  -0.0746186 
1703169060.959418000  0  0  12.2026  0.116215  -0.166316  0.0234292  nan  nan  nan  nan  nan  nan  -2.48511  -0.285148  1.00686  -0.0820408  0.0537402  -0.0267546  0.13566  0.134363  0.0353863  0  0  0  0.886659  0.856574  0.0123642  0.0301442  0.00957356  -0.0311863  -0.0469963  -0.0276753  -0.00194842  0.0170935  0.00620964  -0.0161774  -0.445842  0.285186  -0.0997906 
1703169060.964417000  0  0  12.1915  0.133314  -0.169832  0.0209651  nan  nan  nan  nan  nan  nan  -2.48442  -0.284465  1.00704  -0.0842253  0.0555855  -0.027419  0.140128  0.138677  0.0354421  0  0  0  0.900573  0.868736  0.0100028  0.0300123  0.00941504  -0.0312112  -0.0474477  -0.0284618  -0.00104846  0.0166425  0.00580351  -0.0157811  -0.477319  0.297397  -0.0735644 
1703169060.969412000  0  0  12.2156  0.108892  -0.169615  0.0225123  nan  nan  nan  nan  nan  nan  -2.48371  -0.283761  1.00721  -0.0871372  0.0589181  -0.0282695  0.144665  0.14305  0.0354868  0  0  0  0.914236  0.880648  0.0078914  0.0297644  0.00925969  -0.0312226  -0.0499783  -0.0305757  -0.00252691  0.0176629  0.00420463  -0.0157526  -0.436691  0.315325  -0.093375 
1703169060.974396000  0  0  12.1936  0.0918517  -0.158212  0.0242389  nan  nan  nan  nan  nan  nan  -2.48297  -0.283034  1.00739  -0.0889788  0.0612182  -0.0289867  0.14927  0.147483  0.0355215  0  0  0  0.92765  0.89231  0.0060301  0.0295777  0.00914042  -0.0312531  -0.0508952  -0.030913  -0.00080281  0.0178655  0.00334677  -0.015894  -0.402483  0.300743  -0.113395 
1703169060.978419000  0  0  12.2677  0.0971646  -0.16872  0.0227787  nan  nan  nan  nan  nan  nan  -2.48222  -0.282286  1.00757  -0.091688  0.063305  -0.0297547  0.153941  0.151973  0.0355475  0  0  0  0.940813  0.903722  0.0044187  0.0292403  0.00886369  -0.0313374  -0.051876  -0.0330396  -0.0056783  0.0187136  0.00276505  -0.0155655  -0.423633  0.329968  -0.0989818 
1703169060.984418000  0  0  12.2628  0.0919025  -0.180995  0.0216572  nan  nan  nan  nan  nan  nan  -2.48143  -0.281515  1.00775  -0.093645  0.0657962  -0.0305286  0.158677  0.15652  0.0355661  0  0  0  0.953727  0.914883  0.0030573  0.0291565  0.0088135  -0.0313592  -0.0535707  -0.0339561  -0.00509508  0.0183069  0.00259843  -0.0153686  -0.40767  0.358206  -0.0872449 
1703169060.989410000  0  0  12.2251  0.0630625  -0.170957  0.0232964  nan  nan  nan  nan  nan  nan  -2.48063  -0.280721  1.00792  -0.0957495  0.0677481  -0.0312772  0.163478  0.161121  0.0355785  0  0  0  0.966391  0.925795  0.0019459  0.0289936  0.00865706  -0.031366  -0.0540523  -0.0344791  -0.00223644  0.0191021  0.00220277  -0.0154176  -0.354979  0.341232  -0.107278 
1703169060.994417000  0  0  12.331  0.0877507  -0.208222  0.0225901  nan  nan  nan  nan  nan  nan  -2.4798  -0.279903  1.0081  -0.0973941  0.0692792  -0.0319669  0.168341  0.165777  0.0355859  0  0  0  0.978804  0.936457  0.0010845  0.0287271  0.00847951  -0.0314472  -0.0548372  -0.0359064  -0.00937095  0.0184063  0.00313537  -0.0153153  -0.399912  0.410408  -0.099625 
1703169060.999417000  0  0  12.2729  0.0701513  -0.200365  0.0226386  nan  nan  nan  nan  nan  nan  -2.47895  -0.279063  1.00828  -0.0997691  0.0708571  -0.0327248  0.173265  0.170486  0.0355897  0  0  0  0.990968  0.946869  0.0004731  0.0287165  0.00837411  -0.0315915  -0.0551317  -0.0368015  -0.0047409  0.0195676  0.00340573  -0.0150316  -0.375534  0.390451  -0.103654 
1703169061.003413000  0  0  12.2624  0.0512268  -0.191941  0.0239037  nan  nan  nan  nan  nan  nan  -2.47807  -0.278198  1.00846  -0.102422  0.0743129  -0.0337095  0.17825  0.175245  0.0355911  0  0  0  1.00288  0.957031  0.0001118  0.028314  0.00805574  -0.0316411  -0.0574262  -0.0379193  -0.00349954  0.021004  0.00151069  -0.0149536  -0.35148  0.394189  -0.120513 
1703169061.009414000  0  0  12.2993  0.0779734  -0.234257  0.0230457  nan  nan  nan  nan  nan  nan  -2.47716  -0.27731  1.00864  -0.103689  0.074342  -0.0342544  0.183294  0.180055  0.0355913  0  0  0  1.01454  0.966943  -0  0.028192  0.00800752  -0.0316947  -0.0560372  -0.0386274  -0.00587065  0.0197164  0.00459085  -0.0149622  -0.394018  0.44949  -0.109614 
1703169061.014424000  0  0  12.2912  0.071465  -0.231212  0.0231729  nan  nan  nan  nan  nan  nan  -2.47623  -0.276398  1.00881  -0.105572  0.077156  -0.0351462  0.188395  0.184914  0.0355913  0  0  0  1.02596  0.976605  -0  0.0279035  0.00781856  -0.0317061  -0.0578037  -0.0391455  -0.00491622  0.0197445  0.00401075  -0.0148833  -0.380385  0.449634  -0.112165 
1703169061.019420000  0  0  12.2826  0.0899149  -0.224801  0.0232065  nan  nan  nan  nan  nan  nan  -2.47528  -0.275461  1.00899  -0.106694  0.0800012  -0.0359968  0.193553  0.189821  0.0355913  0  0  0  1.03712  0.986017  -0  0.027653  0.0076379  -0.0317036  -0.0597089  -0.03863  -0.00399438  0.0187059  0.00326778  -0.0148452  -0.407998  0.444435  -0.113047 
1703169061.024398000  0  0  12.238  0.088019  -0.239819  0.0236829  nan  nan  nan  nan  nan  nan  -2.4743  -0.274499  1.00917  -0.109996  0.0802957  -0.0367619  0.198766  0.194774  0.0355913  0  0  0  1.04804  0.995178  -0  0.0274378  0.00741681  -0.0316853  -0.0578903  -0.0408044  -0.000594175  0.0198979  0.00526384  -0.0147018  -0.417647  0.453674  -0.12077 
1703169061.028418000  0  0  12.3156  0.0858715  -0.240835  0.0237002  nan  nan  nan  nan  nan  nan  -2.47329  -0.273513  1.00935  -0.111662  0.0835467  -0.0377323  0.204033  0.199772  0.0355913  0  0  0  1.0587  1.00409  -0  0.0269898  0.00706471  -0.0317739  -0.0607609  -0.0416555  -0.00547186  0.0199077  0.00396505  -0.0145543  -0.413154  0.470794  -0.122766 
1703169061.034401000  0  0  12.2232  0.119035  -0.220311  0.0225026  nan  nan  nan  nan  nan  nan  -2.47226  -0.272502  1.00953  -0.111817  0.0866791  -0.0385739  0.209353  0.204815  0.0355913  0  0  0  1.06911  1.01275  -0  0.0268728  0.00705085  -0.0317131  -0.0626333  -0.0392546  0.00119662  0.01719  0.00323708  -0.0145222  -0.453  0.435161  -0.108084 
1703169061.039420000  0  0  12.215  0.103366  -0.232876  0.0254087  nan  nan  nan  nan  nan  nan  -2.4712  -0.271465  1.0097  -0.114952  0.0854966  -0.0391972  0.214724  0.2099  0.0355913  0  0  0  1.07928  1.02116  -0  0.0266637  0.00684422  -0.0316991  -0.0591936  -0.0418457  0.00192863  0.0183291  0.00646132  -0.0146835  -0.432507  0.425011  -0.142706 
1703169061.044412000  0  0  12.3488  0.132711  -0.252212  0.0244317  nan  nan  nan  nan  nan  nan  -2.47011  -0.270403  1.00988  -0.114552  0.0892895  -0.0400878  0.220145  0.215026  0.0355913  0  0  0  1.08919  1.02933  -0  0.0263223  0.00664828  -0.0317821  -0.0637694  -0.04103  -0.00700832  0.0153888  0.00532558  -0.0147686  -0.461602  0.479539  -0.129387 
1703169061.049402000  0  0  12.1782  0.144271  -0.195908  0.023154  nan  nan  nan  nan  nan  nan  -2.469  -0.269315  1.01006  -0.117148  0.092483  -0.0411936  0.225615  0.220192  0.0355913  0  0  0  1.09885  1.03724  -0  0.026092  0.00643095  -0.0317018  -0.0647325  -0.0404884  0.00533596  0.0152808  0.00326592  -0.0144277  -0.485149  0.382503  -0.11742 
1703169061.054395000  0  0  12.21  0.12532  -0.220642  0.026486  nan  nan  nan  nan  nan  nan  -2.46785  -0.268201  1.01024  -0.119934  0.0910409  -0.0417845  0.231133  0.225398  0.0355913  0  0  0  1.10827  1.0449  -0  0.0257976  0.00620588  -0.0317121  -0.0612206  -0.0431666  0.00326587  0.0159729  0.00665792  -0.0147164  -0.452476  0.396516  -0.155863 
1703169061.059417000  0  0  12.354  0.164986  -0.236005  0.0228231  nan  nan  nan  nan  nan  nan  -2.46668  -0.267061  1.01042  -0.118416  0.0949286  -0.0426145  0.236697  0.230641  0.0355913  0  0  0  1.11743  1.05231  -0  0.0254931  0.00605934  -0.0318205  -0.066277  -0.0411945  -0.00641226  0.0118573  0.00536856  -0.0145597  -0.490182  0.444291  -0.111665 
1703169061.064397000  0  0  12.1375  0.165465  -0.174683  0.0227312  nan  nan  nan  nan  nan  nan  -2.46549  -0.265894  1.01059  -0.121776  0.0966586  -0.0436638  0.242307  0.235921  0.0355913  0  0  0  1.12634  1.05947  -0  0.0253733  0.00580222  -0.0316948  -0.0649985  -0.0410954  0.00901867  0.0124547  0.00419832  -0.0141653  -0.49808  0.326266  -0.115263 
1703169061.069402000  0  0  12.2595  0.147727  -0.216463  0.0254415  nan  nan  nan  nan  nan  nan  -2.46426  -0.264701  1.01077  -0.123919  0.095592  -0.0442634  0.24796  0.241235  0.0355913  0  0  0  1.13501  1.06639  -0  0.0250661  0.00557242  -0.0317459  -0.0631182  -0.0441799  0.000685654  0.0125084  0.00739634  -0.0144083  -0.460664  0.37906  -0.146435 
1703169061.074399000  0  0  12.334  0.177626  -0.214344  0.0211032  nan  nan  nan  nan  nan  nan  -2.46301  -0.263482  1.01095  -0.12237  0.0989486  -0.045052  0.253657  0.246584  0.0355913  0  0  0  1.14342  1.07305  -0  0.0247779  0.0053955  -0.0317877  -0.0668296  -0.0413026  -0.00429276  0.008368  0.00592004  -0.0141221  -0.477142  0.391501  -0.0952997 
1703169061.078410000  0  0  12.1953  0.164668  -0.165221  0.0209854  nan  nan  nan  nan  nan  nan  -2.46172  -0.262235  1.01113  -0.126403  0.102371  -0.0464234  0.259394  0.251965  0.0355913  0  0  0  1.15159  1.07946  -0  0.0242549  0.00497915  -0.0317421  -0.0677892  -0.0426132  0.00606668  0.0104073  0.00313192  -0.0135873  -0.472818  0.318245  -0.100264 
1703169061.084405000  0  0  12.3277  0.142137  -0.204153  0.0248534  nan  nan  nan  nan  nan  nan  -2.46041  -0.260962  1.01131  -0.127111  0.10035  -0.0467801  0.265172  0.257378  0.0355913  0  0  0  1.1595  1.08562  -0  0.0241751  0.00497021  -0.0318209  -0.065418  -0.0447096  -0.00316026  0.00914269  0.00744308  -0.0140924  -0.409957  0.352126  -0.142844 
1703169061.089409000  0  0  12.3606  0.160578  -0.196565  0.021733  nan  nan  nan  nan  nan  nan  -2.45907  -0.259662  1.01148  -0.125894  0.103261  -0.0475689  0.270989  0.262821  0.0355913  0  0  0  1.16716  1.09153  -0  0.0238825  0.00478242  -0.0318197  -0.0681517  -0.0418197  -0.00531919  0.00583942  0.00610805  -0.0139116  -0.411498  0.351215  -0.105762 
1703169061.094399000  0  0  12.2987  0.1494  -0.189544  0.0210616  nan  nan  nan  nan  nan  nan  -2.4577  -0.258334  1.01166  -0.128627  0.105191  -0.0486555  0.276843  0.268293  0.0355913  0  0  0  1.17458  1.09719  -0  0.0235442  0.0045592  -0.0317928  -0.0684665  -0.0431325  -0.000559971  0.00654654  0.00569855  -0.0135146  -0.395665  0.340872  -0.102099 
1703169061.099346000  0  0  12.376  0.113454  -0.198372  0.0249973  nan  nan  nan  nan  nan  nan  -2.4563  -0.256979  1.01184  -0.12989  0.104523  -0.0492615  0.282734  0.273793  0.0355913  0  0  0  1.18174  1.10261  -0  0.0233358  0.00431351  -0.0318591  -0.0671497  -0.0445641  -0.00577088  0.00661949  0.0077708  -0.013816  -0.319425  0.335961  -0.147987 
1703169061.103404000  0  0  12.4397  0.128593  -0.205463  0.0224162  nan  nan  nan  nan  nan  nan  -2.45488  -0.255596  1.01202  -0.130322  0.10757  -0.050268  0.28866  0.279319  0.0355913  0  0  0  1.18865  1.10777  -0  0.0227878  0.00388941  -0.0319436  -0.0700069  -0.0438344  -0.00971131  0.00549938  0.00633838  -0.0134987  -0.339001  0.367645  -0.119335 
1703169061.109402000  0  0  12.3492  0.128125  -0.208969  0.0212598  nan  nan  nan  nan  nan  nan  -2.45342  -0.254185  1.01219  -0.131914  0.108466  -0.0511294  0.29462  0.28487  0.0355913  0  0  0  1.19532  1.11268  -0  0.0227173  0.00390026  -0.0318885  -0.0692432  -0.0439662  -0.00322778  0.00503793  0.00749864  -0.0132098  -0.332689  0.361814  -0.108267 
1703169061.114396000  0  0  12.411  0.0873499  -0.207693  0.0251987  nan  nan  nan  nan  nan  nan  -2.45193  -0.252747  1.01237  -0.132515  0.108219  -0.0517378  0.300613  0.290445  0.0355913  0  0  0  1.20173  1.11734  -0  0.022442  0.00369976  -0.0319331  -0.0682285  -0.0444579  -0.00742842  0.00497243  0.00907374  -0.0136186  -0.244504  0.340959  -0.152899 
1703169061.119394000  0  0  12.4787  0.136564  -0.236926  0.020927  nan  nan  nan  nan  nan  nan  -2.45041  -0.251281  1.01255  -0.131616  0.110236  -0.0524846  0.306637  0.296043  0.0355913  0  0  0  1.20789  1.12175  -0  0.0220824  0.00349635  -0.0320073  -0.0702357  -0.0427312  -0.0119177  0.00196375  0.0093845  -0.0133306  -0.315418  0.400065  -0.102624 
1703169061.124410000  0  0  12.36  0.102066  -0.217237  0.0219687  nan  nan  nan  nan  nan  nan  -2.44886  -0.249787  1.01273  -0.134971  0.111724  -0.0536464  0.312691  0.301662  0.0355913  0  0  0  1.21381  1.12592  -0  0.0217993  0.00326819  -0.031957  -0.0695484  -0.0442586  -0.0031867  0.00426807  0.00930919  -0.0129966  -0.267955  0.358713  -0.119756 
1703169061.128409000  0  0  12.4263  0.0659398  -0.209202  0.0260272  nan  nan  nan  nan  nan  nan  -2.44728  -0.248264  1.01291  -0.13681  0.11336  -0.0546696  0.318775  0.307302  0.0355913  0  0  0  1.21947  1.12983  -0  0.0212046  0.00278337  -0.0320503  -0.0706204  -0.0456698  -0.00725129  0.00564507  0.00883188  -0.0132358  -0.206334  0.346977  -0.167938 
1703169061.134396000  0  0  12.4879  0.120042  -0.245613  0.0219315  nan  nan  nan  nan  nan  nan  -2.44568  -0.246714  1.01308  -0.134295  0.113235  -0.0549588  0.324886  0.31296  0.0355913  0  0  0  1.22488  1.13349  -0  0.0212026  0.00286122  -0.032073  -0.0704888  -0.0427039  -0.0118381  0.00112268  0.0114098  -0.0132623  -0.270315  0.395392  -0.116085 
1703169061.139415000  0  0  12.355  0.0902854  -0.231159  0.0235211  nan  nan  nan  nan  nan  nan  -2.44404  -0.245135  1.01326  -0.137287  0.113794  -0.0559802  0.331023  0.318636  0.0355913  0  0  0  1.23005  1.1369  -0  0.0209457  0.00265354  -0.0320116  -0.0683933  -0.0437205  -0.00226755  0.00318606  0.0121738  -0.0130719  -0.230248  0.355612  -0.138382 
1703169061.144401000  0  0  12.4748  0.0878329  -0.243762  0.0253584  nan  nan  nan  nan  nan  nan  -2.44237  -0.243527  1.01344  -0.13668  0.115068  -0.0566891  0.337186  0.324329  0.0355913  0  0  0  1.23496  1.14006  -0  0.0205828  0.00243472  -0.032112  -0.0702829  -0.0433995  -0.0103889  0.00166049  0.0127941  -0.0134882  -0.207438  0.3755  -0.156481 
1703169061.148396000  0  0  12.4285  0.112709  -0.230255  0.0227231  nan  nan  nan  nan  nan  nan  -2.44066  -0.241891  1.01362  -0.138571  0.117071  -0.0577972  0.343372  0.330036  0.0355913  0  0  0  1.23963  1.14298  -0  0.0199618  0.00194196  -0.0321523  -0.0704024  -0.0432554  -0.00662726  0.00196928  0.0119717  -0.0129662  -0.264331  0.355996  -0.129615 
1703169061.154396000  0  0  12.3766  0.111063  -0.249218  0.0232422  nan  nan  nan  nan  nan  nan  -2.43893  -0.240227  1.0138  -0.139011  0.115805  -0.0582872  0.349582  0.335758  0.0355913  0  0  0  1.24404  1.14564  -0  0.0200043  0.0020051  -0.0320899  -0.0675482  -0.0429439  -0.00324135  0.000931792  0.0151261  -0.0130566  -0.248866  0.36037  -0.135056 
1703169061.159397000  0  0  12.405  0.121338  -0.23129  0.0233814  nan  nan  nan  nan  nan  nan  -2.43717  -0.238534  1.01397  -0.13809  0.118034  -0.0591042  0.355812  0.341492  0.0355913  0  0  0  1.2482  1.14805  -0  0.0197262  0.00181483  -0.0321275  -0.0698477  -0.0408814  -0.00502135  -0.00126707  0.0141064  -0.0131866  -0.245603  0.333659  -0.135241 
1703169061.164397000  0  0  12.3246  0.138622  -0.232125  0.0231632  nan  nan  nan  nan  nan  nan  -2.43537  -0.236812  1.01415  -0.139138  0.117244  -0.0597417  0.362063  0.347238  0.0355913  0  0  0  1.25212  1.15021  -0  0.0193842  0.00163209  -0.032191  -0.0662877  -0.0403029  0.000748895  -0.00188668  0.0162919  -0.0130529  -0.275534  0.310306  -0.134106 
1703169061.169413000  0  0  12.4396  0.149989  -0.255682  0.0228916  nan  nan  nan  nan  nan  nan  -2.43355  -0.235061  1.01433  -0.138899  0.118544  -0.0605188  0.368333  0.352994  0.0355913  0  0  0  1.25578  1.15212  -0  0.0190387  0.00142813  -0.0322729  -0.0684445  -0.0406352  -0.00702966  -0.00365129  0.0169683  -0.013082  -0.279608  0.353036  -0.130339 
1703169061.174417000  0  0  12.3628  0.157043  -0.204214  0.0234377  nan  nan  nan  nan  nan  nan  -2.43169  -0.233282  1.01451  -0.138272  0.120876  -0.061394  0.374621  0.358759  0.0355913  0  0  0  1.25919  1.15378  -0  0.0186673  0.00127436  -0.032339  -0.0692218  -0.0375707  -0.00134222  -0.00560437  0.0153713  -0.0132281  -0.272265  0.261048  -0.135449 
1703169061.179418000  0  0  12.3782  0.170162  -0.232882  0.0245335  nan  nan  nan  nan  nan  nan  -2.4298  -0.231474  1.01469  -0.13886  0.119258  -0.0618734  0.380925  0.364531  0.0355913  0  0  0  1.26236  1.1552  -0  0.0183906  0.0010806  -0.0323284  -0.0661129  -0.0379625  -0.00258504  -0.00665619  0.0183053  -0.0132896  -0.288294  0.288767  -0.148495 
1703169061.184417000  0  0  12.4786  0.190851  -0.243766  0.0230511  nan  nan  nan  nan  nan  nan  -2.42788  -0.229637  1.01486  -0.138069  0.121474  -0.0627175  0.387244  0.37031  0.0355913  0  0  0  1.26527  1.15636  -0  0.018025  0.00089237  -0.0323966  -0.0694039  -0.0373166  -0.00933139  -0.00918094  0.0178155  -0.0132935  -0.303611  0.31774  -0.129796 
1703169061.189411000  0  0  12.3584  0.181036  -0.189415  0.0235571  nan  nan  nan  nan  nan  nan  -2.42593  -0.227771  1.01504  -0.138021  0.122769  -0.0635274  0.393577  0.376095  0.0355913  0  0  0  1.26793  1.15727  -0  0.017776  0.000725386  -0.0323294  -0.0685246  -0.0345882  -0.000934508  -0.0104332  0.0165982  -0.0133006  -0.268159  0.215202  -0.136077 
1703169061.194420000  0  0  12.4237  0.190504  -0.232119  0.0240895  nan  nan  nan  nan  nan  nan  -2.42395  -0.225876  1.01522  -0.138268  0.121271  -0.0639909  0.399923  0.381883  0.0355913  0  0  0  1.27035  1.15793  -0  0.0174603  0.000540985  -0.0323844  -0.0662961  -0.0353695  -0.00557117  -0.0116816  0.0196952  -0.0133945  -0.2741  0.271141  -0.141645 
1703169061.199416000  0  0  12.4627  0.197132  -0.223115  0.0222717  nan  nan  nan  nan  nan  nan  -2.42193  -0.223952  1.0154  -0.137242  0.123619  -0.0648279  0.40628  0.387673  0.0355913  0  0  0  1.27251  1.15834  -0  0.0171121  0.000399335  -0.032406  -0.0690108  -0.0336689  -0.00813359  -0.0140383  0.0184595  -0.0133088  -0.261198  0.26605  -0.119805 
1703169061.203418000  0  0  12.4073  0.177694  -0.17826  0.0228952  nan  nan  nan  nan  nan  nan  -2.41988  -0.221999  1.01558  -0.138776  0.126575  -0.0660738  0.412647  0.393466  0.0355913  0  0  0  1.27442  1.15851  -0  0.016423  -0.000116423  -0.0324299  -0.0704512  -0.0330187  -0.00365172  -0.0132853  0.015691  -0.0130908  -0.228181  0.201719  -0.130278 
1703169061.209400000  0  0  12.4192  0.182394  -0.218997  0.0229468  nan  nan  nan  nan  nan  nan  -2.4178  -0.220017  1.01575  -0.137766  0.123014  -0.0660999  0.419024  0.399258  0.0355913  0  0  0  1.27609  1.15842  -0  0.0165319  7.15609e-05  -0.0323812  -0.0656708  -0.0326575  -0.00520344  -0.0155401  0.0205447  -0.013271  -0.21232  0.233231  -0.128755 
1703169061.214401000  0  0  12.4795  0.179471  -0.211806  0.0211552  nan  nan  nan  nan  nan  nan  -2.41569  -0.218006  1.01593  -0.136267  0.124822  -0.0668055  0.425408  0.405049  0.0355913  0  0  0  1.2775  1.15808  -0  0.0161877  -4.5689e-05  -0.0324386  -0.0680037  -0.0308285  -0.00929473  -0.0178053  0.0196447  -0.0132063  -0.179992  0.228166  -0.106993 
1703169061.219447000  0  0  12.4268  0.170424  -0.189297  0.0214513  nan  nan  nan  nan  nan  nan  -2.41355  -0.215967  1.01611  -0.136407  0.12619  -0.0676582  0.431798  0.410839  0.0355913  0  0  0  1.27867  1.15749  -0  0.0158656  -0.000176948  -0.0324424  -0.0682246  -0.0296651  -0.00543457  -0.018371  0.0188529  -0.0131397  -0.154086  0.18901  -0.111521 
1703169061.224387000  0  0  12.3937  0.14348  -0.199639  0.0230204  nan  nan  nan  nan  nan  nan  -2.41137  -0.213898  1.01629  -0.137477  0.124557  -0.0682213  0.438194  0.416624  0.0355913  0  0  0  1.27958  1.15665  -0  0.0155421  -0.000348814  -0.0324396  -0.0645705  -0.0303734  -0.00320468  -0.0175713  0.0211053  -0.0130763  -0.105511  0.185273  -0.132029 
1703169061.228412000  0  0  12.5191  0.140889  -0.21042  0.02084  nan  nan  nan  nan  nan  nan  -2.40917  -0.2118  1.01647  -0.137519  0.126822  -0.0691885  0.444594  0.422405  0.0355913  0  0  0  1.28024  1.15556  -0  0.0148324  -0.00087576  -0.0325643  -0.0677805  -0.0305352  -0.0114315  -0.0179361  0.0198746  -0.0127528  -0.0957573  0.222548  -0.108493 
1703169061.234399000  0  0  12.3777  0.142653  -0.186897  0.0202669  nan  nan  nan  nan  nan  nan  -2.40693  -0.209674  1.01664  -0.136179  0.127443  -0.0697522  0.450996  0.428179  0.0355913  0  0  0  1.28066  1.15423  -0  0.0148855  -0.000581213  -0.0324532  -0.0665604  -0.0273915  -0.00191256  -0.0196934  0.0198518  -0.0127668  -0.0793248  0.172372  -0.101114 
1703169061.239419000  0  0  12.3747  0.111552  -0.201302  0.0235283  nan  nan  nan  nan  nan  nan  -2.40466  -0.207519  1.01682  -0.136618  0.125242  -0.0701619  0.4574  0.433946  0.0355913  0  0  0  1.28082  1.15264  -0  0.0145762  -0.000701287  -0.0325186  -0.0626465  -0.0279846  -0.00179625  -0.0190154  0.0227934  -0.0130094  -0.0204367  0.169419  -0.139226 
1703169061.244417000  0  0  12.4898  0.136473  -0.229308  0.020447  nan  nan  nan  nan  nan  nan  -2.40235  -0.205334  1.017  -0.134321  0.126269  -0.0706608  0.463804  0.439705  0.0355913  0  0  0  1.28073  1.1508  -0  0.0142246  -0.000827407  -0.0326124  -0.0648142  -0.0260929  -0.0098601  -0.0217231  0.0231925  -0.0129836  -0.0427229  0.22488  -0.100766 
1703169061.249410000  0  0  12.3277  0.120894  -0.20056  0.0207284  nan  nan  nan  nan  nan  nan  -2.40002  -0.203121  1.01718  -0.135406  0.127066  -0.0715619  0.470207  0.445454  0.0355913  0  0  0  1.2804  1.14871  -0  0.013895  -0.000923128  -0.0326386  -0.0627665  -0.0250329  0.00176392  -0.0207213  0.0228677  -0.0127171  -0.020843  0.166973  -0.10752 
1703169061.254398000  0  0  12.3938  0.0995381  -0.224204  0.0233809  nan  nan  nan  nan  nan  nan  -2.39765  -0.20088  1.01736  -0.135037  0.125439  -0.0719498  0.476607  0.451192  0.0355913  0  0  0  1.27981  1.14637  -0  0.0135843  -0.0010612  -0.0326907  -0.0607626  -0.0254881  -0.0030199  -0.0207126  0.0254032  -0.0130473  0.0248501  0.188502  -0.136913 
1703169061.259413000  0  0  12.4571  0.132502  -0.235962  0.0195254  nan  nan  nan  nan  nan  nan  -2.39525  -0.19861  1.01753  -0.132876  0.126133  -0.0724217  0.483005  0.456917  0.0355913  0  0  0  1.27897  1.14379  -0  0.013237  -0.00112315  -0.0328286  -0.0617747  -0.0233415  -0.00739836  -0.0232551  0.0259698  -0.0128394  -0.0165827  0.207197  -0.0909085 
