ts x y z roll pitch yaw vx vy vz wx wy wz ax ay az dwx dwy dwz jx jy jz ddwx ddwy ddwz
1704708085.930969000  -2.5  -0.3  1  0  0  0  2e-07  2e-07  2e-07  0  0  0  0.000125  0.000125  0.000125  0  0  0  0  0  0  0  0  0 
1704708085.935938000  -2.5  -0.3  1  0  0  0  1.7e-06  1.7e-06  1.7e-06  0  0  0  0.0005  0.0005  0.0005  0  0  0  0  0  0  0  0  0 
1704708085.940939000  -2.5  -0.3  1  0  0  0  5.6e-06  5.6e-06  5.6e-06  0  0  0  0.001125  0.001125  0.001125  0  0  0  0  0  0  0  0  0 
1704708085.945945000  -2.5  -0.3  1  0  0  -1e-07  1.33e-05  1.33e-05  1.33e-05  0  0  0  0.002  0.002  0.002  0  0  0  0  0  0  0  0  0 
1704708085.950938000  -2.5  -0.3  1  0  0  -3e-07  2.6e-05  2.6e-05  2.6e-05  0  0  0  0.003125  0.003125  0.003125  0  0  0  0  0  0  0  0  0 
1704708085.955939000  -2.5  -0.3  1  0  0  -5e-07  4.5e-05  4.5e-05  4.5e-05  0  0  0  0.0045  0.0045  0.0045  0  0  0  0  0  0  0  0  0 
1704708085.960954000  -2.5  -0.299999  1  0  0  -1e-06  7.15e-05  7.15e-05  7.15e-05  0  0  0  0.006125  0.006125  0.006125  0  0  0  0  0  0  0  0  0 
1704708085.965950000  -2.5  -0.299999  1  0  0  -1.7e-06  0.0001067  0.0001067  0.0001067  0  0  0  0.008  0.008  0.008  0  0  0  0  0  0  0  0  0 
1704708085.970952000  -2.5  -0.299998  1  0  0  -2.7e-06  0.0001519  0.0001519  0.0001519  0  0  0  0.010125  0.010125  0.010125  0  0  0  0  0  0  0  0  0 
1704708085.975951000  -2.5  -0.299997  1  0  0  -4.2e-06  0.0002083  0.0002083  0.0002083  0  0  0  0.0125  0.0125  0.0125  0  0  0  0  0  0  0  0  0 
1704708085.980957000  -2.5  -0.299996  1  0  0  -6.1e-06  0.0002773  0.0002773  0.0002773  0  0  0  0.015125  0.015125  0.015125  0  0  0  0  0  0  0  0  0 
1704708085.985953000  -2.49999  -0.299995  1.00001  0  0  -8.6e-06  0.0003597  0.00036  0.00036  0  0  0  0.0177942  0.018  0.018  0  0  0  0  0  0  0  0  0 
1704708085.990951000  -2.49999  -0.299993  1.00001  0  0  -1.19e-05  0.0004548  0.0004577  0.0004577  0  0  0  0.0202155  0.021125  0.021125  0  0  0  0  0  0  0  0  0 
1704708085.995949000  -2.49999  -0.29999  1.00001  0  0  -1.6e-05  0.0005614  0.0005717  0.0005717  0  0  0  0.0223868  0.0245  0.0245  0  0  0  0  0  0  0  0  0 
1704708086.000951000  -2.49999  -0.299987  1.00001  0  0  -2.1e-05  0.0006783  0.0007031  0.0007031  0  0  0  0.0243082  0.028125  0.028125  0  0  0  0  0  0  0  0  0 
1704708086.005953000  -2.49998  -0.299983  1.00002  0  0  -2.71e-05  0.0008041  0.0008533  0.0008533  0  0  0  0.0259795  0.032  0.032  0  0  0  0  0  0  0  0  0 
1704708086.010952000  -2.49998  -0.299978  1.00002  0  0  -3.43e-05  0.0009376  0.0010235  0.0010235  0  0  0  0.0274008  0.036125  0.036125  0  0  0  0  0  0  0  0  0 
1704708086.015952000  -2.49997  -0.299973  1.00003  0  0  -4.27e-05  0.0010777  0.001215  0.001215  0  0  0  0.0285721  0.0405  0.0405  0  0  0  0  0  0  0  0  0 
1704708086.020952000  -2.49997  -0.299966  1.00003  0  0  -5.24e-05  0.0012229  0.001429  0.001429  0  0  0  0.0294935  0.045125  0.045125  0  0  0  0  0  0  0  0  0 
1704708086.025952000  -2.49996  -0.299958  1.00004  0  0  -6.34e-05  0.0013722  0.0016667  0.0016667  0  0  0  0.0301648  0.05  0.05  0  0  0  0  0  0  0  0  0 
1704708086.030951000  -2.49995  -0.299949  1.00005  0  0  -7.58e-05  0.0015242  0.0019294  0.0019294  0  0  0  0.0305861  0.055125  0.055125  0  0  0  0  0  0  0  0  0 
1704708086.035952000  -2.49995  -0.299939  1.00006  0  0  -8.96e-05  0.0016776  0.0022183  0.0022183  0  0  0  0.0307574  0.0605  0.0605  0  0  0  0  0  0  0  0  0 
1704708086.040951000  -2.49994  -0.299927  1.00007  0  0  -0.0001049  0.0018313  0.0025348  0.0025348  0  0  0  0.0306788  0.066125  0.066125  0  0  0  0  0  0  0  0  0 
1704708086.045953000  -2.49993  -0.299914  1.00009  0  0  -0.0001215  0.001984  0.00288  0.00288  0  0  0  0.0303501  0.072  0.072  0  0  0  0  0  0  0  0  0 
1704708086.050951000  -2.49992  -0.299898  1.0001  0  0  -0.0001397  0.0021344  0.0032552  0.0032552  0  0  0  0.0297714  0.078125  0.078125  0  0  0  0  0  0  0  0  0 
1704708086.055949000  -2.49991  -0.299881  1.00012  0  0  -0.0001593  0.0022813  0.0036617  0.0036617  0  0  0  0.0289427  0.0845  0.0845  0  0  0  0  0  0  0  0  0 
1704708086.060951000  -2.49989  -0.299862  1.00014  0  0  -0.0001804  0.0024234  0.0041006  0.0041006  0  0  0  0.0278641  0.091125  0.091125  0  0  0  0  0  0  0  0  0 
1704708086.065954000  -2.49988  -0.29984  1.00016  0  0  -0.0002029  0.0025595  0.0045733  0.0045733  0  0  0  0.0265354  0.098  0.098  0  0  0  0  0  0  0  0  0 
1704708086.070951000  -2.49987  -0.299816  1.00018  0  0  -0.0002268  0.0026884  0.005081  0.005081  0  0  0  0.0249567  0.105125  0.105125  0  0  0  0  0  0  0  0  0 
1704708086.075949000  -2.49986  -0.299789  1.00021  0  0  -0.000252  0.0028087  0.005625  0.005625  0  0  0  0.023128  0.1125  0.1125  0  0  0  0  0  0  0  0  0 
1704708086.080950000  -2.49984  -0.299759  1.00024  0  0  -0.0002785  0.0029192  0.0062065  0.0062065  0  0  0  0.0210493  0.120125  0.120125  0  0  0  0  0  0  0  0  0 
1704708086.085956000  -2.49983  -0.299727  1.00027  0  0  -0.0003063  0.0030188  0.0068267  0.0068267  0  0  0  0.0187207  0.128  0.128  0  0  0  0  0  0  0  0  0 
1704708086.090951000  -2.49981  -0.299691  1.00031  0  0  -0.0003352  0.003106  0.0074869  0.0074869  0  0  0  0.016142  0.136125  0.136125  0  0  0  0  0  0  0  0  0 
1704708086.095950000  -2.4998  -0.299652  1.00035  0  0  -0.0003652  0.0031799  0.0081883  0.0081883  0  0  0  0.0134437  0.1445  0.1445  0  0  0  0  0  0  0  0  0 
1704708086.100951000  -2.49978  -0.299609  1.00039  0  0  -0.0003962  0.0032409  0.0089323  0.0089323  0  0  0  0.010976  0.153125  0.153125  0  0  0  0  0  0  0  0  0 
1704708086.105954000  -2.49976  -0.299563  1.00044  0  0  -0.0004281  0.0032901  0.00972  0.00972  0  0  0  0.0087584  0.162  0.162  0  0  0  0  0  0  0  0  0 
1704708086.110950000  -2.49975  -0.299512  1.00049  0  0  -0.0004607  0.0033289  0.0105527  0.0105527  0  0  0  0.0067907  0.171125  0.171125  0  0  0  0  0  0  0  0  0 
1704708086.115953000  -2.49973  -0.299457  1.00054  0  0  -0.000494  0.0033584  0.0114317  0.0114317  0  0  0  0.0050731  0.1805  0.1805  0  0  0  0  0  0  0  0  0 
1704708086.120950000  -2.49971  -0.299398  1.0006  0  0  -0.0005278  0.00338  0.0123581  0.0123581  0  0  0  0.0036054  0.190125  0.190125  0  0  0  0  0  0  0  0  0 
1704708086.125955000  -2.4997  -0.299333  1.00067  0  0  -0.0005621  0.0033949  0.0133333  0.0133333  0  0  0  0.0023878  0.2  0.2  0  0  0  0  0  0  0  0  0 
1704708086.130956000  -2.49968  -0.299264  1.00074  0  0  -0.0005967  0.0034043  0.0143585  0.0143585  0  0  0  0.0014201  0.210125  0.210125  0  0  0  0  0  0  0  0  0 
1704708086.135957000  -2.49966  -0.29919  1.00081  0  0  -0.0006316  0.0034095  0.015435  0.015435  0  0  0  0.0007025  0.2205  0.2205  0  0  0  0  0  0  0  0  0 
1704708086.140957000  -2.49964  -0.29911  1.00089  0  0  -0.0006668  0.0034117  0.016564  0.016564  0  0  0  0.0002348  0.231125  0.231125  0  0  0  0  0  0  0  0  0 
1704708086.145960000  -2.49963  -0.299024  1.00098  0  0  -0.000702  0.0034123  0.0177467  0.0177467  0  0  0  1.72e-05  0.242  0.242  0  0  0  0  0  0  0  0  0 
1704708086.150948000  -2.49961  -0.298932  1.00107  0  0  -0.0007374  0.0034123  0.0189844  0.0189844  0  0  0  0  0.253125  0.253125  0  0  0  0  0  0  0  0  0 
1704708086.155964000  -2.49959  -0.298834  1.00117  0  0  -0.0007728  0.0034123  0.0202783  0.0202783  0  0  0  0  0.2645  0.264436  0  0  0  0  0  0  0  0  0 
1704708086.160958000  -2.49958  -0.298729  1.00127  0  0  -0.0008082  0.0034123  0.0216298  0.0216284  0  0  0  0  0.276125  0.275559  0  0  0  0  0  0  0  0  0 
1704708086.165967000  -2.49956  -0.298618  1.00138  0  0  -0.0008437  0.0034123  0.02304  0.0230335  0  0  0  0  0.288  0.286432  0  0  0  0  0  0  0  0  0 
1704708086.170960000  -2.49954  -0.298499  1.0015  0  0  -0.0008791  0.0034123  0.0245102  0.0244923  0  0  0  0  0.300125  0.297054  0  0  0  0  0  0  0  0  0 
1704708086.175958000  -2.49953  -0.298372  1.00163  0  0  -0.0009146  0.0034123  0.0260417  0.0260036  0  0  0  0  0.3125  0.307427  0  0  0  0  0  0  0  0  0 
1704708086.180966000  -2.49951  -0.298238  1.00176  0  0  -0.0009501  0.0034123  0.0276356  0.0275661  0  0  0  0  0.325125  0.31755  0  0  0  0  0  0  0  0  0 
1704708086.185963000  -2.49949  -0.298096  1.0019  0  0  -0.0009855  0.0034123  0.0292933  0.0291787  0  0  0  0  0.338  0.327422  0  0  0  0  0  0  0  0  0 
1704708086.190959000  -2.49947  -0.297945  1.00205  0  0  -0.001021  0.0034123  0.031016  0.0308399  0  0  0  0  0.351125  0.337045  0  0  0  0  0  0  0  0  0 
1704708086.195955000  -2.49946  -0.297786  1.00221  0  0  -0.0010564  0.0034123  0.032805  0.0325487  0  0  0  0  0.3645  0.346418  0  0  0  0  0  0  0  0  0 
1704708086.200960000  -2.49944  -0.297617  1.00238  0  0  -0.0010919  0.0034123  0.0346615  0.0343037  0  0  0  0  0.378125  0.35554  0  0  0  0  0  0  0  0  0 
1704708086.205961000  -2.49942  -0.297439  1.00255  0  0  -0.0011274  0.0034123  0.0365867  0.0361037  0  0  0  0  0.392  0.364413  0  0  0  0  0  0  0  0  0 
1704708086.210959000  -2.49941  -0.297251  1.00274  0  0  -0.0011628  0.0034123  0.0385819  0.0379474  0  0  0  0  0.406125  0.373036  0  0  0  0  0  0  0  0  0 
1704708086.215956000  -2.49939  -0.297053  1.00293  0  0  -0.0011983  0.0034123  0.0406483  0.0398336  0  0  0  0  0.4205  0.381408  0  0  0  0  0  0  0  0  0 
1704708086.220958000  -2.49937  -0.296844  1.00314  0  0  -0.0012337  0.0034123  0.0427873  0.0417611  0  0  0  0  0.435125  0.389531  0  0  0  0  0  0  0  0  0 
1704708086.225963000  -2.49935  -0.296625  1.00335  0  0  -0.0012692  0.0034123  0.045  0.0437285  0  0  0  0  0.45  0.397404  0  0  0  0  0  0  0  0  0 
1704708086.230965000  -2.49934  -0.296394  1.00358  0  0  -0.0013046  0.0034123  0.0472877  0.0457347  0  0  0  0  0.465125  0.405026  0  0  0  0  0  0  0  0  0 
1704708086.235958000  -2.49932  -0.296152  1.00381  0  0  -0.0013401  0.0034123  0.0496517  0.0477784  0  0  0  0  0.4805  0.412399  0  0  0  0  0  0  0  0  0 
1704708086.240959000  -2.4993  -0.295898  1.00405  0  0  -0.0013756  0.0034123  0.0520931  0.0498583  0  0  0  0  0.496125  0.419522  0  0  0  0  0  0  0  0  0 
1704708086.245959000  -2.49929  -0.295631  1.00431  0  0  -0.001411  0.0034123  0.0546133  0.0519732  0  0  0  0  0.512  0.426394  0  0  0  0  0  0  0  0  0 
1704708086.250958000  -2.49927  -0.295351  1.00457  0  0  -0.0014465  0.0034123  0.0572135  0.0541218  0  0  0  0  0.528125  0.433017  0  0  0  0  0  0  0  0  0 
1704708086.255956000  -2.49925  -0.295059  1.00485  0  0  -0.0014819  0.0034123  0.059895  0.0563029  0  0  0  0  0.5445  0.43939  0  0  0  0  0  0  0  0  0 
1704708086.260959000  -2.49924  -0.294752  1.00514  0  0  -0.0015174  0.0034123  0.062659  0.0585153  0  0  0  0  0.561107  0.445512  0  0  0  0  0  0  0  0  0 
1704708086.265962000  -2.49922  -0.294432  1.00543  0  0  -0.0015528  0.0034123  0.0655058  0.0607576  0  0  0  0  0.577598  0.451385  0  0  0  0  0  0  0  0  0 
1704708086.270960000  -2.4992  -0.294097  1.00574  0  0  -0.0015883  0.0034123  0.0684345  0.0630287  0  0  0  0  0.593839  0.457008  0  0  0  0  0  0  0  0  0 
1704708086.275948000  -2.49918  -0.293747  1.00606  0  0  -0.0016238  0.0034123  0.0714438  0.0653273  0  0  0  0  0.60983  0.46238  0  0  0  0  0  0  0  0  0 
1704708086.280933000  -2.49917  -0.293383  1.0064  0  0  -0.0016592  0.0034123  0.0745324  0.0676521  0  0  0  0  0.62557  0.467503  0  0  0  0  0  0  0  0  0 
1704708086.285962000  -2.49915  -0.293002  1.00674  0  0  -0.0016947  0.0034123  0.0776991  0.0700019  0  0  0  0  0.641061  0.472375  0  0  0  0  0  0  0  0  0 
1704708086.290951000  -2.49913  -0.292605  1.0071  0  0  -0.0017301  0.0034123  0.0809426  0.0723754  0  0  0  0  0.656302  0.476998  0  0  0  0  0  0  0  0  0 
1704708086.295952000  -2.49912  -0.292192  1.00747  0  0  -0.0017656  0.0034123  0.0842617  0.0747714  0  0  0  0  0.671293  0.481371  0  0  0  0  0  0  0  0  0 
1704708086.300953000  -2.4991  -0.291763  1.00785  0  0  -0.0018011  0.0034123  0.0876551  0.0771887  0  0  0  0  0.686034  0.485493  0  0  0  0  0  0  0  0  0 
1704708086.305961000  -2.49908  -0.291316  1.00824  0  0  -0.0018365  0.0034123  0.0911216  0.079626  0  0  0  0  0.700525  0.489366  0  0  0  0  0  0  0  0  0 
1704708086.310935000  -2.49906  -0.290851  1.00864  0  0  -0.001872  0.0034123  0.0946599  0.082082  0  0  0  0  0.714766  0.492989  0  0  0  0  0  0  0  0  0 
1704708086.315945000  -2.49905  -0.290369  1.00906  0  0  -0.0019074  0.0034123  0.0982688  0.0845554  0  0  0  0  0.728757  0.496361  0  0  0  0  0  0  0  0  0 
1704708086.320943000  -2.49903  -0.289869  1.00949  0  0  -0.0019429  0.0034123  0.101947  0.0870452  0  0  0  0  0.742497  0.499484  0  0  0  0  0  0  0  0  0 
1704708086.325947000  -2.49901  -0.289349  1.00993  0  0  -0.0019783  0.0034123  0.105693  0.0895499  0  0  0  0  0.755988  0.502357  0  0  0  0  0  0  0  0  0 
1704708086.330944000  -2.499  -0.288812  1.01038  0  0  -0.0020138  0.0034123  0.109507  0.0920683  0  0  0  0  0.769229  0.504979  0  0  0  0  0  0  0  0  0 
1704708086.335945000  -2.49898  -0.288254  1.01085  0  0  -0.0020493  0.0034123  0.113385  0.0945992  0  0  0  0  0.78222  0.507352  0  0  0  0  0  0  0  0  0 
1704708086.340943000  -2.49896  -0.287678  1.01133  0  0  -0.0020847  0.0034123  0.117328  0.0971414  0  0  0  0  0.794961  0.509475  0  0  0  0  0  0  0  0  0 
1704708086.345955000  -2.49895  -0.287081  1.01182  0  0  -0.0021202  0.0034123  0.121334  0.0996936  0  0  0  0  0.807452  0.511347  0  0  0  0  0  0  0  0  0 
1704708086.350944000  -2.49893  -0.286464  1.01233  0  0  -0.0021556  0.0034123  0.125402  0.102254  0  0  0  0  0.819693  0.51297  0  0  0  0  0  0  0  0  0 
1704708086.355945000  -2.49891  -0.285827  1.01284  0  0  -0.0021911  0.0034123  0.129531  0.104823  0  0  0  0  0.831684  0.514343  0  0  0  0  0  0  0  0  0 
1704708086.360944000  -2.49889  -0.285169  1.01337  0  0  -0.0022266  0.0034123  0.133719  0.107397  0  0  0  0  0.843424  0.515465  0  0  0  0  0  0  0  0  0 
1704708086.365945000  -2.49888  -0.28449  1.01392  0  0  -0.002262  0.0034123  0.137965  0.109977  0  0  0  0  0.854915  0.516338  0  0  0  0  0  0  0  0  0 
1704708086.370943000  -2.49886  -0.283789  1.01447  0  0  -0.0022975  0.0034123  0.142268  0.11256  0  0  0  0  0.866156  0.516961  0  0  0  0  0  0  0  0  0 
1704708086.375942000  -2.49884  -0.283067  1.01504  0  0  -0.0023329  0.0034123  0.146626  0.115146  0  0  0  0  0.877147  0.517333  0  0  0  0  0  0  0  0  0 
1704708086.380944000  -2.49883  -0.282323  1.01562  0  0  -0.0023684  0.0034123  0.151039  0.117733  0  0  0  0  0.887888  0.517456  0  0  0  0  0  0  0  0  0 
1704708086.385950000  -2.49881  -0.281556  1.01622  0  0  -0.0024038  0.0034123  0.155504  0.12032  0  0  0  0  0.898379  0.517329  0  0  0  0  0  0  0  0  0 
1704708086.390944000  -2.49879  -0.280767  1.01683  0  0  -0.0024393  0.0034123  0.160022  0.122906  0  0  0  0  0.90862  0.516951  0  0  0  0  0  0  0  0  0 
1704708086.395943000  -2.49877  -0.279956  1.01745  0  0  -0.0024748  0.0034123  0.16459  0.12549  0  0  0  0  0.91861  0.516324  0  0  0  0  0  0  0  0  0 
1704708086.400944000  -2.49876  -0.279121  1.01808  0  0  -0.0025102  0.0034123  0.169208  0.128069  0  0  0  0  0.928351  0.515447  0  0  0  0  0  0  0  0  0 
1704708086.405957000  -2.49874  -0.278264  1.01873  0  0  -0.0025457  0.0034123  0.173873  0.130644  0  0  0  0  0.937842  0.514319  0  0  0  0  0  0  0  0  0 
1704708086.410945000  -2.49872  -0.277383  1.01939  0  0  -0.0025811  0.0034123  0.178586  0.133212  0  0  0  0  0.947083  0.512942  0  0  0  0  0  0  0  0  0 
1704708086.415945000  -2.49871  -0.276478  1.02006  0  0  -0.0026166  0.0034123  0.183344  0.135773  0  0  0  0  0.956074  0.511315  0  0  0  0  0  0  0  0  0 
1704708086.420943000  -2.49869  -0.275549  1.02075  0  0  -0.0026521  0.0034123  0.188146  0.138325  0  0  0  0  0.964815  0.509437  0  0  0  0  0  0  0  0  0 
1704708086.425946000  -2.49867  -0.274596  1.02145  0  0  -0.0026875  0.0034123  0.192991  0.140867  0  0  0  0  0.973306  0.50731  0  0  0  0  0  0  0  0  0 
1704708086.430943000  -2.49866  -0.273619  1.02216  0  0  -0.002723  0.0034123  0.197879  0.143397  0  0  0  0  0.981547  0.504933  0  0  0  0  0  0  0  0  0 
1704708086.435943000  -2.49864  -0.272617  1.02288  0  0  -0.0027584  0.0034123  0.202806  0.145915  0  0  0  0  0.989537  0.502305  0  0  0  0  0  0  0  0  0 
1704708086.440942000  -2.49862  -0.271591  1.02361  0  0  -0.0027939  0.0034123  0.207774  0.14842  0  0  0  0  0.997278  0.499428  0  0  0  0  0  0  0  0  0 
1704708086.445946000  -2.4986  -0.27054  1.02436  0  0  -0.0028294  0.0034123  0.212779  0.150909  0  0  0  0  1.00477  0.496301  0  0  0  0  0  0  0  0  0 
1704708086.450944000  -2.49859  -0.269463  1.02512  0  0  -0.0028648  0.0034123  0.217821  0.153382  0  0  0  0  1.01201  0.492923  0  0  0  0  0  0  0  0  0 
1704708086.455943000  -2.49857  -0.268361  1.0259  0  0  -0.0029003  0.0034123  0.222899  0.155838  0  0  0  0  1.019  0.489296  0  0  0  0  0  0  0  0  0 
1704708086.460943000  -2.49855  -0.267234  1.02668  0  0  -0.0029357  0.0034123  0.22801  0.158275  0  0  0  0  1.02574  0.485419  0  0  0  0  0  0  0  0  0 
1704708086.466034000  -2.49854  -0.266081  1.02748  0  0  -0.0029712  0.0034123  0.233156  0.160692  0  0  0  0  1.03223  0.481291  0  0  0  0  0  0  0  0  0 
1704708086.470944000  -2.49852  -0.264903  1.02829  0  0  -0.0030066  0.0034123  0.238332  0.163088  0  0  0  0  1.03847  0.476914  0  0  0  0  0  0  0  0  0 
1704708086.475943000  -2.4985  -0.263698  1.02911  0  0  -0.0030421  0.0034123  0.24354  0.165461  0  0  0  0  1.04446  0.472287  0  0  0  0  0  0  0  0  0 
1704708086.480943000  -2.49848  -0.262467  1.02994  0  0  -0.0030776  0.0034123  0.248777  0.16781  0  0  0  0  1.05021  0.467409  0  0  0  0  0  0  0  0  0 
1704708086.485946000  -2.49847  -0.26121  1.03079  0  0  -0.003113  0.0034123  0.254041  0.170134  0  0  0  0  1.0557  0.462282  0  0  0  0  0  0  0  0  0 
1704708086.490945000  -2.49845  -0.259927  1.03165  0  0  -0.0031485  0.0034123  0.259333  0.172432  0  0  0  0  1.06094  0.456905  0  0  0  0  0  0  0  0  0 
1704708086.495943000  -2.49843  -0.258617  1.03251  0  0  -0.0031839  0.0034123  0.26465  0.174703  0  0  0  0  1.06593  0.451277  0  0  0  0  0  0  0  0  0 
1704708086.500944000  -2.49842  -0.25728  1.03339  0  0  -0.0032194  0.0034123  0.269992  0.176945  0  0  0  0  1.07067  0.4454  0  0  0  0  0  0  0  0  0 
1704708086.505946000  -2.4984  -0.255917  1.03428  0  0  -0.0032549  0.0034123  0.275357  0.179157  0  0  0  0  1.07516  0.439273  0  0  0  0  0  0  0  0  0 
1704708086.510949000  -2.49838  -0.254526  1.03518  0  0  -0.0032903  0.0034123  0.280743  0.181337  0  0  0  0  1.0794  0.432895  0  0  0  0  0  0  0  0  0 
1704708086.515945000  -2.49837  -0.253109  1.0361  0  0  -0.0033258  0.0034123  0.28615  0.183485  0  0  0  0  1.08339  0.426268  0  0  0  0  0  0  0  0  0 
1704708086.520946000  -2.49835  -0.251665  1.03702  0  0  -0.0033612  0.0034123  0.291577  0.185599  0  0  0  0  1.08713  0.419391  0  0  0  0  0  0  0  0  0 
1704708086.526026000  -2.49833  -0.250193  1.03795  0  0  -0.0033967  0.0034123  0.297021  0.187679  0  0  0  0  1.09062  0.412263  0  0  0  0  0  0  0  0  0 
1704708086.530953000  -2.49831  -0.248695  1.0389  0  0  -0.0034321  0.0034123  0.302483  0.189722  0  0  0  0  1.09386  0.404886  0  0  0  0  0  0  0  0  0 
1704708086.535947000  -2.4983  -0.247169  1.03985  0  0  -0.0034676  0.0034123  0.307959  0.191727  0  0  0  0  1.09685  0.397259  0  0  0  0  0  0  0  0  0 
1704708086.540946000  -2.49828  -0.245615  1.04081  0  0  -0.0035031  0.0034123  0.313451  0.193694  0  0  0  0  1.0996  0.389381  0  0  0  0  0  0  0  0  0 
1704708086.545951000  -2.49826  -0.244034  1.04179  0  0  -0.0035385  0.0034123  0.318955  0.19562  0  0  0  0  1.10209  0.381254  0  0  0  0  0  0  0  0  0 
1704708086.550948000  -2.49825  -0.242426  1.04277  0  0  -0.003574  0.0034123  0.324471  0.197506  0  0  0  0  1.10433  0.372876  0  0  0  0  0  0  0  0  0 
1704708086.555945000  -2.49823  -0.240789  1.04376  0  0  -0.0036094  0.0034123  0.329998  0.199349  0  0  0  0  1.10632  0.364249  0  0  0  0  0  0  0  0  0 
1704708086.560946000  -2.49821  -0.239126  1.04476  0  0  -0.0036449  0.0034123  0.335534  0.201148  0  0  0  0  1.10806  0.355372  0  0  0  0  0  0  0  0  0 
1704708086.565945000  -2.49819  -0.237434  1.04577  0  0  -0.0036804  0.0034123  0.341078  0.202902  0  0  0  0  1.10955  0.346244  0  0  0  0  0  0  0  0  0 
1704708086.570948000  -2.49818  -0.235715  1.04679  0  0  -0.0037158  0.0034123  0.346629  0.20461  0  0  0  0  1.11079  0.336867  0  0  0  0  0  0  0  0  0 
1704708086.575947000  -2.49816  -0.233968  1.04782  0  0  -0.0037513  0.0034123  0.352185  0.20627  0  0  0  0  1.11178  0.32724  0  0  0  0  0  0  0  0  0 
1704708086.580941000  -2.49814  -0.232193  1.04885  0  0  -0.0037867  0.0034123  0.357746  0.207882  0  0  0  0  1.11252  0.317362  0  0  0  0  0  0  0  0  0 
1704708086.585954000  -2.49813  -0.23039  1.0499  0  0  -0.0038222  0.0034123  0.36331  0.209443  0  0  0  0  1.11301  0.307235  0  0  0  0  0  0  0  0  0 
1704708086.590951000  -2.49811  -0.22856  1.05095  0  0  -0.0038576  0.0034123  0.368876  0.210954  0  0  0  0  1.11325  0.296858  0  0  0  0  0  0  0  0  0 
1704708086.595953000  -2.49809  -0.226701  1.05201  0  0  -0.0038931  0.0034123  0.374442  0.212412  0  0  0  0  1.11325  0.28623  0  0  0  0  0  0  0  0  0 
1704708086.600952000  -2.49808  -0.224815  1.05307  0  0  -0.0039286  0.0034123  0.380008  0.213816  0  0  0  0  1.11299  0.275353  0  0  0  0  0  0  0  0  0 
1704708086.605954000  -2.49806  -0.222901  1.05414  0  0  -0.003964  0.0034123  0.385572  0.215165  0  0  0  0  1.11248  0.264226  0  0  0  0  0  0  0  0  0 
1704708086.610952000  -2.49804  -0.22096  1.05522  0  0  -0.0039995  0.0034123  0.391132  0.216458  0  0  0  0  1.11172  0.252914  0  0  0  0  0  0  0  0  0 
1704708086.615955000  -2.49802  -0.21899  1.05631  0  0  -0.0040349  0.0034123  0.396689  0.217694  0  0  0  0  1.11071  0.241794  0  0  0  0  0  0  0  0  0 
1704708086.620953000  -2.49801  -0.216993  1.0574  0  0  -0.0040704  0.0034123  0.402239  0.218876  0  0  0  0  1.10945  0.230924  0  0  0  0  0  0  0  0  0 
1704708086.625956000  -2.49799  -0.214968  1.0585  0  0  -0.0041058  0.0034123  0.407783  0.220004  0  0  0  0  1.10794  0.220304  0  0  0  0  0  0  0  0  0 
1704708086.630953000  -2.49797  -0.212915  1.0596  0  0  -0.0041413  0.0034123  0.413318  0.221079  0  0  0  0  1.10618  0.209933  0  0  0  0  0  0  0  0  0 
1704708086.635951000  -2.49796  -0.210835  1.06071  0  0  -0.0041768  0.0034123  0.418844  0.222104  0  0  0  0  1.10417  0.199813  0  0  0  0  0  0  0  0  0 
1704708086.640967000  -2.49794  -0.208727  1.06182  0  0  -0.0042122  0.0034123  0.424359  0.223078  0  0  0  0  1.10191  0.189943  0  0  0  0  0  0  0  0  0 
1704708086.645955000  -2.49792  -0.206591  1.06294  0  0  -0.0042477  0.0034123  0.429863  0.224004  0  0  0  0  1.0994  0.180322  0  0  0  0  0  0  0  0  0 
1704708086.650951000  -2.4979  -0.204428  1.06406  0  0  -0.0042831  0.0034123  0.435353  0.224882  0  0  0  0  1.09664  0.170952  0  0  0  0  0  0  0  0  0 
1704708086.655950000  -2.49789  -0.202237  1.06519  0  0  -0.0043186  0.0034123  0.440829  0.225713  0  0  0  0  1.09364  0.161832  0  0  0  0  0  0  0  0  0 
1704708086.660957000  -2.49787  -0.20002  1.06632  0  0  -0.004354  0.0034123  0.446289  0.2265  0  0  0  0  1.09038  0.152961  0  0  0  0  0  0  0  0  0 
1704708086.665959000  -2.49785  -0.197775  1.06745  0  0  -0.0043895  0.0034123  0.451732  0.227243  0  0  0  0  1.08687  0.144341  0  0  0  0  0  0  0  0  0 
1704708086.670953000  -2.49784  -0.195502  1.06859  0  0  -0.004425  0.0034123  0.457157  0.227944  0  0  0  0  1.08311  0.135971  0  0  0  0  0  0  0  0  0 
1704708086.675951000  -2.49782  -0.193203  1.06973  0  0  -0.0044604  0.0034123  0.462563  0.228604  0  0  0  0  1.0791  0.12785  0  0  0  0  0  0  0  0  0 
1704708086.680952000  -2.4978  -0.190877  1.07088  0  0  -0.0044959  0.0034123  0.467948  0.229223  0  0  0  0  1.07484  0.11998  0  0  0  0  0  0  0  0  0 
1704708086.685960000  -2.49779  -0.188524  1.07202  0  0  -0.0045313  0.0034123  0.473311  0.229804  0  0  0  0  1.07033  0.11236  0  0  0  0  0  0  0  0  0 
1704708086.690952000  -2.49777  -0.186144  1.07317  0  0  -0.0045668  0.0034123  0.478651  0.230347  0  0  0  0  1.06557  0.104989  0  0  0  0  0  0  0  0  0 
1704708086.695952000  -2.49775  -0.183737  1.07433  0  0  -0.0046023  0.0034123  0.483966  0.230854  0  0  0  0  1.06056  0.097869  0  0  0  0  0  0  0  0  0 
1704708086.700957000  -2.49773  -0.181304  1.07548  0  0  -0.0046377  0.0034123  0.489256  0.231326  0  0  0  0  1.0553  0.0909987  0  0  0  0  0  0  0  0  0 
1704708086.705954000  -2.49772  -0.178845  1.07664  0  0  -0.0046732  0.0034123  0.494519  0.231765  0  0  0  0  1.04979  0.0843784  0  0  0  0  0  0  0  0  0 
1704708086.710952000  -2.4977  -0.176359  1.0778  0  0  -0.0047086  0.0034123  0.499753  0.23217  0  0  0  0  1.04404  0.0780081  0  0  0  0  0  0  0  0  0 
1704708086.715952000  -2.49768  -0.173847  1.07896  0  0  -0.0047441  0.0034123  0.504959  0.232545  0  0  0  0  1.03803  0.0718877  0  0  0  0  0  0  0  0  0 
1704708086.720952000  -2.49767  -0.171309  1.08013  0  0  -0.0047795  0.0034123  0.510133  0.23289  0  0  0  0  1.03177  0.0660174  0  0  0  0  0  0  0  0  0 
1704708086.725953000  -2.49765  -0.168746  1.08129  0  0  -0.004815  0.0034123  0.515276  0.233206  0  0  0  0  1.02526  0.0603971  0  0  0  0  0  0  0  0  0 
1704708086.730954000  -2.49763  -0.166157  1.08246  0  0  -0.0048505  0.0034123  0.520385  0.233494  0  0  0  0  1.0185  0.0550268  0  0  0  0  0  0  0  0  0 
1704708086.735951000  -2.49761  -0.163542  1.08363  0  0  -0.0048859  0.0034123  0.525461  0.233756  0  0  0  0  1.01149  0.0499065  0  0  0  0  0  0  0  0  0 
1704708086.740953000  -2.4976  -0.160902  1.0848  0  0  -0.0049214  0.0034123  0.5305  0.233994  0  0  0  0  1.00423  0.0450361  0  0  0  0  0  0  0  0  0 
1704708086.745955000  -2.49758  -0.158237  1.08597  0  0  -0.0049568  0.0034123  0.535502  0.234207  0  0  0  0  0.996721  0.0404158  0  0  0  0  0  0  0  0  0 
1704708086.750952000  -2.49756  -0.155547  1.08714  0  0  -0.0049923  0.0034123  0.540467  0.234398  0  0  0  0  0.988962  0.0360455  0  0  0  0  0  0  0  0  0 
1704708086.755951000  -2.49755  -0.152833  1.08831  0  0  -0.0050278  0.0034123  0.545392  0.234568  0  0  0  0  0.980953  0.0319252  0  0  0  0  0  0  0  0  0 
1704708086.760936000  -2.49753  -0.150093  1.08948  0  0  -0.0050632  0.0034123  0.550276  0.234718  0  0  0  0  0.972694  0.0280549  0  0  0  0  0  0  0  0  0 
1704708086.765959000  -2.49751  -0.14733  1.09066  0  0  -0.0050987  0.0034123  0.555118  0.234849  0  0  0  0  0.964185  0.0244345  0  0  0  0  0  0  0  0  0 
1704708086.770952000  -2.4975  -0.144542  1.09183  0  0  -0.0051341  0.0034123  0.559917  0.234963  0  0  0  0  0.955426  0.0210642  0  0  0  0  0  0  0  0  0 
1704708086.775952000  -2.49748  -0.141731  1.09301  0  0  -0.0051696  0.0034123  0.564672  0.23506  0  0  0  0  0.946417  0.0179439  0  0  0  0  0  0  0  0  0 
1704708086.781019000  -2.49746  -0.138896  1.09418  0  0  -0.0052051  0.0034123  0.569381  0.235142  0  0  0  0  0.937157  0.0150736  0  0  0  0  0  0  0  0  0 
1704708086.785955000  -2.49744  -0.136037  1.09536  0  0  -0.0052405  0.0034123  0.574043  0.235211  0  0  0  0  0.927648  0.0124533  0  0  0  0  0  0  0  0  0 
1704708086.790952000  -2.49743  -0.133155  1.09653  0  0  -0.005276  0.0034123  0.578657  0.235267  0  0  0  0  0.917889  0.0100829  0  0  0  0  0  0  0  0  0 
1704708086.795950000  -2.49741  -0.130251  1.09771  0  0  -0.0053114  0.0034123  0.583222  0.235312  0  0  0  0  0.90788  0.0079626  0  0  0  0  0  0  0  0  0 
1704708086.800952000  -2.49739  -0.127323  1.09889  0  0  -0.0053469  0.0034123  0.587735  0.235347  0  0  0  0  0.897621  0.0060923  0  0  0  0  0  0  0  0  0 
1704708086.805961000  -2.49738  -0.124373  1.10006  0  0  -0.0053823  0.0034123  0.592197  0.235374  0  0  0  0  0.887112  0.004472  0  0  0  0  0  0  0  0  0 
1704708086.810951000  -2.49736  -0.121401  1.10124  0  0  -0.0054178  0.0034123  0.596606  0.235393  0  0  0  0  0.876353  0.0031017  0  0  0  0  0  0  0  0  0 
1704708086.815952000  -2.49734  -0.118407  1.10242  0  0  -0.0054533  0.0034123  0.600961  0.235405  0  0  0  0  0.865344  0.0019813  0  0  0  0  0  0  0  0  0 
1704708086.820952000  -2.49732  -0.115392  1.1036  0  0  -0.0054887  0.0034123  0.605259  0.235413  0  0  0  0  0.854084  0.001111  0  0  0  0  0  0  0  0  0 
1704708086.825955000  -2.49731  -0.112355  1.10477  0  0  -0.0055242  0.0034123  0.609501  0.235417  0  0  0  0  0.842575  0.0004907  0  0  0  0  0  0  0  0  0 
1704708086.830954000  -2.49729  -0.109297  1.10595  0  0  -0.0055596  0.0034123  0.613685  0.235418  0  0  0  0  0.830816  0.0001204  0  0  0  0  0  0  0  0  0 
1704708086.835952000  -2.49727  -0.106218  1.10713  0  0  -0.0055951  0.0034123  0.617809  0.235418  0  0  0  0  0.818807  -0  0  0  0  0  0  0  0  0  0 
1704708086.840951000  -2.49726  -0.103119  1.1083  0  0  -0.0056305  0.0034123  0.621872  0.235418  0  0  0  0  0.806548  -0  0  0  0  0  0  0  0  0  0 
1704708086.845961000  -2.49724  -0.0999994  1.10948  0  0  -0.005666  0.0034123  0.625874  0.235418  0  0  0  0  0.794039  -0  0  0  0  0  0  0  0  0  0 
1704708086.850952000  -2.49722  -0.0968602  1.11066  0  0  -0.0057015  0.0034123  0.629812  0.235418  0  0  0  0  0.78128  -0  0  0  0  0  0  0  0  0  0 
1704708086.855951000  -2.49721  -0.0937014  1.11183  0  0  -0.0057369  0.0034123  0.633686  0.235418  0  0  0  0  0.76827  -0  0  0  0  0  0  0  0  0  0 
1704708086.860952000  -2.49719  -0.0905234  1.11301  0  0  -0.0057724  0.0034123  0.637494  0.235418  0  0  0  0  0.755011  -0  0  0  0  0  0  0  0  0  0 
1704708086.865953000  -2.49717  -0.0873266  1.11419  0  0  -0.0058078  0.0034123  0.641236  0.235418  0  0  0  0  0.741502  -0  0  0  0  0  0  0  0  0  0 
1704708086.870950000  -2.49715  -0.0841112  1.11537  0  0  -0.0058433  0.0034123  0.644909  0.235418  0  0  0  0  0.727743  -0  0  0  0  0  0  0  0  0  0 
1704708086.875951000  -2.49714  -0.0808776  1.11654  0  0  -0.0058788  0.0034123  0.648513  0.235418  0  0  0  0  0.713734  -0  0  0  0  0  0  0  0  0  0 
1704708086.880950000  -2.49712  -0.0776262  1.11772  0  0  -0.0059142  0.0034123  0.652046  0.235418  0  0  0  0  0.699475  -0  0  0  0  0  0  0  0  0  0 
1704708086.885953000  -2.4971  -0.0743573  1.1189  0  0  -0.0059497  0.0034123  0.655507  0.235418  0  0  0  0  0.684966  -0  0  0  0  0  0  0  0  0  0 
1704708086.890949000  -2.49709  -0.0710712  1.12007  0  0  -0.0059851  0.0034123  0.658895  0.235418  0  0  0  0  0.670207  -0  0  0  0  0  0  0  0  0  0 
1704708086.895952000  -2.49707  -0.0677684  1.12125  0  0  -0.0060206  0.0034123  0.662209  0.235418  0  0  0  0  0.655197  -0  0  0  0  0  0  0  0  0  0 
1704708086.900953000  -2.49705  -0.0644493  1.12243  0  0  -0.0060561  0.0034123  0.665447  0.235418  0  0  0  0  0.639938  -0  0  0  0  0  0  0  0  0  0 
1704708086.905960000  -2.49703  -0.0611141  1.12361  0  0  -0.0060915  0.0034123  0.668608  0.235418  0  0  0  0  0.624429  -0  0  0  0  0  0  0  0  0  0 
1704708086.910950000  -2.49702  -0.0577633  1.12478  0  0  -0.006127  0.0034123  0.671691  0.235418  0  0  0  0  0.60867  -0  0  0  0  0  0  0  0  0  0 
1704708086.915953000  -2.497  -0.0543973  1.12596  0  0  -0.0061624  0.0034123  0.674694  0.235418  0  0  0  0  0.592661  -0  0  0  0  0  0  0  0  0  0 
1704708086.920950000  -2.49698  -0.0510165  1.12714  0  0  -0.0061979  0.0034123  0.677617  0.235418  0  0  0  0  0.576402  -0  0  0  0  0  0  0  0  0  0 
1704708086.925956000  -2.49697  -0.0476213  1.12831  0  0  -0.0062333  0.0034123  0.680458  0.235418  0  0  0  0  0.559893  -0  0  0  0  0  0  0  0  0  0 
1704708086.930960000  -2.49695  -0.0442121  1.12949  0  0  -0.0062688  0.0034123  0.683216  0.235418  0  0  0  0  0.543295  -0  0  0  0  0  0  0  0  0  0 
1704708086.935967000  -2.49693  -0.0407893  1.13067  0  0  -0.0063042  0.0034123  0.685891  0.235418  0  0  0  0  0.526939  -0  0  0  0  0  0  0  0  0  0 
1704708086.940967000  -2.49692  -0.0373533  1.13185  0  0  -0.0063397  0.0034123  0.688485  0.235418  0  0  0  0  0.510832  -0  0  0  0  0  0  0  0  0  0 
1704708086.945958000  -2.4969  -0.0339045  1.13302  0  0  -0.0063752  0.0034123  0.691  0.235418  0  0  0  0  0.494975  -0  0  0  0  0  0  0  0  0  0 
1704708086.950940000  -2.49688  -0.0304434  1.1342  0  0  -0.0064106  0.0034123  0.693436  0.235418  0  0  0  0  0.479368  -0  0  0  0  0  0  0  0  0  0 
1704708086.955952000  -2.49686  -0.0269703  1.13538  0  0  -0.0064461  0.0034123  0.695794  0.235418  0  0  0  0  0.464012  -0  0  0  0  0  0  0  0  0  0 
1704708086.960951000  -2.49685  -0.0234856  1.13655  0  0  -0.0064815  0.0034123  0.698076  0.235418  0  0  0  0  0.448905  -0  0  0  0  0  0  0  0  0  0 
1704708086.965955000  -2.49683  -0.0199897  1.13773  0  0  -0.006517  0.0034123  0.700283  0.235418  0  0  0  0  0.434048  -0  0  0  0  0  0  0  0  0  0 
1704708086.970951000  -2.49681  -0.0164829  1.13891  0  0  -0.0065525  0.0034123  0.702417  0.235418  0  0  0  0  0.419442  -0  0  0  0  0  0  0  0  0  0 
1704708086.975952000  -2.4968  -0.0129656  1.14008  0  0  -0.0065879  0.0034123  0.704478  0.235418  0  0  0  0  0.405085  -0  0  0  0  0  0  0  0  0  0 
1704708086.980950000  -2.49678  -0.0094382  1.14126  0  0  -0.0066234  0.0034123  0.706468  0.235418  0  0  0  0  0.390978  -0  0  0  0  0  0  0  0  0  0 
1704708086.985950000  -2.49676  -0.0059011  1.14244  0  0  -0.0066588  0.0034123  0.708388  0.235418  0  0  0  0  0.377121  -0  0  0  0  0  0  0  0  0  0 
1704708086.990951000  -2.49674  -0.0023545  1.14362  0  0  -0.0066943  0.0034123  0.71024  0.235418  0  0  0  0  0.363515  -0  0  0  0  0  0  0  0  0  0 
1704708086.995948000  -2.49673  0.0012012  1.14479  0  0  -0.0067297  0.0034123  0.712024  0.235418  0  0  0  0  0.350158  -0  0  0  0  0  0  0  0  0  0 
1704708087.000951000  -2.49671  0.0047657  1.14597  0  0  -0.0067652  0.0034123  0.713742  0.235418  0  0  0  0  0.337051  -0  0  0  0  0  0  0  0  0  0 
1704708087.005948000  -2.49669  0.0083385  1.14715  0  0  -0.0068007  0.0034123  0.715395  0.235418  0  0  0  0  0.324194  -0  0  0  0  0  0  0  0  0  0 
1704708087.010966000  -2.49668  0.0119195  1.14832  0  0  -0.0068361  0.0034123  0.716984  0.235418  0  0  0  0  0.311588  -0  0  0  0  0  0  0  0  0  0 
1704708087.015967000  -2.49666  0.0155083  1.1495  0  0  -0.0068716  0.0034123  0.718511  0.235418  0  0  0  0  0.299231  -0  0  0  0  0  0  0  0  0  0 
1704708087.020953000  -2.49664  0.0191045  1.15068  0  0  -0.006907  0.0034123  0.719977  0.235418  0  0  0  0  0.287124  -0  0  0  0  0  0  0  0  0  0 
1704708087.025958000  -2.49662  0.0227079  1.15186  0  0  -0.0069425  0.0034123  0.721383  0.235418  0  0  0  0  0.275267  -0  0  0  0  0  0  0  0  0  0 
1704708087.030959000  -2.49661  0.0263183  1.15303  0  0  -0.006978  0.0034123  0.72273  0.235418  0  0  0  0  0.263661  -0  0  0  0  0  0  0  0  0  0 
1704708087.035950000  -2.49659  0.0299352  1.15421  0  0  -0.0070134  0.0034123  0.72402  0.235418  0  0  0  0  0.252304  -0  0  0  0  0  0  0  0  0  0 
1704708087.040951000  -2.49657  0.0335584  1.15539  0  0  -0.0070489  0.0034123  0.725254  0.235418  0  0  0  0  0.241197  -0  0  0  0  0  0  0  0  0  0 
1704708087.045956000  -2.49656  0.0371876  1.15656  0  0  -0.0070843  0.0034123  0.726432  0.235418  0  0  0  0  0.23034  -0  0  0  0  0  0  0  0  0  0 
1704708087.050951000  -2.49654  0.0408226  1.15774  0  0  -0.0071198  0.0034123  0.727557  0.235418  0  0  0  0  0.219734  -0  0  0  0  0  0  0  0  0  0 
1704708087.055953000  -2.49652  0.0444631  1.15892  0  0  -0.0071553  0.0034123  0.72863  0.235418  0  0  0  0  0.209377  -0  0  0  0  0  0  0  0  0  0 
1704708087.060951000  -2.49651  0.0481088  1.1601  0  0  -0.0071907  0.0034125  0.729652  0.235418  0  0  0  0.0001107  0.19927  -0  0  0  0  0  0  0  0  0  0 
1704708087.065953000  -2.49649  0.0517595  1.16127  0  0  -0.0072262  0.0034138  0.730623  0.235418  0  0  0  0.0004711  0.189413  -0  0  0  0  0  0  0  0  0  0 
1704708087.070957000  -2.49647  0.055415  1.16245  0  0  -0.0072616  0.0034176  0.731546  0.235418  0  0  0  0.0010814  0.179807  -0  0  0  0  0  0  0  0  0  0 
1704708087.075952000  -2.49645  0.0590749  1.16363  0  0  -0.0072971  0.003425  0.732422  0.235418  0  0  0  0.0019417  0.17045  -0  0  0  0  0  0  0  0  0  0 
1704708087.081004000  -2.49644  0.0627391  1.1648  0  0  -0.0073325  0.0034374  0.733251  0.235418  0  0  0  0.003052  0.161343  -0  0  0  0  0  0  0  0  0  0 
1704708087.085958000  -2.49642  0.0664073  1.16598  0  0  -0.007368  0.003456  0.734035  0.235418  0  0  0  0.0044123  0.152487  -0  0  0  0  0  0  0  0  0  0 
1704708087.090937000  -2.4964  0.0700794  1.16716  0  0  -0.0074035  0.003482  0.734776  0.235418  0  0  0  0.0060226  0.14388  -0  0  0  0  0  0  0  0  0  0 
1704708087.095952000  -2.49639  0.073755  1.16834  0  0  -0.0074389  0.0035166  0.735475  0.235418  0  0  0  0.0078829  0.135523  -0  0  0  0  0  0  0  0  0  0 
1704708087.100953000  -2.49637  0.0774341  1.16951  0  0  -0.0074744  0.0035612  0.736132  0.235418  0  0  0  0.0099933  0.127416  -0  0  0  0  0  0  0  0  0  0 
1704708087.105988000  -2.49635  0.0811163  1.17069  0  0  -0.0075098  0.003617  0.736749  0.235418  0  0  0  0.0123536  0.11956  -0  0  0  0  0  0  0  0  0  0 
1704708087.110966000  -2.49633  0.0848015  1.17187  0  0  -0.0075453  0.0036852  0.737328  0.235418  0  0  0  0.0149639  0.111953  -0  0  0  0  0  0  0  0  0  0 
1704708087.115952000  -2.49631  0.0884895  1.17304  0  0  -0.0075807  0.003767  0.737869  0.235418  0  0  0  0.0178242  0.104596  -0  0  0  0  0  0  0  0  0  0 
1704708087.120956000  -2.49629  0.0921801  1.17422  0  0  -0.0076162  0.0038638  0.738374  0.235418  0  0  0  0.0209345  0.0974894  -0  0  0  0  0  0  0  0  0  0 
1704708087.125954000  -2.49627  0.0958732  1.1754  0  0  -0.0076517  0.0039768  0.738845  0.235418  0  0  0  0.0242948  0.0906326  -0  0  0  0  0  0  0  0  0  0 
1704708087.130960000  -2.49625  0.0995685  1.17657  0  0  -0.0076871  0.0041072  0.739281  0.235418  0  0  0  0.0279052  0.0840259  -0  0  0  0  0  0  0  0  0  0 
1704708087.135959000  -2.49623  0.103266  1.17775  0  0  -0.0077226  0.0042563  0.739685  0.235418  0  0  0  0.0317655  0.0776691  -0  0  0  0  0  0  0  0  0  0 
1704708087.140948000  -2.49621  0.106965  1.17893  0  0  -0.007758  0.0044253  0.740058  0.235418  0  0  0  0.0358758  0.0715624  -0  0  0  0  0  0  0  0  0  0 
1704708087.145962000  -2.49619  0.110666  1.18011  0  0  -0.0077935  0.0046154  0.740401  0.235418  0  0  0  0.0402361  0.0657057  -0  0  0  0  0  0  0  0  0  0 
1704708087.150952000  -2.49616  0.114369  1.18128  0  0  -0.007829  0.004828  0.740716  0.235418  0  0  0  0.0448464  0.0600989  -0  0  0  0  0  0  0  0  0  0 
1704708087.155957000  -2.49614  0.118074  1.18246  0  0  -0.0078644  0.0050643  0.741003  0.235418  0  0  0  0.0497067  0.0547422  -0  0  0  0  0  0  0  0  0  0 
1704708087.160951000  -2.49611  0.121779  1.18364  0  0  -0.0078999  0.0053255  0.741263  0.235418  0  0  0  0.054817  0.0496354  -0  0  0  0  0  0  0  0  0  0 
1704708087.165954000  -2.49609  0.125486  1.18481  0  0  -0.0079353  0.0056129  0.741499  0.235418  0  0  0  0.0601774  0.0447787  -0  0  0  0  0  0  0  0  0  0 
1704708087.170952000  -2.49606  0.129194  1.18599  0  0  -0.0079708  0.0059277  0.741712  0.235418  0  0  0  0.0657877  0.040172  -0  0  0  0  0  0  0  0  0  0 
1704708087.175953000  -2.49603  0.132903  1.18717  0  0  -0.0080062  0.0062712  0.741902  0.235418  0  0  0  0.071648  0.0358152  -0  0  0  0  0  0  0  0  0  0 
1704708087.180949000  -2.496  0.136613  1.18835  0  0  -0.0080417  0.0066446  0.74207  0.235418  0  0  0  0.0777583  0.0317085  -0  0  0  0  0  0  0  0  0  0 
1704708087.185954000  -2.49596  0.140324  1.18952  0  0  -0.0080772  0.0070492  0.742219  0.235418  0  0  0  0.0841186  0.0278518  -0  0  0  0  0  0  0  0  0  0 
1704708087.190953000  -2.49592  0.144035  1.1907  0  0  -0.0081126  0.0074862  0.742349  0.235418  0  0  0  0.0907289  0.024245  -0  0  0  0  0  0  0  0  0  0 
1704708087.195951000  -2.49589  0.147747  1.19188  0  0  -0.0081481  0.0079569  0.742462  0.235418  0  0  0  0.0975892  0.0208883  -0  0  0  0  0  0  0  0  0  0 
1704708087.200954000  -2.49585  0.15146  1.19305  0  0  -0.0081835  0.0084625  0.742558  0.235418  0  0  0  0.1047  0.0177815  -0  0  0  0  0  0  0  0  0  0 
1704708087.205953000  -2.4958  0.155173  1.19423  0  0  -0.008219  0.0090043  0.74264  0.235418  0  0  0  0.11206  0.0149248  -0  0  0  0  0  0  0  0  0  0 
1704708087.210951000  -2.49576  0.158886  1.19541  0  0  -0.0082545  0.0095835  0.742708  0.235418  0  0  0  0.11967  0.0123181  -0  0  0  0  0  0  0  0  0  0 
1704708087.215955000  -2.49571  0.1626  1.19659  0  0  -0.0082899  0.0102014  0.742764  0.235418  0  0  0  0.12753  0.0099613  -0  0  0  0  0  0  0  0  0  0 
1704708087.220950000  -2.49565  0.166314  1.19776  0  0  -0.0083254  0.0108593  0.742808  0.235418  0  0  0  0.135641  0.0078546  -0  0  0  0  0  0  0  0  0  0 
1704708087.225953000  -2.4956  0.170028  1.19894  0  0  -0.0083608  0.0115583  0.742843  0.235418  0  0  0  0.144001  0.0059978  -0  0  0  0  0  0  0  0  0  0 
1704708087.230950000  -2.49554  0.173742  1.20012  0  0  -0.0083963  0.0122997  0.742869  0.235418  0  0  0  0.152611  0.0043911  -0  0  0  0  0  0  0  0  0  0 
1704708087.235950000  -2.49547  0.177457  1.20129  0  0  -0.0084318  0.0130848  0.742887  0.235418  0  0  0  0.161472  0.0030344  -0  0  0  0  0  0  0  0  0  0 
1704708087.240951000  -2.49541  0.181171  1.20247  0  0  -0.0084672  0.0139148  0.742899  0.235418  0  0  0  0.170582  0.0019276  -0  0  0  0  0  0  0  0  0  0 
1704708087.245952000  -2.49533  0.184886  1.20365  0  0  -0.0085027  0.014791  0.742907  0.235418  0  0  0  0.179942  0.0010709  -0  0  0  0  0  0  0  0  0  0 
1704708087.250951000  -2.49526  0.1886  1.20482  0  0  -0.0085381  0.0157147  0.74291  0.235418  0  0  0  0.189553  0.0004641  -0  0  0  0  0  0  0  0  0  0 
1704708087.255958000  -2.49518  0.192315  1.206  0  0  -0.0085736  0.016687  0.742912  0.235418  0  0  0  0.199413  0.0001074  -0  0  0  0  0  0  0  0  0  0 
1704708087.260950000  -2.49509  0.196029  1.20718  0  0  -0.008609  0.0177092  0.742912  0.235418  0  0  0  0.209523  -3e-07  -0  0  0  0  0  0  0  0  0  0 
1704708087.265953000  -2.495  0.199744  1.20836  0  0  -0.0086445  0.0187826  0.742912  0.235418  0  0  0  0.219884  -0.0001372  -0  0  0  0  0  0  0  0  0  0 
1704708087.270950000  -2.4949  0.203458  1.20953  0  0  -0.00868  0.0199085  0.74291  0.235418  0  0  0  0.230494  -0.0005241  -0  0  0  0  0  0  0  0  0  0 
1704708087.275951000  -2.4948  0.207173  1.21071  0  0  -0.0087154  0.021088  0.742906  0.235418  0  0  0  0.241354  -0.0011611  -0  0  0  0  0  0  0  0  0  0 
1704708087.280950000  -2.49469  0.210888  1.21189  0  0  -0.0087509  0.0223224  0.742898  0.235418  0  0  0  0.252465  -0.002048  -0  0  0  0  0  0  0  0  0  0 
1704708087.285954000  -2.49458  0.214602  1.21306  0  0  -0.0087863  0.023613  0.742885  0.235418  0  0  0  0.263825  -0.0031849  -0  0  0  0  0  0  0  0  0  0 
1704708087.290950000  -2.49446  0.218316  1.21424  0  0  -0.0088218  0.0249611  0.742866  0.235418  0  0  0  0.275435  -0.0045719  -0  0  0  0  0  0  0  0  0  0 
1704708087.295950000  -2.49433  0.222031  1.21542  0  0  -0.0088573  0.0263678  0.742839  0.235418  0  0  0  0.287296  -0.0062088  -0  0  0  0  0  0  0  0  0  0 
1704708087.300951000  -2.49419  0.225745  1.2166  0  0  -0.0088927  0.0278345  0.742803  0.235418  0  0  0  0.299406  -0.0080957  -0  0  0  0  0  0  0  0  0  0 
1704708087.305939000  -2.49405  0.229459  1.21777  0  0  -0.0089282  0.0293623  0.742758  0.235418  0  0  0  0.311766  -0.0102327  -0  0  0  0  0  0  0  0  0  0 
1704708087.310951000  -2.4939  0.233172  1.21895  0  0  -0.0089636  0.0309525  0.742701  0.235418  0  0  0  0.324376  -0.0126196  -0  0  0  0  0  0  0  0  0  0 
1704708087.315949000  -2.49374  0.236886  1.22013  0  0  -0.0089991  0.0326065  0.742631  0.235418  0  0  0  0.337237  -0.0152565  -0  0  0  0  0  0  0  0  0  0 
1704708087.320950000  -2.49357  0.240599  1.2213  0  0  -0.0090345  0.0343253  0.742548  0.235418  0  0  0  0.350347  -0.0181435  -0  0  0  0  0  0  0  0  0  0 
1704708087.325980000  -2.4934  0.244311  1.22248  0  0  -0.00907  0.0361103  0.742449  0.235418  0  0  0  0.363707  -0.0212804  -0  0  0  0  0  0  0  0  0  0 
1704708087.330951000  -2.49321  0.248023  1.22366  0  0  -0.0091054  0.0379628  0.742334  0.235418  0  0  0  0.377318  -0.0246673  -0  0  0  0  0  0  0  0  0  0 
1704708087.335932000  -2.49302  0.251734  1.22484  0  0  -0.0091409  0.0398839  0.742202  0.235418  0  0  0  0.391178  -0.0283043  -0  0  0  0  0  0  0  0  0  0 
1704708087.340945000  -2.49281  0.255445  1.22601  0  0  -0.0091764  0.041875  0.742051  0.235418  0  0  0  0.405288  -0.0321912  -0  0  0  0  0  0  0  0  0  0 
1704708087.345949000  -2.4926  0.259155  1.22719  0  0  -0.0092118  0.0439372  0.74188  0.235418  0  0  0  0.419649  -0.0363281  -0  0  0  0  0  0  0  0  0  0 
1704708087.350943000  -2.49237  0.262864  1.22837  0  0  -0.0092473  0.0460719  0.741687  0.235418  0  0  0  0.434259  -0.040715  -0  0  0  0  0  0  0  0  0  0 
1704708087.355950000  -2.49214  0.266572  1.22954  0  0  -0.0092827  0.0482803  0.741472  0.235418  0  0  0  0.449119  -0.045352  -0  0  0  0  0  0  0  0  0  0 
1704708087.360943000  -2.49189  0.270279  1.23072  0  0  -0.0093182  0.0505635  0.741233  0.235418  0  0  0  0.46423  -0.0502389  -0  0  0  0  0  0  0  0  0  0 
1704708087.365946000  -2.49163  0.273984  1.2319  0  0  -0.0093537  0.0529229  0.740969  0.235418  0  0  0  0.4795  -0.0553758  -0  0  0  0  0  0  0  0  0  0 
1704708087.370942000  -2.49136  0.277688  1.23308  0  0  -0.0093891  0.0553581  0.740679  0.235418  0  0  0  0.49456  -0.0607628  -0  0  0  0  0  0  0  0  0  0 
1704708087.375943000  -2.49108  0.281391  1.23425  0  0  -0.0094246  0.0578681  0.740361  0.235418  0  0  0  0.509371  -0.0663997  -0  0  0  0  0  0  0  0  0  0 
1704708087.380943000  -2.49078  0.285092  1.23543  0  0  -0.00946  0.0604514  0.740015  0.235418  0  0  0  0.523931  -0.0722866  -0  0  0  0  0  0  0  0  0  0 
1704708087.385945000  -2.49047  0.288791  1.23661  0  0  -0.0094955  0.063107  0.739638  0.235418  0  0  0  0.538241  -0.0784236  -0  0  0  0  0  0  0  0  0  0 
1704708087.390943000  -2.49015  0.292488  1.23778  0  0  -0.0095309  0.0658334  0.73923  0.235418  0  0  0  0.552302  -0.0848105  -0  0  0  0  0  0  0  0  0  0 
1704708087.395943000  -2.48981  0.296183  1.23896  0  0  -0.0095664  0.0686296  0.73879  0.235418  0  0  0  0.566112  -0.0914474  -0  0  0  0  0  0  0  0  0  0 
1704708087.400944000  -2.48946  0.299876  1.24014  0  0  -0.0096019  0.0714941  0.738315  0.235418  0  0  0  0.579673  -0.0983344  -0  0  0  0  0  0  0  0  0  0 
1704708087.405957000  -2.4891  0.303566  1.24131  0  0  -0.0096373  0.0744259  0.737806  0.235418  0  0  0  0.592983  -0.105471  -0  0  0  0  0  0  0  0  0  0 
1704708087.410944000  -2.48872  0.307254  1.24249  0  0  -0.0096728  0.0774235  0.73726  0.235418  0  0  0  0.606043  -0.112858  -0  0  0  0  0  0  0  0  0  0 
1704708087.415944000  -2.48833  0.310939  1.24367  0  0  -0.0097082  0.0804859  0.736677  0.235418  0  0  0  0.618854  -0.120495  -0  0  0  0  0  0  0  0  0  0 
1704708087.420942000  -2.48791  0.314621  1.24485  0  0  -0.0097437  0.0836117  0.736055  0.235418  0  0  0  0.631414  -0.128382  -0  0  0  0  0  0  0  0  0  0 
1704708087.425948000  -2.48749  0.318299  1.24602  0  0  -0.0097792  0.0867996  0.735393  0.235418  0  0  0  0.643724  -0.136519  -0  0  0  0  0  0  0  0  0  0 
1704708087.430945000  -2.48705  0.321974  1.2472  0  0  -0.0098146  0.0900485  0.734689  0.235418  0  0  0  0.655785  -0.144906  -0  0  0  0  0  0  0  0  0  0 
1704708087.435943000  -2.48659  0.325646  1.24838  0  0  -0.0098501  0.093357  0.733943  0.235418  0  0  0  0.667595  -0.153543  -0  0  0  0  0  0  0  0  0  0 
1704708087.440942000  -2.48611  0.329314  1.24955  0  0  -0.0098855  0.096724  0.733153  0.235418  0  0  0  0.679156  -0.16243  -0  0  0  0  0  0  0  0  0  0 
1704708087.445949000  -2.48562  0.332978  1.25073  0  0  -0.009921  0.100148  0.732318  0.235418  0  0  0  0.690466  -0.171567  -0  0  0  0  0  0  0  0  0  0 
1704708087.450943000  -2.48511  0.336637  1.25191  0  0  -0.0099565  0.103628  0.731437  0.235418  0  0  0  0.701526  -0.180954  -0  0  0  0  0  0  0  0  0  0 
1704708087.455943000  -2.48458  0.340292  1.25309  0  0  -0.0099919  0.107163  0.730508  0.235418  0  0  0  0.712337  -0.190591  -0  0  0  0  0  0  0  0  0  0 
1704708087.460942000  -2.48404  0.343942  1.25426  0  0  -0.0100274  0.110751  0.729531  0.235418  0  0  0  0.722897  -0.200478  -0  0  0  0  0  0  0  0  0  0 
1704708087.465957000  -2.48348  0.347587  1.25544  0  0  -0.0100628  0.114392  0.728503  0.235418  0  0  0  0.733207  -0.210614  -0  0  0  0  0  0  0  0  0  0 
1704708087.470943000  -2.4829  0.351227  1.25662  0  0  -0.0100983  0.118083  0.727424  0.235418  0  0  0  0.743268  -0.221001  -0  0  0  0  0  0  0  0  0  0 
1704708087.475944000  -2.4823  0.354861  1.25779  0  0  -0.0101337  0.121824  0.726293  0.235418  0  0  0  0.753078  -0.231638  -0  0  0  0  0  0  0  0  0  0 
1704708087.480943000  -2.48168  0.35849  1.25897  0  0  -0.0101692  0.125613  0.725107  0.235418  0  0  0  0.762639  -0.242525  -0  0  0  0  0  0  0  0  0  0 
1704708087.485950000  -2.48104  0.362112  1.26015  0  0  -0.0102047  0.12945  0.723867  0.235418  0  0  0  0.771949  -0.253662  -0  0  0  0  0  0  0  0  0  0 
1704708087.490945000  -2.48038  0.365728  1.26133  0  0  -0.0102401  0.133332  0.72257  0.235418  0  0  0  0.781009  -0.265049  -0  0  0  0  0  0  0  0  0  0 
1704708087.495944000  -2.47971  0.369338  1.2625  0  0  -0.0102756  0.137259  0.721216  0.235418  0  0  0  0.78982  -0.276686  -0  0  0  0  0  0  0  0  0  0 
1704708087.500944000  -2.47901  0.37294  1.26368  0  0  -0.010311  0.14123  0.719803  0.235418  0  0  0  0.79838  -0.288573  -0  0  0  0  0  0  0  0  0  0 
1704708087.505946000  -2.47829  0.376536  1.26486  0  0  -0.0103465  0.145243  0.71833  0.235418  0  0  0  0.80669  -0.30071  -0  0  0  0  0  0  0  0  0  0 
1704708087.510944000  -2.47756  0.380124  1.26603  0  0  -0.0103819  0.149297  0.716796  0.235418  0  0  0  0.814751  -0.313097  -0  0  0  0  0  0  0  0  0  0 
1704708087.515944000  -2.4768  0.383704  1.26721  0  0  -0.0104174  0.15339  0.715199  0.235418  0  0  0  0.822561  -0.325734  -0  0  0  0  0  0  0  0  0  0 
1704708087.520944000  -2.47602  0.387275  1.26839  0  0  -0.0104529  0.157522  0.713538  0.235418  0  0  0  0.830122  -0.338621  -0  0  0  0  0  0  0  0  0  0 
1704708087.525949000  -2.47523  0.390839  1.26956  0  0  -0.0104883  0.161691  0.711812  0.235418  0  0  0  0.837432  -0.351758  -0  0  0  0  0  0  0  0  0  0 
1704708087.530944000  -2.47441  0.394393  1.27074  0  0  -0.0105238  0.165896  0.71002  0.235418  0  0  0  0.844492  -0.365145  -0  0  0  0  0  0  0  0  0  0 
1704708087.535944000  -2.47357  0.397939  1.27192  0  0  -0.0105592  0.170135  0.70816  0.235418  0  0  0  0.851303  -0.378781  -0  0  0  0  0  0  0  0  0  0 
1704708087.540943000  -2.47271  0.401475  1.2731  0  0  -0.0105947  0.174408  0.706232  0.235418  0  0  0  0.857863  -0.392668  -0  0  0  0  0  0  0  0  0  0 
1704708087.545946000  -2.47182  0.405001  1.27427  0  0  -0.0106302  0.178713  0.704233  0.235418  0  0  0  0.864173  -0.406805  -7.97e-05  0  0  0  0  0  0  0  0  0 
1704708087.550944000  -2.47092  0.408517  1.27545  0  0  -0.0106656  0.18305  0.702163  0.235417  0  0  0  0.870234  -0.421192  -0.0004044  0  0  0  0  0  0  0  0  0 
1704708087.555943000  -2.46999  0.412023  1.27663  0  0  -0.0107011  0.187415  0.700021  0.235414  0  0  0  0.876044  -0.435829  -0.000979  0  0  0  0  0  0  0  0  0 
1704708087.560943000  -2.46904  0.415517  1.2778  0  0  -0.0107365  0.19181  0.697804  0.235407  0  0  0  0.881605  -0.450716  -0.0018037  0  0  0  0  0  0  0  0  0 
1704708087.565946000  -2.46807  0.419001  1.27898  0  0  -0.010772  0.196231  0.695513  0.235395  0  0  0  0.886915  -0.465853  -0.0028783  0  0  0  0  0  0  0  0  0 
1704708087.570942000  -2.46708  0.422472  1.28016  0  0  -0.0108074  0.200678  0.693146  0.235378  0  0  0  0.891975  -0.48124  -0.004203  0  0  0  0  0  0  0  0  0 
1704708087.575942000  -2.46607  0.425932  1.28134  0  0  -0.0108429  0.20515  0.6907  0.235353  0  0  0  0.896786  -0.496849  -0.0057776  0  0  0  0  0  0  0  0  0 
1704708087.580945000  -2.46503  0.429379  1.28251  0  0  -0.0108784  0.209646  0.688177  0.235319  0  0  0  0.901346  -0.512319  -0.0076023  0  0  0  0  0  0  0  0  0 
1704708087.585946000  -2.46397  0.432814  1.28369  0  0  -0.0109139  0.214163  0.685578  0.235276  0  0  0  0.905656  -0.52754  -0.0096769  0  0  0  0  0  0  0  0  0 
1704708087.590941000  -2.46289  0.436235  1.28486  0  0  -0.0109495  0.218702  0.682902  0.235222  0  0  0  0.909717  -0.54251  -0.0120016  0  0  0  0  0  0  0  0  0 
1704708087.595951000  -2.46178  0.439642  1.28604  0  0  -0.0109852  0.22326  0.680153  0.235156  0  0  0  0.913527  -0.55723  -0.0145762  0  0  0  0  0  0  0  0  0 
1704708087.600952000  -2.46066  0.443036  1.28722  0  0  -0.0110211  0.227837  0.67733  0.235076  0  0  0  0.917088  -0.571701  -0.0174009  0  0  0  0  0  0  0  0  0 
1704708087.605955000  -2.45951  0.446416  1.28839  0  0  -0.0110572  0.232431  0.674436  0.234982  0  0  0  0.920398  -0.585921  -0.0204755  0  0  0  0  0  0  0  0  0 
1704708087.610953000  -2.45833  0.44978  1.28957  0  0  -0.0110937  0.23704  0.671472  0.234871  0  0  0  0.923458  -0.599891  -0.0238002  0  0  0  0  0  0  0  0  0 
1704708087.615950000  -2.45713  0.45313  1.29074  0  0  -0.0111305  0.241665  0.668438  0.234743  0  0  0  0.926269  -0.613612  -0.0273749  0  0  0  0  0  0  0  0  0 
1704708087.620950000  -2.45591  0.456465  1.29191  0  0  -0.0111678  0.246303  0.665336  0.234597  0  0  0  0.928829  -0.627082  -0.0311995  0  0  0  0  0  0  0  0  0 
1704708087.625953000  -2.45467  0.459783  1.29309  0  0  -0.0112057  0.250953  0.662167  0.234431  0  0  0  0.931139  -0.640302  -0.0352742  0  0  0  0  0  0  0  0  0 
1704708087.630951000  -2.45341  0.463086  1.29426  0  0  -0.0112443  0.255614  0.658933  0.234244  0  0  0  0.9332  -0.653273  -0.0395988  0  0  0  0  0  0  0  0  0 
1704708087.635950000  -2.45212  0.466373  1.29543  0  0  -0.0112837  0.260284  0.655635  0.234034  0  0  0  0.93501  -0.665993  -0.0441735  0  0  0  0  0  0  0  0  0 
1704708087.640951000  -2.4508  0.469642  1.2966  0  0  -0.0113241  0.264963  0.652274  0.233801  0  0  0  0.936571  -0.678463  -0.0489981  0  0  0  0  0  0  0  0  0 
1704708087.645954000  -2.44947  0.472895  1.29777  0  0  -0.0113656  0.26965  0.648851  0.233544  0  0  0  0.937881  -0.690683  -0.0540728  0  0  0  0  0  0  0  0  0 
1704708087.650951000  -2.44811  0.476131  1.29893  0  0  -0.0114084  0.274342  0.645367  0.23326  0  0  0  0.938941  -0.702654  -0.0593974  0  0  0  0  0  0  0  0  0 
1704708087.655950000  -2.44672  0.479349  1.3001  0  0  -0.0114525  0.279039  0.641825  0.23295  0  0  0  0.939752  -0.714374  -0.0649721  0  0  0  0  0  0  0  0  0 
1704708087.660950000  -2.44532  0.482549  1.30126  0  0  -0.0114983  0.283739  0.638224  0.23261  0  0  0  0.940312  -0.725844  -0.0707967  0  0  0  0  0  0  0  0  0 
1704708087.665955000  -2.44389  0.485731  1.30243  0  0  -0.0115458  0.288441  0.634567  0.232241  0  0  0  0.940622  -0.737065  -0.0768714  0  0  0  0  0  0  0  0  0 
1704708087.670950000  -2.44243  0.488895  1.30359  0  0  -0.0115953  0.293145  0.630854  0.231841  0  0  0  0.940683  -0.748035  -0.083196  0  0  0  0  0  0  0  0  0 
1704708087.675951000  -2.44095  0.492039  1.30474  0  0  -0.011647  0.297848  0.627087  0.231409  0  0  0  0.940493  -0.758755  -0.0897707  0  0  0  0  0  0  0  0  0 
1704708087.680950000  -2.43945  0.495165  1.3059  0  0  -0.0117011  0.302549  0.623267  0.230943  0  0  0  0.940053  -0.769226  -0.0965953  0  0  0  0  0  0  0  0  0 
1704708087.685953000  -2.43793  0.498272  1.30705  0  0  -0.0117578  0.307248  0.619395  0.230442  0  0  0  0.939364  -0.779446  -0.10367  0  0  0  0  0  0  0  0  0 
1704708087.690951000  -2.43638  0.501359  1.3082  0  0  -0.0118173  0.311942  0.615473  0.229906  0  0  0  0.938424  -0.789416  -0.110995  0  0  0  0  0  0  0  0  0 
1704708087.695951000  -2.43481  0.504427  1.30935  0  0  -0.0118799  0.316632  0.611501  0.229332  0  0  0  0.937235  -0.799137  -0.118569  0  0  0  0  0  0  0  0  0 
1704708087.700951000  -2.43321  0.507474  1.3105  0  0  -0.0119459  0.321314  0.607482  0.22872  0  0  0  0.935795  -0.808607  -0.126394  0  0  0  0  0  0  0  0  0 
1704708087.705952000  -2.4316  0.510501  1.31164  0  0  -0.0120154  0.325989  0.603416  0.228068  0  0  0  0.934105  -0.817827  -0.134469  0  0  0  0  0  0  0  0  0 
1704708087.710951000  -2.42995  0.513508  1.31278  0  0  -0.0120887  0.330655  0.599304  0.227375  0  0  0  0.932166  -0.826797  -0.142793  0  0  0  0  0  0  0  0  0 
1704708087.715951000  -2.42829  0.516494  1.31391  0  0  -0.012166  0.33531  0.595148  0.226639  0  0  0  0.929976  -0.835518  -0.151368  0  0  0  0  0  0  0  0  0 
1704708087.720948000  -2.4266  0.51946  1.31504  0  0  -0.0122475  0.339954  0.590949  0.225861  0  0  0  0.927536  -0.843988  -0.160193  0  0  0  0  0  0  0  0  0 
1704708087.725953000  -2.42489  0.522404  1.31617  0  0  -0.0123335  0.344585  0.586709  0.225037  0  0  0  0.924847  -0.852208  -0.169267  0  0  0  0  0  0  0  0  0 
1704708087.730951000  -2.42316  0.525327  1.31729  0  0  -0.0124241  0.349202  0.582427  0.224167  0  0  0  0.921907  -0.860179  -0.178592  0  0  0  0  0  0  0  0  0 
1704708087.735952000  -2.4214  0.528228  1.31841  0  0  -0.0125194  0.353804  0.578107  0.223251  0  0  0  0.918718  -0.867899  -0.188167  0  0  0  0  0  0  0  0  0 
1704708087.740961000  -2.41962  0.531108  1.31953  0  0  -0.0126197  0.358389  0.573749  0.222285  0  0  0  0.915278  -0.875369  -0.197991  0  0  0  0  0  0  0  0  0 
1704708087.745969000  -2.41781  0.533965  1.32064  0  0  -0.0127251  0.362956  0.569354  0.22127  0  0  0  0.911588  -0.88259  -0.208066  0  0  0  0  0  0  0  0  0 
1704708087.750948000  -2.41599  0.536801  1.32174  0  0  -0.0128357  0.367505  0.564923  0.220204  0  0  0  0.907649  -0.88956  -0.21839  0  0  0  0  0  0  0  0  0 
1704708087.755950000  -2.41414  0.539615  1.32284  0  0  -0.0129517  0.372032  0.560459  0.219086  0  0  0  0.903459  -0.89628  -0.228965  0  0  0  0  0  0  0  0  0 
1704708087.760949000  -2.41227  0.542406  1.32393  0  0  -0.0130732  0.376539  0.555961  0.217914  0  0  0  0.899019  -0.902751  -0.23979  0  0  0  0  0  0  0  0  0 
1704708087.765953000  -2.41037  0.545174  1.32502  0  0  -0.0132004  0.381022  0.551432  0.216688  0  0  0  0.89433  -0.908971  -0.250864  0  0  0  0  0  0  0  0  0 
1704708087.770951000  -2.40846  0.54792  1.3261  0  0  -0.0133333  0.385482  0.546872  0.215405  0  0  0  0.88939  -0.914941  -0.262189  0  0  0  0  0  0  0  0  0 
1704708087.775948000  -2.40652  0.550643  1.32717  0  0  -0.013472  0.389916  0.542283  0.214065  0  0  0  0.884201  -0.920661  -0.273764  0  0  0  0  0  0  0  0  0 
1704708087.780950000  -2.40456  0.553343  1.32824  0  0  -0.0136166  0.394323  0.537666  0.212667  0  0  0  0.878761  -0.926132  -0.285588  0  0  0  0  0  0  0  0  0 
1704708087.785963000  -2.40258  0.556019  1.3293  0  0  -0.0137673  0.398703  0.533022  0.211209  0  0  0  0.873071  -0.931352  -0.297658  0  0  0  0  0  0  0  0  0 
1704708087.790949000  -2.40057  0.558673  1.33035  0  0  -0.0139239  0.403053  0.528352  0.209691  0  0  0  0.867132  -0.936322  -0.30966  0  0  0  0  0  0  0  0  0 
1704708087.795948000  -2.39854  0.561303  1.33139  0  0  -0.0140868  0.407374  0.523659  0.208113  0  0  0  0.860942  -0.941043  -0.321412  0  0  0  0  0  0  0  0  0 
