ts fx fy fz tx ty tz exfx exfy exfz extx exty extz xd yd zd rolld pitchd yawd vxd vyd vzd wxd wyd wzd axd ayd azd e_x e_y e_z e_vx e_vy e_vz e_rx e_ry e_rz e_wx e_wy e_wz
1704708085.845696000  0  0  11.4459  0.0788994  -0.109098  0.0206935  nan  nan  nan  nan  nan  nan  -2.5  -0.3  1  0.01844  -0.0426309  -0.000785965  0  0  0  0  0  0  0  0  0  0.0288028  0.00471784  -0.010179  -0.0097614  0.0129387  0.000553889  -0.0148798  0.0330006  -0.027831  -0.0209048  -0.0854095  0.019641 
1704708085.850193000  0  0  11.4919  0.082388  -0.134857  0.0255904  nan  nan  nan  nan  nan  nan  -2.5  -0.3  1  0.0180493  -0.0443119  -0.000799622  0  0  0  0  0  0  0  0  0  0.0289309  0.00465785  -0.0101778  -0.00767916  0.0126658  -0.00327039  -0.0147273  0.0346861  -0.0284516  -0.0292851  -0.0493975  -0.0353636 
1704708085.854677000  0  0  11.5538  0.128657  -0.158188  0.0164371  nan  nan  nan  nan  nan  nan  -2.5  -0.3  1  0.018475  -0.04307  -0.00079556  0  0  0  0  0  0  0  0  0  0.0288864  0.00471953  -0.0102371  -0.0088691  0.013201  -0.00834767  -0.016167  0.0339311  -0.0273975  -0.108576  0.00420939  0.0685112 
1704708085.860246000  0  0  11.4553  0.112676  -0.12561  0.0181014  nan  nan  nan  nan  nan  nan  -2.5  -0.3  1  0.0184087  -0.0426078  -0.000784204  0  0  0  0  0  0  0  0  0  0.0289337  0.00469265  -0.0101666  -0.0100363  0.0129745  -0.000272253  -0.0163235  0.0327749  -0.0272378  -0.0751761  -0.0503083  0.0461114 
1704708085.864680000  0  0  11.4593  0.109761  -0.139755  0.0251838  nan  nan  nan  nan  nan  nan  -2.5  -0.3  1  0.0185342  -0.0424686  -0.000786973  0  0  0  0  0  0  0  0  0  0.0288937  0.00474939  -0.0101799  -0.0101054  0.0130165  -0.000584423  -0.0166549  0.0327205  -0.0280557  -0.0662972  -0.0215193  -0.0342399 
1704708085.869696000  0  0  11.4857  0.116686  -0.148564  0.0209849  nan  nan  nan  nan  nan  nan  -2.5  -0.3  1  0.0179921  -0.0432531  -0.000778054  0  0  0  0  0  0  0  0  0  0.0289762  0.00470422  -0.0101632  -0.00916184  0.0124795  -0.00282547  -0.0166279  0.0335652  -0.0276675  -0.0803946  -0.0116724  0.0143647 
1704708085.875152000  0  0  11.4834  0.114069  -0.159842  0.0225114  nan  nan  nan  nan  nan  nan  -2.5  -0.3  1  0.0182946  -0.0431155  -0.000788627  0  0  0  0  0  0  0  0  0  0.0290523  0.00466918  -0.0101341  -0.00951658  0.0129388  -0.0027053  -0.0172551  0.0336092  -0.0277854  -0.0693908  0.0104794  -0.00353832 
1704708085.879677000  0  0  11.4167  0.108563  -0.148354  0.0262621  nan  nan  nan  nan  nan  nan  -2.5  -0.3  1  0.018213  -0.0420636  -0.000765964  0  0  0  0  0  0  0  0  0  0.0289986  0.00472225  -0.0100973  -0.0110536  0.0125832  0.00276722  -0.0173444  0.032486  -0.0283251  -0.0575571  -0.00216416  -0.0450246 
1704708085.884682000  0  0  11.4883  0.0984473  -0.153891  0.0245756  nan  nan  nan  nan  nan  nan  -2.5  -0.3  1  0.0176572  -0.0441032  -0.000778567  0  0  0  0  0  0  0  0  0  0.0290826  0.00468707  -0.0100978  -0.0082991  0.012095  -0.00318075  -0.016926  0.0344221  -0.0283368  -0.0411753  -0.00890047  -0.0238275 
1704708085.890301000  0  0  11.4714  0.117189  -0.171452  0.0210652  nan  nan  nan  nan  nan  nan  -2.5  -0.3  1  0.0178727  -0.0431564  -0.000771161  0  0  0  0  0  0  0  0  0  0.0291538  0.00465053  -0.0100529  -0.0097472  0.012419  -0.00189574  -0.0176886  0.0339355  -0.0280532  -0.0716438  0.0306973  0.0172174 
1704708085.894713000  0  0  11.3799  0.106357  -0.140057  0.0211204  nan  nan  nan  nan  nan  nan  -2.5  -0.3  1  0.0175204  -0.0419742  -0.000735265  0  0  0  0  0  0  0  0  0  0.0290989  0.00469789  -0.00999841  -0.0115622  0.0116885  0.00561184  -0.017426  0.0323477  -0.0279947  -0.0523953  -0.0174854  0.0159418 
1704708085.899687000  0  0  11.4517  0.0846391  -0.146352  0.02481  nan  nan  nan  nan  nan  nan  -2.5  -0.3  1  0.0176116  -0.0431941  -0.000760557  0  0  0  0  0  0  0  0  0  0.0290653  0.00475776  -0.0100396  -0.00959878  0.0118092  -0.000258811  -0.0172602  0.0334222  -0.0284258  -0.0104841  -0.0147794  -0.0258669 
1704708085.904698000  0  0  11.4935  0.110948  -0.172508  0.0197825  nan  nan  nan  nan  nan  nan  -2.5  -0.3  1  0.0180042  -0.0426457  -0.000767654  0  0  0  0  0  0  0  0  0  0.029139  0.00472216  -0.0100148  -0.0102605  0.0124724  -0.00383166  -0.018197  0.0334594  -0.0279272  -0.0544834  0.0371885  0.0319912 
1704708085.909720000  0  0  11.4041  0.0927856  -0.140767  0.0186415  nan  nan  nan  nan  nan  nan  -2.5  -0.3  1  0.0168899  -0.0417745  -0.000705429  0  0  0  0  0  0  0  0  0  0.0291973  0.0046654  -0.00991357  -0.0119219  0.01101  0.00340865  -0.0170768  0.0321954  -0.027643  -0.0284649  -0.0146634  0.0434113 
1704708085.914728000  0  0  11.4467  0.0678957  -0.133877  0.0250499  nan  nan  nan  nan  nan  nan  -2.5  -0.3  1  0.0171011  -0.0423653  -0.000724348  0  0  0  0  0  0  0  0  0  0.0291537  0.00472315  -0.00993682  -0.0108756  0.0112287  -6.55102e-05  -0.0168509  0.0324673  -0.0283272  0.0192369  -0.0309446  -0.0298516 
1704708085.919679000  0  0  11.4931  0.0878614  -0.152775  0.0212314  nan  nan  nan  nan  nan  nan  -2.5  -0.3  1  0.016827  -0.0428763  -0.000721326  0  0  0  0  0  0  0  0  0  0.0292406  0.00466718  -0.00991503  -0.0101964  0.0110912  -0.00398792  -0.0169215  0.0332263  -0.0280239  -0.0200453  -0.000132549  0.014846 
1704708085.925213000  0  0  11.4592  0.0786909  -0.144029  0.0198886  nan  nan  nan  nan  nan  nan  -2.5  -0.3  1  0.0162024  -0.0419266  -0.000679171  0  0  0  0  0  0  0  0  0  0.0292957  0.00461577  -0.0098544  -0.0116924  0.0103486  -0.00129477  -0.0162796  0.0322013  -0.027774  -0.00760923  -0.00819324  0.0291324 
1704708085.929726000  0  0  11.4294  0.0626984  -0.127786  0.024546  nan  nan  nan  nan  nan  nan  -2.5  -0.3  1  0.016129  -0.0414204  -0.000667935  0  0  0  0  0  0  0  0  0  0.0292416  0.00465977  -0.00983784  -0.0123557  0.0101044  0.00116203  -0.015883  0.031371  -0.0282848  0.0207269  -0.0330413  -0.0239773 
1704708085.934674000  0  0  11.4751  0.0668203  -0.151134  0.0229179  nan  nan  nan  nan  nan  nan  -2.5  -0.3  1  0.0156386  -0.0433619  -0.000677961  2e-07  2e-07  2e-07  0  0  0  0.000125  0.000125  0.000125  0.0293317  0.00459221  -0.00981421  -0.00985188  0.00972554  -0.00266686  -0.0154448  0.0334672  -0.0282436  0.00845152  -0.00563089  -0.00403836 
1704708085.939705000  0  0  11.4985  0.077684  -0.159841  0.0196685  nan  nan  nan  nan  nan  nan  -2.5  -0.3  1  0.0160198  -0.0413202  -0.000661812  1.7e-06  1.7e-06  1.7e-06  0  0  0  0.0005  0.0005  0.0005  0.0292607  0.00464489  -0.00984078  -0.0121438  0.0101857  -0.00455952  -0.0159474  0.0317896  -0.0278188  -0.00865188  0.0272168  0.032332 
1704708085.944683000  0  0  11.3704  0.0528883  -0.116713  0.0234898  nan  nan  nan  nan  nan  nan  -2.5  -0.3  1  0.0158049  -0.0398787  -0.000630165  5.6e-06  5.6e-06  5.6e-06  0  0  0  0.001125  0.001125  0.001125  0.0292033  0.00467701  -0.00976586  -0.0143504  0.00969549  0.00602658  -0.015278  0.0296827  -0.0281775  0.0347815  -0.0396561  -0.011848 
1704708085.950185000  0  0  11.4333  0.0448808  -0.138234  0.0258519  nan  nan  nan  nan  nan  nan  -2.5  -0.3  1  0.0148926  -0.0424336  -0.000631905  1.33e-05  1.33e-05  1.33e-05  0  0  0  0.002  0.002  0.002  0.0293012  0.00459641  -0.00973549  -0.0109308  0.0089354  0.000836832  -0.014131  0.0322336  -0.0286467  0.0402435  -0.02008  -0.0366813 
1704708085.954677000  0  0  11.4889  0.0813815  -0.177821  0.0186588  nan  nan  nan  nan  nan  nan  -2.5  -0.3  1  0.0156805  -0.0403591  -0.00063303  2.6e-05  2.6e-05  2.6e-05  0  0  0  0.003125  0.003125  0.003125  0.0292326  0.00464798  -0.00977367  -0.0130214  0.0100629  -0.00366471  -0.0154074  0.0311298  -0.0278673  -0.0210146  0.0692469  0.0454391 
1704708085.959675000  0  0  11.3136  0.0599409  -0.11531  0.0212475  nan  nan  nan  nan  nan  nan  -2.5  -0.3  1  0.0144507  -0.0392743  -0.000567936  4.5e-05  4.5e-05  4.5e-05  0  0  0  0.0045  0.0045  0.0045  0.029315  0.0045499  -0.00959015  -0.0151855  0.00860592  0.0107102  -0.0139369  0.0291602  -0.0280182  0.00833751  -0.0376536  0.0145874 
1704708085.964668000  0  0  11.4141  0.0521357  -0.146327  0.0269586  nan  nan  nan  nan  nan  nan  -2.5  -0.299999  1  0.0142449  -0.0420332  -0.000599622  7.15e-05  7.15e-05  7.15e-05  0  0  0  0.006125  0.006125  0.006125  0.0292823  0.0045944  -0.00963085  -0.0109656  0.00861087  0.00260309  -0.0135897  0.0319919  -0.0287702  0.0207538  -0.00167184  -0.0492799 
1704708085.969704000  0  0  11.4864  0.0939007  -0.18184  0.0173761  nan  nan  nan  nan  nan  nan  -2.5  -0.299999  1  0.0142415  -0.0401328  -0.000573138  0.0001067  0.0001067  0.0001067  0  0  0  0.008  0.008  0.008  0.0293258  0.00452463  -0.00961139  -0.0129127  0.00911614  -0.00333926  -0.0143119  0.0310869  -0.0278113  -0.0561322  0.0776817  0.0609114 
1704708085.975195000  0  0  11.2986  0.0720274  -0.114103  0.0202519  nan  nan  nan  nan  nan  nan  -2.5  -0.299998  1  0.0133931  -0.0392767  -0.000528633  0.0001519  0.0001519  0.0001519  0  0  0  0.010125  0.010125  0.010125  0.0294172  0.00443135  -0.00941148  -0.0147627  0.00823204  0.0121093  -0.0133913  0.0292294  -0.0278616  -0.0208546  -0.0407051  0.0254671 
1704708085.979692000  0  0  11.3964  0.0606354  -0.151459  0.0287529  nan  nan  nan  nan  nan  nan  -2.5  -0.299997  1  0.0130577  -0.0413411  -0.000543897  0.0002083  0.0002083  0.0002083  0  0  0  0.0125  0.0125  0.0125  0.0293864  0.00446953  -0.00944518  -0.0113496  0.00816761  0.00427628  -0.0129562  0.0315807  -0.0289602  -0.00207343  0.0123763  -0.0698095 
1704708085.984697000  0  0  11.4663  0.092061  -0.179299  0.0210029  nan  nan  nan  nan  nan  nan  -2.5  -0.299996  1  0.0126975  -0.0401493  -0.000515785  0.0002773  0.0002773  0.0002773  0  0  0  0.015125  0.015125  0.015125  0.0294335  0.00439984  -0.00941335  -0.0123188  0.00829955  -0.00141089  -0.0132696  0.0312067  -0.0283072  -0.0620421  0.0714971  0.0205362 
1704708085.989692000  0  0  11.2975  0.0738177  -0.115084  0.0215882  nan  nan  nan  nan  nan  nan  -2.49999  -0.299995  1.00001  0.012842  -0.0383653  -0.000501193  0.0003597  0.00036  0.00036  0  0  0  0.0177942  0.018  0.018  0.0293418  0.00444389  -0.00929458  -0.014773  0.00851033  0.0126895  -0.0133242  0.0285388  -0.0282025  -0.0250531  -0.032389  0.0121726 
1704708085.994701000  0  0  11.3538  0.0674829  -0.147173  0.0288977  nan  nan  nan  nan  nan  nan  -2.49999  -0.299993  1.00001  0.0113624  -0.0404585  -0.0004715  0.0004548  0.0004577  0.0004577  0  0  0  0.0202155  0.021125  0.021125  0.0294971  0.00433895  -0.00923716  -0.0119289  0.0073536  0.00818554  -0.0119757  0.0309273  -0.0292671  -0.024789  0.00981494  -0.0685495 
1704708086.000222000  0  0  11.4325  0.0943907  -0.155001  0.0201098  nan  nan  nan  nan  nan  nan  -2.49999  -0.29999  1.00001  0.0109435  -0.039441  -0.000447526  0.0005614  0.0005717  0.0005717  0  0  0  0.0223868  0.0245  0.0245  0.0295405  0.00427574  -0.00921088  -0.0126893  0.00749044  0.00186333  -0.0122721  0.0302941  -0.0284599  -0.0758776  0.0312966  0.033226 
1704708086.004703000  0  0  11.3209  0.0879544  -0.12688  0.0206758  nan  nan  nan  nan  nan  nan  -2.49999  -0.299987  1.00001  0.0114011  -0.0379087  -0.000453116  0.0006783  0.0007031  0.0007031  0  0  0  0.0243082  0.028125  0.028125  0.0294708  0.00431646  -0.0091059  -0.0147093  0.00829967  0.0112876  -0.0128543  0.0283905  -0.0283276  -0.0576498  -0.00743333  0.0248282 
1704708086.009693000  0  0  11.2948  0.0776552  -0.1372  0.0247699  nan  nan  nan  nan  nan  nan  -2.49998  -0.299983  1.00002  0.00963849  -0.0386772  -0.000399808  0.0008041  0.0008533  0.0008533  0  0  0  0.0259795  0.032  0.032  0.0295813  0.00421413  -0.00899922  -0.0138893  0.00677457  0.013613  -0.0112909  0.0292973  -0.0288741  -0.0514343  0.00486512  -0.0208831 
1704708086.015359000  0  0  11.4549  0.0870139  -0.143119  0.0192087  nan  nan  nan  nan  nan  nan  -2.49998  -0.299978  1.00002  0.00901533  -0.0388979  -0.000384899  0.0009376  0.0010235  0.0010235  0  0  0  0.0274008  0.036125  0.036125  0.0296402  0.00415134  -0.00900969  -0.0128706  0.00681559  0.00068081  -0.0111712  0.029661  -0.028274  -0.0712523  0.0133569  0.0426316 
1704708086.019707000  0  0  11.3548  0.0931224  -0.136267  0.0197573  nan  nan  nan  nan  nan  nan  -2.49997  -0.299973  1.00003  0.0095546  -0.0371763  -0.000397834  0.0010777  0.001215  0.001215  0  0  0  0.0285721  0.0405  0.0405  0.029561  0.00418987  -0.00891934  -0.0151518  0.00786496  0.00922364  -0.0120379  0.0279993  -0.0281525  -0.0754964  0.0149408  0.0345584 
1704708086.025227000  0  0  11.272  0.0787932  -0.118607  0.0239468  nan  nan  nan  nan  nan  nan  -2.49997  -0.299966  1.00003  0.00773929  -0.0373161  -0.000341139  0.0012229  0.001429  0.001429  0  0  0  0.0294935  0.045125  0.045125  0.0296134  0.00412485  -0.00877365  -0.0153205  0.00623576  0.016273  -0.0104784  0.0278477  -0.0286191  -0.0611848  -0.0189846  -0.0131432 
1704708086.029707000  0  0  11.4252  0.0737645  -0.128808  0.0240684  nan  nan  nan  nan  nan  nan  -2.49996  -0.299958  1.00004  0.00743351  -0.0376764  -0.000343406  0.0013722  0.0016667  0.0016667  0  0  0  0.0301648  0.05  0.05  0.0295572  0.00415597  -0.00882793  -0.0140171  0.00652778  0.00408013  -0.0103438  0.0282902  -0.0286993  -0.0523659  -0.00265453  -0.0138618 
1704708086.034710000  0  0  11.403  0.0957357  -0.131008  0.0203929  nan  nan  nan  nan  nan  nan  -2.49995  -0.299949  1.00005  0.00769892  -0.0359494  -0.000352517  0.0015242  0.0019294  0.0019294  0  0  0  0.0305861  0.055125  0.055125  0.0295939  0.00409252  -0.00875803  -0.0163273  0.00763663  0.00624605  -0.0112275  0.0267682  -0.0283201  -0.088178  0.015748  0.0282905 
1704708086.039712000  0  0  11.3181  0.0769283  -0.0949857  0.0234569  nan  nan  nan  nan  nan  nan  -2.49995  -0.299939  1.00006  0.00639235  -0.0351712  -0.000314383  0.0016776  0.0022183  0.0022183  0  0  0  0.0307574  0.0605  0.0605  0.0295159  0.00411988  -0.00865457  -0.0174525  0.00654261  0.0136251  -0.0100603  0.0253712  -0.0285881  -0.0613016  -0.0434435  -0.00733037 
1704708086.044707000  0  0  11.4843  0.0589435  -0.114833  0.0260377  nan  nan  nan  nan  nan  nan  -2.49994  -0.299927  1.00007  0.00521982  -0.0366844  -0.000296345  0.0018313  0.0025348  0.0025348  0  0  0  0.0306788  0.066125  0.066125  0.0295922  0.0040531  -0.00869882  -0.0150509  0.00602573  0.00042338  -0.00891767  0.0269744  -0.0290369  -0.0358444  -0.0184984  -0.0351018 
1704708086.050145000  0  0  11.4752  0.0820669  -0.125089  0.0211678  nan  nan  nan  nan  nan  nan  -2.49993  -0.299914  1.00009  0.00507274  -0.0354089  -0.000301084  0.001984  0.00288  0.00288  0  0  0  0.0303501  0.072  0.072  0.0296102  0.00399843  -0.00866897  -0.0167963  0.00669934  0.00164927  -0.00943268  0.0260095  -0.0285596  -0.0773531  0.0108911  0.0209983 
1704708086.054706000  0  0  11.3775  0.0670795  -0.104884  0.0223972  nan  nan  nan  nan  nan  nan  -2.49992  -0.299898  1.0001  0.00372276  -0.03468  -0.00026878  0.0021344  0.0032552  0.0032552  0  0  0  0.0297714  0.078125  0.078125  0.0295269  0.00401782  -0.00857325  -0.0179921  0.00567207  0.0101771  -0.00823601  0.0249818  -0.0286082  -0.0583876  -0.0200651  0.00611643 
1704708086.060226000  0  0  11.5091  0.0591421  -0.12595  0.0243853  nan  nan  nan  nan  nan  nan  -2.49991  -0.299881  1.00012  0.00282729  -0.0354186  -0.000259418  0.0022813  0.0036617  0.0036617  0  0  0  0.0289427  0.0845  0.0845  0.0295845  0.00395616  -0.0086158  -0.016773  0.00552635  -8.88299e-05  -0.00753773  0.0260051  -0.0289285  -0.048937  0.0126525  -0.0155306 
1704708086.064707000  0  0  11.5089  0.0788529  -0.135024  0.0200294  nan  nan  nan  nan  nan  nan  -2.49989  -0.299862  1.00014  0.00277784  -0.0347673  -0.000276959  0.0024234  0.0041006  0.0041006  0  0  0  0.0278641  0.091125  0.091125  0.0294963  0.0039866  -0.00860086  -0.0175476  0.00623469  0.000514435  -0.00809507  0.0256909  -0.0283833  -0.0832312  0.0336907  0.033465 
1704708086.069706000  0  0  11.4509  0.0723075  -0.141002  0.0207742  nan  nan  nan  nan  nan  nan  -2.49988  -0.29984  1.00016  0.00121209  -0.0345383  -0.000244755  0.0025595  0.0045733  0.0045733  0  0  0  0.0265354  0.098  0.098  0.0295332  0.00390627  -0.00854216  -0.018314  0.00527559  0.00586547  -0.0069043  0.0258062  -0.0283493  -0.0810955  0.0445874  0.0238153 
1704708086.075355000  0  0  11.5192  0.0610315  -0.142128  0.0231434  nan  nan  nan  nan  nan  nan  -2.49987  -0.299816  1.00018  4.45104e-05  -0.0351235  -0.000228363  0.0026884  0.005081  0.005081  0  0  0  0.0249567  0.105125  0.105125  0.029584  0.00383781  -0.0085598  -0.0176157  0.00484577  0.000896253  -0.00601328  0.0266145  -0.0285961  -0.0667409  0.039403  -0.00333168 
1704708086.079693000  0  0  11.5577  0.0738902  -0.161091  0.0221416  nan  nan  nan  nan  nan  nan  -2.49986  -0.299789  1.00021  -0.000557096  -0.0355007  -0.000232227  0.0028087  0.005625  0.005625  0  0  0  0.023128  0.1125  0.1125  0.0295173  0.0038567  -0.00857629  -0.0170637  0.00496576  -0.00158765  -0.00598687  0.0274893  -0.0284783  -0.0927011  0.0692804  0.0080134 
1704708086.085222000  0  0  11.5522  0.0889007  -0.182545  0.0208958  nan  nan  nan  nan  nan  nan  -2.49984  -0.299759  1.00024  -0.00139986  -0.0348654  -0.000229703  0.0029192  0.0062065  0.0062065  0  0  0  0.0210493  0.120125  0.120125  0.02954  0.00378827  -0.00857019  -0.0182148  0.00500297  -0.000442989  -0.00599576  0.0277954  -0.0282793  -0.12264  0.109372  0.0215954 
1704708086.089704000  0  0  11.5118  0.0739561  -0.150517  0.0238058  nan  nan  nan  nan  nan  nan  -2.49983  -0.299727  1.00027  -0.00239236  -0.0341927  -0.000224514  0.0030188  0.0068267  0.0068267  0  0  0  0.0187207  0.128  0.128  0.0294543  0.00380493  -0.00853184  -0.0193379  0.00470115  0.0035991  -0.00527174  0.0269571  -0.0285597  -0.0994122  0.0530277  -0.011976 
1704708086.094708000  0  0  11.6292  0.0778074  -0.188949  0.0254159  nan  nan  nan  nan  nan  nan  -2.49981  -0.299691  1.00031  -0.00341986  -0.037592  -0.00020667  0.003106  0.0074869  0.0074869  0  0  0  0.016142  0.136125  0.136125  0.0295385  0.0037316  -0.00860741  -0.0150092  0.00453403  -0.00524957  -0.00491561  0.0310602  -0.0288768  -0.110391  0.092144  -0.0289307 
1704708086.100231000  0  0  11.6302  0.109151  -0.199016  0.0200223  nan  nan  nan  nan  nan  nan  -2.4998  -0.299652  1.00035  -0.00396875  -0.0355359  -0.000224196  0.0031799  0.0081883  0.0081883  0  0  0  0.0134437  0.1445  0.1445  0.0295601  0.00366989  -0.00862749  -0.0180535  0.00502283  -0.00453092  -0.00562333  0.0299736  -0.0282652  -0.166567  0.122276  0.0323731 
1704708086.104706000  0  0  11.549  0.0839934  -0.148767  0.0234016  nan  nan  nan  nan  nan  nan  -2.49978  -0.299609  1.00039  -0.00517745  -0.0350822  -0.0002146  0.0032409  0.0089323  0.0089323  0  0  0  0.010976  0.153125  0.153125  0.0294659  0.00368354  -0.00857066  -0.0190621  0.00457093  0.0029603  -0.00471008  0.0289748  -0.0285446  -0.124654  0.0309654  -0.00707367 
1704708086.109710000  0  0  11.6489  0.0802099  -0.184407  0.0266864  nan  nan  nan  nan  nan  nan  -2.49976  -0.299563  1.00044  -0.00639233  -0.0378274  -0.00018635  0.0032901  0.00972  0.00972  0  0  0  0.0087584  0.162  0.162  0.0295567  0.00360978  -0.0086494  -0.0155988  0.0042291  -0.00435055  -0.00413085  0.0323399  -0.0290883  -0.122416  0.0712865  -0.0426963 
1704708086.114696000  0  0  11.6705  0.124512  -0.185194  0.0175703  nan  nan  nan  nan  nan  nan  -2.49975  -0.299512  1.00049  -0.00645352  -0.0346927  -0.000236852  0.0033289  0.0105527  0.0105527  0  0  0  0.0067907  0.171125  0.171125  0.0294474  0.0036406  -0.00867182  -0.019582  0.00522175  -0.00527934  -0.00548304  0.0299276  -0.0280567  -0.198581  0.0950543  0.0609382 
1704708086.119709000  0  0  11.591  0.0908613  -0.141382  0.0218487  nan  nan  nan  nan  nan  nan  -2.49973  -0.299457  1.00054  -0.00827127  -0.035187  -0.000203012  0.0033584  0.0114317  0.0114317  0  0  0  0.0050731  0.1805  0.1805  0.0294911  0.00356281  -0.00864032  -0.0195683  0.00429967  0.00220935  -0.00406327  0.0298597  -0.0283599  -0.14434  0.00805416  0.01049 
1704708086.125117000  0  0  11.6795  0.0797262  -0.167761  0.0271963  nan  nan  nan  nan  nan  nan  -2.49971  -0.299398  1.0006  -0.00954725  -0.0381166  -0.000163968  0.00338  0.0123581  0.0123581  0  0  0  0.0036054  0.190125  0.190125  0.0295571  0.00350622  -0.00873327  -0.0157493  0.00390754  -0.00404116  -0.00341016  0.033164  -0.0291704  -0.128079  0.0304135  -0.0482491 
1704708086.129681000  0  0  11.6973  0.111865  -0.157086  0.0188259  nan  nan  nan  nan  nan  nan  -2.4997  -0.299333  1.00067  -0.0101823  -0.0355059  -0.00020063  0.0033949  0.0133333  0.0133333  0  0  0  0.0023878  0.2  0.2  0.0294582  0.0035229  -0.00876677  -0.0190054  0.00427746  -0.00453302  -0.00404815  0.0308032  -0.0281057  -0.186488  0.0307834  0.045733 
1704708086.134687000  0  0  11.6472  0.0672452  -0.121631  0.0248341  nan  nan  nan  nan  nan  nan  -2.49968  -0.299264  1.00074  -0.0117167  -0.0363654  -0.000170691  0.0034043  0.0143585  0.0143585  0  0  0  0.0014201  0.210125  0.210125  0.0295178  0.00344825  -0.00876999  -0.018347  0.00379843  0.000659493  -0.00257332  0.0309676  -0.0287083  -0.110816  -0.0416406  -0.023344 
1704708086.139682000  0  0  11.6822  0.0806779  -0.149101  0.0255748  nan  nan  nan  nan  nan  nan  -2.49966  -0.29919  1.00081  -0.0126581  -0.036708  -0.000167026  0.0034095  0.015435  0.015435  0  0  0  0.0007025  0.2205  0.2205  0.0294323  0.0034682  -0.00878672  -0.0176612  0.00380102  -0.00123722  -0.0025252  0.031696  -0.0289455  -0.138124  0.00659869  -0.0302292 
1704708086.144679000  0  0  11.7742  0.10049  -0.137415  0.0169407  nan  nan  nan  nan  nan  nan  -2.49964  -0.29911  1.00089  -0.0143433  -0.035516  -0.000157456  0.0034117  0.016564  0.016564  0  0  0  0.0002348  0.231125  0.231125  0.0294475  0.00339793  -0.00888692  -0.0189415  0.0029706  -0.00766104  -0.00205301  0.0305221  -0.0277847  -0.182092  -0.00597303  0.0660881 
1704708086.149684000  0  0  11.7276  0.0785993  -0.123802  0.0209528  nan  nan  nan  nan  nan  nan  -2.49963  -0.299024  1.00098  -0.0153251  -0.0346587  -0.000170918  0.0034123  0.0177467  0.0177467  0  0  0  1.72e-05  0.242  0.242  0.0293883  0.00339282  -0.00889259  -0.020141  0.00315551  -0.00271381  -0.0014837  0.0293731  -0.0280452  -0.143549  -0.0226296  0.0185425 
1704708086.154691000  0  0  11.7275  0.0737315  -0.130789  0.0218361  nan  nan  nan  nan  nan  nan  -2.49961  -0.298932  1.00107  -0.0171599  -0.0349413  -0.000137874  0.0034123  0.0189844  0.0189844  0  0  0  0  0.253125  0.253125  0.0292942  0.00340118  -0.00889492  -0.0195667  0.00215716  -0.00161375  -0.00037722  0.0297137  -0.0281299  -0.143993  -0.011789  0.00834801 
1704708086.159681000  0  0  11.9226  0.0747663  -0.139562  0.0181468  nan  nan  nan  nan  nan  nan  -2.49959  -0.298834  1.00117  -0.018403  -0.0353671  -0.000122001  0.0034123  0.0202783  0.0202783  0  0  0  0  0.2645  0.264436  0.0293431  0.00331072  -0.00907007  -0.0183539  0.00178088  -0.0164128  8.43551e-05  0.0302932  -0.0275449  -0.150309  0.000425996  0.0486139 
1704708086.165147000  0  0  11.8369  0.0708028  -0.131539  0.0210281  nan  nan  nan  nan  nan  nan  -2.49958  -0.298729  1.00127  -0.018846  -0.0335292  -0.000176352  0.0034123  0.0216298  0.0216284  0  0  0  0  0.276125  0.275559  0.0292486  0.00333832  -0.00906528  -0.0209017  0.0027853  -0.00822099  -0.000161618  0.0284641  -0.0277005  -0.140119  0.00120875  0.0141543 
1704708086.169686000  0  0  11.8324  0.0529658  -0.117582  0.0242058  nan  nan  nan  nan  nan  nan  -2.49956  -0.298618  1.00138  -0.0208138  -0.033975  -0.000136584  0.0034123  0.02304  0.0230335  0  0  0  0  0.288  0.286432  0.0291595  0.00333343  -0.00908955  -0.0201353  0.00172487  -0.00671525  0.00138787  0.0285774  -0.0280846  -0.1187  -0.0277475  -0.0217269 
1704708086.175110000  0  0  12.0795  0.0577264  -0.151862  0.023645  nan  nan  nan  nan  nan  nan  -2.49954  -0.298499  1.0015  -0.0219872  -0.0353382  -0.00010215  0.0034123  0.0245102  0.0244923  0  0  0  0  0.300125  0.297054  0.0292403  0.00322793  -0.00930913  -0.0175509  0.00134928  -0.0258172  0.00174628  0.0304824  -0.0281224  -0.131519  0.0232858  -0.0143391 
1704708086.179676000  0  0  11.9147  0.0619821  -0.123164  0.022477  nan  nan  nan  nan  nan  nan  -2.49953  -0.298372  1.00163  -0.0231656  -0.0324774  -0.00016224  0.0034123  0.0260417  0.0260036  0  0  0  0  0.3125  0.307427  0.0291255  0.00323003  -0.00927649  -0.0217357  0.0017564  -0.0111559  0.002229  0.027453  -0.0279913  -0.144471  -0.00623894  -0.00104915 
1704708086.184690000  0  0  11.8782  0.0384116  -0.103549  0.0268432  nan  nan  nan  nan  nan  nan  -2.49951  -0.298238  1.00176  -0.0256404  -0.0337599  -8.4457e-05  0.0034123  0.0276356  0.0275661  0  0  0  0  0.325125  0.31755  0.0290827  0.00319615  -0.00931048  -0.0200799  0.000262176  -0.00700191  0.00421479  0.0281141  -0.0286047  -0.115599  -0.0515513  -0.0494931 
1704708086.189675000  0  0  12.0709  0.0604307  -0.149825  0.0244738  nan  nan  nan  nan  nan  nan  -2.49949  -0.298096  1.0019  -0.0261576  -0.033625  -0.000105916  0.0034123  0.0292933  0.0291787  0  0  0  0  0.338  0.327422  0.0289862  0.00320564  -0.0094879  -0.0193245  0.000628895  -0.0217492  0.00372371  0.0286987  -0.0285315  -0.15512  0.0356228  -0.0206071 
1704708086.194691000  0  0  11.9231  0.0726932  -0.12944  0.0204034  nan  nan  nan  nan  nan  nan  -2.49947  -0.297945  1.00205  -0.027986  -0.0322066  -0.000119589  0.0034123  0.031016  0.0308399  0  0  0  0  0.351125  0.337045  0.0290617  0.00306387  -0.00946123  -0.0219269  0.000616283  -0.00854201  0.0044398  0.0272806  -0.0280561  -0.186233  0.0078996  0.0255179 
1704708086.200208000  0  0  11.8794  0.0451789  -0.118792  0.0250238  nan  nan  nan  nan  nan  nan  -2.49946  -0.297786  1.00221  -0.0300705  -0.0331217  -6.02982e-05  0.0034123  0.032805  0.0325487  0  0  0  0  0.3645  0.346418  0.0289951  0.00307092  -0.00948486  -0.0207275  -0.000317573  -0.00389525  0.00590855  0.02786  -0.0285938  -0.144716  -0.0187282  -0.0268596 
1704708086.204688000  0  0  12.0662  0.0635594  -0.155493  0.0238715  nan  nan  nan  nan  nan  nan  -2.49944  -0.297617  1.00238  -0.0308924  -0.0332376  -6.4974e-05  0.0034123  0.0346615  0.0343037  0  0  0  0  0.378125  0.35554  0.0289069  0.00305743  -0.0096666  -0.0196893  -0.000287561  -0.0181996  0.0056767  0.0286703  -0.0285687  -0.179345  0.0472203  -0.0127069 
1704708086.209687000  0  0  11.9844  0.0759188  -0.148197  0.0208232  nan  nan  nan  nan  nan  nan  -2.49942  -0.297439  1.00255  -0.032931  -0.0329567  -4.19075e-05  0.0034123  0.0365867  0.0361037  0  0  0  0  0.392  0.364413  0.0290234  0.00288666  -0.00963038  -0.0206261  -0.00058155  -0.0105642  0.00644979  0.0286202  -0.0281988  -0.211176  0.0330883  0.0216983 
1704708086.214693000  0  0  11.897  0.0686882  -0.136763  0.0253029  nan  nan  nan  nan  nan  nan  -2.49941  -0.297251  1.00274  -0.0348733  -0.0326894  -2.25519e-05  0.0034123  0.0385819  0.0379474  0  0  0  0  0.406125  0.373036  0.0289262  0.00288168  -0.00961925  -0.0210852  -0.00102613  -0.0024318  0.00739993  0.0283173  -0.0286742  -0.205456  0.0130079  -0.0295434 
1704708086.219688000  0  0  12.0502  0.0822248  -0.161884  0.0242323  nan  nan  nan  nan  nan  nan  -2.49939  -0.297053  1.00293  -0.0361998  -0.0335465  1.63798e-05  0.0034123  0.0406483  0.0398336  0  0  0  0  0.4205  0.381408  0.0288927  0.0028391  -0.00975741  -0.0193064  -0.00147851  -0.0140654  0.00734077  0.0296555  -0.0286965  -0.231985  0.0509374  -0.0159387 
1704708086.225116000  0  0  12.0457  0.100358  -0.175136  0.0214839  nan  nan  nan  nan  nan  nan  -2.49937  -0.296844  1.00314  -0.0379035  -0.0337681  4.65993e-05  0.0034123  0.0427873  0.0417611  0  0  0  0  0.435125  0.389531  0.0290337  0.00267799  -0.00974945  -0.0193402  -0.00152815  -0.0128932  0.00734677  0.0305371  -0.0283674  -0.268306  0.0693308  0.0151254 
1704708086.229687000  0  0  11.9301  0.0918546  -0.140664  0.024558  nan  nan  nan  nan  nan  nan  -2.49935  -0.296625  1.00335  -0.0399997  -0.0325841  3.462e-05  0.0034123  0.045  0.0437285  0  0  0  0  0.45  0.397404  0.0289263  0.00265254  -0.00972448  -0.021109  -0.00187526  -0.0024905  0.00833015  0.0291017  -0.0286577  -0.260346  0.013592  -0.0203978 
1704708086.234678000  0  0  12.0981  0.0901692  -0.166563  0.0271085  nan  nan  nan  nan  nan  nan  -2.49934  -0.296394  1.00358  -0.0413903  -0.0350114  0.000145064  0.0034123  0.0472877  0.0457347  0  0  0  0  0.465125  0.405026  0.0289283  0.00260202  -0.00988148  -0.0172379  -0.00246045  -0.0153746  0.00834049  0.0318693  -0.0291269  -0.257071  0.0399274  -0.0475878 
1704708086.239672000  0  0  12.1056  0.123679  -0.187323  0.02163  nan  nan  nan  nan  nan  nan  -2.49932  -0.296152  1.00381  -0.041944  -0.0331984  5.29334e-05  0.0034123  0.0496517  0.0477784  0  0  0  0  0.4805  0.412399  0.0288139  0.00260468  -0.00993771  -0.0193989  -0.00129829  -0.0151788  0.00698307  0.0308989  -0.0285457  -0.311603  0.0903767  0.0150818 
1704708086.244688000  0  0  11.97  0.10558  -0.145733  0.0229747  nan  nan  nan  nan  nan  nan  -2.4993  -0.295898  1.00405  -0.0453245  -0.0326363  0.000104374  0.0034123  0.0520931  0.0498583  0  0  0  0  0.496125  0.419522  0.0289728  0.00239894  -0.00982059  -0.0210025  -0.00271935  -0.00331729  0.00903276  0.0300778  -0.0286653  -0.294261  0.0147502  -0.000530916 
1704708086.249684000  0  0  12.0988  0.0848549  -0.175378  0.0281026  nan  nan  nan  nan  nan  nan  -2.49929  -0.295631  1.00431  -0.0477765  -0.0360961  0.000314481  0.0034123  0.0546133  0.0519732  0  0  0  0  0.512  0.426394  0.0292257  0.0022036  -0.00984167  -0.0164369  -0.00421395  -0.0132472  0.0103069  0.0340019  -0.0294204  -0.264533  0.0379395  -0.0570777 
1704708086.254689000  0  0  12.1121  0.12641  -0.197041  0.0187343  nan  nan  nan  nan  nan  nan  -2.49927  -0.295351  1.00457  -0.0485484  -0.0332679  0.000169573  0.0034123  0.0572135  0.0541218  0  0  0  0  0.528125  0.433017  0.029108  0.00219502  -0.00989696  -0.0199378  -0.00326233  -0.0135978  0.00898114  0.0321617  -0.0283863  -0.335447  0.0981947  0.0496837 
1704708086.259689000  0  0  11.9282  0.0857411  -0.120524  0.0218315  nan  nan  nan  nan  nan  nan  -2.49925  -0.295059  1.00485  -0.0521181  -0.0329134  0.00023473  0.0034123  0.059895  0.0563029  0  0  0  0  0.5445  0.43939  0.0292209  0.00203204  -0.00974617  -0.0213407  -0.00455599  0.00218569  0.0115591  0.0307099  -0.0285709  -0.277825  -0.041484  0.0128155 
1704708086.264687000  0  0  12.0464  0.0653751  -0.152906  0.0282585  nan  nan  nan  nan  nan  nan  -2.49924  -0.294752  1.00514  -0.0541236  -0.0346534  0.000359625  0.0034123  0.062659  0.0585153  0  0  0  0  0.561107  0.445512  0.0291552  0.00200303  -0.00984847  -0.0184288  -0.0057516  -0.00676456  0.0124998  0.0327905  -0.029455  -0.245749  0.00414016  -0.0586816 
1704708086.269682000  0  0  12.0429  0.091561  -0.16959  0.0196117  nan  nan  nan  nan  nan  nan  -2.49922  -0.294432  1.00543  -0.0558898  -0.0334647  0.000319131  0.0034123  0.0655058  0.0607576  0  0  0  0  0.577598  0.451385  0.029256  0.00186473  -0.00979703  -0.0202619  -0.00569493  -0.0059497  0.0124678  0.0322806  -0.0285932  -0.297825  0.0421971  0.0407858 
1704708086.274682000  0  0  11.8877  0.0546665  -0.108663  0.0242548  nan  nan  nan  nan  nan  nan  -2.4992  -0.294097  1.00574  -0.0591546  -0.0339272  0.000420606  0.0034123  0.0684345  0.0630287  0  0  0  0  0.593839  0.457008  0.0293893  0.00169528  -0.0096348  -0.0205235  -0.00659951  0.00735194  0.0148109  0.0316436  -0.0290103  -0.245593  -0.073796  -0.0130826 
1704708086.279683000  0  0  12.0177  0.0377902  -0.156252  0.0301768  nan  nan  nan  nan  nan  nan  -2.49918  -0.293747  1.00606  -0.0612191  -0.0352667  0.000537447  0.0034123  0.0714438  0.0653273  0  0  0  0  0.60983  0.46238  0.029311  0.0016537  -0.00971487  -0.0180655  -0.00808793  -0.00269489  0.0158897  0.033551  -0.0299438  -0.221766  0.00383406  -0.0777721 
1704708086.284687000  0  0  11.9967  0.0549259  -0.148604  0.0215889  nan  nan  nan  nan  nan  nan  -2.49917  -0.293383  1.0064  -0.0633673  -0.0347891  0.000547798  0.0034123  0.0745324  0.0676521  0  0  0  0  0.62557  0.467503  0.0294212  0.00149134  -0.00961839  -0.0190321  -0.00844819  -0.000541106  0.0165149  0.0330674  -0.029183  -0.261788  -0.00701142  0.0219689 
1704708086.289869000  0  0  11.9522  0.038626  -0.134825  0.025705  nan  nan  nan  nan  nan  nan  -2.49915  -0.293002  1.00674  -0.0653082  -0.0338449  0.000518369  0.0034123  0.0776991  0.0700019  0  0  0  0  0.641061  0.472375  0.0293133  0.00146283  -0.00956573  -0.020224  -0.00868109  0.00363612  0.0173568  0.0318797  -0.0294761  -0.236934  -0.0236434  -0.0265519 
1704708086.294688000  0  0  11.9895  0.0294421  -0.150778  0.0276856  nan  nan  nan  nan  nan  nan  -2.49913  -0.292605  1.0071  -0.0687212  -0.0356402  0.000722473  0.0034123  0.0809426  0.0723754  0  0  0  0  0.656302  0.476998  0.0294793  0.00126102  -0.00951542  -0.0180509  -0.0111093  0.00105241  0.0195344  0.0338771  -0.0298932  -0.238601  -0.0101135  -0.0471381 
1704708086.300211000  0  0  12.0255  0.0399516  -0.151711  0.0222253  nan  nan  nan  nan  nan  nan  -2.49912  -0.292192  1.00747  -0.0699404  -0.0359417  0.000751734  0.0034123  0.0842617  0.0747714  0  0  0  0  0.671293  0.481371  0.0295033  0.00117676  -0.00945789  -0.0175598  -0.0109212  -0.00155153  0.0192312  0.0341469  -0.0293571  -0.25683  -0.0107294  0.015755 
1704708086.304689000  0  0  11.9717  0.0479781  -0.14563  0.0221879  nan  nan  nan  nan  nan  nan  -2.4991  -0.291763  1.00785  -0.0717474  -0.0343147  0.000664636  0.0034123  0.0876551  0.0771887  0  0  0  0  0.686034  0.485493  0.0294018  0.00109139  -0.0094516  -0.0197224  -0.0108456  0.00341395  0.0196775  0.0325592  -0.0292383  -0.27699  -0.00828513  0.0150344 
1704708086.309687000  0  0  11.9551  0.031928  -0.129968  0.0259643  nan  nan  nan  nan  nan  nan  -2.49908  -0.291316  1.00824  -0.0746842  -0.0348045  0.000767158  0.0034123  0.0911216  0.079626  0  0  0  0  0.700525  0.489366  0.029336  0.00101322  -0.00942426  -0.0189857  -0.0125952  0.00529287  0.0213534  0.0326935  -0.0296853  -0.260307  -0.0408454  -0.0277005 
1704708086.314692000  0  0  12.0575  0.0496813  -0.15215  0.0248474  nan  nan  nan  nan  nan  nan  -2.49906  -0.290851  1.00864  -0.0751491  -0.0354585  0.000797135  0.0034123  0.0946599  0.082082  0  0  0  0  0.714766  0.492989  0.0292523  0.000960425  -0.00947275  -0.0175279  -0.0121418  -0.00272096  0.0202354  0.0335649  -0.0296369  -0.285528  -0.00449587  -0.0142231 
1704708086.319690000  0  0  11.9509  0.0778514  -0.146153  0.02195  nan  nan  nan  nan  nan  nan  -2.49905  -0.290369  1.00906  -0.0769748  -0.0332982  0.000660321  0.0034123  0.0982688  0.0845554  0  0  0  0  0.728757  0.496361  0.0291783  0.000883969  -0.00940141  -0.0206657  -0.0117281  0.00645238  0.0199944  0.0315264  -0.029253  -0.339651  0.00226239  0.0181558 
1704708086.325161000  0  0  11.93  0.0608168  -0.128348  0.0254502  nan  nan  nan  nan  nan  nan  -2.49903  -0.289869  1.00949  -0.0792531  -0.0337119  0.000733969  0.0034123  0.101947  0.0870452  0  0  0  0  0.742497  0.499484  0.0291273  0.00082487  -0.0093256  -0.0200803  -0.012687  0.00850256  0.0206868  0.0315332  -0.0296483  -0.311953  -0.0334102  -0.0216443 
1704708086.329686000  0  0  12.04  0.0826607  -0.153055  0.0268987  nan  nan  nan  nan  nan  nan  -2.49901  -0.289349  1.00993  -0.0799508  -0.0344113  0.000778239  0.0034123  0.105693  0.0895499  0  0  0  0  0.755988  0.502357  0.0290471  0.00072406  -0.00941157  -0.0185542  -0.0126502  -0.0001148  0.0195607  0.0325611  -0.0299209  -0.34528  0.00654688  -0.0370257 
1704708086.334694000  0  0  11.9335  0.133383  -0.136893  0.0201738  nan  nan  nan  nan  nan  nan  -2.499  -0.288812  1.01038  -0.0813434  -0.0324228  0.000628946  0.0034123  0.109507  0.0920683  0  0  0  0  0.769229  0.504979  0.028989  0.000636487  -0.00932462  -0.0214841  -0.0116721  0.00893628  0.0181822  0.0304868  -0.0291238  -0.434041  -0.0066928  0.0390652 
1704708086.340245000  0  0  11.965  0.107353  -0.129954  0.0277391  nan  nan  nan  nan  nan  nan  -2.49898  -0.288254  1.01085  -0.0829332  -0.0338275  0.000762029  0.0034123  0.113385  0.0945992  0  0  0  0  0.78222  0.507352  0.0289548  0.000586619  -0.00925934  -0.0194219  -0.0123023  0.00655897  0.0178984  0.0315454  -0.0299001  -0.37937  -0.0303106  -0.0477375 
1704708086.344689000  0  0  12.0603  0.129665  -0.154682  0.0265964  nan  nan  nan  nan  nan  nan  -2.49896  -0.287678  1.01133  -0.0835532  -0.0334692  0.000717749  0.0034123  0.117328  0.0971414  0  0  0  0  0.794961  0.509475  0.0288621  0.000475728  -0.00934648  -0.0193443  -0.0121468  -0.000914804  0.0164786  0.031624  -0.0299152  -0.410934  0.0184233  -0.033304 
1704708086.350225000  0  0  12.0098  0.150096  -0.151015  0.0221258  nan  nan  nan  nan  nan  nan  -2.49895  -0.287081  1.01182  -0.0853732  -0.0335786  0.000752952  0.0034123  0.121334  0.0996936  0  0  0  0  0.807452  0.511347  0.0290186  0.000298775  -0.00914614  -0.0197353  -0.0121208  0.00320342  0.015619  0.0318501  -0.029391  -0.443887  0.00900905  0.0173366 
1704708086.354692000  0  0  12.0085  0.117548  -0.141477  0.0258681  nan  nan  nan  nan  nan  nan  -2.49893  -0.286464  1.01233  -0.0875824  -0.0336791  0.000801099  0.0034123  0.125402  0.102254  0  0  0  0  0.819693  0.51297  0.0289306  0.000172347  -0.00918025  -0.0194113  -0.0132132  0.00372  0.0164923  0.0318242  -0.0297762  -0.386825  -0.00982893  -0.0255894 
1704708086.359689000  0  0  12.0711  0.12158  -0.166615  0.0244835  nan  nan  nan  nan  nan  nan  -2.49891  -0.285827  1.01284  -0.0893725  -0.0356972  0.00100708  0.0034123  0.129531  0.104823  0  0  0  0  0.831684  0.514343  0.0291485  -5.18971e-05  -0.00911694  -0.0169423  -0.014194  -0.00133034  0.0162852  0.034284  -0.0297289  -0.392983  0.0178163  -0.00875427 
1704708086.364637000  0  0  12.1198  0.143662  -0.170264  0.0207457  nan  nan  nan  nan  nan  nan  -2.49889  -0.285169  1.01337  -0.0900201  -0.0348008  0.000914013  0.0034123  0.133719  0.107397  0  0  0  0  0.843424  0.515465  0.0290533  -0.000124155  -0.00914859  -0.0177558  -0.0138967  -0.00512107  0.0146589  0.0336417  -0.0291846  -0.422186  0.0310233  0.0325249 
1704708086.369635000  0  0  12.0597  0.122262  -0.168001  0.0223092  nan  nan  nan  nan  nan  nan  -2.49888  -0.28449  1.01392  -0.092645  -0.0352565  0.00101303  0.0034123  0.137965  0.109977  0  0  0  0  0.854915  0.516338  0.0292176  -0.000348745  -0.00906026  -0.0177386  -0.0148452  -1.87723e-05  0.015626  0.0343134  -0.0292245  -0.388283  0.0203189  0.0133807 
1704708086.375070000  0  0  12.136  0.100748  -0.176927  0.0259329  nan  nan  nan  nan  nan  nan  -2.49886  -0.283789  1.01447  -0.0942074  -0.0386456  0.00135308  0.0034123  0.142268  0.11256  0  0  0  0  0.866156  0.516961  0.0294231  -0.000519397  -0.00900134  -0.0133022  -0.0159177  -0.00626271  0.0155669  0.0377027  -0.0297136  -0.344711  0.00698865  -0.0270256 
1704708086.379689000  0  0  12.1923  0.120377  -0.199273  0.0211702  nan  nan  nan  nan  nan  nan  -2.49884  -0.283067  1.01504  -0.0949496  -0.0368978  0.00118028  0.0034123  0.146626  0.115146  0  0  0  0  0.877147  0.517333  0.0293364  -0.00064249  -0.00909888  -0.0152527  -0.0158455  -0.0106331  0.0144262  0.0366434  -0.0291443  -0.373476  0.0614273  0.0268154 
1704708086.384688000  0  0  12.0682  0.0951621  -0.159459  0.0222272  nan  nan  nan  nan  nan  nan  -2.49883  -0.282323  1.01562  -0.0970569  -0.0356992  0.00110662  0.0034123  0.151039  0.117733  0  0  0  0  0.887888  0.517456  0.0293045  -0.000754117  -0.00902568  -0.0173085  -0.0157418  -0.000266601  0.0152245  0.0350148  -0.0291255  -0.330389  -0.00321773  0.0134154 
1704708086.389640000  0  0  12.1491  0.06314  -0.162161  0.0278558  nan  nan  nan  nan  nan  nan  -2.49881  -0.281556  1.01622  -0.0982242  -0.0379671  0.00133661  0.0034123  0.155504  0.12032  0  0  0  0  0.898379  0.517329  0.0292498  -0.000846203  -0.00910228  -0.0137887  -0.0166435  -0.00671264  0.0154261  0.0370832  -0.029858  -0.2682  -0.016844  -0.0496173 
1704708086.394692000  0  0  12.2363  0.109267  -0.198031  0.0190828  nan  nan  nan  nan  nan  nan  -2.49879  -0.280767  1.01683  -0.0989488  -0.0366398  0.00119721  0.0034123  0.160022  0.122906  0  0  0  0  0.90862  0.516951  0.0293868  -0.00105672  -0.009212  -0.015545  -0.0168122  -0.013684  0.0137757  0.0365394  -0.0289042  -0.34527  0.0598999  0.0505069 
1704708086.399692000  0  0  12.0614  0.0786569  -0.11535  0.0218388  nan  nan  nan  nan  nan  nan  -2.49877  -0.279956  1.01745  -0.101116  -0.0345202  0.00102699  0.0034123  0.16459  0.12549  0  0  0  0  0.91861  0.516324  0.0292745  -0.00113106  -0.00913065  -0.018868  -0.0163502  0.000835604  0.0148307  0.0331288  -0.0289607  -0.293756  -0.0740841  0.0166221 
1704708086.404640000  0  0  12.1213  0.0470328  -0.136412  0.0296865  nan  nan  nan  nan  nan  nan  -2.49876  -0.279121  1.01808  -0.103105  -0.0381544  0.00143673  0.0034123  0.169208  0.128069  0  0  0  0  0.928351  0.515447  0.0294414  -0.00136695  -0.0091375  -0.0140839  -0.0179216  -0.00399711  0.015907  0.0365867  -0.030014  -0.24041  -0.0637739  -0.0709408 
1704708086.409686000  0  0  12.2248  0.089932  -0.167014  0.0204424  nan  nan  nan  nan  nan  nan  -2.49874  -0.278264  1.01873  -0.103914  -0.0366953  0.00128035  0.0034123  0.173873  0.130644  0  0  0  0  0.937842  0.514319  0.0295165  -0.00157984  -0.00926727  -0.0158114  -0.0185254  -0.0123271  0.0145389  0.0356009  -0.0290569  -0.313622  0.00649897  0.0350395 
1704708086.414689000  0  0  12.036  0.0570753  -0.0794298  0.0227583  nan  nan  nan  nan  nan  nan  -2.49872  -0.277383  1.01939  -0.105668  -0.0350223  0.00113269  0.0034123  0.178586  0.133212  0  0  0  0  0.947083  0.512942  0.0294106  -0.00165627  -0.00918072  -0.0186015  -0.0173381  0.0032348  0.015381  0.0322338  -0.0291251  -0.255655  -0.137692  0.00677232 
1704708086.419691000  0  0  12.1322  0.0485417  -0.132984  0.0306673  nan  nan  nan  nan  nan  nan  -2.49871  -0.276478  1.02006  -0.107936  -0.0386551  0.00157087  0.0034123  0.183344  0.135773  0  0  0  0  0.956074  0.511315  0.0296431  -0.00193787  -0.00916935  -0.0138128  -0.0197347  -0.00468616  0.016391  0.036157  -0.0302442  -0.247881  -0.0666772  -0.0808989 
1704708086.424643000  0  0  12.213  0.076404  -0.147223  0.0213255  nan  nan  nan  nan  nan  nan  -2.49869  -0.275549  1.02075  -0.108054  -0.0370312  0.00136397  0.0034123  0.188146  0.138325  0  0  0  0  0.964815  0.509437  0.0295523  -0.002037  -0.00926223  -0.0154898  -0.0195359  -0.0113361  0.0148245  0.0347092  -0.0292562  -0.289193  -0.0248783  0.0259935 
1704708086.429684000  0  0  12.0612  0.0606855  -0.101549  0.0218239  nan  nan  nan  nan  nan  nan  -2.49867  -0.274596  1.02145  -0.11005  -0.036756  0.00137296  0.0034123  0.192991  0.140867  0  0  0  0  0.973306  0.50731  0.0296344  -0.00225663  -0.00910406  -0.0166696  -0.018809  0.000942976  0.0156835  0.0333859  -0.0291397  -0.265659  -0.104052  0.0185984 
1704708086.434689000  0  0  12.118  0.0555539  -0.128062  0.0285351  nan  nan  nan  nan  nan  nan  -2.49866  -0.273619  1.02216  -0.112695  -0.0390875  0.00169954  0.0034123  0.197879  0.143397  0  0  0  0  0.981547  0.504933  0.0298155  -0.00252385  -0.00907299  -0.0136762  -0.0213984  -0.00376571  0.0169187  0.0357292  -0.0299854  -0.26676  -0.0725849  -0.0568348 
1704708086.439700000  0  0  12.1807  0.0743178  -0.134423  0.0202466  nan  nan  nan  nan  nan  nan  -2.49864  -0.272617  1.02288  -0.112596  -0.0385139  0.00159541  0.0034123  0.202806  0.145915  0  0  0  0  0.989537  0.502305  0.0297404  -0.0026202  -0.00913332  -0.014027  -0.0208209  -0.00906348  0.01527  0.035011  -0.0290871  -0.289119  -0.0532543  0.0377886 
1704708086.444637000  0  0  12.0881  0.0800673  -0.121585  0.0205059  nan  nan  nan  nan  nan  nan  -2.49862  -0.271591  1.02361  -0.113533  -0.0372903  0.00145705  0.0034123  0.207774  0.14842  0  0  0  0  0.997278  0.499428  0.0297961  -0.00283925  -0.00913081  -0.0162073  -0.0194475  -0.00154835  0.0146058  0.0332927  -0.0289121  -0.294508  -0.0631226  0.0327967 
1704708086.450144000  0  0  12.0696  0.0779234  -0.113826  0.0255236  nan  nan  nan  nan  nan  nan  -2.4986  -0.27054  1.02436  -0.114875  -0.0379369  0.00154677  0.0034123  0.212779  0.150909  0  0  0  0  1.00477  0.496301  0.0297628  -0.00288248  -0.00906266  -0.01534  -0.0199507  -0.000272059  0.0143366  0.0333735  -0.029449  -0.287743  -0.0793834  -0.0245551 
1704708086.454690000  0  0  12.2601  0.0943841  -0.146981  0.0234171  nan  nan  nan  nan  nan  nan  -2.49859  -0.269463  1.02512  -0.114548  -0.038382  0.00155  0.0034123  0.217821  0.153382  0  0  0  0  1.01201  0.492923  0.029713  -0.00307269  -0.00927242  -0.013823  -0.0205943  -0.0159523  0.0125278  0.0341351  -0.0292388  -0.304024  -0.0200803  -0.000325824 
1704708086.459692000  0  0  12.0922  0.107016  -0.137028  0.0216862  nan  nan  nan  nan  nan  nan  -2.49857  -0.268361  1.0259  -0.115841  -0.0367694  0.00137728  0.0034123  0.222899  0.155838  0  0  0  0  1.019  0.489296  0.0297817  -0.00330583  -0.00913055  -0.0168774  -0.0187872  -0.00254514  0.0121075  0.0324825  -0.02893  -0.325421  -0.0247817  0.0182224 
1704708086.464659000  0  0  12.0034  0.0973901  -0.114274  0.025809  nan  nan  nan  nan  nan  nan  -2.49855  -0.267234  1.02668  -0.11771  -0.0368122  0.00141659  0.0034123  0.22801  0.158275  0  0  0  0  1.02574  0.485419  0.0296992  -0.00341149  -0.00908672  -0.0170017  -0.01903  0.00458279  0.0125118  0.0319258  -0.0294068  -0.309888  -0.0651701  -0.0285439 
1704708086.469708000  0  0  12.1594  0.113765  -0.159444  0.025003  nan  nan  nan  nan  nan  nan  -2.49854  -0.266081  1.02748  -0.117907  -0.0382909  0.00156347  0.0034123  0.233156  0.160692  0  0  0  0  1.03223  0.481291  0.029862  -0.00366587  -0.00911346  -0.0147176  -0.0199398  -0.008637  0.0109705  0.0339951  -0.0294217  -0.328458  0.00613262  -0.0183204 
1704708086.475125000  0  0  11.9635  0.130645  -0.149012  0.0223492  nan  nan  nan  nan  nan  nan  -2.49852  -0.264903  1.02829  -0.1187  -0.0370426  0.00141007  0.0034123  0.238332  0.163088  0  0  0  0  1.03847  0.476914  0.0299337  -0.00380101  -0.00888696  -0.0173863  -0.017336  0.00678411  0.00976503  0.0327594  -0.0290522  -0.351129  -0.00336213  0.011157 
1704708086.479695000  0  0  11.9685  0.108294  -0.144492  0.0272605  nan  nan  nan  nan  nan  nan  -2.4985  -0.263698  1.02911  -0.12067  -0.0376409  0.00152109  0.0034123  0.24354  0.165461  0  0  0  0  1.04446  0.472287  0.0298641  -0.00399839  -0.00894494  -0.0164106  -0.018803  0.00629028  0.0105026  0.0331785  -0.0296303  -0.313211  -0.0162594  -0.0444532 
1704708086.485261000  0  0  12.1339  0.125256  -0.172797  0.0264736  nan  nan  nan  nan  nan  nan  -2.49848  -0.262467  1.02994  -0.119314  -0.0380064  0.00147763  0.0034123  0.248777  0.16781  0  0  0  0  1.05021  0.467409  0.0298326  -0.00400073  -0.00896462  -0.0151627  -0.0184675  -0.00796389  0.00732106  0.0339916  -0.0297075  -0.317866  0.0328707  -0.033845 
1704708086.489748000  0  0  12.009  0.139277  -0.159711  0.0235029  nan  nan  nan  nan  nan  nan  -2.49847  -0.26121  1.03079  -0.120089  -0.0367163  0.00131651  0.0034123  0.254041  0.170134  0  0  0  0  1.0557  0.462282  0.0297507  -0.00419209  -0.0089815  -0.0172471  -0.0167229  0.0020112  0.0064515  0.0327177  -0.0293783  -0.337908  0.0184198  -3.20016e-06 
1704708086.494699000  0  0  12.0028  0.120772  -0.149024  0.0260957  nan  nan  nan  nan  nan  nan  -2.49845  -0.259927  1.03165  -0.121673  -0.0367943  0.00134956  0.0034123  0.259333  0.172432  0  0  0  0  1.06094  0.456905  0.0297251  -0.00434331  -0.00899679  -0.0171134  -0.0177371  0.00223755  0.00669532  0.0326413  -0.0296964  -0.303141  -0.00225143  -0.0292324 
1704708086.500217000  0  0  12.1007  0.125548  -0.159807  0.0260137  nan  nan  nan  nan  nan  nan  -2.49843  -0.258617  1.03251  -0.120883  -0.0375555  0.00137706  0.0034123  0.26465  0.174703  0  0  0  0  1.06593  0.451277  0.029711  -0.00435491  -0.00895583  -0.0156586  -0.0173439  -0.00656173  0.00439424  0.0335411  -0.029793  -0.291522  0.0110356  -0.0272408 
1704708086.504645000  0  0  12.0571  0.140552  -0.160044  0.0227518  nan  nan  nan  nan  nan  nan  -2.49842  -0.25728  1.03339  -0.121375  -0.0366743  0.00125292  0.0034123  0.269992  0.176945  0  0  0  0  1.07067  0.4454  0.0296357  -0.00457181  -0.00904038  -0.0168677  -0.0163358  -0.00328983  0.00337854  0.0328063  -0.0294069  -0.312187  0.0182704  0.00967099 
1704708086.509677000  0  0  12.0335  0.115682  -0.132355  0.0245323  nan  nan  nan  nan  nan  nan  -2.4984  -0.255917  1.03428  -0.122584  -0.0360372  0.00118395  0.0034123  0.275357  0.179157  0  0  0  0  1.07516  0.439273  0.0296238  -0.00471453  -0.00900628  -0.0178008  -0.0167348  -0.0018299  0.00357123  0.0318294  -0.0295098  -0.26422  -0.028121  -0.0115555 
1704708086.514696000  0  0  12.1048  0.10444  -0.135723  0.0264607  nan  nan  nan  nan  nan  nan  -2.49838  -0.254526  1.03518  -0.122372  -0.0373219  0.00129871  0.0034123  0.280743  0.181337  0  0  0  0  1.0794  0.432895  0.029554  -0.00479554  -0.00906517  -0.0156249  -0.0167016  -0.00822477  0.00240802  0.0328994  -0.0298014  -0.231035  -0.0312299  -0.0327447 
1704708086.519691000  0  0  12.0847  0.133481  -0.152022  0.0204437  nan  nan  nan  nan  nan  nan  -2.49837  -0.253109  1.0361  -0.12237  -0.0360977  0.00111268  0.0034123  0.28615  0.183485  0  0  0  0  1.08339  0.426268  0.0295527  -0.00494088  -0.00907113  -0.0173686  -0.0156027  -0.00718894  0.000831937  0.0320364  -0.0291233  -0.274616  0.00930864  0.0356868 
1704708086.525113000  0  0  11.9923  0.118864  -0.11485  0.0207599  nan  nan  nan  nan  nan  nan  -2.49835  -0.251665  1.03702  -0.123528  -0.0345033  0.000921851  0.0034123  0.291577  0.185599  0  0  0  0  1.08713  0.419391  0.029536  -0.00498679  -0.00893711  -0.0198483  -0.0153053  -0.000332094  0.000903865  0.0298836  -0.0289333  -0.246043  -0.0452283  0.0298346 
1704708086.529667000  0  0  12.0623  0.0929138  -0.125056  0.0272295  nan  nan  nan  nan  nan  nan  -2.49833  -0.250193  1.03795  -0.123692  -0.0366049  0.00115321  0.0034123  0.297021  0.187679  0  0  0  0  1.09062  0.412263  0.029475  -0.005189  -0.00907763  -0.0166104  -0.015586  -0.00647053  0.000574341  0.0316994  -0.0296921  -0.191112  -0.0415236  -0.0434476 
1704708086.534701000  0  0  12.0611  0.136192  -0.154747  0.0192942  nan  nan  nan  nan  nan  nan  -2.49831  -0.248695  1.0389  -0.123501  -0.0351098  0.000925245  0.0034123  0.302483  0.189722  0  0  0  0  1.09386  0.404886  0.0294778  -0.00534221  -0.00908624  -0.0186476  -0.0145727  -0.00710253  -0.00129192  0.0308517  -0.0288029  -0.260498  0.0256584  0.0468509 
1704708086.540301000  0  0  11.9904  0.0819162  -0.0918163  0.024765  nan  nan  nan  nan  nan  nan  -2.4983  -0.247169  1.03985  -0.124086  -0.0352167  0.000923941  0.0034123  0.307959  0.191727  0  0  0  0  1.09685  0.397259  0.0295043  -0.00533808  -0.00893607  -0.0188443  -0.0140045  -0.00218949  -0.00103421  0.029788  -0.0291215  -0.154318  -0.0904173  -0.0183476 
1704708086.544777000  0  0  12.0352  0.0826208  -0.131174  0.0289542  nan  nan  nan  nan  nan  nan  -2.49828  -0.245615  1.04081  -0.124231  -0.0368248  0.00109429  0.0034123  0.313451  0.193694  0  0  0  0  1.0996  0.389381  0.0294375  -0.00556049  -0.00908276  -0.0163575  -0.0139685  -0.00631708  -0.00158104  0.0316564  -0.0297763  -0.150696  -0.0288913  -0.0641651 
1704708086.549658000  0  0  12.0456  0.108863  -0.156021  0.0204876  nan  nan  nan  nan  nan  nan  -2.49826  -0.244034  1.04179  -0.126528  -0.0372884  0.00120375  0.0034123  0.318955  0.19562  0  0  0  0  1.10209  0.381254  0.0297567  -0.00608588  -0.00902584  -0.0164001  -0.0156794  -0.00778962  -0.000516351  0.0326847  -0.0289302  -0.212976  0.0113437  0.0332064 
1704708086.554779000  0  0  11.9433  0.0593202  -0.0963026  0.025469  nan  nan  nan  nan  nan  nan  -2.49825  -0.242426  1.04277  -0.127054  -0.0368374  0.0011306  0.0034123  0.324471  0.197506  0  0  0  0  1.10433  0.372876  0.0296709  -0.00611841  -0.00896664  -0.0172425  -0.014577  -0.000154629  -9.11942e-05  0.0310154  -0.0292461  -0.117801  -0.0927366  -0.0259009 
1704708086.559784000  0  0  11.9776  0.0783226  -0.151341  0.0267228  nan  nan  nan  nan  nan  nan  -2.49823  -0.240789  1.04376  -0.12672  -0.0375958  0.00117925  0.0034123  0.329998  0.199349  0  0  0  0  1.10632  0.364249  0.0296401  -0.00622096  -0.00905408  -0.0160211  -0.0141429  -0.00368761  -0.0012852  0.032406  -0.0295211  -0.144821  0.00454709  -0.0388249 
1704708086.565247000  0  0  11.9889  0.101866  -0.142812  0.0157528  nan  nan  nan  nan  nan  nan  -2.49821  -0.239126  1.04476  -0.12686  -0.0367852  0.00104578  0.0034123  0.335534  0.201148  0  0  0  0  1.10806  0.355372  0.0296441  -0.00624994  -0.00897657  -0.0170785  -0.0142044  -0.00561152  -0.00231331  0.0315941  -0.0282114  -0.18245  -0.00504159  0.0852036 
1704708086.569656000  0  0  11.9718  0.0766064  -0.13196  0.0193946  nan  nan  nan  nan  nan  nan  -2.49819  -0.237434  1.04577  -0.127228  -0.036034  0.000928007  0.0034123  0.341078  0.202902  0  0  0  0  1.10955  0.346244  0.0295577  -0.00650567  -0.00910716  -0.0179698  -0.0136953  -0.00475146  -0.00215029  0.0306458  -0.0283067  -0.13343  -0.0180202  0.0406347 
1704708086.575305000  0  0  11.8688  0.0615653  -0.162408  0.0241422  nan  nan  nan  nan  nan  nan  -2.49818  -0.235715  1.04679  -0.128978  -0.0396339  0.00142323  0.0034123  0.346629  0.20461  0  0  0  0  1.11079  0.336867  0.0300025  -0.00679654  -0.00884768  -0.0145797  -0.0137201  0.00255886  -0.000764839  0.0347123  -0.0287802  -0.116094  0.00546301  -0.0139763 
1704708086.579782000  0  0  11.976  0.0758157  -0.167896  0.0179029  nan  nan  nan  nan  nan  nan  -2.49816  -0.233968  1.04782  -0.12927  -0.0395908  0.00139394  0.0034123  0.352185  0.20627  0  0  0  0  1.11178  0.32724  0.0299367  -0.00705251  -0.00903695  -0.0140261  -0.0149469  -0.00678713  -0.00125323  0.0347864  -0.0279898  -0.140102  0.0157581  0.0561124 
1704708086.584698000  0  0  11.9141  0.0663046  -0.171829  0.0211507  nan  nan  nan  nan  nan  nan  -2.49814  -0.232193  1.04885  -0.129489  -0.0389454  0.00128336  0.0034123  0.357746  0.207882  0  0  0  0  1.11252  0.317362  0.0299451  -0.00723383  -0.00902055  -0.0151841  -0.0138545  -0.00262582  -0.00144375  0.034382  -0.028071  -0.119327  0.0273436  0.016326 
1704708086.589706000  0  0  11.7757  0.0590447  -0.148781  0.0257946  nan  nan  nan  nan  nan  nan  -2.49813  -0.23039  1.0499  -0.129729  -0.0387497  0.00123186  0.0034123  0.36331  0.209443  0  0  0  0  1.11301  0.307235  0.0298713  -0.00728969  -0.00895003  -0.0158817  -0.0119937  0.00774101  -0.00161199  0.0338088  -0.0286164  -0.103259  -0.0134798  -0.0362677 
1704708086.594702000  0  0  11.9648  0.0867536  -0.179609  0.0223542  nan  nan  nan  nan  nan  nan  -2.49811  -0.22856  1.05095  -0.129307  -0.0408328  0.00145046  0.0034123  0.368876  0.210954  0  0  0  0  1.11325  0.296858  0.0299259  -0.00747185  -0.00909606  -0.012402  -0.0137198  -0.00862458  -0.0030943  0.0362148  -0.0282632  -0.14504  0.0260431  0.00320421 
1704708086.600186000  0  0  11.8809  0.0979863  -0.168871  0.021275  nan  nan  nan  nan  nan  nan  -2.49809  -0.226701  1.05201  -0.128237  -0.03899  0.00113315  0.0034123  0.374442  0.212412  0  0  0  0  1.11325  0.28623  0.0299312  -0.00745147  -0.00896575  -0.0152565  -0.0111722  -0.00312928  -0.0049413  0.034485  -0.0280003  -0.150513  0.0204796  0.0140664 
1704708086.604652000  0  0  11.7117  0.0821927  -0.12121  0.024995  nan  nan  nan  nan  nan  nan  -2.49808  -0.224815  1.05307  -0.129199  -0.0385067  0.001073  0.0034123  0.380008  0.213816  0  0  0  0  1.11299  0.275353  0.0298583  -0.00768887  -0.00897115  -0.0164652  -0.00950994  0.0099766  -0.00434752  0.0330745  -0.0284315  -0.124388  -0.0618661  -0.0281226 
1704708086.609655000  0  0  11.8621  0.101643  -0.155573  0.0251489  nan  nan  nan  nan  nan  nan  -2.49806  -0.222901  1.05414  -0.128839  -0.0409638  0.0013416  0.0034123  0.385572  0.215165  0  0  0  0  1.11248  0.264226  0.0299281  -0.0078725  -0.00905457  -0.0127163  -0.0108491  -0.00338187  -0.00565641  0.0357351  -0.0285463  -0.151246  -0.0176175  -0.0288981 
1704708086.614699000  0  0  11.8245  0.129815  -0.141987  0.0192549  nan  nan  nan  nan  nan  nan  -2.49804  -0.22096  1.05522  -0.12732  -0.0375916  0.000811535  0.0034123  0.391132  0.216458  0  0  0  0  1.11172  0.252914  0.0298137  -0.00789079  -0.00904545  -0.0171122  -0.00840242  -0.00159062  -0.00822  0.0323254  -0.027787  -0.184005  -0.0134204  0.0371838 
1704708086.619701000  0  0  11.6734  0.105975  -0.100176  0.024302  nan  nan  nan  nan  nan  nan  -2.49802  -0.21899  1.05631  -0.128095  -0.0383382  0.00090182  0.0034123  0.396689  0.217694  0  0  0  0  1.11071  0.241794  0.0298653  -0.00805803  -0.00893398  -0.0168841  -0.00701653  0.00974012  -0.00785128  0.0320236  -0.0282373  -0.139718  -0.0942649  -0.0214016 
1704708086.625301000  0  0  11.8614  0.127401  -0.13916  0.0238601  nan  nan  nan  nan  nan  nan  -2.49801  -0.216993  1.0574  -0.126333  -0.0399981  0.00100831  0.0034123  0.402239  0.218876  0  0  0  0  1.10945  0.230924  0.0299298  -0.0080012  -0.008911  -0.0140294  -0.00767298  -0.00711601  -0.0105809  0.0338337  -0.0282633  -0.157458  -0.03295  -0.0156179 
1704708086.629655000  0  0  11.8326  0.14943  -0.127693  0.0187751  nan  nan  nan  nan  nan  nan  -2.49799  -0.214968  1.0585  -0.126109  -0.0379881  0.000709197  0.0034123  0.407783  0.220004  0  0  0  0  1.10794  0.220304  0.0298373  -0.00828449  -0.0090529  -0.0166237  -0.0065477  -0.00549847  -0.0117991  0.0316289  -0.0276171  -0.190309  -0.0356  0.0414818 
1704708086.635217000  0  0  11.6677  0.1149  -0.0857694  0.0244059  nan  nan  nan  nan  nan  nan  -2.49797  -0.212915  1.0596  -0.125645  -0.0377603  0.000627064  0.0034123  0.413318  0.221079  0  0  0  0  1.10618  0.209933  0.029881  -0.0082219  -0.00883328  -0.017719  -0.0040058  0.00666286  -0.0123526  0.0302807  -0.0281129  -0.116157  -0.107043  -0.0239449 
1704708086.639857000  0  0  11.8216  0.121721  -0.112103  0.0243685  nan  nan  nan  nan  nan  nan  -2.49796  -0.210835  1.06071  -0.125326  -0.0390043  0.0007359  0.0034123  0.418844  0.222104  0  0  0  0  1.10417  0.199813  0.0298294  -0.00840863  -0.0090192  -0.0153191  -0.00557419  -0.00667741  -0.0133127  0.0314677  -0.0282183  -0.120964  -0.0652969  -0.0224239 
1704708086.644657000  0  0  11.8454  0.137925  -0.120814  0.0189445  nan  nan  nan  nan  nan  nan  -2.49794  -0.208727  1.06182  -0.124629  -0.0381802  0.000569756  0.0034123  0.424359  0.223078  0  0  0  0  1.10191  0.189943  0.029875  -0.00864553  -0.00910534  -0.0164175  -0.00476329  -0.00951651  -0.0147451  0.030687  -0.0275054  -0.140195  -0.0406933  0.0382475 
1704708086.650232000  0  0  11.699  0.113516  -0.111225  0.0210718  nan  nan  nan  nan  nan  nan  -2.49792  -0.206591  1.06294  -0.126474  -0.0397469  0.000804836  0.0034123  0.429863  0.224004  0  0  0  0  1.0994  0.180322  0.0304071  -0.00903916  -0.00886999  -0.0161682  -0.00455369  0.00144957  -0.0130339  0.0319565  -0.0275169  -0.10712  -0.0715498  0.0117717 
1704708086.654645000  0  0  11.8052  0.0939108  -0.123292  0.023524  nan  nan  nan  nan  nan  nan  -2.4979  -0.204428  1.06406  -0.126708  -0.0407287  0.000903874  0.0034123  0.435353  0.224882  0  0  0  0  1.09664  0.170952  0.0303529  -0.00932942  -0.00907881  -0.0142876  -0.00605069  -0.00774001  -0.0128769  0.0327454  -0.0278136  -0.0693538  -0.0546727  -0.0159136 
1704708086.659811000  0  0  11.8436  0.116661  -0.153835  0.0175778  nan  nan  nan  nan  nan  nan  -2.49789  -0.202237  1.06519  -0.12454  -0.0395809  0.000635115  0.0034123  0.440829  0.225713  0  0  0  0  1.09364  0.161832  0.0303671  -0.00937947  -0.00912507  -0.0156756  -0.00404511  -0.012017  -0.0155334  0.0321197  -0.0270292  -0.0904149  0.012169  0.0505695 
