    ts      x      y      z   roll  pitch    yaw     vx     vy     vz     wx     wy     wz     ax     ay     az    dwx    dwy    dwz
 0.0050000  -2.5000000  -0.3000000   1.0000000   0.0000000   0.0000000  -0.0000000   0.0000002   0.0000002   0.0000002   0.0000000   0.0000000   0.0000000   0.0001250   0.0001250   0.0001250   0.0000000   0.0000000   0.0000000
 0.0100000  -2.5000000  -0.3000000   1.0000000   0.0000000   0.0000000  -0.0000000   0.0000017   0.0000017   0.0000017   0.0000000   0.0000000   0.0000000   0.0005000   0.0005000   0.0005000   0.0000000   0.0000000   0.0000000
 0.0150000  -2.5000000  -0.3000000   1.0000000   0.0000000   0.0000000  -0.0000000   0.0000056   0.0000056   0.0000056   0.0000000   0.0000000   0.0000000   0.0011250   0.0011250   0.0011250   0.0000000   0.0000000   0.0000000
 0.0200000  -2.5000000  -0.3000000   1.0000000   0.0000000   0.0000000  -0.0000001   0.0000133   0.0000133   0.0000133   0.0000000   0.0000000   0.0000000   0.0020000   0.0020000   0.0020000   0.0000000   0.0000000   0.0000000
 0.0250000  -2.5000000  -0.3000000   1.0000000   0.0000000   0.0000000  -0.0000003   0.0000260   0.0000260   0.0000260   0.0000000   0.0000000   0.0000000   0.0031250   0.0031250   0.0031250   0.0000000   0.0000000   0.0000000
 0.0300000  -2.5000000  -0.3000000   1.0000000   0.0000000   0.0000000  -0.0000005   0.0000450   0.0000450   0.0000450   0.0000000   0.0000000   0.0000000   0.0045000   0.0045000   0.0045000   0.0000000   0.0000000   0.0000000
 0.0350000  -2.5000000  -0.2999990   1.0000000   0.0000000   0.0000000  -0.0000010   0.0000715   0.0000715   0.0000715   0.0000000   0.0000000   0.0000000   0.0061250   0.0061250   0.0061250   0.0000000   0.0000000   0.0000000
 0.0400000  -2.5000000  -0.2999990   1.0000000   0.0000000   0.0000000  -0.0000017   0.0001067   0.0001067   0.0001067   0.0000000   0.0000000   0.0000000   0.0080000   0.0080000   0.0080000   0.0000000   0.0000000   0.0000000
 0.0450000  -2.5000000  -0.2999980   1.0000000   0.0000000   0.0000000  -0.0000027   0.0001519   0.0001519   0.0001519   0.0000000   0.0000000   0.0000000   0.0101250   0.0101250   0.0101250   0.0000000   0.0000000   0.0000000
 0.0500000  -2.5000000  -0.2999970   1.0000000   0.0000000   0.0000000  -0.0000042   0.0002083   0.0002083   0.0002083   0.0000000   0.0000000   0.0000000   0.0125000   0.0125000   0.0125000   0.0000000   0.0000000   0.0000000
 0.0550000  -2.5000000  -0.2999960   1.0000000   0.0000000   0.0000000  -0.0000061   0.0002773   0.0002773   0.0002773   0.0000000   0.0000000   0.0000000   0.0151250   0.0151250   0.0151250   0.0000000   0.0000000   0.0000000
 0.0600000  -2.4999900  -0.2999950   1.0000100   0.0000000   0.0000000  -0.0000086   0.0003597   0.0003600   0.0003600   0.0000000   0.0000000   0.0000000   0.0177942   0.0180000   0.0180000   0.0000000   0.0000000   0.0000000
 0.0650000  -2.4999900  -0.2999930   1.0000100   0.0000000   0.0000000  -0.0000119   0.0004548   0.0004577   0.0004577   0.0000000   0.0000000   0.0000000   0.0202155   0.0211250   0.0211250   0.0000000   0.0000000   0.0000000
 0.0700000  -2.4999900  -0.2999900   1.0000100   0.0000000   0.0000000  -0.0000160   0.0005614   0.0005717   0.0005717   0.0000000   0.0000000   0.0000000   0.0223868   0.0245000   0.0245000   0.0000000   0.0000000   0.0000000
 0.0750000  -2.4999900  -0.2999870   1.0000100   0.0000000   0.0000000  -0.0000210   0.0006783   0.0007031   0.0007031   0.0000000   0.0000000   0.0000000   0.0243082   0.0281250   0.0281250   0.0000000   0.0000000   0.0000000
 0.0800000  -2.4999800  -0.2999830   1.0000200   0.0000000   0.0000000  -0.0000271   0.0008041   0.0008533   0.0008533   0.0000000   0.0000000   0.0000000   0.0259795   0.0320000   0.0320000   0.0000000   0.0000000   0.0000000
 0.0850000  -2.4999800  -0.2999780   1.0000200   0.0000000   0.0000000  -0.0000343   0.0009376   0.0010235   0.0010235   0.0000000   0.0000000   0.0000000   0.0274008   0.0361250   0.0361250   0.0000000   0.0000000   0.0000000
 0.0900000  -2.4999700  -0.2999730   1.0000300   0.0000000   0.0000000  -0.0000427   0.0010777   0.0012150   0.0012150   0.0000000   0.0000000   0.0000000   0.0285721   0.0405000   0.0405000   0.0000000   0.0000000   0.0000000
 0.0950000  -2.4999700  -0.2999660   1.0000300   0.0000000   0.0000000  -0.0000524   0.0012229   0.0014290   0.0014290   0.0000000   0.0000000   0.0000000   0.0294935   0.0451250   0.0451250   0.0000000   0.0000000   0.0000000
 0.1000000  -2.4999600  -0.2999580   1.0000400   0.0000000   0.0000000  -0.0000634   0.0013722   0.0016667   0.0016667   0.0000000   0.0000000   0.0000000   0.0301648   0.0500000   0.0500000   0.0000000   0.0000000   0.0000000
 0.1050000  -2.4999500  -0.2999490   1.0000500   0.0000000   0.0000000  -0.0000758   0.0015242   0.0019294   0.0019294   0.0000000   0.0000000   0.0000000   0.0305861   0.0551250   0.0551250   0.0000000   0.0000000   0.0000000
 0.1100000  -2.4999500  -0.2999390   1.0000600   0.0000000   0.0000000  -0.0000896   0.0016776   0.0022183   0.0022183   0.0000000   0.0000000   0.0000000   0.0307574   0.0605000   0.0605000   0.0000000   0.0000000   0.0000000
 0.1150000  -2.4999400  -0.2999270   1.0000700   0.0000000   0.0000000  -0.0001049   0.0018313   0.0025348   0.0025348   0.0000000   0.0000000   0.0000000   0.0306788   0.0661250   0.0661250   0.0000000   0.0000000   0.0000000
 0.1200000  -2.4999300  -0.2999140   1.0000900   0.0000000   0.0000000  -0.0001215   0.0019840   0.0028800   0.0028800   0.0000000   0.0000000   0.0000000   0.0303501   0.0720000   0.0720000   0.0000000   0.0000000   0.0000000
 0.1250000  -2.4999200  -0.2998980   1.0001000   0.0000000   0.0000000  -0.0001397   0.0021344   0.0032552   0.0032552   0.0000000   0.0000000   0.0000000   0.0297714   0.0781250   0.0781250   0.0000000   0.0000000   0.0000000
 0.1300000  -2.4999100  -0.2998810   1.0001200   0.0000000   0.0000000  -0.0001593   0.0022813   0.0036617   0.0036617   0.0000000   0.0000000   0.0000000   0.0289427   0.0845000   0.0845000   0.0000000   0.0000000   0.0000000
 0.1350000  -2.4998900  -0.2998620   1.0001400   0.0000000   0.0000000  -0.0001804   0.0024234   0.0041006   0.0041006   0.0000000   0.0000000   0.0000000   0.0278641   0.0911250   0.0911250   0.0000000   0.0000000   0.0000000
 0.1400000  -2.4998800  -0.2998400   1.0001600   0.0000000   0.0000000  -0.0002029   0.0025595   0.0045733   0.0045733   0.0000000   0.0000000   0.0000000   0.0265354   0.0980000   0.0980000   0.0000000   0.0000000   0.0000000
 0.1450000  -2.4998700  -0.2998160   1.0001800   0.0000000   0.0000000  -0.0002268   0.0026884   0.0050810   0.0050810   0.0000000   0.0000000   0.0000000   0.0249567   0.1051250   0.1051250   0.0000000   0.0000000   0.0000000
 0.1500000  -2.4998600  -0.2997890   1.0002100   0.0000000   0.0000000  -0.0002520   0.0028087   0.0056250   0.0056250   0.0000000   0.0000000   0.0000000   0.0231280   0.1125000   0.1125000   0.0000000   0.0000000   0.0000000
 0.1550000  -2.4998400  -0.2997590   1.0002400   0.0000000   0.0000000  -0.0002785   0.0029192   0.0062065   0.0062065   0.0000000   0.0000000   0.0000000   0.0210493   0.1201250   0.1201250   0.0000000   0.0000000   0.0000000
 0.1600000  -2.4998300  -0.2997270   1.0002700   0.0000000   0.0000000  -0.0003063   0.0030188   0.0068267   0.0068267   0.0000000   0.0000000   0.0000000   0.0187207   0.1280000   0.1280000   0.0000000   0.0000000   0.0000000
 0.1650000  -2.4998100  -0.2996910   1.0003100   0.0000000   0.0000000  -0.0003352   0.0031060   0.0074869   0.0074869   0.0000000   0.0000000   0.0000000   0.0161420   0.1361250   0.1361250   0.0000000   0.0000000   0.0000000
 0.1700000  -2.4998000  -0.2996520   1.0003500   0.0000000   0.0000000  -0.0003652   0.0031799   0.0081883   0.0081883   0.0000000   0.0000000   0.0000000   0.0134437   0.1445000   0.1445000   0.0000000   0.0000000   0.0000000
 0.1750000  -2.4997800  -0.2996090   1.0003900   0.0000000   0.0000000  -0.0003962   0.0032409   0.0089323   0.0089323   0.0000000   0.0000000   0.0000000   0.0109760   0.1531250   0.1531250   0.0000000   0.0000000   0.0000000
 0.1800000  -2.4997600  -0.2995630   1.0004400   0.0000000   0.0000000  -0.0004281   0.0032901   0.0097200   0.0097200   0.0000000   0.0000000   0.0000000   0.0087584   0.1620000   0.1620000   0.0000000   0.0000000   0.0000000
 0.1850000  -2.4997500  -0.2995120   1.0004900   0.0000000   0.0000000  -0.0004607   0.0033289   0.0105527   0.0105527   0.0000000   0.0000000   0.0000000   0.0067907   0.1711250   0.1711250   0.0000000   0.0000000   0.0000000
 0.1900000  -2.4997300  -0.2994570   1.0005400   0.0000000   0.0000000  -0.0004940   0.0033584   0.0114317   0.0114317   0.0000000   0.0000000   0.0000000   0.0050731   0.1805000   0.1805000   0.0000000   0.0000000   0.0000000
 0.1950000  -2.4997100  -0.2993980   1.0006000   0.0000000   0.0000000  -0.0005278   0.0033800   0.0123581   0.0123581   0.0000000   0.0000000   0.0000000   0.0036054   0.1901250   0.1901250   0.0000000   0.0000000   0.0000000
 0.2000000  -2.4997000  -0.2993330   1.0006700   0.0000000   0.0000000  -0.0005621   0.0033949   0.0133333   0.0133333   0.0000000   0.0000000   0.0000000   0.0023878   0.2000000   0.2000000   0.0000000   0.0000000   0.0000000
 0.2050000  -2.4996800  -0.2992640   1.0007400   0.0000000   0.0000000  -0.0005967   0.0034043   0.0143585   0.0143585   0.0000000   0.0000000   0.0000000   0.0014201   0.2101250   0.2101250   0.0000000   0.0000000   0.0000000
 0.2100000  -2.4996600  -0.2991900   1.0008100   0.0000000   0.0000000  -0.0006316   0.0034095   0.0154350   0.0154350   0.0000000   0.0000000   0.0000000   0.0007025   0.2205000   0.2205000   0.0000000   0.0000000   0.0000000
 0.2150000  -2.4996400  -0.2991100   1.0008900   0.0000000   0.0000000  -0.0006668   0.0034117   0.0165640   0.0165640   0.0000000   0.0000000   0.0000000   0.0002348   0.2311250   0.2311250   0.0000000   0.0000000   0.0000000
 0.2200000  -2.4996300  -0.2990240   1.0009800   0.0000000   0.0000000  -0.0007020   0.0034123   0.0177467   0.0177467   0.0000000   0.0000000   0.0000000   0.0000172   0.2420000   0.2420000   0.0000000   0.0000000   0.0000000
 0.2250000  -2.4996100  -0.2989320   1.0010700   0.0000000   0.0000000  -0.0007374   0.0034123   0.0189844   0.0189844   0.0000000   0.0000000   0.0000000   0.0000000   0.2531250   0.2531250   0.0000000   0.0000000   0.0000000
 0.2300000  -2.4995900  -0.2988340   1.0011700   0.0000000   0.0000000  -0.0007728   0.0034123   0.0202783   0.0202783   0.0000000   0.0000000   0.0000000   0.0000000   0.2645000   0.2644360   0.0000000   0.0000000   0.0000000
 0.2350000  -2.4995800  -0.2987290   1.0012700   0.0000000   0.0000000  -0.0008082   0.0034123   0.0216298   0.0216284   0.0000000   0.0000000   0.0000000   0.0000000   0.2761250   0.2755590   0.0000000   0.0000000   0.0000000
 0.2400000  -2.4995600  -0.2986180   1.0013800   0.0000000   0.0000000  -0.0008437   0.0034123   0.0230400   0.0230335   0.0000000   0.0000000   0.0000000   0.0000000   0.2880000   0.2864320   0.0000000   0.0000000   0.0000000
 0.2450000  -2.4995400  -0.2984990   1.0015000   0.0000000   0.0000000  -0.0008791   0.0034123   0.0245102   0.0244923   0.0000000   0.0000000   0.0000000   0.0000000   0.3001250   0.2970540   0.0000000   0.0000000   0.0000000
 0.2500000  -2.4995300  -0.2983720   1.0016300   0.0000000   0.0000000  -0.0009146   0.0034123   0.0260417   0.0260036   0.0000000   0.0000000   0.0000000   0.0000000   0.3125000   0.3074270   0.0000000   0.0000000   0.0000000
 0.2550000  -2.4995100  -0.2982380   1.0017600   0.0000000   0.0000000  -0.0009501   0.0034123   0.0276356   0.0275661   0.0000000   0.0000000   0.0000000   0.0000000   0.3251250   0.3175500   0.0000000   0.0000000   0.0000000
 0.2600000  -2.4994900  -0.2980960   1.0019000   0.0000000   0.0000000  -0.0009855   0.0034123   0.0292933   0.0291787   0.0000000   0.0000000   0.0000000   0.0000000   0.3380000   0.3274220   0.0000000   0.0000000   0.0000000
 0.2650000  -2.4994700  -0.2979450   1.0020500   0.0000000   0.0000000  -0.0010210   0.0034123   0.0310160   0.0308399   0.0000000   0.0000000   0.0000000   0.0000000   0.3511250   0.3370450   0.0000000   0.0000000   0.0000000
 0.2700000  -2.4994600  -0.2977860   1.0022100   0.0000000   0.0000000  -0.0010564   0.0034123   0.0328050   0.0325487   0.0000000   0.0000000   0.0000000   0.0000000   0.3645000   0.3464180   0.0000000   0.0000000   0.0000000
 0.2750000  -2.4994400  -0.2976170   1.0023800   0.0000000   0.0000000  -0.0010919   0.0034123   0.0346615   0.0343037   0.0000000   0.0000000   0.0000000   0.0000000   0.3781250   0.3555400   0.0000000   0.0000000   0.0000000
 0.2800000  -2.4994200  -0.2974390   1.0025500   0.0000000   0.0000000  -0.0011274   0.0034123   0.0365867   0.0361037   0.0000000   0.0000000   0.0000000   0.0000000   0.3920000   0.3644130   0.0000000   0.0000000   0.0000000
 0.2850000  -2.4994100  -0.2972510   1.0027400   0.0000000   0.0000000  -0.0011628   0.0034123   0.0385819   0.0379474   0.0000000   0.0000000   0.0000000   0.0000000   0.4061250   0.3730360   0.0000000   0.0000000   0.0000000
 0.2900000  -2.4993900  -0.2970530   1.0029300   0.0000000   0.0000000  -0.0011983   0.0034123   0.0406483   0.0398336   0.0000000   0.0000000   0.0000000   0.0000000   0.4205000   0.3814080   0.0000000   0.0000000   0.0000000
 0.2950000  -2.4993700  -0.2968440   1.0031400   0.0000000   0.0000000  -0.0012337   0.0034123   0.0427873   0.0417611   0.0000000   0.0000000   0.0000000   0.0000000   0.4351250   0.3895310   0.0000000   0.0000000   0.0000000
 0.3000000  -2.4993500  -0.2966250   1.0033500   0.0000000   0.0000000  -0.0012692   0.0034123   0.0450000   0.0437285   0.0000000   0.0000000   0.0000000   0.0000000   0.4500000   0.3974040   0.0000000   0.0000000   0.0000000
 0.3050000  -2.4993400  -0.2963940   1.0035800   0.0000000   0.0000000  -0.0013046   0.0034123   0.0472877   0.0457347   0.0000000   0.0000000   0.0000000   0.0000000   0.4651250   0.4050260   0.0000000   0.0000000   0.0000000
 0.3100000  -2.4993200  -0.2961520   1.0038100   0.0000000   0.0000000  -0.0013401   0.0034123   0.0496517   0.0477784   0.0000000   0.0000000   0.0000000   0.0000000   0.4805000   0.4123990   0.0000000   0.0000000   0.0000000
 0.3150000  -2.4993000  -0.2958980   1.0040500   0.0000000   0.0000000  -0.0013756   0.0034123   0.0520931   0.0498583   0.0000000   0.0000000   0.0000000   0.0000000   0.4961250   0.4195220   0.0000000   0.0000000   0.0000000
 0.3200000  -2.4992900  -0.2956310   1.0043100   0.0000000   0.0000000  -0.0014110   0.0034123   0.0546133   0.0519732   0.0000000   0.0000000   0.0000000   0.0000000   0.5120000   0.4263940   0.0000000   0.0000000   0.0000000
 0.3250000  -2.4992700  -0.2953510   1.0045700   0.0000000   0.0000000  -0.0014465   0.0034123   0.0572135   0.0541218   0.0000000   0.0000000   0.0000000   0.0000000   0.5281250   0.4330170   0.0000000   0.0000000   0.0000000
 0.3300000  -2.4992500  -0.2950590   1.0048500   0.0000000   0.0000000  -0.0014819   0.0034123   0.0598950   0.0563029   0.0000000   0.0000000   0.0000000   0.0000000   0.5445000   0.4393900   0.0000000   0.0000000   0.0000000
 0.3350000  -2.4992400  -0.2947520   1.0051400   0.0000000   0.0000000  -0.0015174   0.0034123   0.0626590   0.0585153   0.0000000   0.0000000   0.0000000   0.0000000   0.5611070   0.4455120   0.0000000   0.0000000   0.0000000
 0.3400000  -2.4992200  -0.2944320   1.0054300   0.0000000   0.0000000  -0.0015528   0.0034123   0.0655058   0.0607576   0.0000000   0.0000000   0.0000000   0.0000000   0.5775980   0.4513850   0.0000000   0.0000000   0.0000000
 0.3450000  -2.4992000  -0.2940970   1.0057400   0.0000000   0.0000000  -0.0015883   0.0034123   0.0684345   0.0630287   0.0000000   0.0000000   0.0000000   0.0000000   0.5938390   0.4570080   0.0000000   0.0000000   0.0000000
 0.3500000  -2.4991800  -0.2937470   1.0060600   0.0000000   0.0000000  -0.0016238   0.0034123   0.0714438   0.0653273   0.0000000   0.0000000   0.0000000   0.0000000   0.6098300   0.4623800   0.0000000   0.0000000   0.0000000
 0.3550000  -2.4991700  -0.2933830   1.0064000   0.0000000   0.0000000  -0.0016592   0.0034123   0.0745324   0.0676521   0.0000000   0.0000000   0.0000000   0.0000000   0.6255700   0.4675030   0.0000000   0.0000000   0.0000000
 0.3600000  -2.4991500  -0.2930020   1.0067400   0.0000000   0.0000000  -0.0016947   0.0034123   0.0776991   0.0700019   0.0000000   0.0000000   0.0000000   0.0000000   0.6410610   0.4723750   0.0000000   0.0000000   0.0000000
 0.3650000  -2.4991300  -0.2926050   1.0071000   0.0000000   0.0000000  -0.0017301   0.0034123   0.0809426   0.0723754   0.0000000   0.0000000   0.0000000   0.0000000   0.6563020   0.4769980   0.0000000   0.0000000   0.0000000
 0.3700000  -2.4991200  -0.2921920   1.0074700   0.0000000   0.0000000  -0.0017656   0.0034123   0.0842617   0.0747714   0.0000000   0.0000000   0.0000000   0.0000000   0.6712930   0.4813710   0.0000000   0.0000000   0.0000000
 0.3750000  -2.4991000  -0.2917630   1.0078500   0.0000000   0.0000000  -0.0018011   0.0034123   0.0876551   0.0771887   0.0000000   0.0000000   0.0000000   0.0000000   0.6860340   0.4854930   0.0000000   0.0000000   0.0000000
 0.3800000  -2.4990800  -0.2913160   1.0082400   0.0000000   0.0000000  -0.0018365   0.0034123   0.0911216   0.0796260   0.0000000   0.0000000   0.0000000   0.0000000   0.7005250   0.4893660   0.0000000   0.0000000   0.0000000
 0.3850000  -2.4990600  -0.2908510   1.0086400   0.0000000   0.0000000  -0.0018720   0.0034123   0.0946599   0.0820820   0.0000000   0.0000000   0.0000000   0.0000000   0.7147660   0.4929890   0.0000000   0.0000000   0.0000000
 0.3900000  -2.4990500  -0.2903690   1.0090600   0.0000000   0.0000000  -0.0019074   0.0034123   0.0982688   0.0845554   0.0000000   0.0000000   0.0000000   0.0000000   0.7287570   0.4963610   0.0000000   0.0000000   0.0000000
 0.3950000  -2.4990300  -0.2898690   1.0094900   0.0000000   0.0000000  -0.0019429   0.0034123   0.1019470   0.0870452   0.0000000   0.0000000   0.0000000   0.0000000   0.7424970   0.4994840   0.0000000   0.0000000   0.0000000
 0.4000000  -2.4990100  -0.2893490   1.0099300   0.0000000   0.0000000  -0.0019783   0.0034123   0.1056930   0.0895499   0.0000000   0.0000000   0.0000000   0.0000000   0.7559880   0.5023570   0.0000000   0.0000000   0.0000000
 0.4050000  -2.4990000  -0.2888120   1.0103800   0.0000000   0.0000000  -0.0020138   0.0034123   0.1095070   0.0920683   0.0000000   0.0000000   0.0000000   0.0000000   0.7692290   0.5049790   0.0000000   0.0000000   0.0000000
 0.4100000  -2.4989800  -0.2882540   1.0108500   0.0000000   0.0000000  -0.0020493   0.0034123   0.1133850   0.0945992   0.0000000   0.0000000   0.0000000   0.0000000   0.7822200   0.5073520   0.0000000   0.0000000   0.0000000
 0.4150000  -2.4989600  -0.2876780   1.0113300   0.0000000   0.0000000  -0.0020847   0.0034123   0.1173280   0.0971414   0.0000000   0.0000000   0.0000000   0.0000000   0.7949610   0.5094750   0.0000000   0.0000000   0.0000000
 0.4200000  -2.4989500  -0.2870810   1.0118200   0.0000000   0.0000000  -0.0021202   0.0034123   0.1213340   0.0996936   0.0000000   0.0000000   0.0000000   0.0000000   0.8074520   0.5113470   0.0000000   0.0000000   0.0000000
 0.4250000  -2.4989300  -0.2864640   1.0123300   0.0000000   0.0000000  -0.0021556   0.0034123   0.1254020   0.1022540   0.0000000   0.0000000   0.0000000   0.0000000   0.8196930   0.5129700   0.0000000   0.0000000   0.0000000
 0.4300000  -2.4989100  -0.2858270   1.0128400   0.0000000   0.0000000  -0.0021911   0.0034123   0.1295310   0.1048230   0.0000000   0.0000000   0.0000000   0.0000000   0.8316840   0.5143430   0.0000000   0.0000000   0.0000000
 0.4350000  -2.4988900  -0.2851690   1.0133700   0.0000000   0.0000000  -0.0022266   0.0034123   0.1337190   0.1073970   0.0000000   0.0000000   0.0000000   0.0000000   0.8434240   0.5154650   0.0000000   0.0000000   0.0000000
 0.4400000  -2.4988800  -0.2844900   1.0139200   0.0000000   0.0000000  -0.0022620   0.0034123   0.1379650   0.1099770   0.0000000   0.0000000   0.0000000   0.0000000   0.8549150   0.5163380   0.0000000   0.0000000   0.0000000
 0.4450000  -2.4988600  -0.2837890   1.0144700   0.0000000   0.0000000  -0.0022975   0.0034123   0.1422680   0.1125600   0.0000000   0.0000000   0.0000000   0.0000000   0.8661560   0.5169610   0.0000000   0.0000000   0.0000000
 0.4500000  -2.4988400  -0.2830670   1.0150400   0.0000000   0.0000000  -0.0023329   0.0034123   0.1466260   0.1151460   0.0000000   0.0000000   0.0000000   0.0000000   0.8771470   0.5173330   0.0000000   0.0000000   0.0000000
 0.4550000  -2.4988300  -0.2823230   1.0156200   0.0000000   0.0000000  -0.0023684   0.0034123   0.1510390   0.1177330   0.0000000   0.0000000   0.0000000   0.0000000   0.8878880   0.5174560   0.0000000   0.0000000   0.0000000
 0.4600000  -2.4988100  -0.2815560   1.0162200   0.0000000   0.0000000  -0.0024038   0.0034123   0.1555040   0.1203200   0.0000000   0.0000000   0.0000000   0.0000000   0.8983790   0.5173290   0.0000000   0.0000000   0.0000000
 0.4650000  -2.4987900  -0.2807670   1.0168300   0.0000000   0.0000000  -0.0024393   0.0034123   0.1600220   0.1229060   0.0000000   0.0000000   0.0000000   0.0000000   0.9086200   0.5169510   0.0000000   0.0000000   0.0000000
 0.4700000  -2.4987700  -0.2799560   1.0174500   0.0000000   0.0000000  -0.0024748   0.0034123   0.1645900   0.1254900   0.0000000   0.0000000   0.0000000   0.0000000   0.9186100   0.5163240   0.0000000   0.0000000   0.0000000
 0.4750000  -2.4987600  -0.2791210   1.0180800   0.0000000   0.0000000  -0.0025102   0.0034123   0.1692080   0.1280690   0.0000000   0.0000000   0.0000000   0.0000000   0.9283510   0.5154470   0.0000000   0.0000000   0.0000000
 0.4800000  -2.4987400  -0.2782640   1.0187300   0.0000000   0.0000000  -0.0025457   0.0034123   0.1738730   0.1306440   0.0000000   0.0000000   0.0000000   0.0000000   0.9378420   0.5143190   0.0000000   0.0000000   0.0000000
 0.4850000  -2.4987200  -0.2773830   1.0193900   0.0000000   0.0000000  -0.0025811   0.0034123   0.1785860   0.1332120   0.0000000   0.0000000   0.0000000   0.0000000   0.9470830   0.5129420   0.0000000   0.0000000   0.0000000
 0.4900000  -2.4987100  -0.2764780   1.0200600   0.0000000   0.0000000  -0.0026166   0.0034123   0.1833440   0.1357730   0.0000000   0.0000000   0.0000000   0.0000000   0.9560740   0.5113150   0.0000000   0.0000000   0.0000000
 0.4950000  -2.4986900  -0.2755490   1.0207500   0.0000000   0.0000000  -0.0026521   0.0034123   0.1881460   0.1383250   0.0000000   0.0000000   0.0000000   0.0000000   0.9648150   0.5094370   0.0000000   0.0000000   0.0000000
 0.5000000  -2.4986700  -0.2745960   1.0214500   0.0000000   0.0000000  -0.0026875   0.0034123   0.1929910   0.1408670   0.0000000   0.0000000   0.0000000   0.0000000   0.9733060   0.5073100   0.0000000   0.0000000   0.0000000
 0.5050000  -2.4986600  -0.2736190   1.0221600   0.0000000   0.0000000  -0.0027230   0.0034123   0.1978790   0.1433970   0.0000000   0.0000000   0.0000000   0.0000000   0.9815470   0.5049330   0.0000000   0.0000000   0.0000000
 0.5100000  -2.4986400  -0.2726170   1.0228800   0.0000000   0.0000000  -0.0027584   0.0034123   0.2028060   0.1459150   0.0000000   0.0000000   0.0000000   0.0000000   0.9895370   0.5023050   0.0000000   0.0000000   0.0000000
 0.5150000  -2.4986200  -0.2715910   1.0236100   0.0000000   0.0000000  -0.0027939   0.0034123   0.2077740   0.1484200   0.0000000   0.0000000   0.0000000   0.0000000   0.9972780   0.4994280   0.0000000   0.0000000   0.0000000
 0.5200000  -2.4986000  -0.2705400   1.0243600   0.0000000   0.0000000  -0.0028294   0.0034123   0.2127790   0.1509090   0.0000000   0.0000000   0.0000000   0.0000000   1.0047700   0.4963010   0.0000000   0.0000000   0.0000000
 0.5250000  -2.4985900  -0.2694630   1.0251200   0.0000000   0.0000000  -0.0028648   0.0034123   0.2178210   0.1533820   0.0000000   0.0000000   0.0000000   0.0000000   1.0120100   0.4929230   0.0000000   0.0000000   0.0000000
 0.5300000  -2.4985700  -0.2683610   1.0259000   0.0000000   0.0000000  -0.0029003   0.0034123   0.2228990   0.1558380   0.0000000   0.0000000   0.0000000   0.0000000   1.0190000   0.4892960   0.0000000   0.0000000   0.0000000
 0.5350000  -2.4985500  -0.2672340   1.0266800   0.0000000   0.0000000  -0.0029357   0.0034123   0.2280100   0.1582750   0.0000000   0.0000000   0.0000000   0.0000000   1.0257400   0.4854190   0.0000000   0.0000000   0.0000000
 0.5400000  -2.4985400  -0.2660810   1.0274800   0.0000000   0.0000000  -0.0029712   0.0034123   0.2331560   0.1606920   0.0000000   0.0000000   0.0000000   0.0000000   1.0322300   0.4812910   0.0000000   0.0000000   0.0000000
 0.5450000  -2.4985200  -0.2649030   1.0282900   0.0000000   0.0000000  -0.0030066   0.0034123   0.2383320   0.1630880   0.0000000   0.0000000   0.0000000   0.0000000   1.0384700   0.4769140   0.0000000   0.0000000   0.0000000
 0.5500000  -2.4985000  -0.2636980   1.0291100   0.0000000   0.0000000  -0.0030421   0.0034123   0.2435400   0.1654610   0.0000000   0.0000000   0.0000000   0.0000000   1.0444600   0.4722870   0.0000000   0.0000000   0.0000000
 0.5550000  -2.4984800  -0.2624670   1.0299400   0.0000000   0.0000000  -0.0030776   0.0034123   0.2487770   0.1678100   0.0000000   0.0000000   0.0000000   0.0000000   1.0502100   0.4674090   0.0000000   0.0000000   0.0000000
 0.5600000  -2.4984700  -0.2612100   1.0307900   0.0000000   0.0000000  -0.0031130   0.0034123   0.2540410   0.1701340   0.0000000   0.0000000   0.0000000   0.0000000   1.0557000   0.4622820   0.0000000   0.0000000   0.0000000
 0.5650000  -2.4984500  -0.2599270   1.0316500   0.0000000   0.0000000  -0.0031485   0.0034123   0.2593330   0.1724320   0.0000000   0.0000000   0.0000000   0.0000000   1.0609400   0.4569050   0.0000000   0.0000000   0.0000000
 0.5700000  -2.4984300  -0.2586170   1.0325100   0.0000000   0.0000000  -0.0031839   0.0034123   0.2646500   0.1747030   0.0000000   0.0000000   0.0000000   0.0000000   1.0659300   0.4512770   0.0000000   0.0000000   0.0000000
 0.5750000  -2.4984200  -0.2572800   1.0333900   0.0000000   0.0000000  -0.0032194   0.0034123   0.2699920   0.1769450   0.0000000   0.0000000   0.0000000   0.0000000   1.0706700   0.4454000   0.0000000   0.0000000   0.0000000
 0.5800000  -2.4984000  -0.2559170   1.0342800   0.0000000   0.0000000  -0.0032549   0.0034123   0.2753570   0.1791570   0.0000000   0.0000000   0.0000000   0.0000000   1.0751600   0.4392730   0.0000000   0.0000000   0.0000000
 0.5850000  -2.4983800  -0.2545260   1.0351800   0.0000000   0.0000000  -0.0032903   0.0034123   0.2807430   0.1813370   0.0000000   0.0000000   0.0000000   0.0000000   1.0794000   0.4328950   0.0000000   0.0000000   0.0000000
 0.5900000  -2.4983700  -0.2531090   1.0361000   0.0000000   0.0000000  -0.0033258   0.0034123   0.2861500   0.1834850   0.0000000   0.0000000   0.0000000   0.0000000   1.0833900   0.4262680   0.0000000   0.0000000   0.0000000
 0.5950000  -2.4983500  -0.2516650   1.0370200   0.0000000   0.0000000  -0.0033612   0.0034123   0.2915770   0.1855990   0.0000000   0.0000000   0.0000000   0.0000000   1.0871300   0.4193910   0.0000000   0.0000000   0.0000000
 0.6000000  -2.4983300  -0.2501930   1.0379500   0.0000000   0.0000000  -0.0033967   0.0034123   0.2970210   0.1876790   0.0000000   0.0000000   0.0000000   0.0000000   1.0906200   0.4122630   0.0000000   0.0000000   0.0000000
 0.6050000  -2.4983100  -0.2486950   1.0389000   0.0000000   0.0000000  -0.0034321   0.0034123   0.3024830   0.1897220   0.0000000   0.0000000   0.0000000   0.0000000   1.0938600   0.4048860   0.0000000   0.0000000   0.0000000
 0.6100000  -2.4983000  -0.2471690   1.0398500   0.0000000   0.0000000  -0.0034676   0.0034123   0.3079590   0.1917270   0.0000000   0.0000000   0.0000000   0.0000000   1.0968500   0.3972590   0.0000000   0.0000000   0.0000000
 0.6150000  -2.4982800  -0.2456150   1.0408100   0.0000000   0.0000000  -0.0035031   0.0034123   0.3134510   0.1936940   0.0000000   0.0000000   0.0000000   0.0000000   1.0996000   0.3893810   0.0000000   0.0000000   0.0000000
 0.6200000  -2.4982600  -0.2440340   1.0417900   0.0000000   0.0000000  -0.0035385   0.0034123   0.3189550   0.1956200   0.0000000   0.0000000   0.0000000   0.0000000   1.1020900   0.3812540   0.0000000   0.0000000   0.0000000
 0.6250000  -2.4982500  -0.2424260   1.0427700   0.0000000   0.0000000  -0.0035740   0.0034123   0.3244710   0.1975060   0.0000000   0.0000000   0.0000000   0.0000000   1.1043300   0.3728760   0.0000000   0.0000000   0.0000000
 0.6300000  -2.4982300  -0.2407890   1.0437600   0.0000000   0.0000000  -0.0036094   0.0034123   0.3299980   0.1993490   0.0000000   0.0000000   0.0000000   0.0000000   1.1063200   0.3642490   0.0000000   0.0000000   0.0000000
 0.6350000  -2.4982100  -0.2391260   1.0447600   0.0000000   0.0000000  -0.0036449   0.0034123   0.3355340   0.2011480   0.0000000   0.0000000   0.0000000   0.0000000   1.1080600   0.3553720   0.0000000   0.0000000   0.0000000
 0.6400000  -2.4981900  -0.2374340   1.0457700   0.0000000   0.0000000  -0.0036804   0.0034123   0.3410780   0.2029020   0.0000000   0.0000000   0.0000000   0.0000000   1.1095500   0.3462440   0.0000000   0.0000000   0.0000000
 0.6450000  -2.4981800  -0.2357150   1.0467900   0.0000000   0.0000000  -0.0037158   0.0034123   0.3466290   0.2046100   0.0000000   0.0000000   0.0000000   0.0000000   1.1107900   0.3368670   0.0000000   0.0000000   0.0000000
 0.6500000  -2.4981600  -0.2339680   1.0478200   0.0000000   0.0000000  -0.0037513   0.0034123   0.3521850   0.2062700   0.0000000   0.0000000   0.0000000   0.0000000   1.1117800   0.3272400   0.0000000   0.0000000   0.0000000
 0.6550000  -2.4981400  -0.2321930   1.0488500   0.0000000   0.0000000  -0.0037867   0.0034123   0.3577460   0.2078820   0.0000000   0.0000000   0.0000000   0.0000000   1.1125200   0.3173620   0.0000000   0.0000000   0.0000000
 0.6600000  -2.4981300  -0.2303900   1.0499000   0.0000000   0.0000000  -0.0038222   0.0034123   0.3633100   0.2094430   0.0000000   0.0000000   0.0000000   0.0000000   1.1130100   0.3072350   0.0000000   0.0000000   0.0000000
 0.6650000  -2.4981100  -0.2285600   1.0509500   0.0000000   0.0000000  -0.0038576   0.0034123   0.3688760   0.2109540   0.0000000   0.0000000   0.0000000   0.0000000   1.1132500   0.2968580   0.0000000   0.0000000   0.0000000
 0.6700000  -2.4980900  -0.2267010   1.0520100   0.0000000   0.0000000  -0.0038931   0.0034123   0.3744420   0.2124120   0.0000000   0.0000000   0.0000000   0.0000000   1.1132500   0.2862300   0.0000000   0.0000000   0.0000000
 0.6750000  -2.4980800  -0.2248150   1.0530700   0.0000000   0.0000000  -0.0039286   0.0034123   0.3800080   0.2138160   0.0000000   0.0000000   0.0000000   0.0000000   1.1129900   0.2753530   0.0000000   0.0000000   0.0000000
 0.6800000  -2.4980600  -0.2229010   1.0541400   0.0000000   0.0000000  -0.0039640   0.0034123   0.3855720   0.2151650   0.0000000   0.0000000   0.0000000   0.0000000   1.1124800   0.2642260   0.0000000   0.0000000   0.0000000
 0.6850000  -2.4980400  -0.2209600   1.0552200   0.0000000   0.0000000  -0.0039995   0.0034123   0.3911320   0.2164580   0.0000000   0.0000000   0.0000000   0.0000000   1.1117200   0.2529140   0.0000000   0.0000000   0.0000000
 0.6900000  -2.4980200  -0.2189900   1.0563100   0.0000000   0.0000000  -0.0040349   0.0034123   0.3966890   0.2176940   0.0000000   0.0000000   0.0000000   0.0000000   1.1107100   0.2417940   0.0000000   0.0000000   0.0000000
 0.6950000  -2.4980100  -0.2169930   1.0574000   0.0000000   0.0000000  -0.0040704   0.0034123   0.4022390   0.2188760   0.0000000   0.0000000   0.0000000   0.0000000   1.1094500   0.2309240   0.0000000   0.0000000   0.0000000
 0.7000000  -2.4979900  -0.2149680   1.0585000   0.0000000   0.0000000  -0.0041058   0.0034123   0.4077830   0.2200040   0.0000000   0.0000000   0.0000000   0.0000000   1.1079400   0.2203040   0.0000000   0.0000000   0.0000000
 0.7050000  -2.4979700  -0.2129150   1.0596000   0.0000000   0.0000000  -0.0041413   0.0034123   0.4133180   0.2210790   0.0000000   0.0000000   0.0000000   0.0000000   1.1061800   0.2099330   0.0000000   0.0000000   0.0000000
 0.7100000  -2.4979600  -0.2108350   1.0607100   0.0000000   0.0000000  -0.0041768   0.0034123   0.4188440   0.2221040   0.0000000   0.0000000   0.0000000   0.0000000   1.1041700   0.1998130   0.0000000   0.0000000   0.0000000
 0.7150000  -2.4979400  -0.2087270   1.0618200   0.0000000   0.0000000  -0.0042122   0.0034123   0.4243590   0.2230780   0.0000000   0.0000000   0.0000000   0.0000000   1.1019100   0.1899430   0.0000000   0.0000000   0.0000000
 0.7200000  -2.4979200  -0.2065910   1.0629400   0.0000000   0.0000000  -0.0042477   0.0034123   0.4298630   0.2240040   0.0000000   0.0000000   0.0000000   0.0000000   1.0994000   0.1803220   0.0000000   0.0000000   0.0000000
 0.7250000  -2.4979000  -0.2044280   1.0640600   0.0000000   0.0000000  -0.0042831   0.0034123   0.4353530   0.2248820   0.0000000   0.0000000   0.0000000   0.0000000   1.0966400   0.1709520   0.0000000   0.0000000   0.0000000
 0.7300000  -2.4978900  -0.2022370   1.0651900   0.0000000   0.0000000  -0.0043186   0.0034123   0.4408290   0.2257130   0.0000000   0.0000000   0.0000000   0.0000000   1.0936400   0.1618320   0.0000000   0.0000000   0.0000000
 0.7350000  -2.4978700  -0.2000200   1.0663200   0.0000000   0.0000000  -0.0043540   0.0034123   0.4462890   0.2265000   0.0000000   0.0000000   0.0000000   0.0000000   1.0903800   0.1529610   0.0000000   0.0000000   0.0000000
 0.7400000  -2.4978500  -0.1977750   1.0674500   0.0000000   0.0000000  -0.0043895   0.0034123   0.4517320   0.2272430   0.0000000   0.0000000   0.0000000   0.0000000   1.0868700   0.1443410   0.0000000   0.0000000   0.0000000
 0.7450000  -2.4978400  -0.1955020   1.0685900   0.0000000   0.0000000  -0.0044250   0.0034123   0.4571570   0.2279440   0.0000000   0.0000000   0.0000000   0.0000000   1.0831100   0.1359710   0.0000000   0.0000000   0.0000000
 0.7500000  -2.4978200  -0.1932030   1.0697300   0.0000000   0.0000000  -0.0044604   0.0034123   0.4625630   0.2286040   0.0000000   0.0000000   0.0000000   0.0000000   1.0791000   0.1278500   0.0000000   0.0000000   0.0000000
 0.7550000  -2.4978000  -0.1908770   1.0708800   0.0000000   0.0000000  -0.0044959   0.0034123   0.4679480   0.2292230   0.0000000   0.0000000   0.0000000   0.0000000   1.0748400   0.1199800   0.0000000   0.0000000   0.0000000
 0.7600000  -2.4977900  -0.1885240   1.0720200   0.0000000   0.0000000  -0.0045313   0.0034123   0.4733110   0.2298040   0.0000000   0.0000000   0.0000000   0.0000000   1.0703300   0.1123600   0.0000000   0.0000000   0.0000000
 0.7650000  -2.4977700  -0.1861440   1.0731700   0.0000000   0.0000000  -0.0045668   0.0034123   0.4786510   0.2303470   0.0000000   0.0000000   0.0000000   0.0000000   1.0655700   0.1049890   0.0000000   0.0000000   0.0000000
 0.7700000  -2.4977500  -0.1837370   1.0743300   0.0000000   0.0000000  -0.0046023   0.0034123   0.4839660   0.2308540   0.0000000   0.0000000   0.0000000   0.0000000   1.0605600   0.0978690   0.0000000   0.0000000   0.0000000
 0.7750000  -2.4977300  -0.1813040   1.0754800   0.0000000   0.0000000  -0.0046377   0.0034123   0.4892560   0.2313260   0.0000000   0.0000000   0.0000000   0.0000000   1.0553000   0.0909987   0.0000000   0.0000000   0.0000000
 0.7800000  -2.4977200  -0.1788450   1.0766400   0.0000000   0.0000000  -0.0046732   0.0034123   0.4945190   0.2317650   0.0000000   0.0000000   0.0000000   0.0000000   1.0497900   0.0843784   0.0000000   0.0000000   0.0000000
 0.7850000  -2.4977000  -0.1763590   1.0778000   0.0000000   0.0000000  -0.0047086   0.0034123   0.4997530   0.2321700   0.0000000   0.0000000   0.0000000   0.0000000   1.0440400   0.0780081   0.0000000   0.0000000   0.0000000
 0.7900000  -2.4976800  -0.1738470   1.0789600   0.0000000   0.0000000  -0.0047441   0.0034123   0.5049590   0.2325450   0.0000000   0.0000000   0.0000000   0.0000000   1.0380300   0.0718877   0.0000000   0.0000000   0.0000000
 0.7950000  -2.4976700  -0.1713090   1.0801300   0.0000000   0.0000000  -0.0047795   0.0034123   0.5101330   0.2328900   0.0000000   0.0000000   0.0000000   0.0000000   1.0317700   0.0660174   0.0000000   0.0000000   0.0000000
 0.8000000  -2.4976500  -0.1687460   1.0812900   0.0000000   0.0000000  -0.0048150   0.0034123   0.5152760   0.2332060   0.0000000   0.0000000   0.0000000   0.0000000   1.0252600   0.0603971   0.0000000   0.0000000   0.0000000
 0.8050000  -2.4976300  -0.1661570   1.0824600   0.0000000   0.0000000  -0.0048505   0.0034123   0.5203850   0.2334940   0.0000000   0.0000000   0.0000000   0.0000000   1.0185000   0.0550268   0.0000000   0.0000000   0.0000000
 0.8100000  -2.4976100  -0.1635420   1.0836300   0.0000000   0.0000000  -0.0048859   0.0034123   0.5254610   0.2337560   0.0000000   0.0000000   0.0000000   0.0000000   1.0114900   0.0499065   0.0000000   0.0000000   0.0000000
 0.8150000  -2.4976000  -0.1609020   1.0848000   0.0000000   0.0000000  -0.0049214   0.0034123   0.5305000   0.2339940   0.0000000   0.0000000   0.0000000   0.0000000   1.0042300   0.0450361   0.0000000   0.0000000   0.0000000
 0.8200000  -2.4975800  -0.1582370   1.0859700   0.0000000   0.0000000  -0.0049568   0.0034123   0.5355020   0.2342070   0.0000000   0.0000000   0.0000000   0.0000000   0.9967210   0.0404158   0.0000000   0.0000000   0.0000000
 0.8250000  -2.4975600  -0.1555470   1.0871400   0.0000000   0.0000000  -0.0049923   0.0034123   0.5404670   0.2343980   0.0000000   0.0000000   0.0000000   0.0000000   0.9889620   0.0360455   0.0000000   0.0000000   0.0000000
 0.8300000  -2.4975500  -0.1528330   1.0883100   0.0000000   0.0000000  -0.0050278   0.0034123   0.5453920   0.2345680   0.0000000   0.0000000   0.0000000   0.0000000   0.9809530   0.0319252   0.0000000   0.0000000   0.0000000
 0.8350000  -2.4975300  -0.1500930   1.0894800   0.0000000   0.0000000  -0.0050632   0.0034123   0.5502760   0.2347180   0.0000000   0.0000000   0.0000000   0.0000000   0.9726940   0.0280549   0.0000000   0.0000000   0.0000000
 0.8400000  -2.4975100  -0.1473300   1.0906600   0.0000000   0.0000000  -0.0050987   0.0034123   0.5551180   0.2348490   0.0000000   0.0000000   0.0000000   0.0000000   0.9641850   0.0244345   0.0000000   0.0000000   0.0000000
 0.8450000  -2.4975000  -0.1445420   1.0918300   0.0000000   0.0000000  -0.0051341   0.0034123   0.5599170   0.2349630   0.0000000   0.0000000   0.0000000   0.0000000   0.9554260   0.0210642   0.0000000   0.0000000   0.0000000
 0.8500000  -2.4974800  -0.1417310   1.0930100   0.0000000   0.0000000  -0.0051696   0.0034123   0.5646720   0.2350600   0.0000000   0.0000000   0.0000000   0.0000000   0.9464170   0.0179439   0.0000000   0.0000000   0.0000000
 0.8550000  -2.4974600  -0.1388960   1.0941800   0.0000000   0.0000000  -0.0052051   0.0034123   0.5693810   0.2351420   0.0000000   0.0000000   0.0000000   0.0000000   0.9371570   0.0150736   0.0000000   0.0000000   0.0000000
 0.8600000  -2.4974400  -0.1360370   1.0953600   0.0000000   0.0000000  -0.0052405   0.0034123   0.5740430   0.2352110   0.0000000   0.0000000   0.0000000   0.0000000   0.9276480   0.0124533   0.0000000   0.0000000   0.0000000
 0.8650000  -2.4974300  -0.1331550   1.0965300   0.0000000   0.0000000  -0.0052760   0.0034123   0.5786570   0.2352670   0.0000000   0.0000000   0.0000000   0.0000000   0.9178890   0.0100829   0.0000000   0.0000000   0.0000000
 0.8700000  -2.4974100  -0.1302510   1.0977100   0.0000000   0.0000000  -0.0053114   0.0034123   0.5832220   0.2353120   0.0000000   0.0000000   0.0000000   0.0000000   0.9078800   0.0079626   0.0000000   0.0000000   0.0000000
 0.8750000  -2.4973900  -0.1273230   1.0988900   0.0000000   0.0000000  -0.0053469   0.0034123   0.5877350   0.2353470   0.0000000   0.0000000   0.0000000   0.0000000   0.8976210   0.0060923   0.0000000   0.0000000   0.0000000
 0.8800000  -2.4973800  -0.1243730   1.1000600   0.0000000   0.0000000  -0.0053823   0.0034123   0.5921970   0.2353740   0.0000000   0.0000000   0.0000000   0.0000000   0.8871120   0.0044720   0.0000000   0.0000000   0.0000000
 0.8850000  -2.4973600  -0.1214010   1.1012400   0.0000000   0.0000000  -0.0054178   0.0034123   0.5966060   0.2353930   0.0000000   0.0000000   0.0000000   0.0000000   0.8763530   0.0031017   0.0000000   0.0000000   0.0000000
 0.8900000  -2.4973400  -0.1184070   1.1024200   0.0000000   0.0000000  -0.0054533   0.0034123   0.6009610   0.2354050   0.0000000   0.0000000   0.0000000   0.0000000   0.8653440   0.0019813   0.0000000   0.0000000   0.0000000
 0.8950000  -2.4973200  -0.1153920   1.1036000   0.0000000   0.0000000  -0.0054887   0.0034123   0.6052590   0.2354130   0.0000000   0.0000000   0.0000000   0.0000000   0.8540840   0.0011110   0.0000000   0.0000000   0.0000000
 0.9000000  -2.4973100  -0.1123550   1.1047700   0.0000000   0.0000000  -0.0055242   0.0034123   0.6095010   0.2354170   0.0000000   0.0000000   0.0000000   0.0000000   0.8425750   0.0004907   0.0000000   0.0000000   0.0000000
 0.9050000  -2.4972900  -0.1092970   1.1059500   0.0000000   0.0000000  -0.0055596   0.0034123   0.6136850   0.2354180   0.0000000   0.0000000   0.0000000   0.0000000   0.8308160   0.0001204   0.0000000   0.0000000   0.0000000
 0.9100000  -2.4972700  -0.1062180   1.1071300   0.0000000   0.0000000  -0.0055951   0.0034123   0.6178090   0.2354180   0.0000000   0.0000000   0.0000000   0.0000000   0.8188070  -0.0000000   0.0000000   0.0000000   0.0000000
 0.9150000  -2.4972600  -0.1031190   1.1083000   0.0000000   0.0000000  -0.0056305   0.0034123   0.6218720   0.2354180   0.0000000   0.0000000   0.0000000   0.0000000   0.8065480  -0.0000000   0.0000000   0.0000000   0.0000000
 0.9200000  -2.4972400  -0.0999994   1.1094800   0.0000000   0.0000000  -0.0056660   0.0034123   0.6258740   0.2354180   0.0000000   0.0000000   0.0000000   0.0000000   0.7940390  -0.0000000   0.0000000   0.0000000   0.0000000
 0.9250000  -2.4972200  -0.0968602   1.1106600   0.0000000   0.0000000  -0.0057015   0.0034123   0.6298120   0.2354180   0.0000000   0.0000000   0.0000000   0.0000000   0.7812800  -0.0000000   0.0000000   0.0000000   0.0000000
 0.9300000  -2.4972100  -0.0937014   1.1118300   0.0000000   0.0000000  -0.0057369   0.0034123   0.6336860   0.2354180   0.0000000   0.0000000   0.0000000   0.0000000   0.7682700  -0.0000000   0.0000000   0.0000000   0.0000000
 0.9350000  -2.4971900  -0.0905234   1.1130100   0.0000000   0.0000000  -0.0057724   0.0034123   0.6374940   0.2354180   0.0000000   0.0000000   0.0000000   0.0000000   0.7550110  -0.0000000   0.0000000   0.0000000   0.0000000
 0.9400000  -2.4971700  -0.0873266   1.1141900   0.0000000   0.0000000  -0.0058078   0.0034123   0.6412360   0.2354180   0.0000000   0.0000000   0.0000000   0.0000000   0.7415020  -0.0000000   0.0000000   0.0000000   0.0000000
 0.9450000  -2.4971500  -0.0841112   1.1153700   0.0000000   0.0000000  -0.0058433   0.0034123   0.6449090   0.2354180   0.0000000   0.0000000   0.0000000   0.0000000   0.7277430  -0.0000000   0.0000000   0.0000000   0.0000000
 0.9500000  -2.4971400  -0.0808776   1.1165400   0.0000000   0.0000000  -0.0058788   0.0034123   0.6485130   0.2354180   0.0000000   0.0000000   0.0000000   0.0000000   0.7137340  -0.0000000   0.0000000   0.0000000   0.0000000
 0.9550000  -2.4971200  -0.0776262   1.1177200   0.0000000   0.0000000  -0.0059142   0.0034123   0.6520460   0.2354180   0.0000000   0.0000000   0.0000000   0.0000000   0.6994750  -0.0000000   0.0000000   0.0000000   0.0000000
 0.9600000  -2.4971000  -0.0743573   1.1189000   0.0000000   0.0000000  -0.0059497   0.0034123   0.6555070   0.2354180   0.0000000   0.0000000   0.0000000   0.0000000   0.6849660  -0.0000000   0.0000000   0.0000000   0.0000000
 0.9650000  -2.4970900  -0.0710712   1.1200700   0.0000000   0.0000000  -0.0059851   0.0034123   0.6588950   0.2354180   0.0000000   0.0000000   0.0000000   0.0000000   0.6702070  -0.0000000   0.0000000   0.0000000   0.0000000
 0.9700000  -2.4970700  -0.0677684   1.1212500   0.0000000   0.0000000  -0.0060206   0.0034123   0.6622090   0.2354180   0.0000000   0.0000000   0.0000000   0.0000000   0.6551970  -0.0000000   0.0000000   0.0000000   0.0000000
 0.9750000  -2.4970500  -0.0644493   1.1224300   0.0000000   0.0000000  -0.0060561   0.0034123   0.6654470   0.2354180   0.0000000   0.0000000   0.0000000   0.0000000   0.6399380  -0.0000000   0.0000000   0.0000000   0.0000000
 0.9800000  -2.4970300  -0.0611141   1.1236100   0.0000000   0.0000000  -0.0060915   0.0034123   0.6686080   0.2354180   0.0000000   0.0000000   0.0000000   0.0000000   0.6244290  -0.0000000   0.0000000   0.0000000   0.0000000
 0.9850000  -2.4970200  -0.0577633   1.1247800   0.0000000   0.0000000  -0.0061270   0.0034123   0.6716910   0.2354180   0.0000000   0.0000000   0.0000000   0.0000000   0.6086700  -0.0000000   0.0000000   0.0000000   0.0000000
 0.9900000  -2.4970000  -0.0543973   1.1259600   0.0000000   0.0000000  -0.0061624   0.0034123   0.6746940   0.2354180   0.0000000   0.0000000   0.0000000   0.0000000   0.5926610  -0.0000000   0.0000000   0.0000000   0.0000000
 0.9950000  -2.4969800  -0.0510165   1.1271400   0.0000000   0.0000000  -0.0061979   0.0034123   0.6776170   0.2354180   0.0000000   0.0000000   0.0000000   0.0000000   0.5764020  -0.0000000   0.0000000   0.0000000   0.0000000
 1.0000000  -2.4969700  -0.0476213   1.1283100   0.0000000   0.0000000  -0.0062333   0.0034123   0.6804580   0.2354180   0.0000000   0.0000000   0.0000000   0.0000000   0.5598930  -0.0000000   0.0000000   0.0000000   0.0000000
 1.0050000  -2.4969500  -0.0442121   1.1294900   0.0000000   0.0000000  -0.0062688   0.0034123   0.6832160   0.2354180   0.0000000   0.0000000   0.0000000   0.0000000   0.5432950  -0.0000000   0.0000000   0.0000000   0.0000000
 1.0100000  -2.4969300  -0.0407893   1.1306700   0.0000000   0.0000000  -0.0063042   0.0034123   0.6858910   0.2354180   0.0000000   0.0000000   0.0000000   0.0000000   0.5269390  -0.0000000   0.0000000   0.0000000   0.0000000
 1.0150000  -2.4969200  -0.0373533   1.1318500   0.0000000   0.0000000  -0.0063397   0.0034123   0.6884850   0.2354180   0.0000000   0.0000000   0.0000000   0.0000000   0.5108320  -0.0000000   0.0000000   0.0000000   0.0000000
 1.0200000  -2.4969000  -0.0339045   1.1330200   0.0000000   0.0000000  -0.0063752   0.0034123   0.6910000   0.2354180   0.0000000   0.0000000   0.0000000   0.0000000   0.4949750  -0.0000000   0.0000000   0.0000000   0.0000000
 1.0250000  -2.4968800  -0.0304434   1.1342000   0.0000000   0.0000000  -0.0064106   0.0034123   0.6934360   0.2354180   0.0000000   0.0000000   0.0000000   0.0000000   0.4793680  -0.0000000   0.0000000   0.0000000   0.0000000
 1.0300000  -2.4968600  -0.0269703   1.1353800   0.0000000   0.0000000  -0.0064461   0.0034123   0.6957940   0.2354180   0.0000000   0.0000000   0.0000000   0.0000000   0.4640120  -0.0000000   0.0000000   0.0000000   0.0000000
 1.0350000  -2.4968500  -0.0234856   1.1365500   0.0000000   0.0000000  -0.0064815   0.0034123   0.6980760   0.2354180   0.0000000   0.0000000   0.0000000   0.0000000   0.4489050  -0.0000000   0.0000000   0.0000000   0.0000000
 1.0400000  -2.4968300  -0.0199897   1.1377300   0.0000000   0.0000000  -0.0065170   0.0034123   0.7002830   0.2354180   0.0000000   0.0000000   0.0000000   0.0000000   0.4340480  -0.0000000   0.0000000   0.0000000   0.0000000
 1.0450000  -2.4968100  -0.0164829   1.1389100   0.0000000   0.0000000  -0.0065525   0.0034123   0.7024170   0.2354180   0.0000000   0.0000000   0.0000000   0.0000000   0.4194420  -0.0000000   0.0000000   0.0000000   0.0000000
 1.0500000  -2.4968000  -0.0129656   1.1400800   0.0000000   0.0000000  -0.0065879   0.0034123   0.7044780   0.2354180   0.0000000   0.0000000   0.0000000   0.0000000   0.4050850  -0.0000000   0.0000000   0.0000000   0.0000000
 1.0550000  -2.4967800  -0.0094382   1.1412600   0.0000000   0.0000000  -0.0066234   0.0034123   0.7064680   0.2354180   0.0000000   0.0000000   0.0000000   0.0000000   0.3909780  -0.0000000   0.0000000   0.0000000   0.0000000
 1.0600000  -2.4967600  -0.0059011   1.1424400   0.0000000   0.0000000  -0.0066588   0.0034123   0.7083880   0.2354180   0.0000000   0.0000000   0.0000000   0.0000000   0.3771210  -0.0000000   0.0000000   0.0000000   0.0000000
 1.0650000  -2.4967400  -0.0023545   1.1436200   0.0000000   0.0000000  -0.0066943   0.0034123   0.7102400   0.2354180   0.0000000   0.0000000   0.0000000   0.0000000   0.3635150  -0.0000000   0.0000000   0.0000000   0.0000000
 1.0700000  -2.4967300   0.0012012   1.1447900   0.0000000   0.0000000  -0.0067297   0.0034123   0.7120240   0.2354180   0.0000000   0.0000000   0.0000000   0.0000000   0.3501580  -0.0000000   0.0000000   0.0000000   0.0000000
 1.0750000  -2.4967100   0.0047657   1.1459700   0.0000000   0.0000000  -0.0067652   0.0034123   0.7137420   0.2354180   0.0000000   0.0000000   0.0000000   0.0000000   0.3370510  -0.0000000   0.0000000   0.0000000   0.0000000
 1.0800000  -2.4966900   0.0083385   1.1471500   0.0000000   0.0000000  -0.0068007   0.0034123   0.7153950   0.2354180   0.0000000   0.0000000   0.0000000   0.0000000   0.3241940  -0.0000000   0.0000000   0.0000000   0.0000000
 1.0850000  -2.4966800   0.0119195   1.1483200   0.0000000   0.0000000  -0.0068361   0.0034123   0.7169840   0.2354180   0.0000000   0.0000000   0.0000000   0.0000000   0.3115880  -0.0000000   0.0000000   0.0000000   0.0000000
 1.0900000  -2.4966600   0.0155083   1.1495000   0.0000000   0.0000000  -0.0068716   0.0034123   0.7185110   0.2354180   0.0000000   0.0000000   0.0000000   0.0000000   0.2992310  -0.0000000   0.0000000   0.0000000   0.0000000
 1.0950000  -2.4966400   0.0191045   1.1506800   0.0000000   0.0000000  -0.0069070   0.0034123   0.7199770   0.2354180   0.0000000   0.0000000   0.0000000   0.0000000   0.2871240  -0.0000000   0.0000000   0.0000000   0.0000000
 1.1000000  -2.4966200   0.0227079   1.1518600   0.0000000   0.0000000  -0.0069425   0.0034123   0.7213830   0.2354180   0.0000000   0.0000000   0.0000000   0.0000000   0.2752670  -0.0000000   0.0000000   0.0000000   0.0000000
 1.1050000  -2.4966100   0.0263183   1.1530300   0.0000000   0.0000000  -0.0069780   0.0034123   0.7227300   0.2354180   0.0000000   0.0000000   0.0000000   0.0000000   0.2636610  -0.0000000   0.0000000   0.0000000   0.0000000
 1.1100000  -2.4965900   0.0299352   1.1542100   0.0000000   0.0000000  -0.0070134   0.0034123   0.7240200   0.2354180   0.0000000   0.0000000   0.0000000   0.0000000   0.2523040  -0.0000000   0.0000000   0.0000000   0.0000000
 1.1150000  -2.4965700   0.0335584   1.1553900   0.0000000   0.0000000  -0.0070489   0.0034123   0.7252540   0.2354180   0.0000000   0.0000000   0.0000000   0.0000000   0.2411970  -0.0000000   0.0000000   0.0000000   0.0000000
 1.1200000  -2.4965600   0.0371876   1.1565600   0.0000000   0.0000000  -0.0070843   0.0034123   0.7264320   0.2354180   0.0000000   0.0000000   0.0000000   0.0000000   0.2303400  -0.0000000   0.0000000   0.0000000   0.0000000
 1.1250000  -2.4965400   0.0408226   1.1577400   0.0000000   0.0000000  -0.0071198   0.0034123   0.7275570   0.2354180   0.0000000   0.0000000   0.0000000   0.0000000   0.2197340  -0.0000000   0.0000000   0.0000000   0.0000000
 1.1300000  -2.4965200   0.0444631   1.1589200   0.0000000   0.0000000  -0.0071553   0.0034123   0.7286300   0.2354180   0.0000000   0.0000000   0.0000000   0.0000000   0.2093770  -0.0000000   0.0000000   0.0000000   0.0000000
 1.1350000  -2.4965100   0.0481088   1.1601000   0.0000000   0.0000000  -0.0071907   0.0034125   0.7296520   0.2354180   0.0000000   0.0000000   0.0000000   0.0001107   0.1992700  -0.0000000   0.0000000   0.0000000   0.0000000
 1.1400000  -2.4964900   0.0517595   1.1612700   0.0000000   0.0000000  -0.0072262   0.0034138   0.7306230   0.2354180   0.0000000   0.0000000   0.0000000   0.0004711   0.1894130  -0.0000000   0.0000000   0.0000000   0.0000000
 1.1450000  -2.4964700   0.0554150   1.1624500   0.0000000   0.0000000  -0.0072616   0.0034176   0.7315460   0.2354180   0.0000000   0.0000000   0.0000000   0.0010814   0.1798070  -0.0000000   0.0000000   0.0000000   0.0000000
 1.1500000  -2.4964500   0.0590749   1.1636300   0.0000000   0.0000000  -0.0072971   0.0034250   0.7324220   0.2354180   0.0000000   0.0000000   0.0000000   0.0019417   0.1704500  -0.0000000   0.0000000   0.0000000   0.0000000
 1.1550000  -2.4964400   0.0627391   1.1648000   0.0000000   0.0000000  -0.0073325   0.0034374   0.7332510   0.2354180   0.0000000   0.0000000   0.0000000   0.0030520   0.1613430  -0.0000000   0.0000000   0.0000000   0.0000000
 1.1600000  -2.4964200   0.0664073   1.1659800   0.0000000   0.0000000  -0.0073680   0.0034560   0.7340350   0.2354180   0.0000000   0.0000000   0.0000000   0.0044123   0.1524870  -0.0000000   0.0000000   0.0000000   0.0000000
 1.1650000  -2.4964000   0.0700794   1.1671600   0.0000000   0.0000000  -0.0074035   0.0034820   0.7347760   0.2354180   0.0000000   0.0000000   0.0000000   0.0060226   0.1438800  -0.0000000   0.0000000   0.0000000   0.0000000
 1.1700000  -2.4963900   0.0737550   1.1683400   0.0000000   0.0000000  -0.0074389   0.0035166   0.7354750   0.2354180   0.0000000   0.0000000   0.0000000   0.0078829   0.1355230  -0.0000000   0.0000000   0.0000000   0.0000000
 1.1750000  -2.4963700   0.0774341   1.1695100   0.0000000   0.0000000  -0.0074744   0.0035612   0.7361320   0.2354180   0.0000000   0.0000000   0.0000000   0.0099933   0.1274160  -0.0000000   0.0000000   0.0000000   0.0000000
 1.1800000  -2.4963500   0.0811163   1.1706900   0.0000000   0.0000000  -0.0075098   0.0036170   0.7367490   0.2354180   0.0000000   0.0000000   0.0000000   0.0123536   0.1195600  -0.0000000   0.0000000   0.0000000   0.0000000
 1.1850000  -2.4963300   0.0848015   1.1718700   0.0000000   0.0000000  -0.0075453   0.0036852   0.7373280   0.2354180   0.0000000   0.0000000   0.0000000   0.0149639   0.1119530  -0.0000000   0.0000000   0.0000000   0.0000000
 1.1900000  -2.4963100   0.0884895   1.1730400   0.0000000   0.0000000  -0.0075807   0.0037670   0.7378690   0.2354180   0.0000000   0.0000000   0.0000000   0.0178242   0.1045960  -0.0000000   0.0000000   0.0000000   0.0000000
 1.1950000  -2.4962900   0.0921801   1.1742200   0.0000000   0.0000000  -0.0076162   0.0038638   0.7383740   0.2354180   0.0000000   0.0000000   0.0000000   0.0209345   0.0974894  -0.0000000   0.0000000   0.0000000   0.0000000
 1.2000000  -2.4962700   0.0958732   1.1754000   0.0000000   0.0000000  -0.0076517   0.0039768   0.7388450   0.2354180   0.0000000   0.0000000   0.0000000   0.0242948   0.0906326  -0.0000000   0.0000000   0.0000000   0.0000000
 1.2050000  -2.4962500   0.0995685   1.1765700   0.0000000   0.0000000  -0.0076871   0.0041072   0.7392810   0.2354180   0.0000000   0.0000000   0.0000000   0.0279052   0.0840259  -0.0000000   0.0000000   0.0000000   0.0000000
 1.2100000  -2.4962300   0.1032660   1.1777500   0.0000000   0.0000000  -0.0077226   0.0042563   0.7396850   0.2354180   0.0000000   0.0000000   0.0000000   0.0317655   0.0776691  -0.0000000   0.0000000   0.0000000   0.0000000
 1.2150000  -2.4962100   0.1069650   1.1789300   0.0000000   0.0000000  -0.0077580   0.0044253   0.7400580   0.2354180   0.0000000   0.0000000   0.0000000   0.0358758   0.0715624  -0.0000000   0.0000000   0.0000000   0.0000000
 1.2200000  -2.4961900   0.1106660   1.1801100   0.0000000   0.0000000  -0.0077935   0.0046154   0.7404010   0.2354180   0.0000000   0.0000000   0.0000000   0.0402361   0.0657057  -0.0000000   0.0000000   0.0000000   0.0000000
 1.2250000  -2.4961600   0.1143690   1.1812800   0.0000000   0.0000000  -0.0078290   0.0048280   0.7407160   0.2354180   0.0000000   0.0000000   0.0000000   0.0448464   0.0600989  -0.0000000   0.0000000   0.0000000   0.0000000
 1.2300000  -2.4961400   0.1180740   1.1824600   0.0000000   0.0000000  -0.0078644   0.0050643   0.7410030   0.2354180   0.0000000   0.0000000   0.0000000   0.0497067   0.0547422  -0.0000000   0.0000000   0.0000000   0.0000000
 1.2350000  -2.4961100   0.1217790   1.1836400   0.0000000   0.0000000  -0.0078999   0.0053255   0.7412630   0.2354180   0.0000000   0.0000000   0.0000000   0.0548170   0.0496354  -0.0000000   0.0000000   0.0000000   0.0000000
 1.2400000  -2.4960900   0.1254860   1.1848100   0.0000000   0.0000000  -0.0079353   0.0056129   0.7414990   0.2354180   0.0000000   0.0000000   0.0000000   0.0601774   0.0447787  -0.0000000   0.0000000   0.0000000   0.0000000
 1.2450000  -2.4960600   0.1291940   1.1859900   0.0000000   0.0000000  -0.0079708   0.0059277   0.7417120   0.2354180   0.0000000   0.0000000   0.0000000   0.0657877   0.0401720  -0.0000000   0.0000000   0.0000000   0.0000000
 1.2500000  -2.4960300   0.1329030   1.1871700   0.0000000   0.0000000  -0.0080062   0.0062712   0.7419020   0.2354180   0.0000000   0.0000000   0.0000000   0.0716480   0.0358152  -0.0000000   0.0000000   0.0000000   0.0000000
 1.2550000  -2.4960000   0.1366130   1.1883500   0.0000000   0.0000000  -0.0080417   0.0066446   0.7420700   0.2354180   0.0000000   0.0000000   0.0000000   0.0777583   0.0317085  -0.0000000   0.0000000   0.0000000   0.0000000
 1.2600000  -2.4959600   0.1403240   1.1895200   0.0000000   0.0000000  -0.0080772   0.0070492   0.7422190   0.2354180   0.0000000   0.0000000   0.0000000   0.0841186   0.0278518  -0.0000000   0.0000000   0.0000000   0.0000000
 1.2650000  -2.4959200   0.1440350   1.1907000   0.0000000   0.0000000  -0.0081126   0.0074862   0.7423490   0.2354180   0.0000000   0.0000000   0.0000000   0.0907289   0.0242450  -0.0000000   0.0000000   0.0000000   0.0000000
 1.2700000  -2.4958900   0.1477470   1.1918800   0.0000000   0.0000000  -0.0081481   0.0079569   0.7424620   0.2354180   0.0000000   0.0000000   0.0000000   0.0975892   0.0208883  -0.0000000   0.0000000   0.0000000   0.0000000
 1.2750000  -2.4958500   0.1514600   1.1930500   0.0000000   0.0000000  -0.0081835   0.0084625   0.7425580   0.2354180   0.0000000   0.0000000   0.0000000   0.1047000   0.0177815  -0.0000000   0.0000000   0.0000000   0.0000000
 1.2800000  -2.4958000   0.1551730   1.1942300   0.0000000   0.0000000  -0.0082190   0.0090043   0.7426400   0.2354180   0.0000000   0.0000000   0.0000000   0.1120600   0.0149248  -0.0000000   0.0000000   0.0000000   0.0000000
 1.2850000  -2.4957600   0.1588860   1.1954100   0.0000000   0.0000000  -0.0082545   0.0095835   0.7427080   0.2354180   0.0000000   0.0000000   0.0000000   0.1196700   0.0123181  -0.0000000   0.0000000   0.0000000   0.0000000
 1.2900000  -2.4957100   0.1626000   1.1965900   0.0000000   0.0000000  -0.0082899   0.0102014   0.7427640   0.2354180   0.0000000   0.0000000   0.0000000   0.1275300   0.0099613  -0.0000000   0.0000000   0.0000000   0.0000000
 1.2950000  -2.4956500   0.1663140   1.1977600   0.0000000   0.0000000  -0.0083254   0.0108593   0.7428080   0.2354180   0.0000000   0.0000000   0.0000000   0.1356410   0.0078546  -0.0000000   0.0000000   0.0000000   0.0000000
 1.3000000  -2.4956000   0.1700280   1.1989400   0.0000000   0.0000000  -0.0083608   0.0115583   0.7428430   0.2354180   0.0000000   0.0000000   0.0000000   0.1440010   0.0059978  -0.0000000   0.0000000   0.0000000   0.0000000
 1.3050000  -2.4955400   0.1737420   1.2001200   0.0000000   0.0000000  -0.0083963   0.0122997   0.7428690   0.2354180   0.0000000   0.0000000   0.0000000   0.1526110   0.0043911  -0.0000000   0.0000000   0.0000000   0.0000000
 1.3100000  -2.4954700   0.1774570   1.2012900   0.0000000   0.0000000  -0.0084318   0.0130848   0.7428870   0.2354180   0.0000000   0.0000000   0.0000000   0.1614720   0.0030344  -0.0000000   0.0000000   0.0000000   0.0000000
 1.3150000  -2.4954100   0.1811710   1.2024700   0.0000000   0.0000000  -0.0084672   0.0139148   0.7428990   0.2354180   0.0000000   0.0000000   0.0000000   0.1705820   0.0019276  -0.0000000   0.0000000   0.0000000   0.0000000
