ts fx fy fz tx ty tz exfx exfy exfz extx exty extz xd yd zd rolld pitchd yawd vxd vyd vzd wxd wyd wzd axd ayd azd e_x e_y e_z e_vx e_vy e_vz e_rx e_ry e_rz e_wx e_wy e_wz
1704198489.047778000  0  0  11.7101  0.0747148  -0.143555  0.0330901  nan  nan  nan  nan  nan  nan  -2.5  -0.3  1  0.0121107  -0.0318769  -0.000386004  0  0  0  0  0  0  0  0  0  0.0263628  0.000146376  -0.0168144  -0.0170832  0.0154268  -0.00815859  -0.0145947  0.0342935  -0.0405035  -0.0151585  -0.0283903  -0.00859145 
1704198489.051838000  0  0  11.7094  0.0980814  -0.162183  0.0331875  nan  nan  nan  nan  nan  nan  -2.5  -0.3  1  0.0130704  -0.0339705  -0.000443948  0  0  0  0  0  0  0  0  0  0.0264276  9.72438e-05  -0.0167976  -0.0145005  0.0167825  -0.00814995  -0.0160515  0.0364467  -0.0405387  -0.0484893  -0.0109446  -0.00945651 
1704198489.056787000  0  0  11.792  0.119893  -0.175986  0.0300879  nan  nan  nan  nan  nan  nan  -2.5  -0.3  1  0.0125529  -0.0328133  -0.000411849  0  0  0  0  0  0  0  0  0  0.0264527  3.96623e-05  -0.0168543  -0.0157624  0.0163534  -0.0149345  -0.0162445  0.0357511  -0.0401349  -0.0903356  0.0230617  0.0252496 
1704198489.061934000  0  0  11.7081  0.0899403  -0.132366  0.0342777  nan  nan  nan  nan  nan  nan  -2.5  -0.3  1  0.0128815  -0.0322352  -0.000415189  0  0  0  0  0  0  0  0  0  0.0263639  0.000119573  -0.0168568  -0.0166252  0.0164861  -0.00790545  -0.016264  0.0343096  -0.0405744  -0.0302521  -0.0509172  -0.0227265 
1704198489.066929000  0  0  11.7181  0.112223  -0.174714  0.0319404  nan  nan  nan  nan  nan  nan  -2.5  -0.3  1  0.0106265  -0.0359633  -0.000382095  0  0  0  0  0  0  0  0  0  0.0269056  -0.000448358  -0.0168442  -0.0129328  0.0148259  -0.00880136  -0.0145988  0.0387232  -0.0404541  -0.090136  -0.00682487  0.00528587 
1704198489.071840000  0  0  11.7942  0.12065  -0.167304  0.0298284  nan  nan  nan  nan  nan  nan  -2.5  -0.3  1  0.0105762  -0.0347248  -0.000367197  0  0  0  0  0  0  0  0  0  0.026832  -0.000382979  -0.0169444  -0.0140906  0.0147051  -0.0149326  -0.0151078  0.0374374  -0.0401173  -0.102307  -0.00981631  0.0283189 
1704198489.076860000  0  0  11.7588  0.0845538  -0.158007  0.0337448  nan  nan  nan  nan  nan  nan  -2.5  -0.3  1  0.00941118  -0.035669  -0.000335626  0  0  0  0  0  0  0  0  0  0.0270312  -0.000613267  -0.0169425  -0.0134363  0.0136531  -0.0119716  -0.0135784  0.0381651  -0.0405924  -0.0441859  -0.0351062  -0.0158865 
1704198489.081850000  0  0  11.7022  0.0982348  -0.178747  0.0318398  nan  nan  nan  nan  nan  nan  -2.5  -0.3  1  0.00790205  -0.0372581  -0.000294353  0  0  0  0  0  0  0  0  0  0.0273253  -0.000966502  -0.0169403  -0.0122451  0.0124171  -0.00727871  -0.0125567  0.0401499  -0.0404814  -0.0809481  -0.0118857  0.00681654 
1704198489.086865000  0  0  11.7895  0.083621  -0.169716  0.0319178  nan  nan  nan  nan  nan  nan  -2.5  -0.3  1  0.00800302  -0.0373531  -0.000298875  0  0  0  0  0  0  0  0  0  0.0272726  -0.000907653  -0.0170462  -0.011642  0.012495  -0.014324  -0.0127242  0.0399778  -0.0404331  -0.0501794  -0.0283648  0.00535856 
1704198489.093043000  0  0  11.7685  0.0858656  -0.169062  0.0311956  nan  nan  nan  nan  nan  nan  -2.5  -0.3  1  0.00848701  -0.0361116  -0.00030642  0  0  0  0  0  0  0  0  0  0.0272211  -0.000868353  -0.0171324  -0.0132403  0.0130221  -0.0123968  -0.0133637  0.0387605  -0.0403453  -0.048785  -0.0184731  0.013508 
1704198489.098233000  0  0  11.6958  0.0771394  -0.147019  0.0318267  nan  nan  nan  nan  nan  nan  -2.5  -0.3  1  0.00817992  -0.0363521  -0.000297298  0  0  0  0  0  0  0  0  0  0.0272298  -0.000889983  -0.0171401  -0.0132396  0.0126024  -0.00630441  -0.0131057  0.0384498  -0.0403723  -0.0337059  -0.0597005  0.00588972 
1704198489.102941000  0  0  11.8689  0.0679028  -0.169576  0.0322845  nan  nan  nan  nan  nan  nan  -2.5  -0.3  1  0.00875381  -0.0373605  -0.000326979  0  0  0  0  0  0  0  0  0  0.0271893  -0.00082491  -0.0173126  -0.0111175  0.0133711  -0.020372  -0.0135001  0.0395105  -0.0404643  -0.0116044  -0.024345  0.00108635 
1704198489.107993000  0  0  11.8173  0.0805026  -0.171119  0.0292721  nan  nan  nan  nan  nan  nan  -2.5  -0.3  1  0.00879838  -0.0353296  -0.000310786  0  0  0  0  0  0  0  0  0  0.0271472  -0.000812747  -0.0173567  -0.0139085  0.0133534  -0.0159918  -0.0137937  0.0376817  -0.0400524  -0.0341029  -0.00443301  0.0346233 
1704198489.112948000  0  0  11.7603  0.0480346  -0.127107  0.0337944  nan  nan  nan  nan  nan  nan  -2.5  -0.3  1  0.00887205  -0.0349509  -0.000310031  0  0  0  0  0  0  0  0  0  0.0270763  -0.000749582  -0.0173871  -0.0144727  0.0132532  -0.0111287  -0.0133391  0.0363153  -0.0404951  0.0266506  -0.0798868  -0.0174798 
1704198489.117876000  0  0  11.6794  0.0703174  -0.161543  0.0339308  nan  nan  nan  nan  nan  nan  -2.5  -0.3  0.995  0.00883139  -0.0371385  -0.000327917  2e-07  2e-07  2e-07  0  0  0  0.000125  0.000125  0.000125  0.0271903  -0.0010554  -0.0116814  -0.0121799  0.0138156  -0.0162931  -0.0146038  0.0387983  -0.0407071  -0.00627996  -0.0338591  -0.0170644 
1704198489.123424000  0  0  11.6304  0.0795396  -0.163266  0.0315595  nan  nan  nan  nan  nan  nan  -2.5  -0.3  0.995  0.00858476  -0.0356782  -0.000306231  1.7e-06  1.7e-06  1.7e-06  0  0  0  0.0005  0.0005  0.0005  0.0271499  -0.00104008  -0.0117457  -0.0141346  0.0134632  -0.0120477  -0.0146483  0.0375096  -0.04042  -0.0243152  -0.0185566  0.0097062 
1704198489.127941000  0  0  11.5905  0.0591506  -0.13583  0.0351973  nan  nan  nan  nan  nan  nan  -2.5  -0.3  0.995  0.0095475  -0.0350481  -0.000334563  5.6e-06  5.6e-06  5.6e-06  0  0  0  0.001125  0.001125  0.001125  0.0270835  -0.000972644  -0.011771  -0.0148791  0.0145939  -0.00858724  -0.0151672  0.0362081  -0.0408441  0.0212371  -0.0614549  -0.0315251 
1704198489.132965000  0  0  11.6604  0.102771  -0.16848  0.0322909  nan  nan  nan  nan  nan  nan  -2.5  -0.3  0.995  0.0096621  -0.035985  -0.000347727  1.33e-05  1.33e-05  1.33e-05  0  0  0  0.002  0.002  0.002  0.0271171  -0.00100146  -0.011889  -0.0133536  0.0149912  -0.014106  -0.0160845  0.037526  -0.0406057  -0.057564  -0.00827988  0.00242059 
1704198489.137781000  0  0  11.6739  0.100445  -0.167141  0.0316763  nan  nan  nan  nan  nan  nan  -2.5  -0.3  0.995  0.00958168  -0.0355315  -0.00034069  2.6e-05  2.6e-05  2.6e-05  0  0  0  0.003125  0.003125  0.003125  0.0270514  -0.00093506  -0.0119588  -0.0136001  0.0148967  -0.0149809  -0.0162053  0.0370691  -0.0404964  -0.0518002  -0.00675467  0.00901102 
1704198489.142837000  0  0  11.6533  0.0865766  -0.141997  0.0330468  nan  nan  nan  nan  nan  nan  -2.5  -0.3  0.995  0.0104036  -0.0333845  -0.000347768  4.5e-05  4.5e-05  4.5e-05  0  0  0  0.0045  0.0045  0.0045  0.0270152  -0.000915067  -0.0120302  -0.0162105  0.0160694  -0.012973  -0.0167163  0.0345173  -0.0406697  -0.0193635  -0.0335655  -0.00638824 
1704198489.147837000  0  0  11.6401  0.104987  -0.137901  0.0311277  nan  nan  nan  nan  nan  nan  -2.5  -0.299999  0.995  0.0107551  -0.0333572  -0.000359708  7.15e-05  7.15e-05  7.15e-05  0  0  0  0.006125  0.006125  0.006125  0.0269428  -0.000836018  -0.0120825  -0.0159275  0.016539  -0.0116106  -0.0175369  0.0342422  -0.0404081  -0.0486333  -0.0392268  0.0149843 
1704198489.152775000  0  0  11.7397  0.0777086  -0.164754  0.0323239  nan  nan  nan  nan  nan  nan  -2.5  -0.299999  0.995  0.00712068  -0.0370965  -0.000265796  0.0001067  0.0001067  0.0001067  0  0  0  0.008  0.008  0.008  0.0273851  -0.00136693  -0.0122768  -0.0114219  0.013335  -0.0193226  -0.013703  0.0384048  -0.0405991  -0.0293499  -0.0238171  0.00194209 
1704198489.157860000  0  0  11.726  0.0911838  -0.160713  0.0301725  nan  nan  nan  nan  nan  nan  -2.5  -0.299998  0.995  0.00772373  -0.0344799  -0.000268966  0.0001519  0.0001519  0.0001519  0  0  0  0.010125  0.010125  0.010125  0.0273393  -0.00134321  -0.0123663  -0.0145205  0.0143271  -0.0177989  -0.0145457  0.0358967  -0.0403073  -0.0485469  -0.00882257  0.025916 
1704198489.163047000  0  0  11.674  0.0710992  -0.132256  0.0320705  nan  nan  nan  nan  nan  nan  -2.5  -0.299997  0.995  0.00730923  -0.0352124  -0.000261527  0.0002083  0.0002083  0.0002083  0  0  0  0.0125  0.0125  0.0125  0.0272782  -0.00127609  -0.0124074  -0.0133335  0.0138963  -0.0131197  -0.014016  0.0358306  -0.0404301  -0.0132512  -0.0651291  0.00341951 
1704198489.167848000  0  0  11.7756  0.0686865  -0.16933  0.0319905  nan  nan  nan  nan  nan  nan  -2.5  -0.299996  0.995  0.00603233  -0.0373521  -0.00023137  0.0002773  0.0002773  0.0002773  0  0  0  0.015125  0.015125  0.015125  0.0275226  -0.00152975  -0.0125061  -0.0103426  0.0132048  -0.0211456  -0.0128488  0.038484  -0.0404167  -0.0191644  -0.0153927  0.00428584 
1704198489.173281000  0  0  11.7813  0.0894729  -0.172852  0.0284839  nan  nan  nan  nan  nan  nan  -2.49999  -0.299995  0.99501  0.00631047  -0.034877  -0.000228648  0.00036  0.00036  0.00036  0  0  0  0.018  0.018  0.018  0.0274693  -0.00150535  -0.0126289  -0.0130797  0.0138836  -0.0211097  -0.0135757  0.0363659  -0.0398858  -0.0540496  0.0111369  0.0428092 
1704198489.177856000  0  0  11.7131  0.0608664  -0.142525  0.0318799  nan  nan  nan  nan  nan  nan  -2.49999  -0.299993  0.99501  0.00571223  -0.0341881  -0.000207154  0.0004577  0.0004577  0.0004577  0  0  0  0.021125  0.021125  0.021125  0.0274071  -0.00144939  -0.0126597  -0.0137093  0.0133291  -0.0150305  -0.0126172  0.0350977  -0.0401876  -0.00565488  -0.0378487  0.00337764 
1704198489.182835000  0  0  11.8167  0.0608791  -0.184133  0.0335243  nan  nan  nan  nan  nan  nan  -2.49999  -0.29999  0.99501  0.00401199  -0.0369408  -0.000164173  0.0005717  0.0005717  0.0005717  0  0  0  0.0245  0.0245  0.0245  0.0277189  -0.0017912  -0.0128102  -0.009961  0.0123504  -0.0230527  -0.0110139  0.0385556  -0.0404962  -0.02043  0.0135552  -0.0140915 
1704198489.187840000  0  0  11.8179  0.0827808  -0.187093  0.0307117  nan  nan  nan  nan  nan  nan  -2.49999  -0.299987  0.99501  0.00459606  -0.0350963  -0.000182373  0.0007031  0.0007031  0.0007031  0  0  0  0.028125  0.028125  0.028125  0.0276543  -0.00172158  -0.0129079  -0.0117771  0.0134226  -0.0226248  -0.0120785  0.0370574  -0.0401428  -0.0544395  0.0332577  0.0175318 
1704198489.192844000  0  0  11.7584  0.0619899  -0.162851  0.0317739  nan  nan  nan  nan  nan  nan  -2.49998  -0.299983  0.99502  0.00381007  -0.0334246  -0.000154627  0.0008533  0.0008533  0.0008533  0  0  0  0.0319374  0.032  0.032  0.0276511  -0.00174311  -0.0128926  -0.013707  0.0129049  -0.0173105  -0.0110695  0.0351426  -0.0402205  -0.0221408  0.00239051  0.00503157 
1704198489.197839000  0  0  11.7995  0.0523283  -0.177533  0.032862  nan  nan  nan  nan  nan  nan  -2.49998  -0.299978  0.99502  0.00133251  -0.0360204  -8.2787e-05  0.0010221  0.0010235  0.0010235  0  0  0  0.0355621  0.036125  0.036125  0.0279243  -0.00208718  -0.0130023  -0.0102951  0.0109624  -0.0201084  -0.00860262  0.038091  -0.0404151  -0.0255125  0.00462901  -0.00662453 
1704198489.202806000  0  0  11.8309  0.0753631  -0.188188  0.0308874  nan  nan  nan  nan  nan  nan  -2.49997  -0.299973  0.99503  0.00227203  -0.0353904  -0.000124092  0.0012085  0.001215  0.001215  0  0  0  0.0389369  0.0405  0.0405  0.0278687  -0.00201907  -0.0131229  -0.0104458  0.0126045  -0.0220831  -0.0100408  0.0377496  -0.0401505  -0.0583513  0.0290789  0.015412 
1704198489.207796000  0  0  11.7955  0.0755894  -0.158711  0.0299024  nan  nan  nan  nan  nan  nan  -2.49997  -0.299966  0.99503  0.00156489  -0.0321905  -0.000104666  0.0014111  0.001429  0.001429  0  0  0  0.0420616  0.045125  0.045125  0.0278269  -0.00201231  -0.0131682  -0.0142963  0.0122405  -0.0185798  -0.00956658  0.0344325  -0.0399345  -0.0631664  0.000642539  0.0255652 
1704198489.212861000  0  0  11.7946  0.0490444  -0.127537  0.0344741  nan  nan  nan  nan  nan  nan  -2.49996  -0.299958  0.99504  0.00095253  -0.0328653  -9.79995e-05  0.0016287  0.0016667  0.0016667  0  0  0  0.0449364  0.05  0.05  0.0277727  -0.00195538  -0.0132597  -0.0129306  0.011929  -0.0178204  -0.00875897  0.0342984  -0.0404592  -0.0175062  -0.0604706  -0.026334 
1704198489.217800000  0  0  11.8654  0.0700169  -0.163103  0.0332827  nan  nan  nan  nan  nan  nan  -2.49995  -0.299949  0.99505  0.000614971  -0.0347244  -0.00010235  0.00186  0.0019294  0.0019294  0  0  0  0.0475611  0.055125  0.055125  0.0279296  -0.00213158  -0.0133417  -0.0102326  0.0125321  -0.0230908  -0.00899548  0.0366424  -0.0403803  -0.0572754  -0.0109034  -0.0122312 
1704198489.223276000  0  0  11.8035  0.0799914  -0.123235  0.0289547  nan  nan  nan  nan  nan  nan  -2.49994  -0.299939  0.99506  -0.000659005  -0.029685  -7.79403e-05  0.0021039  0.0022183  0.0022183  0  0  0  0.0499359  0.0605  0.0605  0.0278531  -0.00212667  -0.0133799  -0.0166186  0.0115282  -0.0173113  -0.00827212  0.031331  -0.039772  -0.0838792  -0.0417754  0.0357858 
1704198489.227846000  0  0  11.7843  0.0333781  -0.0837182  0.0362325  nan  nan  nan  nan  nan  nan  -2.49993  -0.299927  0.99507  -0.00120016  -0.0308906  -7.91322e-05  0.002359  0.0025348  0.0025348  0  0  0  0.0520606  0.066125  0.066125  0.0278032  -0.00207514  -0.0134413  -0.0147235  0.0114192  -0.0150021  -0.00712406  0.0312464  -0.0406722  -0.00121478  -0.120031  -0.0461844 
1704198489.233004000  0  0  11.8789  0.101862  -0.164338  0.0306043  nan  nan  nan  nan  nan  nan  -2.49992  -0.299914  0.99509  -0.00212884  -0.0315943  -7.0152e-05  0.0026241  0.00288  0.00288  0  0  0  0.0539354  0.072  0.072  0.0279863  -0.00238119  -0.0135647  -0.0136363  0.0116052  -0.0221144  -0.00755096  0.033317  -0.0402286  -0.134256  0.0221595  0.0197314 
1704198489.237854000  0  0  11.8391  0.0756398  -0.115914  0.0306363  nan  nan  nan  nan  nan  nan  -2.4999  -0.299898  0.9951  -0.00300653  -0.029165  -7.35266e-05  0.0028979  0.0032552  0.0032552  0  0  0  0.0555601  0.078125  0.078125  0.0278914  -0.00233343  -0.0136227  -0.0165594  0.0111303  -0.0180625  -0.00675139  0.0302727  -0.0401214  -0.0891668  -0.0466804  0.0182611 
1704198489.242856000  0  0  11.8378  0.034092  -0.0922386  0.0371205  nan  nan  nan  nan  nan  nan  -2.49989  -0.299881  0.99512  -0.00372255  -0.0300245  -7.59488e-05  0.0031792  0.0036617  0.0036617  0  0  0  0.0569349  0.0845  0.0845  0.0278731  -0.00232457  -0.0136859  -0.0152186  0.0109768  -0.0171801  -0.00556011  0.0302165  -0.0409765  -0.017031  -0.0935143  -0.054241 
1704198489.248314000  0  0  11.8864  0.089183  -0.159004  0.0316306  nan  nan  nan  nan  nan  nan  -2.49987  -0.299862  0.99514  -0.00498801  -0.0312878  -6.08601e-05  0.0034668  0.0041006  0.0041006  0  0  0  0.0580596  0.091125  0.091125  0.0280155  -0.00259823  -0.0137642  -0.0135588  0.0107327  -0.0204716  -0.00565507  0.0326693  -0.0404788  -0.126339  0.0174501  0.00940506 
1704198489.253002000  0  0  11.8812  0.0660777  -0.12561  0.032099  nan  nan  nan  nan  nan  nan  -2.49985  -0.29984  0.99516  -0.00555104  -0.0290676  -8.77657e-05  0.0037594  0.0045733  0.0045733  0  0  0  0.0589343  0.098  0.098  0.027926  -0.00255195  -0.0138431  -0.0162018  0.0107603  -0.0192058  -0.00517412  0.0300657  -0.040422  -0.0845535  -0.0253848  0.0029824 
1704198489.257837000  0  0  11.8843  0.0671349  -0.129491  0.0334744  nan  nan  nan  nan  nan  nan  -2.49983  -0.299816  0.99518  -0.0061903  -0.028576  -0.000107428  0.0040558  0.005081  0.005081  0  0  0  0.0595591  0.105125  0.105125  0.0278822  -0.0025401  -0.0139046  -0.0166652  0.0107903  -0.0186546  -0.00496317  0.0296187  -0.0405836  -0.0886087  -0.0135091  -0.0125937 
1704198489.262838000  0  0  11.8736  0.094433  -0.155437  0.0314366  nan  nan  nan  nan  nan  nan  -2.49981  -0.299789  0.99521  -0.00616997  -0.0293862  -0.000141212  0.0043546  0.005625  0.005625  0  0  0  0.0599338  0.1125  0.1125  0.0278163  -0.00248084  -0.0139851  -0.015435  0.011626  -0.016915  -0.0060275  0.0308973  -0.0402999  -0.133413  0.0266199  0.0100409 
1704198489.267831000  0  0  11.9388  0.0882023  -0.160394  0.0309605  nan  nan  nan  nan  nan  nan  -2.49979  -0.299759  0.99524  -0.00691374  -0.0291417  -0.000162447  0.0046547  0.0062065  0.0062065  0  0  0  0.0600586  0.120125  0.120125  0.0279062  -0.00262753  -0.0140433  -0.0157309  0.011886  -0.021504  -0.00575512  0.0310353  -0.0401202  -0.123457  0.035264  0.0141958 
1704198489.273264000  0  0  11.9158  0.0912253  -0.161369  0.0307297  nan  nan  nan  nan  nan  nan  -2.49977  -0.299727  0.99527  -0.00801311  -0.0278696  -0.000185302  0.0049548  0.0068267  0.0068267  0  0  0  0.0599333  0.128  0.128  0.0278489  -0.00261133  -0.0140959  -0.0173801  0.0114096  -0.0187304  -0.00541068  0.0301644  -0.0399683  -0.132672  0.0452251  0.0155613 
1704198489.277846000  0  0  11.9074  0.068506  -0.152422  0.0345851  nan  nan  nan  nan  nan  nan  -2.49974  -0.299691  0.99531  -0.00853793  -0.0290322  -0.000208654  0.0052536  0.0074869  0.0074869  0  0  0  0.0595581  0.136125  0.136125  0.0277817  -0.00256252  -0.0141724  -0.0157657  0.0116425  -0.0170865  -0.00501801  0.0311866  -0.0404062  -0.0908462  0.0179273  -0.0282519 
1704198489.282848000  0  0  11.9572  0.105148  -0.19159  0.0315125  nan  nan  nan  nan  nan  nan  -2.49971  -0.299652  0.99535  -0.00850782  -0.0286138  -0.000264287  0.0055499  0.0081883  0.0081883  0  0  0  0.0589328  0.1445  0.144461  0.0277713  -0.00273951  -0.0135994  -0.0162161  0.0130879  -0.0216888  -0.00718468  0.0318838  -0.0401549  -0.144197  0.0898479  0.00764279 
1704198489.287833000  0  0  11.903  0.0855039  -0.174506  0.0318837  nan  nan  nan  nan  nan  nan  -2.49968  -0.299609  0.99539  -0.0100954  -0.0269997  -0.000289751  0.0058425  0.0089323  0.0089312  0  0  0  0.0580576  0.153125  0.15264  0.0276693  -0.00268951  -0.0136403  -0.0184112  0.0120213  -0.0162833  -0.0059584  0.0305534  -0.0401032  -0.11619  0.0679202  0.00248603 
1704198489.292838000  0  0  11.894  0.0552071  -0.162641  0.0366207  nan  nan  nan  nan  nan  nan  -2.49965  -0.299563  0.99544  -0.010849  -0.0280456  -0.000316062  0.0061301  0.00972  0.0097143  0  0  0  0.0569323  0.162  0.160568  0.0276344  -0.00267025  -0.0136957  -0.0171211  0.0121156  -0.0146539  -0.00511966  0.0315016  -0.04073  -0.0633133  0.0354674  -0.0504591 
1704198489.297844000  0  0  11.9726  0.0950754  -0.199912  0.0324598  nan  nan  nan  nan  nan  nan  -2.49962  -0.299512  0.99549  -0.0109725  -0.0278163  -0.000376412  0.0064114  0.0105527  0.0105364  0  0  0  0.0555571  0.171125  0.168246  0.0275974  -0.00265967  -0.0137987  -0.0172729  0.012987  -0.0203008  -0.00616014  0.0323312  -0.0403253  -0.133477  0.102378  -0.00249504 
1704198489.302841000  0  0  11.929  0.0622671  -0.178345  0.033413  nan  nan  nan  nan  nan  nan  -2.49959  -0.299457  0.99554  -0.0126459  -0.0268068  -0.000407425  0.0066853  0.0114317  0.0113963  0  0  0  0.0539318  0.1805  0.175674  0.0275015  -0.00260746  -0.013844  -0.0187421  0.0118937  -0.0158362  -0.00454051  0.0314709  -0.0403938  -0.0827615  0.067157  -0.0137245 
1704198489.307837000  0  0  11.8654  0.0596832  -0.176735  0.0354966  nan  nan  nan  nan  nan  nan  -2.49956  -0.299398  0.9956  -0.0136302  -0.0276217  -0.000438036  0.0069503  0.0123581  0.0122928  0  0  0  0.0520566  0.190125  0.182852  0.0275565  -0.0028147  -0.0131563  -0.0182173  0.0123636  -0.0112886  -0.00488954  0.0325965  -0.0408165  -0.0743827  0.0535815  -0.0355431 
1704198489.312859000  0  0  11.9148  0.0960143  -0.191291  0.0319768  nan  nan  nan  nan  nan  nan  -2.49952  -0.299333  0.99567  -0.0137796  -0.0278452  -0.00050233  0.0072054  0.0133333  0.0132244  0  0  0  0.0499313  0.2  0.189781  0.0274672  -0.00274701  -0.0132514  -0.0178411  0.0131893  -0.0145697  -0.00590686  0.0333895  -0.040404  -0.137685  0.0753977  0.00432892 
1704198489.317834000  0  0  11.9204  0.0744435  -0.18659  0.0326448  nan  nan  nan  nan  nan  nan  -2.49948  -0.299264  0.99573  -0.0155303  -0.027511  -0.000533565  0.0074492  0.0143585  0.0141901  0  0  0  0.0475561  0.210125  0.196459  0.0274199  -0.002749  -0.0132989  -0.0184651  0.012148  -0.0142832  -0.00446973  0.0334043  -0.0404013  -0.107766  0.0658602  -0.00404687 
1704198489.323249000  0  0  11.9022  0.0728286  -0.176142  0.032923  nan  nan  nan  nan  nan  nan  -2.49945  -0.29919  0.99581  -0.0162767  -0.0266852  -0.000604666  0.0076806  0.015435  0.0151886  0  0  0  0.0449308  0.2205  0.202887  0.0273938  -0.00274435  -0.0133644  -0.0198914  0.0124956  -0.0120036  -0.00421598  0.0328065  -0.0403878  -0.10687  0.0504636  -0.00765969 
1704198489.327845000  0  0  11.9251  0.0833832  -0.172993  0.0324831  nan  nan  nan  nan  nan  nan  -2.49941  -0.29911  0.99589  -0.0166624  -0.027875  -0.000655951  0.0078981  0.016564  0.0162186  0  0  0  0.0420556  0.231125  0.209065  0.0273153  -0.00268775  -0.0134375  -0.0184367  0.0131601  -0.0131803  -0.00459694  0.0340002  -0.0402741  -0.124475  0.0331853  -0.00329749 
1704198489.332847000  0  0  11.9835  0.0842799  -0.182312  0.031508  nan  nan  nan  nan  nan  nan  -2.49937  -0.299024  0.99597  -0.0182516  -0.0271711  -0.000709091  0.0081007  0.0177467  0.0172788  0  0  0  0.0389303  0.242  0.214994  0.027267  -0.00269135  -0.0135341  -0.0194863  0.0123206  -0.0172636  -0.00371782  0.0338141  -0.0400765  -0.134356  0.0535332  0.0069147 
1704198489.337847000  0  0  11.9031  0.0737978  -0.144353  0.0323968  nan  nan  nan  nan  nan  nan  -2.49933  -0.298932  0.99606  -0.0186785  -0.0260065  -0.000807036  0.008287  0.0189844  0.0183681  0  0  0  0.0355551  0.253125  0.220672  0.0271547  -0.00262211  -0.0135482  -0.0214526  0.0131747  -0.0099598  -0.00366508  0.0322011  -0.040075  -0.113877  -0.0075434  -0.00421016 
1704198489.342854000  0  0  11.8909  0.0813025  -0.152826  0.0334386  nan  nan  nan  nan  nan  nan  -2.49928  -0.298834  0.99615  -0.0203925  -0.0285704  -0.000800976  0.0084558  0.0202783  0.0194851  0  0  0  0.0319298  0.2645  0.2261  0.0272479  -0.00290898  -0.0128764  -0.0187669  0.0130095  -0.0098093  -0.00372301  0.0348023  -0.0402514  -0.128353  -0.0145288  -0.0154682 
1704198489.348211000  0  0  11.9731  0.0934559  -0.161459  0.0314879  nan  nan  nan  nan  nan  nan  -2.49924  -0.298729  0.99625  -0.0219026  -0.0278585  -0.000867107  0.0086059  0.0216298  0.0206287  0  0  0  0.0281174  0.276125  0.231278  0.0271967  -0.00290147  -0.0129872  -0.0198281  0.0122691  -0.0159092  -0.00325675  0.0343865  -0.0399592  -0.15695  0.00656161  0.0059925 
1704198489.352855000  0  0  11.877  0.0723872  -0.11559  0.0333052  nan  nan  nan  nan  nan  nan  -2.4992  -0.298618  0.99636  -0.0225551  -0.0267677  -0.000970221  0.0087374  0.02304  0.0217975  0  0  0  0.0244929  0.288  0.236207  0.0270884  -0.00284421  -0.012983  -0.0217901  0.0130197  -0.00739387  -0.0027888  0.0323992  -0.0401099  -0.119117  -0.0668919  -0.0152152 
1704198489.357840000  0  0  11.9007  0.0892488  -0.126916  0.0318046  nan  nan  nan  nan  nan  nan  -2.49915  -0.298499  0.99647  -0.0236759  -0.0276047  -0.0010198  0.0088513  0.0245102  0.0229903  0  0  0  0.0211184  0.300125  0.240885  0.0270685  -0.00286517  -0.0130745  -0.0209999  0.013058  -0.00870659  -0.00266873  0.033142  -0.0398757  -0.153945  -0.0510741  0.00119972 
1704198489.362837000  0  0  11.9654  0.0871112  -0.124199  0.031036  nan  nan  nan  nan  nan  nan  -2.49911  -0.298372  0.99659  -0.0254525  -0.0275847  -0.00107334  0.008949  0.0260417  0.0242059  0  0  0  0.017994  0.3125  0.245313  0.0269713  -0.00281274  -0.0131678  -0.0210144  0.0119758  -0.0134285  -0.0017629  0.0329124  -0.0396536  -0.158004  -0.0543969  0.00858632 
1704198489.367833000  0  0  11.9451  0.0660168  -0.117463  0.0318887  nan  nan  nan  nan  nan  nan  -2.49907  -0.298238  0.99671  -0.0267667  -0.0279192  -0.00113272  0.0090316  0.0276356  0.0254431  0  0  0  0.0151195  0.325125  0.249491  0.0270947  -0.00298322  -0.0132988  -0.0212767  0.0122654  -0.0110261  -0.000692384  0.0329717  -0.0396348  -0.125664  -0.0684145  -0.00226076 
1704198489.373277000  0  0  11.8651  0.0821674  -0.122169  0.0301461  nan  nan  nan  nan  nan  nan  -2.49902  -0.298096  0.99684  -0.029231  -0.0278552  -0.00117274  0.0091006  0.0292933  0.0267004  0  0  0  0.012495  0.338  0.253419  0.0271178  -0.00330066  -0.0125985  -0.0220008  0.0115908  -0.00537489  -0.000384035  0.0329322  -0.0393889  -0.160802  -0.0586369  0.0170632 
1704198489.377854000  0  0  11.952  0.0543846  -0.117528  0.0334472  nan  nan  nan  nan  nan  nan  -2.49897  -0.297945  0.99698  -0.0310459  -0.0295056  -0.00118011  0.009157  0.031016  0.0279768  0  0  0  0.0101205  0.351125  0.257098  0.0270341  -0.0032694  -0.0126972  -0.0196596  0.0104877  -0.0120011  0.0010941  0.0340838  -0.0396963  -0.118835  -0.0785142  -0.0211263 
1704198489.382839000  0  0  11.9694  0.0846125  -0.147441  0.0305948  nan  nan  nan  nan  nan  nan  -2.49893  -0.297786  0.99712  -0.0313387  -0.0284838  -0.00131488  0.0092022  0.032805  0.029271  0  0  0  0.007996  0.3645  0.260526  0.0270415  -0.00332648  -0.0128502  -0.0212543  0.0118579  -0.0128056  0.000256804  0.0335681  -0.0392799  -0.171588  -0.0139444  0.0103644 
1704198489.387848000  0  0  11.8821  0.0724268  -0.12052  0.0303779  nan  nan  nan  nan  nan  nan  -2.49888  -0.297617  0.99727  -0.0337016  -0.0270644  -0.00140855  0.0092374  0.0346615  0.0305817  0  0  0  0.0061215  0.378125  0.263704  0.026913  -0.00327792  -0.0128343  -0.0233683  0.0106636  -0.00517487  0.00185407  0.0317627  -0.0390793  -0.161911  -0.0511774  0.0110699 
1704198489.392853000  0  0  11.9702  0.0432073  -0.13448  0.0352108  nan  nan  nan  nan  nan  nan  -2.49884  -0.297439  0.99743  -0.0351784  -0.0296154  -0.0013938  0.0092638  0.0365867  0.0319076  0  0  0  0.004497  0.391986  0.266632  0.0269092  -0.00330005  -0.0129914  -0.0199111  0.0101677  -0.0118649  0.00307094  0.0341163  -0.0396453  -0.114667  -0.044909  -0.0436815 
1704198489.398230000  0  0  11.9555  0.0935888  -0.184638  0.0309021  nan  nan  nan  nan  nan  nan  -2.49879  -0.297251  0.99759  -0.0365441  -0.0286835  -0.00150397  0.0092828  0.0385811  0.0332476  0  0  0  0.0031225  0.40574  0.269311  0.0268947  -0.00360928  -0.0124322  -0.0213483  0.0108393  -0.0115356  0.0017259  0.0344338  -0.0392262  -0.203056  0.0524847  0.00598571 
1704198489.402856000  0  0  11.8509  0.0463008  -0.122399  0.0332812  nan  nan  nan  nan  nan  nan  -2.49874  -0.297053  0.99776  -0.0398086  -0.0269422  -0.00159743  0.0092955  0.0406436  0.0346003  0  0  0  0.001998  0.419245  0.271739  0.0267664  -0.00359154  -0.0124078  -0.0238489  0.00864375  -0.00248795  0.00484547  0.0318223  -0.0394097  -0.13718  -0.0479672  -0.021919 
1704198489.408359000  0  0  11.9579  0.0372222  -0.15968  0.0381194  nan  nan  nan  nan  nan  nan  -2.4987  -0.296844  0.99794  -0.0401397  -0.0300541  -0.00158277  0.0093032  0.0427731  0.0359646  0  0  0  0.0011235  0.4325  0.273917  0.0267405  -0.00356367  -0.0125372  -0.0194469  0.00933632  -0.0109358  0.00464539  0.0351571  -0.0402061  -0.117182  -0.00408596  -0.0744315 
1704198489.412861000  0  0  11.9555  0.102602  -0.209049  0.0309841  nan  nan  nan  nan  nan  nan  -2.49865  -0.296625  0.99812  -0.0408432  -0.0285061  -0.00174513  0.0093071  0.0449682  0.0373391  0  0  0  0.000499  0.445505  0.275845  0.0266212  -0.00352967  -0.0125887  -0.0213358  0.00998371  -0.0104511  0.00332568  0.0349557  -0.0393731  -0.2358  0.0965062  0.00643029 
1704198489.417850000  0  0  11.9114  0.0627416  -0.165313  0.0328267  nan  nan  nan  nan  nan  nan  -2.4986  -0.296395  0.99831  -0.0430889  -0.0270379  -0.00186549  0.0093086  0.0472277  0.0387226  0  0  0  0.0001245  0.45826  0.277524  0.0265506  -0.00356079  -0.0126304  -0.0233251  0.00890137  -0.00642072  0.00523743  0.033156  -0.0394795  -0.173668  0.0255898  -0.0155391 
1704198489.422834000  0  0  11.9965  0.0619596  -0.200626  0.0342988  nan  nan  nan  nan  nan  nan  -2.49856  -0.296153  0.99851  -0.0452018  -0.030377  -0.00177928  0.0093088  0.0495504  0.0401139  0  0  0  0  0.470764  0.278952  0.0266841  -0.00376187  -0.0129407  -0.0189333  0.00769658  -0.0126822  0.00643019  0.0371447  -0.0396954  -0.183077  0.0595212  -0.0317807 
1704198489.427848000  0  0  11.9955  0.0990111  -0.224789  0.0281551  nan  nan  nan  nan  nan  nan  -2.49851  -0.295899  0.99871  -0.0458948  -0.0300997  -0.00189362  0.0093088  0.051935  0.0415117  0  0  0  0  0.483019  0.28013  0.0265808  -0.00371537  -0.0129897  -0.0190858  0.00822366  -0.0123793  0.0053576  0.0377826  -0.0388276  -0.247312  0.101979  0.0363366 
1704198489.432849000  0  0  11.9865  0.0634771  -0.191083  0.0307635  nan  nan  nan  nan  nan  nan  -2.49846  -0.295633  0.99892  -0.0490908  -0.0295134  -0.00194931  0.0093088  0.0543802  0.0429148  0  0  0  0  0.495024  0.281058  0.0268055  -0.00409397  -0.0131705  -0.0204134  0.00637786  -0.0110224  0.00792189  0.0370788  -0.0388993  -0.199836  0.0410411  0.00444942 
1704198489.437848000  0  0  11.9844  0.066822  -0.188329  0.0325571  nan  nan  nan  nan  nan  nan  -2.49842  -0.295355  0.99914  -0.0506915  -0.030339  -0.00198379  0.0093088  0.0568848  0.0443219  0  0  0  0  0.506779  0.281736  0.026726  -0.00406758  -0.0132248  -0.0191533  0.00568444  -0.0106046  0.00835178  0.0379549  -0.0390323  -0.21048  0.0274741  -0.0166405 
1704198489.442848000  0  0  12.0392  0.0822296  -0.212723  0.0315598  nan  nan  nan  nan  nan  nan  -2.49837  -0.295064  0.99937  -0.0525676  -0.0322027  -0.00195281  0.0093088  0.0594476  0.0457317  0  0  0  0  0.518283  0.282165  0.0269126  -0.0044073  -0.0134414  -0.0168962  0.00506996  -0.014618  0.00872566  0.0403229  -0.0388192  -0.244735  0.0544747  -0.0063061 
1704198489.448315000  0  0  12.0197  0.0803397  -0.193435  0.0299672  nan  nan  nan  nan  nan  nan  -2.49832  -0.294761  0.9996  -0.0548819  -0.0300413  -0.00212117  0.0093088  0.0620672  0.0471431  0  0  0  0  0.529538  0.282343  0.0270466  -0.00468891  -0.0135796  -0.0201737  0.00415251  -0.0125539  0.00966904  0.0382606  -0.038461  -0.249635  0.0348723  0.0100191 
1704198489.452853000  0  0  11.9774  0.0492054  -0.16801  0.0337734  nan  nan  nan  nan  nan  nan  -2.49828  -0.294444  0.99984  -0.0572046  -0.0315779  -0.00208793  0.0093088  0.0647425  0.0485547  0  0  0  0  0.540543  0.282271  0.0269809  -0.00471013  -0.0136248  -0.0181329  0.00275723  -0.00882604  0.011347  0.0392171  -0.0388733  -0.202803  -0.024778  -0.0334343 
1704198489.457853000  0  0  12.0565  0.0745177  -0.19491  0.032782  nan  nan  nan  nan  nan  nan  -2.49823  -0.294113  1.00009  -0.0584671  -0.0330276  -0.00208792  0.0093088  0.0674722  0.0499654  0  0  0  0  0.551298  0.281949  0.0270869  -0.00497673  -0.0138205  -0.0161567  0.00251098  -0.0149732  0.010967  0.0409348  -0.038784  -0.249932  0.0132196  -0.0219353 
1704198489.462841000  0  0  12.0214  0.0852541  -0.166665  0.0291899  nan  nan  nan  nan  nan  nan  -2.49818  -0.293769  1.00034  -0.0594485  -0.0298392  -0.00236988  0.0093088  0.0702551  0.0513738  0  0  0  0  0.561803  0.281378  0.0269605  -0.00496158  -0.0138603  -0.0202901  0.00273596  -0.0119329  0.0105743  0.0375586  -0.0382103  -0.267792  -0.0122087  0.0172294 
1704198489.467837000  0  0  11.9645  0.0386436  -0.137212  0.0348807  nan  nan  nan  nan  nan  nan  -2.49814  -0.29341  1.0006  -0.0627729  -0.0321924  -0.00224748  0.0093088  0.0730898  0.0527788  0  0  0  0  0.572057  0.280556  0.0271366  -0.00524907  -0.0139186  -0.0177505  0.000627531  -0.00696322  0.0132586  0.038855  -0.0389038  -0.199266  -0.0830433  -0.0469707 
1704198489.472857000  0  0  12.0442  0.0714629  -0.16459  0.0325985  nan  nan  nan  nan  nan  nan  -2.49809  -0.293038  1.00087  -0.064449  -0.0332394  -0.00225078  0.0093088  0.0759752  0.054179  0  0  0  0  0.582062  0.279484  0.0272753  -0.00552841  -0.0139516  -0.0163852  -0.000286495  -0.0135189  0.0133251  0.0396519  -0.0387534  -0.265516  -0.0356174  -0.0199479 
1704198489.477855000  0  0  11.9982  0.080427  -0.136329  0.0297244  nan  nan  nan  nan  nan  nan  -2.49805  -0.292651  1.00114  -0.0648766  -0.0313957  -0.00248133  0.0093088  0.07891  0.0555732  0  0  0  0  0.591817  0.278162  0.0271762  -0.00551932  -0.0139737  -0.0188144  0.000696066  -0.00969348  0.0123526  0.0372207  -0.0382701  -0.274498  -0.0697725  0.0111451 
1704198489.482857000  0  0  11.9749  0.0512492  -0.112244  0.0334504  nan  nan  nan  nan  nan  nan  -2.498  -0.292249  1.00142  -0.0673253  -0.03196  -0.0024911  0.0093088  0.081893  0.0569602  0  0  0  0  0.601322  0.276591  0.0271759  -0.00562878  -0.0139824  -0.0181607  -0.00094357  -0.00771146  0.0140173  0.0367514  -0.0386864  -0.231458  -0.113625  -0.0312664 
1704198489.488420000  0  0  12.0258  0.0819794  -0.119465  0.0311552  nan  nan  nan  nan  nan  nan  -2.49795  -0.291832  1.00171  -0.0681411  -0.0324664  -0.00255537  0.0093088  0.0849228  0.0583387  0  0  0  0  0.610577  0.274769  0.0272567  -0.00579971  -0.0139076  -0.0174978  -0.000861829  -0.0121726  0.0128264  0.036383  -0.0384086  -0.281962  -0.0957935  -0.0053547 
1704198489.492857000  0  0  12.0062  0.0863672  -0.1125  0.0304674  nan  nan  nan  nan  nan  nan  -2.49791  -0.291399  1.00201  -0.0687639  -0.0313106  -0.00273961  0.0093088  0.0879983  0.0597074  0  0  0  0  0.619581  0.272697  0.027169  -0.00584598  -0.0139782  -0.018935  -0.000296411  -0.0105248  0.0122119  0.034821  -0.0382121  -0.285084  -0.0953533  0.0012783 
1704198489.498274000  0  0  11.9777  0.0792104  -0.104009  0.0309034  nan  nan  nan  nan  nan  nan  -2.49786  -0.290952  1.00231  -0.0706226  -0.0303503  -0.00287415  0.0093088  0.0911182  0.0610652  0  0  0  0  0.628336  0.270375  0.0270796  -0.00586432  -0.0140079  -0.0201365  -0.00139471  -0.00816874  0.0126701  0.0333483  -0.0381386  -0.274986  -0.0987866  -0.00490613 
1704198489.502853000  0  0  12.0074  0.0767323  -0.103249  0.03277  nan  nan  nan  nan  nan  nan  -2.49781  -0.290488  1.00262  -0.0707311  -0.0312928  -0.00292909  0.0093088  0.0942813  0.0624108  0  0  0  0  0.636841  0.267804  0.0269977  -0.00590096  -0.0140968  -0.0186065  -0.000618988  -0.0106645  0.0116626  0.0337509  -0.0383117  -0.260761  -0.104011  -0.0265079 
1704198489.507799000  0  0  12.0546  0.117479  -0.137489  0.0293967  nan  nan  nan  nan  nan  nan  -2.49777  -0.290009  1.00293  -0.0703209  -0.0302318  -0.00314169  0.0093088  0.0974862  0.0637428  0  0  0  0  0.645096  0.264982  0.0269211  -0.00594842  -0.0142154  -0.0197106  0.00071014  -0.0146234  0.00926678  0.0330701  -0.0378078  -0.320213  -0.0292682  0.0106192 
1704198489.512857000  0  0  12.0079  0.0973598  -0.107099  0.0307994  nan  nan  nan  nan  nan  nan  -2.49772  -0.289513  1.00325  -0.0722313  -0.0291634  -0.00328602  0.0093088  0.100732  0.0650602  0  0  0  0  0.653101  0.26191  0.0268075  -0.00595361  -0.0142393  -0.0210646  -0.000438827  -0.0108339  0.00993772  0.0314111  -0.0378002  -0.286147  -0.0747833  -0.00699046 
1704198489.517852000  0  0  12.0274  0.078342  -0.105018  0.0342793  nan  nan  nan  nan  nan  nan  -2.49767  -0.289001  1.00358  -0.0725507  -0.0307095  -0.00328934  0.0093088  0.104017  0.0663615  0  0  0  0  0.660855  0.258588  0.0267616  -0.00600878  -0.0143121  -0.0188411  7.56338e-05  -0.0125676  0.00939768  0.0323168  -0.0382592  -0.243143  -0.087279  -0.0459 
1704198489.523278000  0  0  12.0902  0.15137  -0.15954  0.0277665  nan  nan  nan  nan  nan  nan  -2.49763  -0.288473  1.00392  -0.0721506  -0.029047  -0.0035468  0.0093088  0.10734  0.0676456  0  0  0  0  0.66836  0.255016  0.0266891  -0.00602684  -0.0144064  -0.0207192  0.00109819  -0.0179686  0.00624211  0.0316244  -0.0373942  -0.360168  0.0281347  0.0268606 
1704198489.527846000  0  0  12.0245  0.100474  -0.113318  0.0316275  nan  nan  nan  nan  nan  nan  -2.49758  -0.287928  1.00426  -0.0744993  -0.0280789  -0.00367554  0.0093088  0.1107  0.0689113  0  0  0  0  0.675615  0.251195  0.0265761  -0.00608346  -0.014453  -0.0219999  -0.00045625  -0.0125879  0.00798772  0.0298977  -0.0376968  -0.274435  -0.0484236  -0.0183755 
1704198489.532854000  0  0  12.0683  0.103943  -0.142086  0.0324791  nan  nan  nan  nan  nan  nan  -2.49753  -0.287366  1.00461  -0.0743437  -0.0290958  -0.00372923  0.0093088  0.114096  0.0701572  0  0  0  0  0.68262  0.247123  0.0265155  -0.00613551  -0.0145604  -0.0203737  0.00038328  -0.0163985  0.0066298  0.0310921  -0.0378434  -0.268881  -0.00187536  -0.0275546 
1704198489.537853000  0  0  12.1067  0.142028  -0.171277  0.028293  nan  nan  nan  nan  nan  nan  -2.49749  -0.286787  1.00496  -0.0744083  -0.0282932  -0.00391214  0.0093088  0.117526  0.0713821  0  0  0  0  0.689374  0.242801  0.0264128  -0.00613068  -0.0146634  -0.0211187  0.00082279  -0.0197931  0.00460624  0.031079  -0.0372086  -0.326433  0.0566273  0.0184236 
1704198489.542854000  0  0  12.0712  0.0813212  -0.142188  0.0329929  nan  nan  nan  nan  nan  nan  -2.49744  -0.286191  1.00532  -0.0764255  -0.0281039  -0.00399434  0.0093088  0.120989  0.0725848  0  0  0  0  0.695879  0.238229  0.0263444  -0.0062213  -0.0147493  -0.021355  -0.000557508  -0.0169413  0.00632035  0.0305223  -0.0376738  -0.22079  0.00357152  -0.0356737 
1704198489.548315000  0  0  12.0757  0.109258  -0.169539  0.032414  nan  nan  nan  nan  nan  nan  -2.49739  -0.285577  1.00569  -0.0761337  -0.0283054  -0.00411223  0.0093088  0.124484  0.073764  0  0  0  0  0.702134  0.233408  0.0262716  -0.00624585  -0.0148503  -0.0209192  0.000635596  -0.0175924  0.00441281  0.0313123  -0.0376778  -0.259114  0.0510039  -0.0283973 
1704198489.552854000  0  0  12.0925  0.110201  -0.173909  0.0307752  nan  nan  nan  nan  nan  nan  -2.49735  -0.284946  1.00606  -0.0773648  -0.02845  -0.00419097  0.0093088  0.12801  0.0749184  0  0  0  0  0.708139  0.228336  0.0261828  -0.00630789  -0.0149737  -0.0204938  -0.00026351  -0.0191348  0.00438408  0.0318253  -0.0374119  -0.260735  0.0550249  -0.0105716 
1704198489.558368000  0  0  12.11  0.0829205  -0.181244  0.0331775  nan  nan  nan  nan  nan  nan  -2.4973  -0.284297  1.00644  -0.0779334  -0.0281245  -0.00432511  0.0093088  0.131565  0.0760469  0  0  0  0  0.713894  0.223014  0.0261162  -0.00634708  -0.0150927  -0.0207468  -0.000363777  -0.0208122  0.00429728  0.0319536  -0.0377129  -0.205376  0.0685148  -0.03759 
1704198489.562855000  0  0  12.0414  0.108238  -0.188752  0.03097  nan  nan  nan  nan  nan  nan  -2.49725  -0.28363  1.00682  -0.0783534  -0.0275722  -0.00448167  0.0093088  0.135148  0.0771481  0  0  0  0  0.719398  0.217442  0.0260085  -0.0064059  -0.0151678  -0.0214756  0.000496446  -0.0154682  0.00329231  0.0319205  -0.0374303  -0.246765  0.083836  -0.0128218 
1704198489.567847000  0  0  12.0813  0.0912269  -0.187556  0.0316853  nan  nan  nan  nan  nan  nan  -2.49721  -0.282945  1.00721  -0.0799237  -0.0288985  -0.00445692  0.0093088  0.138759  0.0782209  0  0  0  0  0.724653  0.211621  0.0259838  -0.00652973  -0.015301  -0.0195351  -0.00102426  -0.0189433  0.00396128  0.0334789  -0.0374655  -0.218898  0.0671057  -0.0214111 
1704198489.572855000  0  0  12.1375  0.0931619  -0.210505  0.0314337  nan  nan  nan  nan  nan  nan  -2.49716  -0.282242  1.0076  -0.0802567  -0.0283171  -0.00461898  0.0093088  0.142395  0.0792639  0  0  0  0  0.729658  0.205549  0.0259256  -0.00665675  -0.01548  -0.0200297  -0.00105894  -0.0238194  0.0033081  0.0337747  -0.0374118  -0.216758  0.110282  -0.0188031 
1704198489.577852000  0  0  12.0245  0.0963102  -0.187611  0.0310119  nan  nan  nan  nan  nan  nan  -2.49711  -0.281521  1.008  -0.0808088  -0.027441  -0.00479917  0.0093088  0.146055  0.080276  0  0  0  0  0.734413  0.199227  0.0258084  -0.00665358  -0.0155071  -0.0213117  -0.000188057  -0.0149267  0.00275678  0.0329966  -0.0372994  -0.217983  0.0716536  -0.0146548 
1704198489.582856000  0  0  12.0986  0.0768427  -0.189669  0.0322793  nan  nan  nan  nan  nan  nan  -2.49707  -0.280782  1.0084  -0.0827351  -0.0290743  -0.00473567  0.0093088  0.149738  0.0812558  0  0  0  0  0.738918  0.192655  0.0258802  -0.00694729  -0.0156529  -0.0190695  -0.00222756  -0.0212626  0.00405549  0.0347914  -0.0374591  -0.190996  0.0592563  -0.0289006 
1704198489.587846000  0  0  12.1323  0.0967179  -0.202627  0.0296934  nan  nan  nan  nan  nan  nan  -2.49702  -0.280024  1.00881  -0.0826374  -0.0284141  -0.0049182  0.0093088  0.153444  0.0822021  0  0  0  0  0.743172  0.185833  0.0257739  -0.00695608  -0.0157868  -0.0196328  -0.00184965  -0.0244542  0.0026987  0.0347554  -0.0371002  -0.218264  0.085505  -0.000165473 
1704198489.592853000  0  0  12.0149  0.0766937  -0.17192  0.0297933  nan  nan  nan  nan  nan  nan  -2.49697  -0.279247  1.00923  -0.0847259  -0.0280428  -0.00501497  0.0093088  0.15717  0.0831137  0  0  0  0  0.747177  0.178762  0.0258099  -0.0072551  -0.0158154  -0.0206029  -0.00237762  -0.0151354  0.00419795  0.0341277  -0.0370004  -0.192008  0.0298659  -0.00241247 
1704198489.598324000  0  0  12.0842  0.0737481  -0.163968  0.0309013  nan  nan  nan  nan  nan  nan  -2.49693  -0.278452  1.00964  -0.0851233  -0.0285357  -0.0050868  0.0093088  0.160915  0.0839893  0  0  0  0  0.750932  0.17144  0.0257848  -0.00732722  -0.0159211  -0.0196876  -0.00293323  -0.0213266  0.00376355  0.03449  -0.0370598  -0.182121  0.0106272  -0.0156686 
1704198489.602850000  0  0  12.0962  0.0837289  -0.167625  0.0305466  nan  nan  nan  nan  nan  nan  -2.49688  -0.277638  1.01006  -0.0854047  -0.0287023  -0.00518945  0.0093088  0.164679  0.0848277  0  0  0  0  0.754437  0.163868  0.0256935  -0.00741489  -0.0160649  -0.0192384  -0.00279043  -0.0227208  0.00303056  0.0347678  -0.0369555  -0.195339  0.0153869  -0.0122768 
1704198489.607847000  0  0  12.0244  0.0812169  -0.145956  0.0301042  nan  nan  nan  nan  nan  nan  -2.49683  -0.276805  1.01049  -0.0862446  -0.0271836  -0.00542143  0.0093088  0.168459  0.0856276  0  0  0  0  0.757692  0.156046  0.0256391  -0.00756853  -0.0161303  -0.0214015  -0.00246436  -0.0172811  0.00309056  0.0329996  -0.0368257  -0.190867  -0.0116836  -0.00804527 
1704198489.612854000  0  0  12.0234  0.0779205  -0.117047  0.0311544  nan  nan  nan  nan  nan  nan  -2.49679  -0.275953  1.01092  -0.0864895  -0.0268527  -0.0055685  0.0093088  0.172255  0.0863877  0  0  0  0  0.760696  0.147975  0.0255412  -0.00758219  -0.0162294  -0.0216484  -0.0023683  -0.01771  0.00253465  0.0320018  -0.0368768  -0.17916  -0.060322  -0.0206628 
1704198489.617853000  0  0  12.0558  0.0817445  -0.133544  0.0316707  nan  nan  nan  nan  nan  nan  -2.49674  -0.275083  1.01135  -0.088097  -0.0286079  -0.00549504  0.0093088  0.176065  0.0871069  0  0  0  0  0.763451  0.139661  0.025602  -0.00798439  -0.016363  -0.0193527  -0.00359968  -0.0207775  0.00323716  0.0335967  -0.0369342  -0.193271  -0.0420027  -0.0265417 
1704198489.623319000  0  0  12.0088  0.10209  -0.121704  0.0292676  nan  nan  nan  nan  nan  nan  -2.4967  -0.274193  1.01179  -0.0883067  -0.0255984  -0.00588035  0.0093088  0.179889  0.0877845  0  0  0  0  0.765956  0.13143  0.0255189  -0.00807219  -0.0164482  -0.0233661  -0.00288436  -0.0174427  0.00215228  0.0304619  -0.0365694  -0.22398  -0.036841  -0.00015197 
1704198489.627849000  0  0  11.9442  0.0711927  -0.0712643  0.0318367  nan  nan  nan  nan  nan  nan  -2.49665  -0.273284  1.01223  -0.0891539  -0.0253327  -0.00600733  0.0093088  0.183725  0.0884216  0  0  0  0  0.768211  0.123448  0.0254058  -0.00817021  -0.016528  -0.0236712  -0.00286326  -0.0125575  0.00268573  0.0289338  -0.0368053  -0.167094  -0.123663  -0.0299051 
1704198489.632855000  0  0  12.0233  0.0929926  -0.11974  0.031568  nan  nan  nan  nan  nan  nan  -2.4966  -0.272356  1.01268  -0.0892832  -0.0271038  -0.00597054  0.0093088  0.187571  0.0890194  0  0  0  0  0.770215  0.115717  0.0253777  -0.00836716  -0.0166995  -0.0210298  -0.00314733  -0.0194998  0.00159909  0.0309538  -0.0368316  -0.200697  -0.0452936  -0.0262846 
1704198489.637861000  0  0  11.9772  0.111794  -0.107047  0.0284024  nan  nan  nan  nan  nan  nan  -2.49656  -0.271408  1.01312  -0.0890774  -0.0239046  -0.0063868  0.0093088  0.191426  0.0895792  0  0  0  0  0.77197  0.108235  0.0252363  -0.00837517  -0.0167577  -0.0251424  -0.00215312  -0.016272  0.000130608  0.0276452  -0.0363485  -0.22479  -0.0402428  0.00845478 
1704198489.642835000  0  0  11.8989  0.060136  -0.0709885  0.0332707  nan  nan  nan  nan  nan  nan  -2.49651  -0.270441  1.01357  -0.0918252  -0.0251246  -0.00633327  0.0093088  0.19529  0.0901022  0  0  0  0  0.773475  0.101004  0.0252973  -0.0088595  -0.0167228  -0.0238982  -0.00373905  -0.0102625  0.00308131  0.027815  -0.0368556  -0.14862  -0.113921  -0.047327 
1704198489.648300000  0  0  11.9678  0.0978732  -0.138915  0.0313164  nan  nan  nan  nan  nan  nan  -2.49646  -0.269455  1.01402  -0.0914945  -0.0267293  -0.00631957  0.0093088  0.199161  0.0905897  0  0  0  0  0.77473  0.0940222  0.0252373  -0.00893399  -0.0168088  -0.0214451  -0.00370028  -0.0165158  0.00123335  0.0301509  -0.0367215  -0.207093  0.000440977  -0.0242394 
1704198489.652838000  0  0  11.9557  0.103586  -0.128565  0.0293927  nan  nan  nan  nan  nan  nan  -2.49642  -0.26845  1.01448  -0.0913552  -0.0241991  -0.00668003  0.0093088  0.203037  0.0910428  0  0  0  0  0.775735  0.0872908  0.0251084  -0.0090371  -0.0169242  -0.0245856  -0.00301788  -0.0159179  0.000152851  0.0276879  -0.0363884  -0.208579  0.00240252  -0.00352409 
1704198489.657837000  0  0  11.8898  0.0795033  -0.111133  0.032585  nan  nan  nan  nan  nan  nan  -2.49637  -0.267425  1.01493  -0.0919384  -0.0244976  -0.00676329  0.0093088  0.206918  0.091463  0  0  0  0  0.776489  0.0808093  0.0250599  -0.00921641  -0.016945  -0.0242742  -0.00262694  -0.0109601  0.000396927  0.0275554  -0.0367391  -0.162658  -0.0312435  -0.0399217 
1704198489.662996000  0  0  11.9436  0.106906  -0.161241  0.0305475  nan  nan  nan  nan  nan  nan  -2.49632  -0.26638  1.01539  -0.091835  -0.0259207  -0.00675993  0.0093088  0.210801  0.0918513  0  0  0  0  0.776994  0.0745778  0.0249548  -0.00920631  -0.017043  -0.0220139  -0.00301883  -0.0158486  -0.00111077  0.0297917  -0.0365352  -0.203593  0.048398  -0.0164913 
1704198489.667870000  0  0  11.9251  0.0891972  -0.157427  0.0306242  nan  nan  nan  nan  nan  nan  -2.49628  -0.265317  1.01585  -0.0930227  -0.0255257  -0.00689072  0.0093088  0.214687  0.0922092  0  0  0  0  0.777249  0.0685964  0.0250069  -0.00961951  -0.0169952  -0.0227335  -0.00344669  -0.0148739  -0.000272308  0.0295787  -0.0364963  -0.175889  0.04273  -0.0178395 
1704198489.673280000  0  0  11.8457  0.0896114  -0.156369  0.0303075  nan  nan  nan  nan  nan  nan  -2.49623  -0.264234  1.01631  -0.0951746  -0.0251834  -0.00699297  0.0093088  0.218574  0.0925377  0  0  0  0  0.777254  0.0628649  0.0250488  -0.0100462  -0.0169161  -0.0235329  -0.00449724  -0.00880115  0.00120795  0.0295241  -0.0363955  -0.190336  0.0411152  -0.0148895 
1704198489.677854000  0  0  11.8609  0.0709006  -0.171286  0.032248  nan  nan  nan  nan  nan  nan  -2.49618  -0.263131  1.01678  -0.0961367  -0.0272419  -0.00689509  0.0093088  0.222459  0.0928382  0  0  0  0  0.777009  0.0573834  0.0249608  -0.010174  -0.0170243  -0.0205923  -0.00569345  -0.0102929  0.00160814  0.0318955  -0.0366101  -0.156596  0.0491333  -0.0369995 
1704198489.682854000  0  0  11.9135  0.078483  -0.198947  0.0315605  nan  nan  nan  nan  nan  nan  -2.49614  -0.262009  1.01724  -0.0955247  -0.0267853  -0.00708074  0.0093088  0.226343  0.093112  0  0  0  0  0.776513  0.052152  0.0250027  -0.0105611  -0.0170419  -0.021148  -0.00465507  -0.0151974  0.000519864  0.0322537  -0.0365934  -0.161749  0.101159  -0.0285722 
1704198489.687848000  0  0  11.8067  0.092343  -0.186953  0.0296132  nan  nan  nan  nan  nan  nan  -2.49609  -0.260868  1.01771  -0.0960343  -0.0247324  -0.00738965  0.0093088  0.230224  0.0933602  0  0  0  0  0.775768  0.0471705  0.0248651  -0.0105857  -0.0170385  -0.023879  -0.0042097  -0.00676635  -4.83559e-05  0.0306329  -0.0363084  -0.184241  0.0920835  -0.0070801 
1704198489.692854000  0  0  11.8143  0.0421562  -0.17362  0.0352705  nan  nan  nan  nan  nan  nan  -2.49604  -0.259707  1.01818  -0.0972428  -0.0276786  -0.00719719  0.0093088  0.2341  0.0935841  0  0  0  0  0.774773  0.0424391  0.0248435  -0.0107583  -0.0170728  -0.0199488  -0.00564637  -0.00767419  0.00129985  0.0333633  -0.0370387  -0.096271  0.0402967  -0.0704944 
1704198489.698367000  0  0  11.8769  0.0992223  -0.222575  0.0304794  nan  nan  nan  nan  nan  nan  -2.496  -0.258527  1.01864  -0.0945211  -0.0271412  -0.00744923  0.0093088  0.237971  0.093785  0  0  0  0  0.773528  0.0379576  0.0247664  -0.0107915  -0.0171569  -0.020292  -0.00283808  -0.0134207  -0.00275946  0.0341125  -0.0366134  -0.173058  0.131315  -0.0148579 
1704198489.702852000  0  0  11.7452  0.101979  -0.18099  0.0291147  nan  nan  nan  nan  nan  nan  -2.49595  -0.257327  1.01911  -0.0960807  -0.0249604  -0.00774163  0.0093088  0.241835  0.0939641  0  0  0  0  0.772033  0.0337261  0.024634  -0.0109324  -0.0171627  -0.0232761  -0.00333517  -0.00271724  -0.00213788  0.0318436  -0.036325  -0.184289  0.069019  -0.000683915 
1704198489.707847000  0  0  11.7839  0.035852  -0.172132  0.0361275  nan  nan  nan  nan  nan  nan  -2.4959  -0.256108  1.01958  -0.0980453  -0.0279638  -0.00752183  0.0093088  0.245691  0.0941227  0  0  0  0  0.770287  0.0297447  0.0246998  -0.0113455  -0.0171969  -0.0193991  -0.0056477  -0.00606041  0.00053189  0.0346725  -0.037214  -0.0765973  0.0252766  -0.0794537 
1704198489.712856000  0  0  11.8225  0.114357  -0.215991  0.0301323  nan  nan  nan  nan  nan  nan  -2.49586  -0.25487  1.02006  -0.0951273  -0.0270912  -0.0078124  0.0093088  0.249538  0.094262  0  0  0  0  0.768292  0.0260132  0.0245952  -0.0113416  -0.017276  -0.0201885  -0.00251539  -0.0097618  -0.00412739  0.0348574  -0.0366408  -0.190742  0.111295  -0.0102459 
1704198489.717852000  0  0  11.7246  0.0890208  -0.166131  0.0292025  nan  nan  nan  nan  nan  nan  -2.49581  -0.253613  1.02053  -0.0969852  -0.0261063  -0.0079825  0.0093088  0.253374  0.0943832  0  0  0  0  0.766047  0.0225317  0.0245088  -0.0116  -0.0173891  -0.0216075  -0.0035904  -0.00154236  -0.00261727  0.0336016  -0.0363611  -0.153963  0.0231271  -0.00142046 
1704198489.723274000  0  0  11.7974  0.0678286  -0.166094  0.0334563  nan  nan  nan  nan  nan  nan  -2.49576  -0.252336  1.021  -0.0964114  -0.026939  -0.00804211  0.0093088  0.257198  0.0944877  0  0  0  0  0.763552  0.0193003  0.0244326  -0.0117036  -0.0175561  -0.020146  -0.00372745  -0.00760526  -0.00317227  0.0345574  -0.0368372  -0.106472  0.0142602  -0.0498321 
1704198489.727846000  0  0  11.8032  0.128343  -0.177255  0.0281512  nan  nan  nan  nan  nan  nan  -2.49572  -0.251041  1.02147  -0.0941297  -0.0266537  -0.00825606  0.0093088  0.261009  0.0945766  0  0  0  0  0.760807  0.0163188  0.0243406  -0.0118075  -0.0176353  -0.0202915  -0.000933655  -0.0084488  -0.00700576  0.0345397  -0.0361645  -0.192232  0.0367448  0.00975537 
1704198489.732853000  0  0  11.7671  0.107698  -0.142418  0.0282163  nan  nan  nan  nan  nan  nan  -2.49567  -0.249726  1.02194  -0.0950361  -0.0257588  -0.00844206  0.0093088  0.264805  0.0946513  0  0  0  0  0.757811  0.0135873  0.024241  -0.0120193  -0.0177859  -0.021376  -0.00163508  -0.00528784  -0.00638067  0.0332919  -0.0359589  -0.156693  -0.021449  0.00688588 
1704198489.737854000  0  0  11.788  0.0956154  -0.125322  0.0310399  nan  nan  nan  nan  nan  nan  -2.49562  -0.248393  1.02242  -0.0940282  -0.0253528  -0.00863153  0.0093088  0.268587  0.0947129  0  0  0  0  0.754566  0.0111059  0.024131  -0.0120275  -0.0178432  -0.0216132  -0.000933533  -0.0072235  -0.00767339  0.0323906  -0.0362167  -0.120636  -0.0473505  -0.0258323 
1704198489.742853000  0  0  11.787  0.113387  -0.132526  0.0296339  nan  nan  nan  nan  nan  nan  -2.49558  -0.247041  1.02289  -0.0936855  -0.0263273  -0.00867376  0.0093088  0.272351  0.0947628  0  0  0  0  0.751071  0.0088744  0.0240924  -0.0123526  -0.0180715  -0.0202579  -0.000214307  -0.00692612  -0.0085359  0.033495  -0.0359341  -0.148244  -0.0431019  -0.0110828 
1704198489.748361000  0  0  11.819  0.118108  -0.12299  0.0287599  nan  nan  nan  nan  nan  nan  -2.49553  -0.245669  1.02337  -0.0932365  -0.0250621  -0.00892905  0.0093088  0.276097  0.0948021  0  0  0  0  0.747326  0.0068929  0.0239872  -0.0124035  -0.0182248  -0.0216143  -0.000311775  -0.00948981  -0.00947894  0.0321009  -0.0357192  -0.14901  -0.0493476  -0.00230656 
1704198489.752855000  0  0  11.7745  0.0909251  -0.0956187  0.0310565  nan  nan  nan  nan  nan  nan  -2.49549  -0.24428  1.02384  -0.092992  -0.0246784  -0.00909601  0.0093088  0.279824  0.0948321  0  0  0  0  0.74333  0.0051615  0.0238896  -0.0125447  -0.0182763  -0.0220347  0.000279407  -0.00585026  -0.00968148  0.0309297  -0.0359207  -0.0927806  -0.0933155  -0.0290002 
1704198489.757854000  0  0  11.814  0.108527  -0.110731  0.0305667  nan  nan  nan  nan  nan  nan  -2.49544  -0.242871  1.02431  -0.0916441  -0.0253221  -0.00919542  0.0093088  0.28353  0.0948541  0  0  0  0  0.739085  0.00368  0.0237943  -0.0126682  -0.0184451  -0.020868  0.00135441  -0.00905919  -0.0115255  0.0314699  -0.0358275  -0.111019  -0.068061  -0.0238093 
1704198489.762856000  0  0  11.8339  0.115933  -0.106041  0.0282361  nan  nan  nan  nan  nan  nan  -2.49539  -0.241444  1.02479  -0.0906431  -0.0235805  -0.00950422  0.0093088  0.287214  0.0948693  0  0  0  0  0.73459  0.0024485  0.0236684  -0.0126653  -0.0185097  -0.0228383  0.00190292  -0.0107881  -0.0130466  0.0294668  -0.0354915  -0.111838  -0.0590117  0.00196312 
1704198489.767847000  0  0  11.7326  0.0608049  -0.0902995  0.0312191  nan  nan  nan  nan  nan  nan  -2.49535  -0.239999  1.02526  -0.0941261  -0.0253105  -0.00938322  0.0093088  0.290875  0.094879  0  0  0  0  0.729845  0.0014671  0.0239201  -0.0133919  -0.0181603  -0.0214453  -0.000599613  -0.00281984  -0.00857467  0.0304601  -0.0357791  -0.042723  -0.0996338  -0.0324481 
1704198489.773371000  0  0  11.7882  0.0797568  -0.117921  0.0290402  nan  nan  nan  nan  nan  nan  -2.4953  -0.238536  1.02574  -0.0923879  -0.0252292  -0.00956012  0.0093088  0.294512  0.0948844  0  0  0  0  0.72485  0.0007356  0.0238187  -0.0133867  -0.0182765  -0.0211698  0.000432926  -0.00744866  -0.0105719  0.0305629  -0.0354888  -0.0622522  -0.0453355  -0.00811451 
1704198489.777853000  0  0  11.8243  0.0717476  -0.113985  0.0285868  nan  nan  nan  nan  nan  nan  -2.49525  -0.237054  1.02621  -0.0919767  -0.024835  -0.00973193  0.0093088  0.298123  0.0948868  0  0  0  0  0.719604  0.0002541  0.023715  -0.0135457  -0.0183798  -0.0213728  0.000290053  -0.0103038  -0.0110355  0.0299427  -0.0353136  -0.0419682  -0.0475032  -0.00419906 
1704198489.782853000  0  0  11.7794  0.0554674  -0.129364  0.0302838  nan  nan  nan  nan  nan  nan  -2.49521  -0.235554  1.02669  -0.0915174  -0.0252927  -0.00982654  0.0093088  0.301708  0.0948874  0  0  0  0  0.714109  2.27e-05  0.0236719  -0.013711  -0.018405  -0.0208027  0.00100778  -0.00659764  -0.0110273  0.030529  -0.0354687  -0.00948394  -0.0221398  -0.0238608 
1704198489.787846000  0  0  11.7795  0.07691  -0.138405  0.0287416  nan  nan  nan  nan  nan  nan  -2.49516  -0.234037  1.02716  -0.0900088  -0.0242069  -0.010088  0.0093088  0.305264  0.0948874  0  0  0  0  0.708364  0  0.0235548  -0.0137042  -0.0184374  -0.0219651  0.00223746  -0.0066938  -0.0128723  0.0296276  -0.035238  -0.0353948  0.00423704  -0.00688937 
1704198489.792854000  0  0  11.8443  0.055426  -0.132649  0.031228  nan  nan  nan  nan  nan  nan  -2.49511  -0.232502  1.02764  -0.0896314  -0.0252543  -0.0101281  0.0093088  0.308791  0.0948874  0  0  0  0  0.702369  0  0.0234784  -0.0138541  -0.0186047  -0.0202529  0.00163757  -0.0117607  -0.0127412  0.0305676  -0.0354503  0.00636657  -0.0159232  -0.0358473 
1704198489.798320000  0  0  11.8213  0.0791411  -0.169218  0.0300024  nan  nan  nan  nan  nan  nan  -2.49507  -0.230949  1.02811  -0.0880174  -0.0251161  -0.0103064  0.0093088  0.312287  0.0948874  0  0  0  0  0.696124  0  0.023433  -0.0138945  -0.0186005  -0.020388  0.00326863  -0.0100496  -0.014412  0.0312155  -0.0353742  -0.0256919  0.0512535  -0.0212874 
1704198489.802853000  0  0  11.7642  0.0806665  -0.137136  0.0295727  nan  nan  nan  nan  nan  nan  -2.49502  -0.229379  1.02858  -0.0876677  -0.024058  -0.0105333  0.0093088  0.315752  0.0948874  0  0  0  0  0.689628  0  0.0233209  -0.0140272  -0.018642  -0.0216915  0.00376705  -0.00523952  -0.0148684  0.0298007  -0.0352706  -0.0245438  0.00010505  -0.0169526 
1704198489.807850000  0  0  11.8693  0.0673374  -0.143123  0.0337827  nan  nan  nan  nan  nan  nan  -2.49497  -0.227792  1.02906  -0.0866212  -0.0266051  -0.0104625  0.0093089  0.319183  0.0948874  0  0  0  0.0001052  0.682883  0  0.0232737  -0.0141729  -0.0188381  -0.0179286  0.00354298  -0.0136665  -0.0154723  0.0322512  -0.0357864  0.00767066  -0.0104655  -0.0644199 
1704198489.812852000  0  0  11.8654  0.125455  -0.188042  0.0294101  nan  nan  nan  nan  nan  nan  -2.49493  -0.226187  1.02953  -0.0836681  -0.0255228  -0.0107574  0.0093103  0.32258  0.0948874  0  0  0  0.0004596  0.675888  0  0.023173  -0.0141327  -0.0188924  -0.0190744  0.00648379  -0.013571  -0.0193566  0.0321538  -0.0353655  -0.0728284  0.0802681  -0.0139715 
1704198489.817854000  0  0  11.7712  0.092519  -0.138127  0.0306142  nan  nan  nan  nan  nan  nan  -2.49488  -0.224566  1.03001  -0.084935  -0.024533  -0.0109342  0.0093139  0.325942  0.0948874  0  0  0  0.001064  0.668643  0  0.0231245  -0.0145002  -0.0190272  -0.0204804  0.00562434  -0.00531479  -0.0174266  0.0309211  -0.0354045  -0.0247137  -0.00822012  -0.0286324 
1704198489.823364000  0  0  11.8856  0.101408  -0.157119  0.0330854  nan  nan  nan  nan  nan  nan  -2.49483  -0.222928  1.03048  -0.083153  -0.0272379  -0.0108778  0.0093213  0.329266  0.0948874  0  0  0  0.0019184  0.661148  0  0.0231208  -0.0145343  -0.0190776  -0.0164636  0.00596458  -0.0149027  -0.0190746  0.0336994  -0.0358193  -0.0273295  0.00420316  -0.0553741 
1704198489.827829000  0  0  11.897  0.147016  -0.194035  0.0273133  nan  nan  nan  nan  nan  nan  -2.49479  -0.221273  1.03096  -0.0814479  -0.0261772  -0.0111361  0.0093335  0.332553  0.0948874  0  0  0  0.0030228  0.653402  0  0.0230332  -0.0146772  -0.0192002  -0.0174901  0.00744317  -0.0158132  -0.0217109  0.0335716  -0.0351295  -0.0942911  0.0792107  0.00987786 
1704198489.832854000  0  0  11.8189  0.108867  -0.134455  0.0294284  nan  nan  nan  nan  nan  nan  -2.49474  -0.219602  1.03143  -0.0805531  -0.0248671  -0.0113905  0.0093519  0.3358  0.0948874  0  0  0  0.0043771  0.645407  0  0.0229591  -0.0147672  -0.019273  -0.0191014  0.0085284  -0.00921511  -0.0219278  0.0315622  -0.0351996  -0.015998  -0.021463  -0.0158594 
1704198489.837854000  0  0  11.8903  0.131105  -0.154109  0.0296596  nan  nan  nan  nan  nan  nan  -2.49469  -0.217915  1.03191  -0.0779677  -0.026031  -0.0114893  0.0093777  0.339006  0.0948874  0  0  0  0.0059815  0.637162  0  0.0228823  -0.0147217  -0.0193868  -0.0169654  0.0101165  -0.0151885  -0.0247623  0.032768  -0.0352096  -0.0343969  0.00675315  -0.0186488 
1704198489.842853000  0  0  11.9112  0.152834  -0.171621  0.0258079  nan  nan  nan  nan  nan  nan  -2.49465  -0.216212  1.03238  -0.077501  -0.0260961  -0.0116215  0.0094122  0.342171  0.0948874  0  0  0  0.0078359  0.628667  0  0.022851  -0.014919  -0.0194889  -0.0165206  0.00990231  -0.016793  -0.0255119  0.0334103  -0.0346786  -0.070959  0.0358666  0.0241874 
1704198489.848342000  0  0  11.8695  0.126922  -0.133005  0.028896  nan  nan  nan  nan  nan  nan  -2.4946  -0.214494  1.03285  -0.0755238  -0.0244124  -0.0119258  0.0094565  0.345292  0.0948874  0  0  0  0.0099403  0.619921  0  0.0228251  -0.0149093  -0.0194942  -0.0185239  0.0117549  -0.0134688  -0.0267326  0.0312412  -0.034897  -0.00790387  -0.0214096  -0.0122297 
1704198489.852807000  0  0  11.8654  0.139214  -0.137575  0.0293962  nan  nan  nan  nan  nan  nan  -2.49455  -0.21276  1.03333  -0.0744345  -0.0247216  -0.0120545  0.009512  0.34837  0.0948874  0  0  0  0.0122947  0.610926  0  0.022746  -0.0150463  -0.0196081  -0.0176454  0.0123735  -0.0130061  -0.0280139  0.0314654  -0.0349008  -0.0207009  -0.0143325  -0.0184437 
