ts fx fy fz tx ty tz exfx exfy exfz extx exty extz xd yd zd rolld pitchd yawd vxd vyd vzd wxd wyd wzd axd ayd azd e_x e_y e_z e_vx e_vy e_vz e_rx e_ry e_rz e_wx e_wy e_wz
1701450603.707401000  0  0  12.1027  -0.109278  -0.0147391  0.00280067  nan  nan  nan  nan  nan  nan  -2  -1  1.5  0.017267  -0.0143967  -0.000248604  0  0  0  0  0  0  0  0  0  0.00511044  -0.00461639  -0.0293857  0.00801011  0.0334778  0.00343306  0.0201778  0.00754141  -0.00854622  0.0329191  -0.0399026  0.0504538 
1701450603.710812000  0  0  12.0979  -0.105951  -0.0288744  0.00238927  nan  nan  nan  nan  nan  nan  -2  -1  1.5  0.0169732  -0.0147967  -0.000251163  0  0  0  0  0  0  0  0  0  0.00514058  -0.00450464  -0.0293681  0.00847331  0.0328253  0.00379063  0.0204808  0.0080659  -0.00834689  0.0234777  -0.0164574  0.053603 
1701450603.716384000  0  0  12.1162  -0.110821  -0.0334316  0.0021184  nan  nan  nan  nan  nan  nan  -2  -1  1.5  0.01642  -0.015266  -0.00025068  0  0  0  0  0  0  0  0  0  0.00521252  -0.00437009  -0.0293944  0.00897563  0.0318163  0.00230014  0.021162  0.00853414  -0.00807914  0.0269527  -0.0116508  0.0543114 
1701450603.720780000  0  0  12.1102  -0.116014  -0.0421208  0.00156631  nan  nan  nan  nan  nan  nan  -2  -1  1.5  0.0161848  -0.0155602  -0.00025185  0  0  0  0  0  0  0  0  0  0.00525254  -0.0042314  -0.0293766  0.00927282  0.0311808  0.00274526  0.0216061  0.0089395  -0.00780341  0.0332527  0.00199828  0.0584553 
1701450603.725822000  0  0  12.1077  -0.115691  -0.0494412  0.000939325  nan  nan  nan  nan  nan  nan  -2  -1  1.5  0.0153682  -0.0161855  -0.000248749  0  0  0  0  0  0  0  0  0  0.00533127  -0.0041328  -0.0293976  0.00993517  0.0298587  0.00297222  0.0224624  0.00968779  -0.00749695  0.0247278  0.00975471  0.0632279 
1701450603.731243000  0  0  12.1325  -0.125133  -0.0516741  0.000947016  nan  nan  nan  nan  nan  nan  -2  -1  1.5  0.0147428  -0.0167421  -0.000246832  0  0  0  0  0  0  0  0  0  0.00542158  -0.00403275  -0.0294262  0.01053  0.028836  0.00093799  0.0233135  0.0103199  -0.00722225  0.0357807  0.00840522  0.0603848 
1701450603.734812000  0  0  12.11  -0.126301  -0.0490736  0.00103347  nan  nan  nan  nan  nan  nan  -2  -1  1.5  0.0144898  -0.0169078  -0.000244996  0  0  0  0  0  0  0  0  0  0.0054582  -0.00393103  -0.0294052  0.01063  0.0282328  0.00275508  0.0236946  0.0104476  -0.00704321  0.0346123  0.00202933  0.0575137 
1701450603.742779000  0  0  12.1086  -0.126688  -0.049322  0.000970386  nan  nan  nan  nan  nan  nan  -2  -1  1.5  0.0132079  -0.0177666  -0.00023466  0  0  0  0  0  0  0  0  0  0.00557946  -0.00377279  -0.0294073  0.0115142  0.0261544  0.00283393  0.0250222  0.0112657  -0.00665387  0.0231716  -0.00500035  0.0544089 
1701450603.743821000  0  0  12.1136  -0.129237  -0.0476737  0.000889993  nan  nan  nan  nan  nan  nan  -2  -1  1.5  0.0131884  -0.0178112  -0.000234902  0  0  0  0  0  0  0  0  0  0.00559126  -0.0037447  -0.0294077  0.0115581  0.0260731  0.00241341  0.0251062  0.0112728  -0.00659502  0.0274965  -0.00836227  0.0548253 
1701450603.752857000  0  0  12.0845  -0.125265  -0.0436274  0.000602978  nan  nan  nan  nan  nan  nan  -2  -1  1.5  0.0120291  -0.0187219  -0.000225206  0  0  0  0  0  0  0  0  0  0.00574145  -0.00358371  -0.029393  0.0123905  0.0241163  0.00477514  0.0263201  0.0119508  -0.00615766  0.00838556  -0.0226923  0.0540394 
1701450603.757819000  0  0  12.0817  -0.131838  -0.0374349  0.000945125  nan  nan  nan  nan  nan  nan  -2  -1  1.5  0.0112458  -0.0191857  -0.000215753  0  0  0  0  0  0  0  0  0  0.00584418  -0.00353017  -0.0294021  0.0127794  0.0229421  0.00500247  0.0271788  0.012172  -0.00600543  0.0136311  -0.0371124  0.0482403 
1701450603.762812000  0  0  12.0778  -0.136334  -0.0318985  0.00087012  nan  nan  nan  nan  nan  nan  -2  -1  1.5  0.0108636  -0.0195363  -0.00021223  6e-07  6e-07  -6e-07  0  0  0  0.000375  0.000375  -0.000375  0.00590943  -0.00341601  -0.0293797  0.0131457  0.0222192  0.00522771  0.0276931  0.0121927  -0.00579733  0.0178908  -0.0483762  0.0470968 
1701450603.767814000  0  0  12.0825  -0.127809  -0.0363677  0.000111223  nan  nan  nan  nan  nan  nan  -2  -1  1.5  0.00974635  -0.0199447  -0.000194382  5e-06  5e-06  -5e-06  0  0  0  0.0015  0.0015  -0.0015  0.00602048  -0.00338612  -0.0293845  0.0136034  0.020804  0.00470519  0.0286036  0.0124701  -0.00551808  -0.00753555  -0.0419896  0.0537906 
1701450603.773378000  0  0  12.061  -0.137649  -0.0260907  -0.000187405  nan  nan  nan  nan  nan  nan  -2  -1  1.5  0.00864058  -0.0201178  -0.000173822  1.69e-05  1.69e-05  -1.69e-05  0  0  0  0.003375  0.003375  -0.003375  0.00614089  -0.00334867  -0.0293709  0.0137629  0.0194581  0.00625267  0.0297623  0.0122438  -0.00525605  0.00148438  -0.0604616  0.0549031 
1701450603.777812000  0  0  12.0405  -0.138506  -0.0140153  -0.000738817  nan  nan  nan  nan  nan  nan  -2  -1  1.5  0.00786797  -0.0201669  -0.000158565  4e-05  4e-05  -4e-05  0  0  0  0.006  0.006  -0.006  0.00620318  -0.00326452  -0.0293358  0.0139838  0.0185571  0.00761422  0.0305063  0.0117758  -0.00498707  -0.00364675  -0.080307  0.0591059 
1701450603.782819000  0  0  12.0606  -0.130665  -0.019687  -0.00138702  nan  nan  nan  nan  nan  nan  -2  -1  1.5  0.00676627  -0.0202429  -0.000136662  7.81e-05  7.81e-05  -7.81e-05  0  0  0  0.009375  0.009375  -0.009375  0.00631506  -0.00324463  -0.0293443  0.0143186  0.0174902  0.00559983  0.0313117  0.0116136  -0.00467267  -0.0267366  -0.0674712  0.0640645 
1701450603.787809000  0  0  12.0411  -0.138485  -0.00555192  -0.00172513  nan  nan  nan  nan  nan  nan  -2  -0.999999  1.5  0.00591991  -0.0198959  -0.000117275  0.000135  0.000135  -0.000135  0  0  0  0.0135  0.0135  -0.0135  0.00638498  -0.00315919  -0.0293065  0.0141884  0.0166866  0.00671264  0.0321244  0.0107147  -0.0043556  -0.0185736  -0.0874713  0.0651201 
1701450603.792856000  0  0  12.0115  -0.133655  0.00316522  -0.00221953  nan  nan  nan  nan  nan  nan  -2  -0.999998  1.5  0.00425449  -0.0199312  -8.37921e-05  0.0002144  0.0002144  -0.0002144  0  0  0  0.018375  0.018375  -0.018375  0.00650124  -0.00315728  -0.0292857  0.0145424  0.0150699  0.00862402  0.0334749  0.0101936  -0.00404826  -0.0406596  -0.100112  0.0682266 
1701450603.798297000  0  0  12.05  -0.133743  -0.00197428  -0.00214811  nan  nan  nan  nan  nan  nan  -2  -0.999997  1.5  0.00293067  -0.0195971  -5.5729e-05  0.00032  0.00032  -0.00032  0  0  0  0.024  0.024  -0.024  0.00662067  -0.00315374  -0.0293032  0.0146423  0.0140345  0.00486337  0.0344416  0.00953499  -0.00376017  -0.0493769  -0.0837733  0.0644531 
1701450603.802822000  0  0  12.0378  -0.144533  0.00443982  -0.00154573  nan  nan  nan  nan  nan  nan  -1.99999  -0.999995  1.49999  0.00192244  -0.0190905  -3.39981e-05  0.0004556  0.0004556  -0.0004556  0  0  0  0.030375  0.030375  -0.030375  0.00667897  -0.00309072  -0.0292669  0.0146325  0.0133656  0.00515266  0.0353982  0.00860305  -0.00358904  -0.0365984  -0.0880277  0.055212 
1701450603.807824000  0  0  12.0056  -0.134479  0.00481893  -0.00141805  nan  nan  nan  nan  nan  nan  -1.99999  -0.999992  1.49999  -1.54883e-05  -0.0187505  4.4904e-06  0.000625  0.000625  -0.000625  0  0  0  0.0375  0.0375  -0.0375  0.00679194  -0.00310757  -0.0292497  0.0147813  0.011731  0.00705496  0.0367897  0.00790802  -0.00340043  -0.0695069  -0.0823916  0.0517299 
1701450603.812856000  0  0  12.0353  -0.144074  0.00562432  -0.00139644  nan  nan  nan  nan  nan  nan  -1.99999  -0.999989  1.49999  -0.00120139  -0.0179704  2.76884e-05  0.0008319  0.0008319  -0.0008319  0  0  0  0.045375  0.045375  -0.045375  0.00686939  -0.00304747  -0.0292489  0.0146457  0.0110285  0.00377105  0.0377268  0.00680311  -0.00317404  -0.0589376  -0.0738373  0.0491958 
1701450603.817826000  0  0  12.0023  -0.150346  0.00838543  -0.00112502  nan  nan  nan  nan  nan  nan  -1.99998  -0.999984  1.49998  -0.00302012  -0.0174458  6.12859e-05  0.00108  0.00108  -0.00108  0  0  0  0.054  0.054  -0.054  0.00697822  -0.00306977  -0.0292177  0.0147537  0.00977035  0.00556467  0.0392494  0.00596201  -0.00302894  -0.060403  -0.0716214  0.0443522 
1701450603.823292000  0  0  11.9844  -0.140671  0.00505887  -0.00134065  nan  nan  nan  nan  nan  nan  -1.99998  -0.999978  1.49998  -0.00519908  -0.016858  9.95427e-05  0.0013731  0.0013731  -0.0013731  0  0  0  0.063375  0.063375  -0.063375  0.00710745  -0.0030963  -0.0292037  0.0148615  0.00814344  0.00606338  0.0406973  0.00517282  -0.00281864  -0.0930728  -0.0577077  0.0449445 
1701450603.827772000  0  0  11.997  -0.152926  0.0099157  -0.00176283  nan  nan  nan  nan  nan  nan  -1.99997  -0.99997  1.49997  -0.00667118  -0.0158687  0.00012186  0.001715  0.001715  -0.001715  0  0  0  0.0735  0.0735  -0.0735  0.0071712  -0.00306072  -0.0291938  0.0147332  0.00740151  0.00396164  0.0418942  0.00394093  -0.00259175  -0.0795746  -0.0560879  0.0479529 
1701450603.832857000  0  0  11.9613  -0.151047  0.00645648  -0.00206534  nan  nan  nan  nan  nan  nan  -1.99996  -0.99996  1.49996  -0.0090106  -0.0150919  0.000157086  0.0021094  0.0021094  -0.0021094  0  0  0  0.084375  0.084375  -0.084375  0.00729073  -0.00311797  -0.0291812  0.0147787  0.00584841  0.00579419  0.0436291  0.00307101  -0.00237871  -0.0992936  -0.0411663  0.0496038 
1701450603.837884000  0  0  11.9564  -0.142512  -0.000668621  -0.00225294  nan  nan  nan  nan  nan  nan  -1.99995  -0.999949  1.49995  -0.0109627  -0.0140369  0.000181183  0.00256  0.00256  -0.00256  0  0  0  0.096  0.096  -0.096  0.00736777  -0.00309073  -0.0291634  0.0146999  0.00469889  0.00499947  0.0447552  0.00208142  -0.00213017  -0.126723  -0.0178118  0.0494634 
1701450603.842807000  0  0  11.9497  -0.152352  0.00726362  -0.00220248  nan  nan  nan  nan  nan  nan  -1.99993  -0.999935  1.49993  -0.0133959  -0.0130562  0.000209705  0.0030706  0.0030706  -0.0030706  0  0  0  0.108375  0.108375  -0.108375  0.00747806  -0.00315792  -0.0291669  0.0147424  0.00322046  0.00429275  0.0466011  0.000973761  -0.0019523  -0.124026  -0.0234858  0.0470539 
1701450603.848342000  0  0  11.9309  -0.147431  -0.00272906  -0.00286471  nan  nan  nan  nan  nan  nan  -1.99992  -0.999918  1.49992  -0.0158906  -0.0118534  0.000232069  0.003645  0.003645  -0.003645  0  0  0  0.1215  0.1215  -0.1215  0.00761197  -0.00322719  -0.029173  0.0145193  0.00178656  0.00455237  0.048139  1.59757e-06  -0.00166052  -0.148016  0.00544342  0.0524141 
1701450603.852856000  0  0  11.9076  -0.145877  -0.00463269  -0.00317983  nan  nan  nan  nan  nan  nan  -1.9999  -0.999898  1.4999  -0.0182875  -0.010655  0.000249171  0.0042869  0.0042869  -0.0042869  0  0  0  0.135375  0.135375  -0.135375  0.00767868  -0.00322545  -0.0291473  0.0145477  0.000440548  0.00505445  0.0496607  -0.00100794  -0.00140894  -0.165125  0.0185384  0.0538373 
1701450603.857823000  0  0  11.8955  -0.157132  7.18614e-05  -0.00342232  nan  nan  nan  nan  nan  nan  -1.99988  -0.999875  1.49988  -0.0209699  -0.00937622  0.000263344  0.005  0.005  -0.005  0  0  0  0.15  0.15  -0.15  0.00780243  -0.00331475  -0.0291552  0.0144583  -0.000998645  0.00460289  0.0515805  -0.00216498  -0.00115799  -0.160277  0.0197741  0.054359 
1701450603.862832000  0  0  11.8695  -0.152858  -0.00409584  -0.00362236  nan  nan  nan  nan  nan  nan  -1.99985  -0.999848  1.49985  -0.0233881  -0.00761551  0.000259143  0.0057881  0.0057881  -0.0057881  0  0  0  0.165375  0.165375  -0.165375  0.00786993  -0.00332142  -0.029125  0.0139443  -0.0021319  0.00518393  0.0529643  -0.00359791  -0.000875312  -0.181556  0.0412925  0.0540326 
1701450603.867822000  0  0  11.8399  -0.159873  0.00153851  -0.00322505  nan  nan  nan  nan  nan  nan  -1.99982  -0.999817  1.49982  -0.0265966  -0.0064007  0.000267876  0.006655  0.006655  -0.006655  0  0  0  0.1815  0.1815  -0.1815  0.00800151  -0.00343581  -0.0291269  0.0141124  -0.00394745  0.00603685  0.0551848  -0.00458353  -0.000707626  -0.187955  0.0390914  0.0473894 
1701450603.872857000  0  0  11.8469  -0.163755  0.00434262  -0.0029082  nan  nan  nan  nan  nan  nan  -1.99978  -0.999781  1.49978  -0.0291777  -0.00445083  0.000246501  0.0076044  0.0076044  -0.0076044  0  0  0  0.198375  0.198375  -0.198375  0.00806665  -0.00345738  -0.0291164  0.0135838  -0.00514539  0.0037663  0.0567537  -0.00625257  -0.000516198  -0.194624  0.0488384  0.0415145 
1701450603.877823000  0  0  11.8135  -0.166627  -0.00290325  -0.00328172  nan  nan  nan  nan  nan  nan  -1.99974  -0.999741  1.49974  -0.0325006  -0.00260564  0.000222915  0.00864  0.00864  -0.00864  0  0  0  0.216  0.216  -0.216  0.00818935  -0.0035822  -0.0291178  0.0131474  -0.00685537  0.00480479  0.0589343  -0.00752157  -0.000282733  -0.208942  0.075005  0.0438488 
1701450603.882822000  0  0  11.7808  -0.175513  0.0099111  -0.00333737  nan  nan  nan  nan  nan  nan  -1.99969  -0.999695  1.49969  -0.0361459  -0.000986185  0.000198462  0.0097656  0.0097656  -0.0097656  0  0  0  0.234375  0.234375  -0.234375  0.0083124  -0.00371527  -0.0291113  0.0131164  -0.00885239  0.00569976  0.0614699  -0.00887301  -9.48098e-05  -0.214498  0.0618095  0.0426652 
1701450603.887822000  0  0  11.7873  -0.173743  0.0137563  -0.00373912  nan  nan  nan  nan  nan  nan  -1.99964  -0.999643  1.49964  -0.038944  0.00149969  0.000131967  0.010985  0.010985  -0.0109839  0  0  0  0.2535  0.2535  -0.252793  0.00837586  -0.00375959  -0.029109  0.0121849  -0.00998442  0.00335324  0.0629958  -0.0109661  0.000189588  -0.232075  0.0733753  0.0448432 
1701450603.892856000  0  0  11.7493  -0.181116  0.00773027  -0.00347976  nan  nan  nan  nan  nan  nan  -1.99958  -0.999585  1.49958  -0.0427875  0.00377412  5.98165e-05  0.0123019  0.0123019  -0.0122923  0  0  0  0.273375  0.273375  -0.270462  0.00849319  -0.0039105  -0.0291029  0.0115222  -0.01195  0.00478173  0.0655544  -0.0125186  0.000387556  -0.24087  0.0997103  0.0396215 
1701450603.898339000  0  0  11.7166  -0.19046  0.0258032  -0.00309248  nan  nan  nan  nan  nan  nan  -1.99952  -0.99952  1.49952  -0.0468313  0.00571969  -1.20548e-05  0.01372  0.01372  -0.0136872  0  0  0  0.294  0.294  -0.287381  0.00862507  -0.00406102  -0.0291023  0.0113677  -0.0140771  0.00586036  0.0682043  -0.0141384  0.000530693  -0.246559  0.0784667  0.0333491 
1701450603.902822000  0  0  11.7387  -0.182496  0.01805  -0.00389401  nan  nan  nan  nan  nan  nan  -1.99945  -0.999447  1.49945  -0.0496737  0.00887184  -0.000146555  0.0152431  0.0152431  -0.0151649  0  0  0  0.315375  0.315375  -0.30355  0.00866434  -0.00412898  -0.0291058  0.00990305  -0.0149985  0.00248128  0.069604  -0.0165537  0.000838841  -0.275365  0.116194  0.0402868 
1701450603.907822000  0  0  11.6948  -0.188693  0.0244833  -0.00381974  nan  nan  nan  nan  nan  nan  -1.99937  -0.999367  1.49937  -0.0539261  0.0113616  -0.000276268  0.016875  0.016875  -0.0167215  0  0  0  0.3375  0.3375  -0.318969  0.00877232  -0.00429166  -0.0290959  0.00931617  -0.0170806  0.00465366  0.0723011  -0.0183564  0.00105952  -0.287784  0.119912  0.0371516 
1701450603.912856000  0  0  11.6668  -0.194014  0.0428973  -0.00357956  nan  nan  nan  nan  nan  nan  -1.99928  -0.999278  1.49928  -0.0578334  0.0142851  -0.000443347  0.0186194  0.0186194  -0.0183533  0  0  0  0.360375  0.360375  -0.333638  0.00881803  -0.00438188  -0.0290655  0.00839748  -0.0188401  0.0055349  0.0746442  -0.0208731  0.00126235  -0.298699  0.106238  0.032121 
1701450603.917824000  0  0  11.7022  -0.183815  0.022786  -0.00371715  nan  nan  nan  nan  nan  nan  -1.99918  -0.999181  1.49918  -0.0612963  0.017316  -0.000627782  0.02048  0.02048  -0.0200566  0  0  0  0.384  0.384  -0.347557  0.00891135  -0.00455971  -0.0290958  0.0072253  -0.0201348  0.00139078  0.076191  -0.0226964  0.00151791  -0.333327  0.163235  0.0312852 
1701450603.922773000  0  0  11.6538  -0.189679  0.0375824  -0.00314229  nan  nan  nan  nan  nan  nan  -1.99907  -0.999073  1.49908  -0.0660529  0.0200013  -0.000832277  0.0224606  0.0224606  -0.0218276  0  0  0  0.408375  0.408375  -0.360726  0.00900887  -0.00475253  -0.0290885  0.00675028  -0.022408  0.00421843  0.0790889  -0.0246443  0.00165475  -0.348259  0.151563  0.0227311 
1701450603.927840000  0  0  11.6428  -0.181452  0.0451102  -0.00313854  nan  nan  nan  nan  nan  nan  -1.99896  -0.998956  1.49897  -0.0699494  0.0233709  -0.001086  0.024565  0.024565  -0.0236626  0  0  0  0.4335  0.4335  -0.373145  0.00904964  -0.00486557  -0.0290761  0.00554188  -0.023883  0.00403256  0.0808474  -0.0272112  0.00186344  -0.380892  0.160123  0.0205973 
1701450603.932859000  0  0  11.6773  -0.174328  0.0256203  -0.00299808  nan  nan  nan  nan  nan  nan  -1.99883  -0.998828  1.49884  -0.0737844  0.0266402  -0.00135207  0.0267969  0.0267969  -0.0255578  0  0  0  0.459375  0.459375  -0.384814  0.00913327  -0.00506979  -0.0291073  0.0043365  -0.0253386  0.000265938  0.0824247  -0.0290341  0.00206322  -0.409652  0.215873  0.0168437 
1701450603.937831000  0  0  11.622  -0.172888  0.0406573  -0.00291051  nan  nan  nan  nan  nan  nan  -1.99869  -0.998688  1.49871  -0.078625  0.0300779  -0.0016818  0.02916  0.02916  -0.0275095  0  0  0  0.486  0.486  -0.395732  0.00915582  -0.00520389  -0.0290693  0.00341034  -0.0274125  0.00391471  0.0848984  -0.0315076  0.00225155  -0.435289  0.208555  0.0138659 
1701450603.942830000  0  0  11.6477  -0.172291  0.0384145  -0.00298719  nan  nan  nan  nan  nan  nan  -1.99854  -0.998536  1.49857  -0.0828774  0.0336188  -0.0020285  0.0316581  0.0316581  -0.0295139  0  0  0  0.513375  0.513375  -0.405901  0.00923258  -0.00542962  -0.0290965  0.00206444  -0.029108  0.00106611  0.0867495  -0.0337252  0.00246764  -0.453514  0.233443  0.0126635 
1701450603.947789000  0  0  11.6607  -0.170705  0.0287784  -0.00355551  nan  nan  nan  nan  nan  nan  -1.99837  -0.998371  1.49842  -0.0872554  0.0370238  -0.002393  0.034295  0.034295  -0.0315673  0  0  0  0.5415  0.5415  -0.41532  0.00930372  -0.00566761  -0.029126  0.00103311  -0.0307405  -0.000610958  0.0886026  -0.0355368  0.00274874  -0.473734  0.269382  0.0169564 
1701450603.952866000  0  0  11.629  -0.164867  0.0367351  -0.00394628  nan  nan  nan  nan  nan  nan  -1.99819  -0.998193  1.49825  -0.0921916  0.0410877  -0.00286572  0.0370744  0.0370744  -0.0336659  0  0  0  0.570375  0.570375  -0.423989  0.00930816  -0.0058267  -0.0290999  -0.000428819  -0.0327262  0.00143761  0.0907251  -0.038189  0.00306664  -0.504937  0.277868  0.0186621 
1701450603.957963000  0  0  11.6703  -0.165991  0.0291146  -0.00378737  nan  nan  nan  nan  nan  nan  -1.998  -0.998  1.49808  -0.0964966  0.044577  -0.00328897  0.04  0.04  -0.0358059  0  0  0  0.6  0.6  -0.431908  0.00938078  -0.00607398  -0.0291504  -0.00153298  -0.0343465  -0.0023333  0.0923001  -0.0399028  0.00331311  -0.517178  0.308877  0.0142111 
1701450603.962831000  0  0  11.6536  -0.164266  0.0247667  -0.00422103  nan  nan  nan  nan  nan  nan  -1.99779  -0.997792  1.49789  -0.101306  0.048798  -0.00383572  0.0430756  0.0430756  -0.0379837  0  0  0  0.630375  0.630306  -0.439077  0.00936411  -0.0062498  -0.0291361  -0.00302957  -0.0360735  -0.00128726  0.0943069  -0.0423441  0.00366187  -0.539091  0.340033  0.0161443 
1701450603.967837000  0  0  11.66  -0.1653  0.0217543  -0.00437388  nan  nan  nan  nan  nan  nan  -1.99757  -0.997569  1.4977  -0.10649  0.0527128  -0.00440515  0.0463048  0.0463022  -0.0401954  0  0  0  0.661272  0.660227  -0.445496  0.00942066  -0.00651921  -0.0291673  -0.00435227  -0.0383795  -0.00195202  0.0964982  -0.04429  0.00399398  -0.557184  0.36396  0.0147337 
1701450603.973117000  0  0  11.6768  -0.167953  0.024512  -0.00324454  nan  nan  nan  nan  nan  nan  -1.99733  -0.997329  1.49749  -0.110751  0.0566599  -0.00496045  0.0496872  0.0496766  -0.0424374  0  0  0  0.691571  0.689397  -0.451165  0.00941047  -0.00670951  -0.0291954  -0.00571172  -0.0398777  -0.00337491  0.0977214  -0.0462077  0.00415465  -0.563131  0.376087  -0.000989812 
1701450603.977831000  0  0  11.6693  -0.1682  0.0169748  -0.00334394  nan  nan  nan  nan  nan  nan  -1.99707  -0.997072  1.49727  -0.115813  0.0606318  -0.005596  0.0532192  0.053195  -0.0447058  0  0  0  0.721119  0.717818  -0.456084  0.00944244  -0.00699485  -0.029208  -0.00716292  -0.042008  -0.00270503  0.0998435  -0.0480775  0.00443374  -0.582159  0.408364  -0.00253823 
1701450603.982832000  0  0  11.7003  -0.161723  0.00600309  -0.0033455  nan  nan  nan  nan  nan  nan  -1.9968  -0.996797  1.49704  -0.120685  0.0640953  -0.00619232  0.0568972  0.0568535  -0.046997  0  0  0  0.749918  0.745488  -0.460253  0.00949428  -0.00729657  -0.0292694  -0.00835737  -0.0444469  -0.00499075  0.101393  -0.0491334  0.00468042  -0.609374  0.440021  -0.0049855 
1701450603.987837000  0  0  11.6968  -0.166683  0.0119489  -0.00263536  nan  nan  nan  nan  nan  nan  -1.9965  -0.996503  1.4968  -0.125131  0.0682066  -0.00686921  0.0607172  0.0606486  -0.0493071  0  0  0  0.777966  0.772409  -0.463672  0.00944457  -0.00752029  -0.029285  -0.0100418  -0.0461395  -0.00442577  0.10272  -0.0510255  0.0048542  -0.611656  0.445536  -0.0155999 
1701450603.992858000  0  0  11.7022  -0.157783  0.000657226  -0.00287122  nan  nan  nan  nan  nan  nan  -1.99619  -0.99619  1.49655  -0.129705  0.071809  -0.00752026  0.0646756  0.0645764  -0.0516324  0  0  0  0.805265  0.79858  -0.466341  0.00948025  -0.00782993  -0.0293343  -0.0114134  -0.0480189  -0.00438091  0.103822  -0.0520537  0.00508652  -0.639601  0.477579  -0.0149749 
1701450603.997781000  0  0  11.7144  -0.154891  -0.00369169  -0.00358408  nan  nan  nan  nan  nan  nan  -1.99586  -0.995857  1.49629  -0.134588  0.0752301  -0.00819809  0.0687686  0.0686331  -0.0539693  0  0  0  0.831813  0.824  -0.46826  0.00950691  -0.00815163  -0.029376  -0.0126958  -0.0504712  -0.00480286  0.105201  -0.0529415  0.00539511  -0.658062  0.494445  -0.00915016 
1701450604.002816000  0  0  11.7118  -0.16327  0.00452377  -0.00382709  nan  nan  nan  nan  nan  nan  -1.9955  -0.995504  1.49601  -0.138731  0.0791195  -0.00890986  0.0729924  0.0728151  -0.0563138  0  0  0  0.857612  0.848671  -0.469428  0.00943802  -0.00840242  -0.0293894  -0.0143543  -0.0519819  -0.00399497  0.106073  -0.0544532  0.00567271  -0.649332  0.491922  -0.00888842 
1701450604.007840000  0  0  11.7291  -0.148239  -0.00867223  -0.00469235  nan  nan  nan  nan  nan  nan  -1.99513  -0.995129  1.49572  -0.14319  0.0826883  -0.0096289  0.0773434  0.0771186  -0.0586623  0  0  0  0.88266  0.872591  -0.469847  0.00945401  -0.00874633  -0.0294252  -0.0160612  -0.0540899  -0.00461174  0.106755  -0.0552287  0.00604954  -0.685664  0.525448  -0.00184101 
1701450604.012858000  0  0  11.7296  -0.15002  -0.00105657  -0.00489272  nan  nan  nan  nan  nan  nan  -1.99473  -0.994732  1.49543  -0.147533  0.0865294  -0.0104046  0.0818178  0.0815398  -0.061011  0  0  0  0.906958  0.895762  -0.469516  0.00937059  -0.00902075  -0.0294513  -0.0178632  -0.056029  -0.00378642  0.107496  -0.0565537  0.00637555  -0.68892  0.522407  -0.00259651 
1701450604.017823000  0  0  11.7448  -0.15191  0.00126937  -0.00459186  nan  nan  nan  nan  nan  nan  -1.99431  -0.994313  1.49511  -0.151769  0.0897587  -0.0111053  0.0864118  0.086075  -0.0633562  0  0  0  0.930507  0.918183  -0.468435  0.00935753  -0.00937781  -0.0294763  -0.0192562  -0.0579887  -0.00409532  0.108189  -0.0572152  0.00661249  -0.691515  0.523841  -0.00872661 
1701450604.022824000  0  0  11.7741  -0.133613  -0.014711  -0.00501386  nan  nan  nan  nan  nan  nan  -1.99386  -0.993871  1.49479  -0.155382  0.093647  -0.0118713  0.0911216  0.0907204  -0.0656941  0  0  0  0.953305  0.939853  -0.466604  0.00924835  -0.00966902  -0.0295112  -0.02155  -0.0595932  -0.0053934  0.10786  -0.0581271  0.00693155  -0.725083  0.564192  -0.00664221 
1701450604.027815000  0  0  11.7637  -0.141232  0.00270886  -0.00487852  nan  nan  nan  nan  nan  nan  -1.9934  -0.993406  1.49446  -0.160136  0.0968556  -0.0126647  0.0959436  0.0954722  -0.068021  0  0  0  0.975354  0.960774  -0.464023  0.00922552  -0.0100569  -0.0295207  -0.0228598  -0.0619145  -0.00338589  0.108929  -0.0588795  0.00720812  -0.719681  0.536274  -0.0110997 
1701450604.032852000  0  0  11.7764  -0.135489  0.00132766  -0.00426198  nan  nan  nan  nan  nan  nan  -1.9929  -0.992916  1.49411  -0.16415  0.100003  -0.0133974  0.100874  0.100327  -0.0703331  0  0  0  0.996652  0.980944  -0.460692  0.00918619  -0.0104501  -0.0295267  -0.024379  -0.0637452  -0.00320403  0.109074  -0.059329  0.00736204  -0.732506  0.543171  -0.0203456 
1701450604.037875000  0  0  11.8297  -0.119052  -0.0187236  -0.00418337  nan  nan  nan  nan  nan  nan  -1.99239  -0.992402  1.49375  -0.16716  0.103368  -0.0140804  0.105909  0.10528  -0.0726267  0  0  0  1.0172  1.00036  -0.456611  0.00906752  -0.0107691  -0.0295702  -0.0265566  -0.065253  -0.00618982  0.108034  -0.0595555  0.00751948  -0.755812  0.585358  -0.0229028 
1701450604.042812000  0  0  11.8084  -0.123976  0.0022021  -0.00364031  nan  nan  nan  nan  nan  nan  -1.99184  -0.991864  1.49339  -0.171814  0.106388  -0.0148986  0.111045  0.110329  -0.074898  0  0  0  1.037  1.01904  -0.45178  0.00900403  -0.0111862  -0.0295622  -0.0276995  -0.067443  -0.00302521  0.10886  -0.0601515  0.00767152  -0.753558  0.54899  -0.0312112 
1701450604.047815000  0  0  11.8421  -0.109478  0.000496773  -0.00319227  nan  nan  nan  nan  nan  nan  -1.99128  -0.991299  1.49301  -0.174708  0.109998  -0.0156452  0.116278  0.11547  -0.0771432  0  0  0  1.05605  1.03696  -0.446199  0.00886557  -0.0115221  -0.0295912  -0.0301654  -0.0686033  -0.00424497  0.107699  -0.0609931  0.00770207  -0.771874  0.560143  -0.0371173 
1701450604.052850000  0  0  11.8697  -0.102331  -0.0163925  -0.00330621  nan  nan  nan  nan  nan  nan  -1.99068  -0.990709  1.49261  -0.17833  0.112622  -0.0163158  0.121604  0.120698  -0.0793587  0  0  0  1.07435  1.05413  -0.439868  0.00879639  -0.0119452  -0.0296238  -0.031525  -0.070541  -0.00483421  0.107195  -0.0605016  0.00781377  -0.781532  0.589399  -0.0368101 
1701450604.057810000  0  0  11.8699  -0.110133  0.00655592  -0.00344267  nan  nan  nan  nan  nan  nan  -1.99006  -0.990092  1.49221  -0.182277  0.115293  -0.0170472  0.12702  0.12601  -0.0815406  0  0  0  1.09189  1.07055  -0.432787  0.00870712  -0.0123812  -0.0296334  -0.0326884  -0.0724552  -0.00317757  0.107317  -0.0608157  0.00793477  -0.767054  0.546393  -0.0363144 
1701450604.062808000  0  0  11.9196  -0.098505  -0.00821541  -0.00416907  nan  nan  nan  nan  nan  nan  -1.98941  -0.989448  1.4918  -0.18461  0.118571  -0.0177106  0.132522  0.131402  -0.0836853  0  0  0  1.10869  1.08622  -0.424955  0.00853321  -0.0127421  -0.0296739  -0.0351698  -0.0734686  -0.00545085  0.105639  -0.061091  0.00804228  -0.774869  0.578468  -0.0283094 
1701450604.067766000  0  0  11.9468  -0.0940073  -0.0141267  -0.00455235  nan  nan  nan  nan  nan  nan  -1.98873  -0.988778  1.49138  -0.188066  0.121041  -0.018372  0.138105  0.13687  -0.0857889  0  0  0  1.12474  1.10114  -0.416374  0.00842902  -0.0132105  -0.0296953  -0.036578  -0.0754103  -0.00579511  0.105092  -0.0606576  0.00821723  -0.778836  0.586304  -0.0252679 
1701450604.073325000  0  0  11.9618  -0.0964365  0.000440726  -0.00426213  nan  nan  nan  nan  nan  nan  -1.98803  -0.98808  1.49094  -0.190987  0.123071  -0.0188925  0.143768  0.142412  -0.0878478  0  0  0  1.14004  1.11531  -0.407043  0.00837867  -0.01365  -0.0297576  -0.0374243  -0.0765744  -0.00501836  0.1038  -0.0599321  0.00822347  -0.762089  0.550494  -0.0289581 
1701450604.077811000  0  0  11.9896  -0.0879933  -0.0140408  -0.00400321  nan  nan  nan  nan  nan  nan  -1.9873  -0.987354  1.4905  -0.193762  0.126495  -0.0196716  0.149505  0.148022  -0.0898581  0  0  0  1.15459  1.12873  -0.396962  0.00813126  -0.0140673  -0.029743  -0.0400253  -0.0779206  -0.00534366  0.102944  -0.0605769  0.00829737  -0.771099  0.585389  -0.0329336 
1701450604.082811000  0  0  12.0004  -0.0934233  -0.0119116  -0.00394377  nan  nan  nan  nan  nan  nan  -1.98653  -0.986599  1.49004  -0.196929  0.128687  -0.0202731  0.155312  0.153698  -0.0918162  0  0  0  1.16839  1.1414  -0.386131  0.00799024  -0.0145534  -0.029751  -0.0410619  -0.0794194  -0.00417259  0.102318  -0.0599969  0.00836943  -0.754483  0.575794  -0.0343972 
1701450604.087815000  0  0  12.0315  -0.0926555  -0.00791929  -0.00341056  nan  nan  nan  nan  nan  nan  -1.98574  -0.985816  1.48958  -0.199313  0.131279  -0.0208568  0.161187  0.159435  -0.0937182  0  0  0  1.18144  1.15332  -0.37455  0.00778282  -0.0149526  -0.0297797  -0.0428691  -0.0806023  -0.00458962  0.100975  -0.0598961  0.00828559  -0.74366  0.566882  -0.0402238 
1701450604.092849000  0  0  12.0517  -0.0889258  -0.0210357  -0.00364215  nan  nan  nan  nan  nan  nan  -1.98492  -0.985005  1.48911  -0.201786  0.13364  -0.0214126  0.167125  0.16523  -0.0955604  0  0  0  1.19373  1.16449  -0.362219  0.00762257  -0.0154437  -0.0298065  -0.0444114  -0.0815648  -0.00400988  0.0996627  -0.0592245  0.00831693  -0.739046  0.586937  -0.0376425 
1701450604.098333000  0  0  12.0598  -0.0920254  -0.018938  -0.00335651  nan  nan  nan  nan  nan  nan  -1.98407  -0.984164  1.48862  -0.20428  0.135243  -0.0218219  0.173123  0.171079  -0.0973391  0  0  0  1.20528  1.17491  -0.349138  0.00751439  -0.0158992  -0.0298506  -0.0449489  -0.0825022  -0.00237672  0.098257  -0.0578389  0.00823638  -0.719914  0.569994  -0.0404075 
1701450604.102834000  0  0  12.1115  -0.0930509  -0.0178203  -0.00320543  nan  nan  nan  nan  nan  nan  -1.98319  -0.983294  1.48813  -0.206381  0.137886  -0.0223933  0.179177  0.176978  -0.0990506  0  0  0  1.21608  1.18458  -0.335307  0.00721849  -0.0163599  -0.0298346  -0.0472755  -0.0839622  -0.00439049  0.0971671  -0.0580094  0.00816532  -0.707835  0.569327  -0.0415853 
1701450604.107838000  0  0  12.1191  -0.0907885  -0.0277736  -0.00345681  nan  nan  nan  nan  nan  nan  -1.98228  -0.982394  1.48763  -0.208906  0.139907  -0.0229012  0.185283  0.182923  -0.100691  0  0  0  1.22613  1.1935  -0.320726  0.00702511  -0.0168896  -0.0298333  -0.0484075  -0.084955  -0.00264651  0.0961221  -0.0570965  0.00819048  -0.702746  0.580835  -0.0386947 
1701450604.112858000  0  0  12.1318  -0.0917535  -0.0242803  -0.00327163  nan  nan  nan  nan  nan  nan  -1.98134  -0.981465  1.48713  -0.210857  0.141989  -0.0233419  0.191437  0.188912  -0.102257  0  0  0  1.23543  1.20167  -0.305395  0.00678686  -0.017312  -0.0298465  -0.0496806  -0.0856413  -0.00128503  0.0946415  -0.0564568  0.0080617  -0.687195  0.567963  -0.0397217 
1701450604.117832000  0  0  12.1918  -0.0924221  -0.0285264  -0.00317148  nan  nan  nan  nan  nan  nan  -1.98037  -0.980505  1.48661  -0.212439  0.143649  -0.0236393  0.197636  0.194939  -0.103744  0  0  0  1.24398  1.20909  -0.289314  0.00657243  -0.0178674  -0.029856  -0.0512733  -0.0867665  -0.0037838  0.0929352  -0.0553535  0.00792344  -0.67016  0.566305  -0.0395908 
1701450604.123351000  0  0  12.1944  -0.0808814  -0.0319362  -0.00299959  nan  nan  nan  nan  nan  nan  -1.97936  -0.979515  1.48609  -0.214212  0.144902  -0.0238775  0.203876  0.201001  -0.105148  0  0  0  1.25177  1.21576  -0.272482  0.00641917  -0.0183634  -0.0298782  -0.0516154  -0.0870598  -0.00148351  0.0909114  -0.0536144  0.00775311  -0.674622  0.557125  -0.0400362 
1701450604.127789000  0  0  12.2134  -0.0854525  -0.0294408  -0.00243536  nan  nan  nan  nan  nan  nan  -1.97833  -0.978495  1.48556  -0.216219  0.147224  -0.0243817  0.210152  0.207095  -0.106467  0  0  0  1.25882  1.22169  -0.254901  0.00607604  -0.0188651  -0.0298194  -0.0534191  -0.0880988  -0.00058321  0.0900389  -0.053581  0.00759119  -0.657453  0.551827  -0.0454699 
1701450604.132861000  0  0  12.2673  -0.0916625  -0.0318881  -0.00186019  nan  nan  nan  nan  nan  nan  -1.97726  -0.977444  1.48502  -0.217316  0.148639  -0.0245494  0.216463  0.213217  -0.107696  0  0  0  1.26512  1.22686  -0.23657  0.00583082  -0.0194281  -0.0298169  -0.0548154  -0.0887696  -0.00249192  0.0881135  -0.0522898  0.00729251  -0.627319  0.544842  -0.0496728 
1701450604.137831000  0  0  12.2576  -0.0794974  -0.0256523  -0.00162083  nan  nan  nan  nan  nan  nan  -1.97616  -0.976363  1.48448  -0.218855  0.150237  -0.0248238  0.222802  0.219362  -0.108833  0  0  0  1.27067  1.23128  -0.218113  0.00555368  -0.019873  -0.0297951  -0.0554528  -0.0888719  0.000811688  0.0863973  -0.0514236  0.00701973  -0.635861  0.524402  -0.049937 
1701450604.142832000  0  0  12.2904  -0.0820554  -0.0264202  -0.00120551  nan  nan  nan  nan  nan  nan  -1.97503  -0.975251  1.48394  -0.220197  0.151616  -0.0250174  0.229168  0.225528  -0.109879  0  0  0  1.27547  1.23495  -0.2004  0.00529348  -0.0204553  -0.0297823  -0.0566352  -0.0895411  0.000549055  0.0847688  -0.0503163  0.00673337  -0.615762  0.51575  -0.0522648 
1701450604.148358000  0  0  12.3269  -0.0774771  -0.0304571  -0.000946594  nan  nan  nan  nan  nan  nan  -1.97387  -0.974107  1.48338  -0.220617  0.152445  -0.0249394  0.235556  0.231711  -0.110838  0  0  0  1.27952  1.23787  -0.183438  0.00511168  -0.0209611  -0.0298104  -0.0573339  -0.0893715  -0.000152579  0.0820284  -0.0483968  0.00628401  -0.599707  0.506165  -0.0510077 
1701450604.152860000  0  0  12.3358  -0.0692849  -0.0229687  -0.000951555  nan  nan  nan  nan  nan  nan  -1.97268  -0.972933  1.48283  -0.222102  0.154034  -0.0251958  0.241962  0.237906  -0.111714  0  0  0  1.28282  1.24004  -0.167225  0.00474083  -0.021481  -0.0297482  -0.0583747  -0.0899977  0.0012787  0.0807141  -0.0479355  0.00603133  -0.604  0.486944  -0.0484189 
1701450604.157835000  0  0  12.3651  -0.0748272  -0.0250161  -0.00078137  nan  nan  nan  nan  nan  nan  -1.97145  -0.971728  1.48227  -0.222909  0.15533  -0.0252752  0.248383  0.24411  -0.112511  0  0  0  1.28536  1.24146  -0.151762  0.00442882  -0.0220537  -0.0297099  -0.059554  -0.0902167  0.000915301  0.0788424  -0.0468882  0.00568695  -0.575696  0.481404  -0.0471024 
1701450604.162831000  0  0  12.3759  -0.0725318  -0.0265444  -0.000571283  nan  nan  nan  nan  nan  nan  -1.97019  -0.970492  1.4817  -0.223266  0.156368  -0.0252189  0.254814  0.250319  -0.113233  0  0  0  1.28716  1.24213  -0.137049  0.00412935  -0.0225022  -0.029691  -0.0601519  -0.0897823  0.00191121  0.0765397  -0.0455773  0.00524383  -0.559102  0.4724  -0.0452973 
1701450604.167788000  0  0  12.3937  -0.0608052  -0.0247049  -0.000415203  nan  nan  nan  nan  nan  nan  -1.9689  -0.969225  1.48113  -0.224448  0.157344  -0.0252789  0.261253  0.25653  -0.113883  0  0  0  1.28821  1.24205  -0.123086  0.00379827  -0.0231038  -0.0296317  -0.0608542  -0.0903813  0.00230928  0.0748609  -0.0444202  0.00494554  -0.56711  0.458076  -0.0442654 
1701450604.173377000  0  0  12.4128  -0.0630855  -0.0294922  -0.000254564  nan  nan  nan  nan  nan  nan  -1.96758  -0.967927  1.48056  -0.224141  0.157853  -0.0249833  0.267695  0.262738  -0.114465  0  0  0  1.28851  1.24122  -0.109873  0.00359004  -0.0236073  -0.0296409  -0.0612155  -0.0893758  0.00238746  0.0718502  -0.0424387  0.00442459  -0.534851  0.44942  -0.0410639 
1701450604.177832000  0  0  12.3921  -0.0582252  -0.0257679  -5.96802e-05  nan  nan  nan  nan  nan  nan  -1.96623  -0.966598  1.47999  -0.225113  0.159085  -0.0250566  0.274137  0.268941  -0.114983  0  0  0  1.28806  1.23964  -0.0974106  0.00317947  -0.0241462  -0.029545  -0.0616124  -0.0890926  0.00560981  0.0704764  -0.0417987  0.00409017  -0.531932  0.436084  -0.0401557 
1701450604.182834000  0  0  12.453  -0.0535319  -0.0293399  0.000799127  nan  nan  nan  nan  nan  nan  -1.96484  -0.965238  1.47941  -0.225172  0.159771  -0.0248495  0.280575  0.275134  -0.115441  0  0  0  1.28686  1.23731  -0.0856977  0.00282609  -0.0247555  -0.029506  -0.0628711  -0.0895634  0.00211007  0.0680624  -0.0403805  0.00356073  -0.51911  0.43018  -0.0455964 
1701450604.187837000  0  0  12.4572  -0.0502094  -0.0371773  0.00164464  nan  nan  nan  nan  nan  nan  -1.96342  -0.963847  1.47884  -0.224626  0.160403  -0.0245224  0.287004  0.281313  -0.115841  0  0  0  1.2849  1.23423  -0.0747349  0.00251233  -0.0251951  -0.0294912  -0.0631989  -0.0883236  0.00303353  0.0652214  -0.0387434  0.00288513  -0.499618  0.430794  -0.0494094 
1701450604.192843000  0  0  12.4239  -0.0427598  -0.0353774  0.00203523  nan  nan  nan  nan  nan  nan  -1.96197  -0.962425  1.47826  -0.225486  0.161053  -0.0244295  0.293422  0.287475  -0.116189  0  0  0  1.2822  1.2304  -0.0645221  0.00216985  -0.0257857  -0.029401  -0.0629781  -0.0878085  0.0069699  0.0636352  -0.0374355  0.00245146  -0.499924  0.415161  -0.0499549 
1701450604.197817000  0  0  12.4837  -0.0417903  -0.0443782  0.0025264  nan  nan  nan  nan  nan  nan  -1.96049  -0.960972  1.47767  -0.224162  0.161263  -0.0238628  0.299825  0.293615  -0.116488  0  0  0  1.27875  1.22582  -0.0550592  0.00184515  -0.0262304  -0.029397  -0.0638456  -0.0871123  0.00308853  0.0602448  -0.0354516  0.0016767  -0.470672  0.414911  -0.048347 
1701450604.202812000  0  0  12.4892  -0.043145  -0.0418908  0.00232937  nan  nan  nan  nan  nan  nan  -1.95897  -0.959488  1.47709  -0.22413  0.161642  -0.0235457  0.306209  0.299732  -0.116741  0  0  0  1.27455  1.22049  -0.0463464  0.00148904  -0.0268165  -0.0293319  -0.0640686  -0.086596  0.00358495  0.0582021  -0.0339469  0.00118877  -0.449169  0.396093  -0.0410048 
1701450604.207819000  0  0  12.4635  -0.0374247  -0.0433151  0.00240587  nan  nan  nan  nan  nan  nan  -1.95742  -0.957975  1.47651  -0.224462  0.162011  -0.0232819  0.312569  0.305819  -0.116953  0  0  0  1.2696  1.21441  -0.0383835  0.00111898  -0.0274034  -0.029239  -0.0637952  -0.0859042  0.00651461  0.0564197  -0.0324671  0.000741955  -0.444212  0.385327  -0.0374929 
1701450604.212850000  0  0  12.4978  -0.0453424  -0.050502  0.00267246  nan  nan  nan  nan  nan  nan  -1.95585  -0.95643  1.47592  -0.222827  0.162014  -0.0225961  0.318903  0.311874  -0.117126  0  0  0  1.2639  1.20759  -0.0311707  0.000811251  -0.0278232  -0.0292298  -0.0642394  -0.0845503  0.00430835  0.0531831  -0.0304226  -1.0583e-05  -0.3986  0.380892  -0.0332999 
1701450604.217818000  0  0  12.4821  -0.0463805  -0.0443622  0.00287242  nan  nan  nan  nan  nan  nan  -1.95424  -0.954856  1.47534  -0.22294  0.1624  -0.0222858  0.325207  0.317894  -0.117265  0  0  0  1.25745  1.20001  -0.0247079  0.000400128  -0.0284423  -0.0291311  -0.0642689  -0.0839481  0.006202  0.0516056  -0.0292073  -0.000471902  -0.38201  0.357432  -0.0311862 
1701450604.223334000  0  0  12.472  -0.0421382  -0.0462179  0.00348805  nan  nan  nan  nan  nan  nan  -1.95259  -0.953251  1.47475  -0.222237  0.162169  -0.0216933  0.331477  0.323873  -0.117374  0  0  0  1.25024  1.19168  -0.018995  9.84231e-05  -0.0289725  -0.0290657  -0.0638332  -0.0827364  0.00741519  0.0491223  -0.0272027  -0.00109891  -0.367648  0.3427  -0.0326115 
1701450604.227766000  0  0  12.5028  -0.0495131  -0.0474432  0.00426761  nan  nan  nan  nan  nan  nan  -1.95092  -0.951617  1.47416  -0.221182  0.162567  -0.0211746  0.337708  0.329809  -0.117457  0  0  0  1.24229  1.1826  -0.0140322  -0.00037672  -0.0295233  -0.0289854  -0.0647294  -0.0820621  0.00521216  0.0469431  -0.0260479  -0.00182059  -0.33285  0.334527  -0.0351392 
1701450604.232852000  0  0  12.4658  -0.0487831  -0.0412511  0.00462773  nan  nan  nan  nan  nan  nan  -1.94922  -0.949953  1.47357  -0.220996  0.162555  -0.0207057  0.343898  0.335698  -0.117516  0  0  0  1.23359  1.17277  -0.0098193  -0.000755263  -0.0301032  -0.0288739  -0.0641648  -0.0809756  0.00842757  0.0453565  -0.0246388  -0.00237727  -0.319713  0.309179  -0.0340739 
1701450604.237816000  0  0  12.4873  -0.0495103  -0.0433627  0.00549892  nan  nan  nan  nan  nan  nan  -1.94748  -0.94826  1.47299  -0.219057  0.162067  -0.0198291  0.350043  0.341536  -0.117556  0  0  0  1.22414  1.16219  -0.0063565  -0.00109376  -0.0305147  -0.0288545  -0.0641089  -0.0794705  0.00666361  0.0423011  -0.0226042  -0.00329283  -0.290149  0.294684  -0.0358083 
1701450604.242817000  0  0  12.4754  -0.0551947  -0.0419129  0.00562757  nan  nan  nan  nan  nan  nan  -1.94572  -0.946538  1.4724  -0.218398  0.162251  -0.019311  0.356138  0.347319  -0.117581  0  0  0  1.21394  1.15086  -0.0036437  -0.00151917  -0.0311464  -0.0287182  -0.0643542  -0.0784386  0.00757369  0.0406733  -0.0214893  -0.00389813  -0.263805  0.281527  -0.0313634 
1701450604.248336000  0  0  12.4264  -0.0524716  -0.0390795  0.00595645  nan  nan  nan  nan  nan  nan  -1.94392  -0.944787  1.47181  -0.217335  0.161472  -0.0185084  0.362181  0.353043  -0.117594  0  0  0  1.20299  1.13878  -0.0016808  -0.00181051  -0.0316093  -0.0286323  -0.0629604  -0.076533  0.0112897  0.0385323  -0.0194477  -0.00458352  -0.249554  0.257078  -0.0286204 
1701450604.252850000  0  0  12.4609  -0.0606713  -0.0423995  0.00682404  nan  nan  nan  nan  nan  nan  -1.94209  -0.943008  1.47122  -0.215415  0.161369  -0.0177038  0.368167  0.358705  -0.117599  0  0  0  1.19128  1.12595  -0.000468  -0.00228414  -0.0321265  -0.0285567  -0.0636839  -0.0754057  0.00815442  0.036048  -0.0181006  -0.00546281  -0.210299  0.251324  -0.0306724 
1701450604.257815000  0  0  12.4299  -0.0659128  -0.0429944  0.0074161  nan  nan  nan  nan  nan  nan  -1.94024  -0.9412  1.47063  -0.214603  0.161246  -0.0170751  0.374093  0.364301  -0.1176  0  0  0  1.17883  1.11237  -5.1e-06  -0.00273214  -0.0327324  -0.0284069  -0.0633999  -0.0741119  0.0102512  0.0346486  -0.0168479  -0.00613021  -0.186942  0.240989  -0.0313992 
1701450604.262817000  0  0  12.3974  -0.0591877  -0.0364255  0.00814919  nan  nan  nan  nan  nan  nan  -1.93835  -0.939365  1.47005  -0.212431  0.160114  -0.0159979  0.379954  0.369828  -0.1176  0  0  0  1.16563  1.09804  -0  -0.00304658  -0.0330952  -0.0283484  -0.0620362  -0.0716944  0.0122217  0.031846  -0.0147  -0.00707731  -0.174608  0.208091  -0.0310917 
1701450604.267816000  0  0  12.4317  -0.0648532  -0.041885  0.00834933  nan  nan  nan  nan  nan  nan  -1.93644  -0.937502  1.46946  -0.210443  0.159606  -0.0150815  0.385748  0.37528  -0.1176  0  0  0  1.15168  1.08296  -0  -0.00347216  -0.0336458  -0.0282464  -0.0625885  -0.0707106  0.00883606  0.0295569  -0.0131487  -0.00789618  -0.142217  0.204738  -0.0254048 
1701450604.273323000  0  0  12.3852  -0.0595467  -0.0420345  0.00857971  nan  nan  nan  nan  nan  nan  -1.9345  -0.935612  1.46887  -0.208461  0.15814  -0.0139625  0.39147  0.380656  -0.1176  0  0  0  1.13698  1.06713  -0  -0.00372592  -0.034034  -0.0281551  -0.0608697  -0.068402  0.0118263  0.0271647  -0.0107449  -0.00871702  -0.130821  0.182922  -0.0200762 
1701450604.277816000  0  0  12.3756  -0.0607938  -0.0361432  0.00948414  nan  nan  nan  nan  nan  nan  -1.93252  -0.933696  1.46828  -0.206304  0.157404  -0.0129655  0.397116  0.385951  -0.1176  0  0  0  1.12153  1.05055  -0  -0.00420687  -0.0345296  -0.0280411  -0.0604119  -0.066525  0.0118705  0.0248277  -0.00930278  -0.00963477  -0.106827  0.157872  -0.022204 
1701450604.282816000  0  0  12.3821  -0.0586205  -0.0469383  0.00997485  nan  nan  nan  nan  nan  nan  -1.93053  -0.931753  1.46769  -0.204142  0.156703  -0.0119722  0.402684  0.39116  -0.1176  0  0  0  1.10533  1.03322  -0  -0.00463474  -0.0350646  -0.0279199  -0.0605031  -0.0650156  0.0105966  0.0225602  -0.00771179  -0.0104896  -0.0903129  0.164825  -0.0197892 
1701450604.287817000  0  0  12.3274  -0.0494303  -0.0468108  0.0103917  nan  nan  nan  nan  nan  nan  -1.9285  -0.929784  1.46711  -0.201394  0.154936  -0.0106666  0.408168  0.396282  -0.1176  0  0  0  1.08837  1.01514  -0  -0.0049289  -0.0353802  -0.0278422  -0.0584559  -0.0620207  0.0140904  0.019638  -0.00519483  -0.01145  -0.0818092  0.141414  -0.0153965 
1701450604.292851000  0  0  12.3393  -0.051689  -0.0428619  0.0107168  nan  nan  nan  nan  nan  nan  -1.92644  -0.92779  1.46652  -0.198925  0.153945  -0.00956373  0.413566  0.40131  -0.1176  0  0  0  1.07067  0.996314  -0  -0.00537719  -0.0359005  -0.027706  -0.0583955  -0.0604711  0.0122441  0.0173035  -0.00373892  -0.0123044  -0.0558141  0.120122  -0.0109169 
1701450604.297822000  0  0  12.3373  -0.0388926  -0.0551895  0.0109178  nan  nan  nan  nan  nan  nan  -1.92436  -0.925771  1.46593  -0.195273  0.152145  -0.00811485  0.418874  0.406243  -0.1176  0  0  0  1.05222  0.976735  -0  -0.00567836  -0.0362064  -0.027647  -0.0573926  -0.0576727  0.0113381  0.0136655  -0.00112169  -0.0133283  -0.0479378  0.120699  -0.00318921 
1701450604.302812000  0  0  12.2646  -0.0400295  -0.0440273  0.0115308  nan  nan  nan  nan  nan  nan  -1.92225  -0.923728  1.46534  -0.193328  0.151017  -0.00706871  0.424087  0.411077  -0.1176  0  0  0  1.03302  0.956405  -0  -0.00613269  -0.0367189  -0.027457  -0.0559372  -0.0552187  0.0162929  0.0118929  0.000208281  -0.0141029  -0.0293559  0.0861384  -0.00310615 
1701450604.307816000  0  0  12.2945  -0.0334921  -0.0490949  0.0126281  nan  nan  nan  nan  nan  nan  -1.92012  -0.921661  1.46475  -0.190263  0.149738  -0.00581926  0.429203  0.415806  -0.1176  0  0  0  1.01307  0.935326  -0  -0.00658948  -0.0372089  -0.0273277  -0.0560631  -0.0536344  0.0128494  0.00909771  0.00184411  -0.0150958  -0.0167147  0.081224  -0.00689251 
1701450604.312850000  0  0  12.2632  -0.0143608  -0.0622445  0.01323  nan  nan  nan  nan  nan  nan  -1.91796  -0.91957  1.46417  -0.186278  0.147325  -0.00421999  0.434217  0.420429  -0.1176  0  0  0  0.992366  0.913497  -0  -0.0068523  -0.0374558  -0.027261  -0.0541613  -0.0502483  0.0141471  0.00519213  0.0048663  -0.0162057  -0.019046  0.0797191  -0.00331859 
1701450604.317811000  0  0  12.2228  -0.022394  -0.0469392  0.0135124  nan  nan  nan  nan  nan  nan  -1.91578  -0.917457  1.46358  -0.184006  0.146027  -0.00309547  0.439125  0.42494  -0.1176  0  0  0  0.970915  0.890917  -0  -0.00733847  -0.0379824  -0.0270403  -0.0532788  -0.0483603  0.0163476  0.00344037  0.00601716  -0.0169902  0.0131365  0.0385205  0.000997127 
1701450604.323328000  0  0  12.2498  -0.0105236  -0.0617141  0.0135809  nan  nan  nan  nan  nan  nan  -1.91357  -0.915321  1.46299  -0.179901  0.143913  -0.00155144  0.443924  0.429336  -0.1176  0  0  0  0.948713  0.867588  -0  -0.0076138  -0.0382711  -0.0269431  -0.0529229  -0.0460947  0.0128886  -0.000171915  0.00837822  -0.017976  0.0226288  0.0463486  0.00999838 
1701450604.327816000  0  0  12.2033  -0.00983508  -0.0659723  0.0137261  nan  nan  nan  nan  nan  nan  -1.91134  -0.913163  1.4624  -0.176676  0.141678  -0.000126274  0.448611  0.433615  -0.1176  0  0  0  0.925762  0.843508  -0  -0.00806843  -0.038692  -0.0267957  -0.0509641  -0.0433231  0.0154357  -0.00288427  0.0108542  -0.0188522  0.0462054  0.0320859  0.0169457 
1701450604.332855000  0  0  12.1767  -0.0224007  -0.0555409  0.014088  nan  nan  nan  nan  nan  nan  -1.90909  -0.910985  1.46181  -0.17332  0.139625  0.00127715  0.453181  0.43777  -0.1176  0  0  0  0.90206  0.818679  -0  -0.00847311  -0.0391141  -0.0266165  -0.0497976  -0.0408703  0.0163157  -0.00521652  0.0125945  -0.0197092  0.0927933  -0.00478715  0.0209914 
1701450604.337813000  0  0  12.1864  -0.00436667  -0.0760183  0.0141179  nan  nan  nan  nan  nan  nan  -1.90681  -0.908786  1.46123  -0.168617  0.136771  0.00299724  0.45763  0.4418  -0.1176  0  0  0  0.877609  0.793099  -0  -0.00874457  -0.0393322  -0.0265597  -0.0485088  -0.0379258  0.014139  -0.00925377  0.0157215  -0.0207182  0.093868  0.00739862  0.0307075 
1701450604.342810000  0  0  12.1272  -0.0140223  -0.0660533  0.0146882  nan  nan  nan  nan  nan  nan  -1.90451  -0.906567  1.46064  -0.165409  0.134385  0.00441331  0.461956  0.4457  -0.1176  0  0  0  0.852407  0.76677  -0  -0.00916475  -0.0397525  -0.0263593  -0.0466123  -0.0352779  0.0176315  -0.0113237  0.017695  -0.0215211  0.132223  -0.0306873  0.0316084 
1701450604.348335000  0  0  12.1348  -0.0103664  -0.0740243  0.0158168  nan  nan  nan  nan  nan  nan  -1.90219  -0.904329  1.46005  -0.160165  0.130957  0.00626121  0.466153  0.449467  -0.1176  0  0  0  0.826455  0.739691  -0  -0.00932682  -0.0398815  -0.0262785  -0.0449985  -0.0319754  0.0154279  -0.0152295  0.0207587  -0.0226389  0.160844  -0.0429313  0.0286792 
1701450604.352849000  0  0  12.1194  0.00686962  -0.0928616  0.0162118  nan  nan  nan  nan  nan  nan  -1.89985  -0.902073  1.45946  -0.155984  0.12822  0.00783194  0.470219  0.453096  -0.1176  0  0  0  0.799754  0.711861  -0  -0.00975501  -0.0402406  -0.0261487  -0.0435056  -0.0292057  0.0152854  -0.0185956  0.0235737  -0.0235931  0.157341  -0.0311548  0.0332835 
1701450604.357810000  0  0  12.064  -0.0140662  -0.0735189  0.0180073  nan  nan  nan  nan  nan  nan  -1.89749  -0.899798  1.45887  -0.152076  0.12553  0.00934292  0.474149  0.456584  -0.1176  0  0  0  0.772302  0.683282  -0  -0.0101738  -0.0405985  -0.0259437  -0.0416641  -0.0262013  0.0183586  -0.0208057  0.0254335  -0.0246202  0.219545  -0.0869502  0.0211099 
1701450604.362813000  0  0  12.0898  0.00222115  -0.0874222  0.0185044  nan  nan  nan  nan  nan  nan  -1.89511  -0.897507  1.45829  -0.146404  0.121725  0.0112221  0.477941  0.459927  -0.1176  0  0  0  0.744101  0.653952  -0  -0.0103832  -0.0407244  -0.0258966  -0.0400455  -0.0229043  0.0146501  -0.0251342  0.0288228  -0.0257793  0.226792  -0.0903256  0.026488 
1701450604.367815000  0  0  12.0487  0.00937204  -0.0895766  0.0185874  nan  nan  nan  nan  nan  nan  -1.89271  -0.895199  1.4577  -0.142425  0.11904  0.0127007  0.481589  0.463122  -0.1176  0  0  0  0.715149  0.623873  -0  -0.0108043  -0.0410687  -0.0257015  -0.0386619  -0.0202932  0.0165936  -0.0276774  0.0308164  -0.026615  0.235888  -0.104357  0.0338073 
1701450604.373371000  0  0  12.0074  -0.00894863  -0.0652001  0.0193904  nan  nan  nan  nan  nan  nan  -1.89029  -0.892876  1.45711  -0.137353  0.115233  0.0144467  0.485091  0.466166  -0.1176  0  0  0  0.685448  0.593663  -0  -0.0110041  -0.0411672  -0.0255527  -0.0364216  -0.0168411  0.0183702  -0.0304628  0.0330428  -0.0276139  0.298155  -0.173593  0.033759 
1701450604.377811000  0  0  12.0387  -0.000668287  -0.0827322  0.0190123  nan  nan  nan  nan  nan  nan  -1.88786  -0.890538  1.45652  -0.132686  0.112054  0.0160302  0.488442  0.46906  -0.1176  0  0  0  0.654996  0.564197  -0  -0.0114409  -0.0415043  -0.0254405  -0.0355131  -0.0143954  0.0143957  -0.0335573  0.035613  -0.0284919  0.310064  -0.162175  0.0472657 
1701450604.382811000  0  0  11.9963  -0.00926133  -0.0767961  0.0187387  nan  nan  nan  nan  nan  nan  -1.88541  -0.888186  1.45593  -0.128657  0.108675  0.0175446  0.49164  0.471809  -0.1176  0  0  0  0.624115  0.535481  -0  -0.0118062  -0.041782  -0.0252514  -0.0336559  -0.0116939  0.0164565  -0.0354925  0.0377603  -0.0291766  0.345053  -0.193803  0.0575322 
1701450604.387815000  0  0  11.9878  -0.0239851  -0.0596314  0.0188495  nan  nan  nan  nan  nan  nan  -1.88294  -0.88582  1.45535  -0.123157  0.104167  0.0193335  0.494685  0.474416  -0.1176  0  0  0  0.593893  0.507515  -0  -0.0119725  -0.0418313  -0.0251827  -0.0311202  -0.00797421  0.0156271  -0.0385174  0.0406221  -0.0300416  0.402331  -0.254461  0.0647977 
1701450604.392850000  0  0  11.9985  -0.0170855  -0.0768736  0.0177593  nan  nan  nan  nan  nan  nan  -1.88046  -0.883442  1.45476  -0.119243  0.101002  0.020758  0.49758  0.476885  -0.1176  0  0  0  0.564421  0.480298  -0  -0.0123186  -0.0420788  -0.0250362  -0.0300612  -0.00603312  0.0135024  -0.0402124  0.0425656  -0.0305422  0.404125  -0.237857  0.0834311 
1701450604.397812000  0  0  11.9568  -0.0409296  -0.0623387  0.0178567  nan  nan  nan  nan  nan  nan  -1.87797  -0.881052  1.45417  -0.113935  0.0965105  0.0224524  0.50033  0.47922  -0.1176  0  0  0  0.535699  0.453832  -0  -0.0124734  -0.0421144  -0.0249379  -0.0270629  -0.00192288  0.0154599  -0.0426938  0.0453047  -0.0312543  0.474642  -0.292126  0.0893335 
1701450604.402810000  0  0  11.962  -0.0505698  -0.0479376  0.0175792  nan  nan  nan  nan  nan  nan  -1.87546  -0.87865  1.45358  -0.110231  0.0935958  0.0237818  0.502938  0.481425  -0.1176  0  0  0  0.507727  0.428116  -0  -0.0128605  -0.0423634  -0.0247777  -0.0260055  5.49298e-05  0.0139352  -0.043507  0.0461628  -0.0317105  0.501404  -0.328823  0.0973646 
1701450604.407817000  0  0  11.9502  -0.043865  -0.0552118  0.0175406  nan  nan  nan  nan  nan  nan  -1.87294  -0.876237  1.45299  -0.106467  0.0902575  0.0251461  0.505409  0.483503  -0.1176  0  0  0  0.480505  0.40315  -0  -0.0131702  -0.0425702  -0.0246247  -0.0243066  0.00234021  0.0137591  -0.0446633  0.0477276  -0.0321575  0.498632  -0.328671  0.102317 
1701450604.412851000  0  0  11.928  -0.075504  -0.0402758  0.01842  nan  nan  nan  nan  nan  nan  -1.8704  -0.873815  1.45241  -0.101271  0.0859398  0.0267159  0.507745  0.485458  -0.1176  0  0  0  0.454033  0.378934  -0  -0.0132778  -0.0425315  -0.0245577  -0.0216336  0.00619882  0.0143668  -0.0464295  0.0498261  -0.0328603  0.57816  -0.377848  0.0983527 
1701450604.417812000  0  0  11.9318  -0.0749405  -0.0376016  0.0190513  nan  nan  nan  nan  nan  nan  -1.86786  -0.871383  1.45182  -0.0981606  0.0831412  0.0279257  0.50995  0.487293  -0.1176  0  0  0  0.428311  0.355468  -0  -0.0136811  -0.0427797  -0.0243883  -0.020397  0.00775039  0.0131262  -0.0464918  0.0504131  -0.0333214  0.577605  -0.388597  0.0950729 
1701450604.422809000  0  0  11.9255  -0.0724534  -0.0477707  0.0201004  nan  nan  nan  nan  nan  nan  -1.8653  -0.868942  1.45123  -0.0932011  0.0788336  0.0294145  0.512029  0.489014  -0.1176  0  0  0  0.403339  0.332751  -0  -0.0137855  -0.0427345  -0.0243217  -0.0177295  0.0113186  0.0124762  -0.0484621  0.0527443  -0.0340373  0.590758  -0.389706  0.0891186 
1701450604.427816000  0  0  11.9156  -0.0880636  -0.0403828  0.0212161  nan  nan  nan  nan  nan  nan  -1.86274  -0.866493  1.45064  -0.0898084  0.0761985  0.0305986  0.513985  0.490622  -0.1176  0  0  0  0.379117  0.310785  -0  -0.0141378  -0.0429278  -0.0241633  -0.0165422  0.0134827  0.0124481  -0.048373  0.0530136  -0.0346386  0.621159  -0.406959  0.0811844 
1701450604.432850000  0  0  11.9086  -0.0756751  -0.0415394  0.0216753  nan  nan  nan  nan  nan  nan  -1.86017  -0.864036  1.45005  -0.0851152  0.0715901  0.0320351  0.515821  0.492123  -0.1176  0  0  0  0.355645  0.289569  -0  -0.0141907  -0.0428377  -0.024103  -0.0134123  0.0168423  0.0119592  -0.0500725  0.0553203  -0.0352856  0.612017  -0.425868  0.0819149 
1701450604.437812000  0  0  11.9001  -0.0813912  -0.040443  0.0213547  nan  nan  nan  nan  nan  nan  -1.85758  -0.861572  1.44947  -0.0818438  0.0691486  0.0331611  0.517543  0.493519  -0.1176  0  0  0  0.332923  0.269103  -0  -0.0145583  -0.0430241  -0.0239558  -0.0122892  0.019018  0.0119147  -0.050052  0.0553805  -0.0357478  0.623261  -0.428615  0.0905441 
1701450604.442809000  0  0  11.8905  -0.0852286  -0.0401576  0.0205065  nan  nan  nan  nan  nan  nan  -1.85499  -0.859101  1.44888  -0.0784406  0.0661958  0.0343262  0.519152  0.494815  -0.1176  0  0  0  0.310951  0.249387  -0  -0.0148193  -0.0431351  -0.0238214  -0.0106418  0.0213247  0.0119233  -0.0501396  0.0559613  -0.0360976  0.631741  -0.434528  0.104645 
1701450604.447816000  0  0  11.8849  -0.0769388  -0.0387446  0.0203103  nan  nan  nan  nan  nan  nan  -1.85239  -0.856624  1.44829  -0.074065  0.0616612  0.0356562  0.520653  0.496014  -0.1176  0  0  0  0.28973  0.230421  -0  -0.0148601  -0.0430198  -0.0237612  -0.00738896  0.024524  0.0114631  -0.0514409  0.0580294  -0.0365073  0.627134  -0.456382  0.111195 
1701450604.452852000  0  0  11.8968  -0.0745281  -0.0547653  0.0199996  nan  nan  nan  nan  nan  nan  -1.84978  -0.854141  1.4477  -0.0693678  0.0577588  0.0369272  0.522051  0.49712  -0.1176  0  0  0  0.269258  0.212205  -0  -0.0148817  -0.0428706  -0.0237191  -0.00505632  0.0280191  0.00965092  -0.0529028  0.0597445  -0.036921  0.635762  -0.440119  0.119215 
1701450604.457816000  0  0  11.8823  -0.0685313  -0.0643875  0.020031  nan  nan  nan  nan  nan  nan  -1.84717  -0.851653  1.44711  -0.0652457  0.0535538  0.0381562  0.523347  0.498137  -0.1176  0  0  0  0.249536  0.194738  -0  -0.0149145  -0.0427446  -0.023656  -0.0020231  0.031146  0.0100426  -0.0539593  0.0617459  -0.0372894  0.633488  -0.439287  0.122507 
1701450604.462815000  0  0  11.8881  -0.0764471  -0.044859  0.0203264  nan  nan  nan  nan  nan  nan  -1.84455  -0.84916  1.44653  -0.0629544  0.0515424  0.0391278  0.524547  0.499069  -0.1176  0  0  0  0.230564  0.178022  -0  -0.015293  -0.0429311  -0.0235083  -0.00104722  0.0324323  0.00910469  -0.0528258  0.0609237  -0.0375473  0.638892  -0.470781  0.121394 
1701450604.467818000  0  0  11.8975  -0.0771327  -0.0504117  0.0205991  nan  nan  nan  nan  nan  nan  -1.84192  -0.846662  1.44594  -0.0600394  0.0496692  0.0401191  0.525654  0.499919  -0.1176  0  0  0  0.212342  0.162056  -0  -0.0156179  -0.0430399  -0.0233868  -0.000334483  0.034438  0.00785472  -0.0524107  0.0603713  -0.0378795  0.636444  -0.454593  0.121306 
1701450604.473369000  0  0  11.8547  -0.0754962  -0.0462805  0.0212198  nan  nan  nan  nan  nan  nan  -1.83929  -0.844161  1.44535  -0.0567949  0.0464248  0.0411994  0.526672  0.500691  -0.1176  0  0  0  0.19487  0.14684  -0  -0.015627  -0.0428505  -0.0232984  0.00182378  0.0367307  0.0108904  -0.0521027  0.0607283  -0.0381759  0.630337  -0.46614  0.116512 
1701450604.477809000  0  0  11.8902  -0.0783979  -0.03336  0.0222972  nan  nan  nan  nan  nan  nan  -1.83666  -0.841656  1.44476  -0.0536098  0.0434846  0.0422459  0.527604  0.501389  -0.1176  0  0  0  0.178148  0.132374  -0  -0.0159076  -0.0429654  -0.0232132  0.00388655  0.0391954  0.00740104  -0.05243  0.0611876  -0.0386858  0.639152  -0.496206  0.108143 
1701450604.482811000  0  0  11.8981  -0.0776437  -0.0388498  0.0223987  nan  nan  nan  nan  nan  nan  -1.83402  -0.839147  1.44417  -0.0511497  0.0418046  0.043186  0.528455  0.502016  -0.1176  0  0  0  0.162176  0.118658  -0  -0.0161933  -0.0430352  -0.0231058  0.00456826  0.0408355  0.0064117  -0.0516438  0.0603712  -0.039022  0.63041  -0.477716  0.110236 
1701450604.487817000  0  0  11.8414  -0.0742683  -0.0345306  0.0232034  nan  nan  nan  nan  nan  nan  -1.83137  -0.836636  1.44359  -0.0472718  0.0377911  0.0442912  0.529227  0.502576  -0.1176  0  0  0  0.146954  0.105691  -0  -0.0161618  -0.0428178  -0.0230386  0.0078977  0.0442865  0.010536  -0.0524519  0.0616774  -0.0394842  0.631094  -0.498371  0.104799 
1701450604.492851000  0  0  11.897  -0.0758603  -0.0154091  0.0233254  nan  nan  nan  nan  nan  nan  -1.82873  -0.834122  1.443  -0.0449157  0.036157  0.0452132  0.529925  0.503074  -0.1176  0  0  0  0.132482  0.0934753  -0  -0.0163827  -0.0428332  -0.0229711  0.00837801  0.0456195  0.00571622  -0.0515496  0.0602703  -0.0398201  0.625977  -0.523669  0.106634 
1701450604.498286000  0  0  11.881  -0.0731568  -0.014626  0.0225722  nan  nan  nan  nan  nan  nan  -1.82607  -0.831605  1.44241  -0.0421068  0.0341507  0.0461651  0.530553  0.503512  -0.1176  0  0  0  0.11876  0.0820091  -0  -0.0164089  -0.0426057  -0.022924  0.00925892  0.0475119  0.00684928  -0.0509846  0.0592973  -0.0400164  0.615372  -0.516283  0.118012 
1701450604.502811000  0  0  11.8541  -0.0839889  0.00696397  0.0226666  nan  nan  nan  nan  nan  nan  -1.82342  -0.829086  1.44182  -0.039262  0.031217  0.0471494  0.531114  0.503895  -0.1176  0  0  0  0.105788  0.071293  -0  -0.0166071  -0.0426249  -0.022815  0.0118607  0.0501924  0.00866275  -0.0508723  0.0593435  -0.040359  0.636003  -0.559888  0.120257 
1701450604.507765000  0  0  11.9067  -0.0829931  0.0127979  0.0223746  nan  nan  nan  nan  nan  nan  -1.82076  -0.826566  1.44123  -0.0372532  0.0298705  0.0480405  0.531612  0.504227  -0.1176  0  0  0  0.0935664  0.0613268  -0  -0.0168373  -0.042629  -0.0227451  0.0123263  0.0513943  0.00415446  -0.0497579  0.0577558  -0.040564  0.623759  -0.556949  0.125958 
1701450604.512850000  0  0  11.8673  -0.0701381  0.0064465  0.0216057  nan  nan  nan  nan  nan  nan  -1.8181  -0.824044  1.44065  -0.0339542  0.0266968  0.0490313  0.532051  0.50451  -0.1176  0  0  0  0.0820945  0.0521107  -0  -0.0167255  -0.0423191  -0.0227081  0.0147372  0.0542054  0.00711329  -0.050219  0.0581671  -0.0407036  0.602291  -0.54803  0.136964 
