ts x y z roll pitch yaw vx vy vz wx wy wz ax ay az dwx dwy dwz jx jy jz ddwx ddwy ddwz
1704728484.960042000  -2.5  -0.3  1  0  0  0  2e-07  -2e-07  -2e-07  0  0  0  0.000125  -0.000125  -0.000125  0  0  0  0  0  0  0  0  0 
1704728484.965024000  -2.5  -0.3  1  0  0  0  1.7e-06  -1.7e-06  -1.7e-06  0  0  0  0.0005  -0.0005  -0.0005  0  0  0  0  0  0  0  0  0 
1704728484.970026000  -2.5  -0.3  1  0  0  0  5.6e-06  -5.6e-06  -5.6e-06  0  0  0  0.001125  -0.001125  -0.001125  0  0  0  0  0  0  0  0  0 
1704728484.975022000  -2.5  -0.3  1  0  0  -1e-07  1.33e-05  -1.33e-05  -1.33e-05  0  0  0  0.002  -0.002  -0.002  0  0  0  0  0  0  0  0  0 
1704728484.980021000  -2.5  -0.3  1  0  0  -3e-07  2.6e-05  -2.6e-05  -2.6e-05  0  0  0  0.003125  -0.003125  -0.003125  0  0  0  0  0  0  0  0  0 
1704728484.985021000  -2.5  -0.3  1  0  0  -5e-07  4.5e-05  -4.5e-05  -4.5e-05  0  0  0  0.0045  -0.0045  -0.0045  0  0  0  0  0  0  0  0  0 
1704728484.990005000  -2.5  -0.300001  0.999999  0  0  -1e-06  7.15e-05  -7.15e-05  -7.15e-05  0  0  0  0.006125  -0.006125  -0.006125  0  0  0  0  0  0  0  0  0 
1704728484.995008000  -2.5  -0.300001  0.999999  0  0  -1.7e-06  0.0001067  -0.0001067  -0.0001067  0  0  0  0.008  -0.008  -0.008  0  0  0  0  0  0  0  0  0 
1704728485.000008000  -2.5  -0.300002  0.999998  0  0  -2.7e-06  0.0001519  -0.0001519  -0.0001519  0  0  0  0.010125  -0.010125  -0.010125  0  0  0  0  0  0  0  0  0 
1704728485.005005000  -2.5  -0.300003  0.999997  0  0  -4.2e-06  0.0002083  -0.0002083  -0.0002083  0  0  0  0.0125  -0.0125  -0.0125  0  0  0  0  0  0  0  0  0 
1704728485.010009000  -2.5  -0.300004  0.999996  0  0  -6.1e-06  0.0002773  -0.0002773  -0.0002773  0  0  0  0.015125  -0.015125  -0.015125  0  0  0  0  0  0  0  0  0 
1704728485.015007000  -2.49999  -0.300005  0.999995  0  0  -8.6e-06  0.00036  -0.00036  -0.00036  0  0  0  0.018  -0.018  -0.018  0  0  0  0  0  0  0  0  0 
1704728485.020007000  -2.49999  -0.300007  0.999993  0  0  -1.19e-05  0.0004577  -0.0004577  -0.0004577  0  0  0  0.021125  -0.021125  -0.021125  0  0  0  0  0  0  0  0  0 
1704728485.025008000  -2.49999  -0.30001  0.99999  0  0  -1.6e-05  0.0005717  -0.0005717  -0.0005717  0  0  0  0.0244764  -0.0245  -0.0245  0  0  0  0  0  0  0  0  0 
1704728485.030008000  -2.49999  -0.300013  0.999987  0  0  -2.11e-05  0.0007022  -0.0007031  -0.0007031  0  0  0  0.027698  -0.028125  -0.028125  0  0  0  0  0  0  0  0  0 
1704728485.035007000  -2.49998  -0.300017  0.999983  0  0  -2.73e-05  0.0008482  -0.0008533  -0.0008533  0  0  0  0.0306695  -0.032  -0.032  0  0  0  0  0  0  0  0  0 
1704728485.040008000  -2.49998  -0.300022  0.999978  0  0  -3.48e-05  0.0010085  -0.0010235  -0.0010235  0  0  0  0.033391  -0.036125  -0.036125  0  0  0  0  0  0  0  0  0 
1704728485.045008000  -2.49997  -0.300027  0.999973  0  0  -4.37e-05  0.0011817  -0.001215  -0.001215  0  0  0  0.0358626  -0.0405  -0.0405  0  0  0  0  0  0  0  0  0 
1704728485.050009000  -2.49997  -0.300034  0.999966  0  0  -5.43e-05  0.0013667  -0.001429  -0.001429  0  0  0  0.0380841  -0.045125  -0.045125  0  0  0  0  0  0  0  0  0 
1704728485.055007000  -2.49996  -0.300042  0.999958  0  0  -6.67e-05  0.0015621  -0.0016667  -0.0016667  0  0  0  0.0400556  -0.05  -0.05  0  0  0  0  0  0  0  0  0 
1704728485.060006000  -2.49995  -0.300051  0.999949  0  0  -8.1e-05  0.0017668  -0.0019294  -0.0019294  0  0  0  0.0417772  -0.055125  -0.055125  0  0  0  0  0  0  0  0  0 
1704728485.065007000  -2.49994  -0.300061  0.999939  0  0  -9.76e-05  0.0019795  -0.0022183  -0.0022183  0  0  0  0.0432487  -0.0605  -0.0605  0  0  0  0  0  0  0  0  0 
1704728485.070028000  -2.49993  -0.300073  0.999927  0  0  -0.0001166  0.0021989  -0.0025348  -0.0025348  0  0  0  0.0444702  -0.066125  -0.066125  0  0  0  0  0  0  0  0  0 
1704728485.075010000  -2.49992  -0.300086  0.999914  0  0  -0.0001382  0.0024238  -0.00288  -0.0028799  0  0  0  0.0454418  -0.072  -0.0719119  0  0  0  0  0  0  0  0  0 
1704728485.080013000  -2.49991  -0.300102  0.999898  0  0  -0.0001626  0.0026529  -0.0032552  -0.0032535  0  0  0  0.0461633  -0.078125  -0.07749  0  0  0  0  0  0  0  0  0 
1704728485.085013000  -2.49989  -0.300119  0.999881  0  0  -0.0001899  0.002885  -0.0036617  -0.0036544  0  0  0  0.0466348  -0.0845  -0.0828181  0  0  0  0  0  0  0  0  0 
1704728485.090020000  -2.49988  -0.300138  0.999862  0  0  -0.0002204  0.0031188  -0.0041006  -0.0040813  0  0  0  0.0468564  -0.091125  -0.0878962  0  0  0  0  0  0  0  0  0 
1704728485.095021000  -2.49986  -0.30016  0.99984  0  0  -0.0002543  0.0033531  -0.0045733  -0.0045329  0  0  0  0.0468279  -0.098  -0.0927243  0  0  0  0  0  0  0  0  0 
1704728485.100019000  -2.49984  -0.300184  0.999816  0  0  -0.0002915  0.0035867  -0.005081  -0.0050081  0  0  0  0.0465494  -0.105125  -0.0973024  0  0  0  0  0  0  0  0  0 
1704728485.105020000  -2.49983  -0.300211  0.99979  0  0  -0.0003324  0.0038182  -0.005625  -0.0055055  0  0  0  0.046021  -0.1125  -0.101631  0  0  0  0  0  0  0  0  0 
1704728485.110020000  -2.49981  -0.300241  0.999761  0  0  -0.0003769  0.0040465  -0.0062065  -0.006024  0  0  0  0.0452425  -0.120125  -0.105709  0  0  0  0  0  0  0  0  0 
1704728485.115019000  -2.49979  -0.300273  0.99973  0  0  -0.0004253  0.0042702  -0.0068267  -0.0065622  0  0  0  0.044214  -0.128  -0.109537  0  0  0  0  0  0  0  0  0 
1704728485.120019000  -2.49976  -0.300309  0.999696  0  0  -0.0004776  0.0044882  -0.0074869  -0.0071189  0  0  0  0.0429356  -0.136125  -0.113115  0  0  0  0  0  0  0  0  0 
1704728485.125017000  -2.49974  -0.300348  0.999659  0  0  -0.000534  0.0046992  -0.0081883  -0.0076929  0  0  0  0.0414071  -0.1445  -0.116443  0  0  0  0  0  0  0  0  0 
1704728485.130018000  -2.49972  -0.300391  0.999619  0  0  -0.0005945  0.0049019  -0.0089323  -0.008283  0  0  0  0.0396286  -0.153123  -0.119521  0  0  0  0  0  0  0  0  0 
1704728485.135016000  -2.49969  -0.300437  0.999576  0  0  -0.0006592  0.005095  -0.0097195  -0.0088877  0  0  0  0.0376002  -0.161703  -0.122349  0  0  0  0  0  0  0  0  0 
1704728485.140002000  -2.49967  -0.300488  0.99953  0  0  -0.0007281  0.0052774  -0.0105489  -0.009506  0  0  0  0.0353217  -0.170034  -0.124927  0  0  0  0  0  0  0  0  0 
1704728485.145017000  -2.49964  -0.300543  0.999481  0  0  -0.0008014  0.0054478  -0.0114194  -0.0101366  0  0  0  0.0327932  -0.178114  -0.127255  0  0  0  0  0  0  0  0  0 
1704728485.150020000  -2.49961  -0.300602  0.999428  0  0  -0.0008791  0.005605  -0.0123296  -0.0107782  0  0  0  0.0300147  -0.185944  -0.129334  0  0  0  0  0  0  0  0  0 
1704728485.155018000  -2.49958  -0.300666  0.999373  0  0  -0.0009612  0.0057476  -0.0132784  -0.0114295  0  0  0  0.0269863  -0.193525  -0.131162  0  0  0  0  0  0  0  0  0 
1704728485.160019000  -2.49955  -0.300735  0.999314  0  0  -0.0010477  0.0058744  -0.0142645  -0.0120894  0  0  0  0.0237078  -0.200855  -0.13274  0  0  0  0  0  0  0  0  0 
1704728485.165019000  -2.49952  -0.300809  0.999252  0  0  -0.0011387  0.0059845  -0.0152865  -0.0127565  0  0  0  0.0203913  -0.207935  -0.134068  0  0  0  0  0  0  0  0  0 
1704728485.170020000  -2.49949  -0.300888  0.999186  0  0  -0.0012341  0.0060787  -0.0163434  -0.0134296  0  0  0  0.0173233  -0.214765  -0.135146  0  0  0  0  0  0  0  0  0 
1704728485.175018000  -2.49946  -0.300973  0.999118  0  0  -0.001334  0.0061582  -0.0174338  -0.0141075  0  0  0  0.0145052  -0.221346  -0.135974  0  0  0  0  0  0  0  0  0 
1704728485.180020000  -2.49943  -0.301062  0.999045  0  0  -0.0014384  0.0062242  -0.0185564  -0.014789  0  0  0  0.0119371  -0.227676  -0.136552  0  0  0  0  0  0  0  0  0 
1704728485.185019000  -2.4994  -0.301158  0.99897  0  0  -0.0015472  0.006278  -0.0197101  -0.0154727  0  0  0  0.0096191  -0.233756  -0.13688  0  0  0  0  0  0  0  0  0 
1704728485.190021000  -2.49937  -0.30126  0.998891  0  0  -0.0016604  0.0063208  -0.0208936  -0.0161574  0  0  0  0.007551  -0.239587  -0.136958  0  0  0  0  0  0  0  0  0 
1704728485.195019000  -2.49934  -0.301367  0.998808  0  0  -0.0017779  0.0063539  -0.0221056  -0.0168418  0  0  0  0.0057329  -0.245167  -0.136787  0  0  0  0  0  0  0  0  0 
1704728485.200019000  -2.49931  -0.301481  0.998722  0  0  -0.0018997  0.0063786  -0.0233448  -0.0175248  0  0  0  0.0041649  -0.250497  -0.136365  0  0  0  0  0  0  0  0  0 
1704728485.205019000  -2.49927  -0.301601  0.998633  0  0  -0.0020258  0.006396  -0.0246101  -0.0182051  0  0  0  0.0028468  -0.255578  -0.135693  0  0  0  0  0  0  0  0  0 
1704728485.210009000  -2.49924  -0.301727  0.99854  0  0  -0.0021561  0.0064074  -0.0259002  -0.0188813  0  0  0  0.0017787  -0.260408  -0.134771  0  0  0  0  0  0  0  0  0 
1704728485.215005000  -2.49921  -0.30186  0.998444  0  0  -0.0022904  0.0064142  -0.0272138  -0.0195523  0  0  0  0.0009607  -0.264988  -0.133599  0  0  0  0  0  0  0  0  0 
1704728485.220012000  -2.49918  -0.301999  0.998345  0  0  -0.0024288  0.0064175  -0.0285497  -0.0202169  0  0  0  0.0003926  -0.269318  -0.132177  0  0  0  0  0  0  0  0  0 
1704728485.225013000  -2.49915  -0.302145  0.998242  0  0  -0.002571  0.0064185  -0.0299066  -0.0208737  0  0  0  7.45e-05  -0.273399  -0.130505  0  0  0  0  0  0  0  0  0 
1704728485.230008000  -2.49911  -0.302298  0.998136  0  0  -0.002717  0.0064186  -0.0312832  -0.0215215  0  0  0  -0  -0.277229  -0.128583  0  0  0  0  0  0  0  0  0 
1704728485.235006000  -2.49908  -0.302458  0.998027  0  0  -0.0028667  0.0064186  -0.0326784  -0.0221591  0  0  0  -0  -0.280809  -0.126412  0  0  0  0  0  0  0  0  0 
1704728485.240013000  -2.49905  -0.302625  0.997914  0  0  -0.0030199  0.0064186  -0.0340909  -0.0227852  0  0  0  -0  -0.28414  -0.12399  0  0  0  0  0  0  0  0  0 
1704728485.245004000  -2.49902  -0.302799  0.997799  0  0  -0.0031764  0.0064186  -0.0355194  -0.0233986  0  0  0  -0  -0.28722  -0.121318  0  0  0  0  0  0  0  0  0 
1704728485.250010000  -2.49899  -0.30298  0.99768  0  0  -0.0033362  0.0064186  -0.0369627  -0.023998  0  0  0  -0  -0.29005  -0.118396  0  0  0  0  0  0  0  0  0 
1704728485.255006000  -2.49895  -0.303169  0.997559  0  0  -0.0034991  0.0064186  -0.0384195  -0.0245821  0  0  0  -0  -0.292631  -0.115224  0  0  0  0  0  0  0  0  0 
1704728485.260012000  -2.49892  -0.303364  0.997435  0  0  -0.0036649  0.0064186  -0.0398886  -0.0251498  0  0  0  -0  -0.294961  -0.111802  0  0  0  0  0  0  0  0  0 
1704728485.265012000  -2.49889  -0.303568  0.997307  0  0  -0.0038334  0.0064186  -0.0413687  -0.0256997  0  0  0  -0  -0.297041  -0.10813  0  0  0  0  0  0  0  0  0 
1704728485.270009000  -2.49886  -0.303778  0.997178  0  0  -0.0040044  0.0064186  -0.0428586  -0.0262307  0  0  0  -0  -0.298871  -0.104208  0  0  0  0  0  0  0  0  0 
1704728485.275006000  -2.49882  -0.303996  0.997045  0  0  -0.0041777  0.0064186  -0.044357  -0.0267414  0  0  0  -0  -0.300452  -0.100036  0  0  0  0  0  0  0  0  0 
1704728485.280007000  -2.49879  -0.304222  0.99691  0  0  -0.0043531  0.0064186  -0.0458627  -0.0272306  0  0  0  -0  -0.301782  -0.0956146  0  0  0  0  0  0  0  0  0 
1704728485.285006000  -2.49876  -0.304455  0.996773  0  0  -0.0045305  0.0064186  -0.0473744  -0.0276971  0  0  0  -0  -0.302862  -0.0909427  0  0  0  0  0  0  0  0  0 
1704728485.290007000  -2.49873  -0.304695  0.996633  0  0  -0.0047095  0.0064186  -0.0488909  -0.0281397  0  0  0  -0  -0.303693  -0.0860208  0  0  0  0  0  0  0  0  0 
1704728485.295005000  -2.4987  -0.304944  0.996492  0  0  -0.0048901  0.0064186  -0.0504109  -0.0285569  0  0  0  -0  -0.304273  -0.0808489  0  0  0  0  0  0  0  0  0 
1704728485.300006000  -2.49866  -0.3052  0.996348  0  0  -0.0050721  0.0064186  -0.0519332  -0.0289477  0  0  0  -0  -0.304603  -0.075427  0  0  0  0  0  0  0  0  0 
1704728485.305003000  -2.49863  -0.305463  0.996202  0  0  -0.0052553  0.0064186  -0.0534565  -0.0293108  0  0  0  -0  -0.304684  -0.0697551  0  0  0  0  0  0  0  0  0 
1704728485.310009000  -2.4986  -0.305734  0.996055  0  0  -0.0054395  0.0064186  -0.0549796  -0.0296451  0  0  0  -0  -0.304514  -0.0639859  0  0  0  0  0  0  0  0  0 
1704728485.315006000  -2.49857  -0.306013  0.995906  0  0  -0.0056247  0.0064186  -0.0565012  -0.0299511  0  0  0  -0  -0.304094  -0.0584546  0  0  0  0  0  0  0  0  0 
1704728485.320007000  -2.49854  -0.306299  0.995755  0  0  -0.0058106  0.0064186  -0.0580201  -0.03023  0  0  0  -0  -0.303424  -0.0531734  0  0  0  0  0  0  0  0  0 
1704728485.325005000  -2.4985  -0.306593  0.995604  0  0  -0.0059973  0.0064186  -0.0595351  -0.0304832  0  0  0  -0  -0.302505  -0.0481422  0  0  0  0  0  0  0  0  0 
1704728485.330009000  -2.49847  -0.306894  0.995451  0  0  -0.0061844  0.0064186  -0.0610448  -0.0307119  0  0  0  -0  -0.301335  -0.0433609  0  0  0  0  0  0  0  0  0 
1704728485.335006000  -2.49844  -0.307203  0.995296  0  0  -0.0063721  0.0064186  -0.062548  -0.0309172  0  0  0  -0  -0.299915  -0.0388297  0  0  0  0  0  0  0  0  0 
1704728485.340006000  -2.49841  -0.30752  0.995141  0  0  -0.0065601  0.0064186  -0.0640435  -0.0311006  0  0  0  -0  -0.298246  -0.0345485  0  0  0  0  0  0  0  0  0 
1704728485.345006000  -2.49838  -0.307844  0.994985  0  0  -0.0067484  0.0064186  -0.06553  -0.0312631  0  0  0  -0  -0.296326  -0.0305173  0  0  0  0  0  0  0  0  0 
1704728485.350008000  -2.49834  -0.308175  0.994829  0  0  -0.0069368  0.0064186  -0.0670063  -0.0314062  0  0  0  -0  -0.294156  -0.026736  0  0  0  0  0  0  0  0  0 
1704728485.355006000  -2.49831  -0.308514  0.994671  0  0  -0.0071255  0.0064186  -0.0684712  -0.0315309  0  0  0  -0  -0.291737  -0.0232048  0  0  0  0  0  0  0  0  0 
1704728485.360007000  -2.49828  -0.30886  0.994513  0  0  -0.0073143  0.0064186  -0.0699233  -0.0316386  0  0  0  -0  -0.289067  -0.0199236  0  0  0  0  0  0  0  0  0 
1704728485.365005000  -2.49825  -0.309213  0.994355  0  0  -0.0075031  0.0064186  -0.0713614  -0.0317306  0  0  0  -0  -0.286147  -0.0168923  0  0  0  0  0  0  0  0  0 
1704728485.370008000  -2.49822  -0.309573  0.994196  0  0  -0.007692  0.0064186  -0.0727843  -0.031808  0  0  0  -0  -0.282977  -0.0141111  0  0  0  0  0  0  0  0  0 
1704728485.375005000  -2.49818  -0.309941  0.994037  0  0  -0.0078808  0.0064186  -0.0741908  -0.0318721  0  0  0  -0  -0.279558  -0.0115799  0  0  0  0  0  0  0  0  0 
1704728485.380006000  -2.49815  -0.310315  0.993878  0  0  -0.0080697  0.0064186  -0.0755795  -0.0319242  0  0  0  -0  -0.275888  -0.0092987  0  0  0  0  0  0  0  0  0 
1704728485.385005000  -2.49812  -0.310697  0.993718  0  0  -0.0082586  0.0064186  -0.0769492  -0.0319655  0  0  0  -0  -0.271968  -0.0072674  0  0  0  0  0  0  0  0  0 
1704728485.390007000  -2.49809  -0.311085  0.993558  0  0  -0.0084474  0.0064186  -0.0782988  -0.0319973  0  0  0  -0  -0.267799  -0.0054862  0  0  0  0  0  0  0  0  0 
1704728485.395006000  -2.49805  -0.31148  0.993398  0  0  -0.0086363  0.0064186  -0.0796268  -0.0320208  0  0  0  -0  -0.263379  -0.003955  0  0  0  0  0  0  0  0  0 
1704728485.400004000  -2.49802  -0.311881  0.993238  0  0  -0.0088252  0.0064186  -0.0809321  -0.0320372  0  0  0  -0  -0.258709  -0.0026737  0  0  0  0  0  0  0  0  0 
1704728485.405004000  -2.49799  -0.312289  0.993077  0  0  -0.009014  0.0064186  -0.0822135  -0.0320479  0  0  0  -0  -0.25379  -0.0016425  0  0  0  0  0  0  0  0  0 
1704728485.410008000  -2.49796  -0.312703  0.992917  0  0  -0.0092029  0.0064186  -0.0834696  -0.0320541  0  0  0  -0  -0.24862  -0.0008613  0  0  0  0  0  0  0  0  0 
1704728485.415007000  -2.49793  -0.313124  0.992757  0  0  -0.0093918  0.0064186  -0.0846993  -0.032057  0  0  0  -0  -0.2432  -0.00033  0  0  0  0  0  0  0  0  0 
1704728485.420007000  -2.49789  -0.31355  0.992597  0  0  -0.0095807  0.0064186  -0.0859012  -0.0320578  0  0  0  -0  -0.23753  -4.88e-05  0  0  0  0  0  0  0  0  0 
1704728485.425005000  -2.49786  -0.313983  0.992436  0  0  -0.0097695  0.0064186  -0.0870742  -0.0320578  0  0  0  -0  -0.231611  0  0  0  0  0  0  0  0  0  0 
1704728485.430009000  -2.49783  -0.314421  0.992276  0  0  -0.0099584  0.0064186  -0.0882169  -0.0320578  0  0  0  -0  -0.225441  0  0  0  0  0  0  0  0  0  0 
1704728485.435005000  -2.4978  -0.314865  0.992116  0  0  -0.0101473  0.0064186  -0.0893282  -0.0320578  0  0  0  -0  -0.219021  0  0  0  0  0  0  0  0  0  0 
1704728485.440005000  -2.49777  -0.315314  0.991955  0  0  -0.0103361  0.0064186  -0.0904067  -0.0320578  0  0  0  -0  -0.212352  0  0  0  0  0  0  0  0  0  0 
1704728485.445006000  -2.49773  -0.315769  0.991795  0  0  -0.010525  0.0064186  -0.0914513  -0.0320578  0  0  0  -0  -0.205432  0  0  0  0  0  0  0  0  0  0 
1704728485.450008000  -2.4977  -0.316228  0.991635  0  0  -0.0107139  0.0064186  -0.0924606  -0.0320578  0  0  0  -0  -0.198262  0  0  0  0  0  0  0  0  0  0 
1704728485.455006000  -2.49767  -0.316693  0.991475  0  0  -0.0109028  0.0064186  -0.0934335  -0.0320578  0  0  0  -0  -0.190843  0  0  0  0  0  0  0  0  0  0 
1704728485.460005000  -2.49764  -0.317163  0.991314  0  0  -0.0110916  0.0064186  -0.0943686  -0.0320578  0  0  0  -0  -0.183173  0  0  0  0  0  0  0  0  0  0 
1704728485.465006000  -2.49761  -0.317637  0.991154  0  0  -0.0112805  0.0064186  -0.0952648  -0.0320578  0  0  0  -0  -0.175253  0  0  0  0  0  0  0  0  0  0 
1704728485.470007000  -2.49757  -0.318115  0.990994  0  0  -0.0114694  0.0064186  -0.0961207  -0.0320578  0  0  0  -0  -0.167083  0  0  0  0  0  0  0  0  0  0 
1704728485.475006000  -2.49754  -0.318598  0.990833  0  0  -0.0116582  0.0064186  -0.0969352  -0.0320578  0  0  0  -0  -0.158664  0  0  0  0  0  0  0  0  0  0 
1704728485.480007000  -2.49751  -0.319085  0.990673  0  0  -0.0118471  0.0064186  -0.0977069  -0.0320578  0  0  0  -0  -0.150012  0  0  0  0  0  0  0  0  0  0 
1704728485.485005000  -2.49748  -0.319575  0.990513  0  0  -0.012036  0.0064186  -0.0984356  -0.0320578  0  0  0  -0  -0.141476  0  0  0  0  0  0  0  0  0  0 
1704728485.490005000  -2.49744  -0.320069  0.990353  0  0  -0.0122249  0.0064186  -0.0991221  -0.0320578  0  0  0  -0  -0.133191  0  0  0  0  0  0  0  0  0  0 
1704728485.495006000  -2.49741  -0.320566  0.990192  0  0  -0.0124137  0.0064186  -0.0997679  -0.0320578  0  0  0  -0  -0.125155  0  0  0  0  0  0  0  0  0  0 
1704728485.500005000  -2.49738  -0.321066  0.990032  0  0  -0.0126026  0.0064186  -0.100374  -0.0320578  0  0  0  -0  -0.11737  0  0  0  0  0  0  0  0  0  0 
1704728485.505005000  -2.49735  -0.32157  0.989872  0  0  -0.0127915  0.0064186  -0.100942  -0.0320578  0  0  0  -0  -0.109834  0  0  0  0  0  0  0  0  0  0 
1704728485.510006000  -2.49732  -0.322076  0.989711  0  0  -0.0129804  0.0064186  -0.101473  -0.0320578  0  0  0  -0  -0.102548  0  0  0  0  0  0  0  0  0  0 
1704728485.515005000  -2.49728  -0.322584  0.989551  0  0  -0.0131692  0.0064186  -0.101968  -0.0320578  0  0  0  -0  -0.0955128  0  0  0  0  0  0  0  0  0  0 
1704728485.520005000  -2.49725  -0.323095  0.989391  0  0  -0.0133581  0.0064186  -0.102428  -0.0320578  0  0  0  -0  -0.0887272  0  0  0  0  0  0  0  0  0  0 
1704728485.525005000  -2.49722  -0.323609  0.989231  0  0  -0.013547  0.0064186  -0.102856  -0.0320578  0  0  0  -0  -0.0821916  0  0  0  0  0  0  0  0  0  0 
1704728485.530011000  -2.49719  -0.324124  0.98907  0  0  -0.0137358  0.0064186  -0.103251  -0.0320578  0  0  0  -0  -0.075906  0  0  0  0  0  0  0  0  0  0 
1704728485.535005000  -2.49716  -0.324641  0.98891  0  0  -0.0139247  0.0064186  -0.103615  -0.0320578  0  0  0  -0  -0.0698704  0  0  0  0  0  0  0  0  0  0 
1704728485.540005000  -2.49712  -0.32516  0.98875  0  0  -0.0141136  0.0064186  -0.10395  -0.0320578  0  0  0  -0  -0.0640848  0  0  0  0  0  0  0  0  0  0 
1704728485.545005000  -2.49709  -0.325681  0.988589  0  0  -0.0143025  0.0064186  -0.104256  -0.0320578  0  0  0  -0  -0.0585492  0  0  0  0  0  0  0  0  0  0 
1704728485.550006000  -2.49706  -0.326203  0.988429  0  0  -0.0144913  0.0064186  -0.104536  -0.0320578  0  0  0  -0  -0.0532636  0  0  0  0  0  0  0  0  0  0 
1704728485.555006000  -2.49703  -0.326726  0.988269  0  0  -0.0146802  0.0064186  -0.104789  -0.0320578  0  0  0  -0  -0.048228  0  0  0  0  0  0  0  0  0  0 
1704728485.560004000  -2.497  -0.32725  0.988109  0  0  -0.0148691  0.0064186  -0.105018  -0.0320578  0  0  0  -0  -0.0434424  0  0  0  0  0  0  0  0  0  0 
1704728485.565006000  -2.49696  -0.327776  0.987948  0  0  -0.0150579  0.0064186  -0.105224  -0.0320578  0  0  0  -0  -0.0389068  0  0  0  0  0  0  0  0  0  0 
1704728485.570023000  -2.49693  -0.328303  0.987788  0  0  -0.0152468  0.0064186  -0.105408  -0.0320578  0  0  0  -0  -0.0346212  0  0  0  0  0  0  0  0  0  0 
1704728485.575014000  -2.4969  -0.32883  0.987628  0  0  -0.0154357  0.0064186  -0.105571  -0.0320578  0  0  0  -0  -0.0305856  0  0  0  0  0  0  0  0  0  0 
1704728485.580007000  -2.49687  -0.329358  0.987467  0  0  -0.0156246  0.0064186  -0.105714  -0.0320578  0  0  0  -0  -0.0268  0  0  0  0  0  0  0  0  0  0 
1704728485.585004000  -2.49684  -0.329887  0.987307  0  0  -0.0158134  0.0064186  -0.105839  -0.0320578  0  0  0  -0  -0.0232644  0  0  0  0  0  0  0  0  0  0 
1704728485.590007000  -2.4968  -0.330417  0.987147  0  0  -0.0160023  0.0064186  -0.105947  -0.0320578  0  0  0  -0  -0.0199788  0  0  0  0  0  0  0  0  0  0 
1704728485.595005000  -2.49677  -0.330947  0.986987  0  0  -0.0161912  0.0064186  -0.106039  -0.0320578  0  0  0  -0  -0.0169432  0  0  0  0  0  0  0  0  0  0 
1704728485.600006000  -2.49674  -0.331477  0.986826  0  0  -0.01638  0.0064186  -0.106117  -0.0320578  0  0  0  -0  -0.0141576  0  0  0  0  0  0  0  0  0  0 
1704728485.605006000  -2.49671  -0.332008  0.986666  0  0  -0.0165689  0.0064186  -0.106181  -0.0320578  0  0  0  -0  -0.011622  0  0  0  0  0  0  0  0  0  0 
1704728485.610007000  -2.49667  -0.332539  0.986506  0  0  -0.0167578  0.0064186  -0.106234  -0.0320578  0  0  0  -0  -0.0093364  0  0  0  0  0  0  0  0  0  0 
1704728485.615008000  -2.49664  -0.33307  0.986345  0  0  -0.0169467  0.0064186  -0.106275  -0.0320578  0  0  0  -0  -0.0073008  0  0  0  0  0  0  0  0  0  0 
1704728485.620005000  -2.49661  -0.333602  0.986185  0  0  -0.0171355  0.0064186  -0.106307  -0.0320578  0  0  0  -0  -0.0055152  0  0  0  0  0  0  0  0  0  0 
1704728485.625005000  -2.49658  -0.334133  0.986025  0  0  -0.0173244  0.0064186  -0.106331  -0.0320578  0  0  0  -0  -0.0039796  0  0  0  0  0  0  0  0  0  0 
1704728485.630008000  -2.49655  -0.334665  0.985864  0  0  -0.0175133  0.0064186  -0.106347  -0.0320578  0  0  0  -0  -0.002694  0  0  0  0  0  0  0  0  0  0 
1704728485.635006000  -2.49651  -0.335197  0.985704  0  0  -0.0177021  0.0064186  -0.106358  -0.0320578  0  0  0  -0  -0.0016584  0  0  0  0  0  0  0  0  0  0 
1704728485.640006000  -2.49648  -0.335728  0.985544  0  0  -0.017891  0.0064186  -0.106364  -0.0320578  0  0  0  -0  -0.0008728  0  0  0  0  0  0  0  0  0  0 
1704728485.645006000  -2.49645  -0.33626  0.985384  0  0  -0.0180799  0.0064186  -0.106367  -0.0320578  0  0  0  -0  -0.0003372  0  0  0  0  0  0  0  0  0  0 
1704728485.650006000  -2.49642  -0.336792  0.985223  0  0  -0.0182688  0.0064186  -0.106368  -0.0320578  0  0  0  -0  -5.16e-05  0  0  0  0  0  0  0  0  0  0 
1704728485.655005000  -2.49639  -0.337324  0.985063  0  0  -0.0184576  0.0064186  -0.106368  -0.0320578  0  0  0  -0  1.25e-05  0  0  0  0  0  0  0  0  0  0 
1704728485.660005000  -2.49635  -0.337856  0.984903  0  0  -0.0186465  0.0064186  -0.106368  -0.0320578  0  0  0  -0  0.0002165  0  0  0  0  0  0  0  0  0  0 
1704728485.665006000  -2.49632  -0.338388  0.984742  0  0  -0.0188354  0.0064186  -0.106366  -0.0320578  0  0  0  -0  0.0006706  0  0  0  0  0  0  0  0  0  0 
1704728485.670007000  -2.49629  -0.338919  0.984582  0  0  -0.0190242  0.0064186  -0.106361  -0.0320578  0  0  0  -0  0.0013746  0  0  0  0  0  0  0  0  0  0 
1704728485.675002000  -2.49626  -0.339451  0.984422  0  0  -0.0192131  0.0064186  -0.106351  -0.0320578  0  0  0  -0  0.0023286  0  0  0  0  0  0  0  0  0  0 
1704728485.680005000  -2.49623  -0.339983  0.984262  0  0  -0.019402  0.0064186  -0.106337  -0.0320578  0  0  0  -0  0.0035327  0  0  0  0  0  0  0  0  0  0 
1704728485.685004000  -2.49619  -0.340515  0.984101  0  0  -0.0195909  0.0064186  -0.106316  -0.0320578  0  0  0  -0  0.0049867  0  0  0  0  0  0  0  0  0  0 
1704728485.690006000  -2.49616  -0.341046  0.983941  0  0  -0.0197797  0.0064186  -0.106287  -0.0320578  0  0  0  -0  0.0066908  0  0  0  0  0  0  0  0  0  0 
1704728485.695005000  -2.49613  -0.341577  0.983781  0  0  -0.0199686  0.0064186  -0.106248  -0.0320578  0  0  0  -0  0.0086448  0  0  0  0  0  0  0  0  0  0 
1704728485.700006000  -2.4961  -0.342109  0.98362  0  0  -0.0201575  0.0064186  -0.1062  -0.0320578  0  0  0  -0  0.0108488  0  0  0  0  0  0  0  0  0  0 
1704728485.705006000  -2.49606  -0.342639  0.98346  0  0  -0.0203463  0.0064186  -0.10614  -0.0320578  0  0  0  -0  0.0133029  0  0  0  0  0  0  0  0  0  0 
1704728485.710009000  -2.49603  -0.34317  0.9833  0  0  -0.0205352  0.0064186  -0.106066  -0.0320578  0  0  0  -0  0.0160069  0  0  0  0  0  0  0  0  0  0 
1704728485.715005000  -2.496  -0.3437  0.98314  0  0  -0.0207241  0.0064186  -0.105979  -0.0320578  0  0  0  -0  0.018961  0  0  0  0  0  0  0  0  0  0 
1704728485.720005000  -2.49597  -0.34423  0.982979  0  0  -0.020913  0.0064186  -0.105876  -0.0320578  0  0  0  -0  0.022165  0  0  0  0  0  0  0  0  0  0 
1704728485.725006000  -2.49594  -0.344759  0.982819  0  0  -0.0211018  0.0064186  -0.105757  -0.0320578  0  0  0  -0  0.025619  0  0  0  0  0  0  0  0  0  0 
1704728485.730014000  -2.4959  -0.345287  0.982659  0  0  -0.0212907  0.0064186  -0.10562  -0.0320578  0  0  0  -0  0.0293231  0  0  0  0  0  0  0  0  0  0 
1704728485.735005000  -2.49587  -0.345815  0.982498  0  0  -0.0214796  0.0064186  -0.105463  -0.0320578  0  0  0  -0  0.0332771  0  0  0  0  0  0  0  0  0  0 
1704728485.740005000  -2.49584  -0.346342  0.982338  0  0  -0.0216684  0.0064186  -0.105287  -0.0320578  0  0  0  -0  0.0374812  0  0  0  0  0  0  0  0  0  0 
1704728485.745004000  -2.49581  -0.346868  0.982178  0  0  -0.0218573  0.0064186  -0.105088  -0.0320578  0  0  0  -0  0.0419352  0  0  0  0  0  0  0  0  0  0 
1704728485.750008000  -2.49578  -0.347393  0.982018  0  0  -0.0220462  0.0064186  -0.104867  -0.0320578  0  0  0  -0  0.0466392  0  0  0  0  0  0  0  0  0  0 
1704728485.755005000  -2.49574  -0.347916  0.981857  0  0  -0.0222351  0.0064186  -0.104621  -0.0320578  0  0  0  -0  0.0515933  0  0  0  0  0  0  0  0  0  0 
1704728485.760005000  -2.49571  -0.348439  0.981697  0  0  -0.0224239  0.0064186  -0.10435  -0.0320578  0  0  0  -0  0.0567973  0  0  0  0  0  0  0  0  0  0 
1704728485.765005000  -2.49568  -0.34896  0.981537  0  0  -0.0226128  0.0064186  -0.104053  -0.0320578  0  0  0  -0  0.0622513  0  0  0  0  0  0  0  0  0  0 
1704728485.770007000  -2.49565  -0.349479  0.981376  0  0  -0.0228017  0.0064186  -0.103727  -0.0320578  0  0  0  -0  0.0679554  0  0  0  0  0  0  0  0  0  0 
1704728485.775005000  -2.49562  -0.349997  0.981216  0  0  -0.0229905  0.0064186  -0.103373  -0.0320578  0  0  0  -0  0.0739094  0  0  0  0  0  0  0  0  0  0 
1704728485.780005000  -2.49558  -0.350513  0.981056  0  0  -0.0231794  0.0064186  -0.102988  -0.0320578  0  0  0  -0  0.0801135  0  0  0  0  0  0  0  0  0  0 
1704728485.785005000  -2.49555  -0.351027  0.980896  0  0  -0.0233683  0.0064186  -0.102571  -0.0320578  0  0  0  -0  0.0865675  0  0  0  0  0  0  0  0  0  0 
1704728485.790006000  -2.49552  -0.351539  0.980735  0  0  -0.0235572  0.0064186  -0.102122  -0.0320578  0  0  0  -0  0.0932715  0  0  0  0  0  0  0  0  0  0 
1704728485.795007000  -2.49549  -0.352048  0.980575  0  0  -0.023746  0.0064186  -0.101638  -0.0320578  0  0  0  -0  0.100226  0  0  0  0  0  0  0  0  0  0 
1704728485.800004000  -2.49546  -0.352555  0.980415  0  0  -0.0239349  0.0064186  -0.101119  -0.0320578  0  0  0  -0  0.10743  0  0  0  0  0  0  0  0  0  0 
1704728485.805006000  -2.49542  -0.353059  0.980254  0  0  -0.0241238  0.0064186  -0.100564  -0.0320578  0  0  0  -0  0.114884  0  0  0  0  0  0  0  0  0  0 
1704728485.810008000  -2.49539  -0.353561  0.980094  0  0  -0.0243126  0.0064186  -0.0999699  -0.0320578  0  0  0  -0  0.122588  0  0  0  0  0  0  0  0  0  0 
1704728485.815005000  -2.49536  -0.354059  0.979934  0  0  -0.0245015  0.0064186  -0.0993372  -0.0320578  0  0  0  -0  0.130542  0  0  0  0  0  0  0  0  0  0 
1704728485.820007000  -2.49533  -0.354554  0.979773  0  0  -0.0246904  0.0064186  -0.0986641  -0.0320578  0  0  0  -0  0.138746  0  0  0  0  0  0  0  0  0  0 
1704728485.825004000  -2.49529  -0.355045  0.979613  0  0  -0.0248793  0.0064186  -0.0979493  -0.0320578  0  0  0  -0  0.1472  0  0  0  0  0  0  0  0  0  0 
1704728485.830008000  -2.49526  -0.355533  0.979453  0  0  -0.0250681  0.0064186  -0.0971917  -0.0320578  0  0  0  -0  0.155904  0  0  0  0  0  0  0  0  0  0 
1704728485.835005000  -2.49523  -0.356017  0.979293  0  0  -0.025257  0.0064186  -0.0963899  -0.0320578  0  0  0  -0  0.164858  0  0  0  0  0  0  0  0  0  0 
1704728485.840006000  -2.4952  -0.356497  0.979132  0  0  -0.0254459  0.0064186  -0.0955427  -0.0320578  0  0  0  -0  0.174062  0  0  0  0  0  0  0  0  0  0 
1704728485.845006000  -2.49517  -0.356973  0.978972  0  0  -0.0256347  0.0064186  -0.0946489  -0.0320578  0  0  0  -0  0.183516  0  0  0  0  0  0  0  0  0  0 
1704728485.850006000  -2.49513  -0.357444  0.978812  0  0  -0.0258236  0.0064186  -0.0937071  -0.0320578  0  0  0  -0  0.19322  0  0  0  0  0  0  0  0  0  0 
1704728485.855005000  -2.4951  -0.35791  0.978651  0  0  -0.0260125  0.0064186  -0.0927162  -0.0320578  0  0  0  -0  0.203174  0  0  0  0  0  0  0  0  0  0 
1704728485.860006000  -2.49507  -0.358371  0.978491  0  0  -0.0262014  0.0064186  -0.091675  -0.0320578  0  0  0  -0  0.213378  0  0  0  0  0  0  0  0  0  0 
1704728485.865013000  -2.49504  -0.358826  0.978331  0  0  -0.0263902  0.0064186  -0.090582  -0.0320578  0  0  0  -0  0.223832  0  0  0  0  0  0  0  0  0  0 
1704728485.870007000  -2.49501  -0.359276  0.978171  0  0  -0.0265791  0.0064186  -0.0894362  -0.0320578  0  0  0  -0  0.234536  0  0  0  0  0  0  0  0  0  0 
1704728485.875007000  -2.49497  -0.359721  0.97801  0  0  -0.026768  0.0064186  -0.0882363  -0.0320578  0  0  0  -0  0.24549  0  0  0  0  0  0  0  0  0  0 
1704728485.880014000  -2.49494  -0.360159  0.97785  0  0  -0.0269569  0.0064186  -0.0869809  -0.0320578  0  0  0  -0  0.256694  0  0  0  0  0  0  0  0  0  0 
1704728485.885012000  -2.49491  -0.36059  0.97769  0  0  -0.0271457  0.0064186  -0.0856689  -0.0320578  0  0  0  -0  0.268148  0  0  0  0  0  0  0  0  0  0 
1704728485.890007000  -2.49488  -0.361015  0.977529  0  0  -0.0273346  0.0064186  -0.084299  -0.0320578  0  0  0  -0  0.279852  0  0  0  0  0  0  0  0  0  0 
1704728485.895008000  -2.49485  -0.361433  0.977369  0  0  -0.0275235  0.0064186  -0.08287  -0.0320578  0  0  0  -0  0.291806  0  0  0  0  0  0  0  0  0  0 
1704728485.900015000  -2.49481  -0.361844  0.977209  0  0  -0.0277123  0.0064186  -0.0813805  -0.0320578  0  0  0  -0  0.30401  0  0  0  0  0  0  0  0  0  0 
1704728485.905012000  -2.49478  -0.362247  0.977049  0  0  -0.0279012  0.0064186  -0.0798294  -0.0320578  0  0  0  -0  0.316464  0  0  0  0  0  0  0  0  0  0 
1704728485.910006000  -2.49475  -0.362642  0.976888  0  0  -0.0280901  0.0064186  -0.0782155  -0.0320578  0  0  0  -0  0.329168  0  0  0  0  0  0  0  0  0  0 
1704728485.915008000  -2.49472  -0.363029  0.976728  0  0  -0.028279  0.0064186  -0.0765373  -0.0320578  0  0  0  -0  0.342123  0  0  0  0  0  0  0  0  0  0 
1704728485.920016000  -2.49468  -0.363407  0.976568  0  0  -0.0284678  0.0064186  -0.0747938  -0.0320578  0  0  0  -0  0.355327  0  0  0  0  0  0  0  0  0  0 
1704728485.925012000  -2.49465  -0.363777  0.976407  0  0  -0.0286567  0.0064186  -0.0729837  -0.0320578  0  0  0  -0  0.368781  0  0  0  0  0  0  0  0  0  0 
1704728485.930009000  -2.49462  -0.364137  0.976247  0  0  -0.0288456  0.0064186  -0.0711056  -0.0320578  0  0  0  -0  0.382485  0  0  0  0  0  0  0  0  0  0 
1704728485.935016000  -2.49459  -0.364488  0.976087  0  0  -0.0290344  0.0064186  -0.0691584  -0.0320578  0  0  0  -0  0.396439  0  0  0  0  0  0  0  0  0  0 
1704728485.940005000  -2.49456  -0.364828  0.975927  0  0  -0.0292233  0.0064186  -0.0671408  -0.0320578  0  0  0  -0  0.410643  0  0  0  0  0  0  0  0  0  0 
1704728485.945006000  -2.49452  -0.365159  0.975766  0  0  -0.0294122  0.0064186  -0.0650516  -0.0320578  0  0  0  -0  0.425097  0  0  0  0  0  0  0  0  0  0 
1704728485.950007000  -2.49449  -0.365479  0.975606  0  0  -0.0296011  0.0064186  -0.0628894  -0.0320578  0  0  0  -0  0.439801  0  0  0  0  0  0  0  0  0  0 
1704728485.955006000  -2.49446  -0.365788  0.975446  0  0  -0.0297899  0.0064186  -0.0606531  -0.0320578  0  0  0  -0  0.454755  0  0  0  0  0  0  0  0  0  0 
1704728485.960005000  -2.49443  -0.366085  0.975285  0  0  -0.0299788  0.0064186  -0.0583414  -0.0320578  0  0  0  -0  0.469959  0  0  0  0  0  0  0  0  0  0 
1704728485.965006000  -2.4944  -0.366371  0.975125  0  0  -0.0301677  0.0064186  -0.0559531  -0.0320578  0  0  0  -0  0.485413  0  0  0  0  0  0  0  0  0  0 
1704728485.970007000  -2.49436  -0.366645  0.974965  0  0  -0.0303565  0.0064186  -0.0534869  -0.0320578  0  0  0  -0  0.501117  0  0  0  0  0  0  0  0  0  0 
1704728485.975007000  -2.49433  -0.366906  0.974805  0  0  -0.0305454  0.0064186  -0.0509415  -0.0320578  0  0  0  -0  0.517071  0  0  0  0  0  0  0  0  0  0 
1704728485.980007000  -2.4943  -0.367154  0.974644  0  0  -0.0307343  0.0064186  -0.0483158  -0.0320578  0  0  0  -0  0.533275  0  0  0  0  0  0  0  0  0  0 
1704728485.985006000  -2.49427  -0.367389  0.974484  0  0  -0.0309232  0.0064186  -0.0456084  -0.0320578  0  0  0  -0  0.549729  0  0  0  0  0  0  0  0  0  0 
1704728485.990007000  -2.49424  -0.36761  0.974324  0  0  -0.031112  0.0064186  -0.0428181  -0.0320578  0  0  0  -0  0.566433  0  0  0  0  0  0  0  0  0  0 
1704728485.995005000  -2.4942  -0.367817  0.974163  0  0  -0.0313009  0.0064186  -0.0399436  -0.0320578  0  0  0  -0  0.583354  0  0  0  0  0  0  0  0  0  0 
1704728486.000003000  -2.49417  -0.368009  0.974003  0  0  -0.0314898  0.0064186  -0.0369848  -0.0320578  0  0  0  -0  0.600127  0  0  0  0  0  0  0  0  0  0 
1704728486.005023000  -2.49414  -0.368187  0.973843  0  0  -0.0316786  0.0064186  -0.0339428  -0.0320578  0  0  0  -0  0.616649  0  0  0  0  0  0  0  0  0  0 
1704728486.010005000  -2.49411  -0.368348  0.973683  0  0  -0.0318675  0.0064186  -0.0308188  -0.0320578  0  0  0  -0  0.632922  0  0  0  0  0  0  0  0  0  0 
1704728486.015010000  -2.49408  -0.368495  0.973522  0  0  -0.0320564  0.0064186  -0.027614  -0.0320578  0  0  0  -0  0.648944  0  0  0  0  0  0  0  0  0  0 
1704728486.020005000  -2.49404  -0.368624  0.973362  0  0  -0.0322453  0.0064186  -0.0243297  -0.0320578  0  0  0  -0  0.664716  0  0  0  0  0  0  0  0  0  0 
1704728486.025006000  -2.49401  -0.368738  0.973202  0  0  -0.0324341  0.0064186  -0.0209672  -0.0320578  0  0  0  -0  0.680239  0  0  0  0  0  0  0  0  0  0 
1704728486.030008000  -2.49398  -0.368834  0.973041  0  0  -0.032623  0.0064186  -0.0175278  -0.0320578  0  0  0  -0  0.695511  0  0  0  0  0  0  0  0  0  0 
1704728486.035006000  -2.49395  -0.368913  0.972881  0  0  -0.0328119  0.0064186  -0.0140126  -0.0320578  0  0  0  -0  0.710534  0  0  0  0  0  0  0  0  0  0 
1704728486.040004000  -2.49391  -0.368974  0.972721  0  0  -0.0330007  0.0064186  -0.0104228  -0.0320578  0  0  0  -0  0.725306  0  0  0  0  0  0  0  0  0  0 
1704728486.045005000  -2.49388  -0.369017  0.97256  0  0  -0.0331896  0.0064186  -0.0067599  -0.0320578  0  0  0  -0  0.739829  0  0  0  0  0  0  0  0  0  0 
1704728486.050007000  -2.49385  -0.369042  0.9724  0  0  -0.0333785  0.0064186  -0.003025  -0.0320578  0  0  0  -0  0.754101  0  0  0  0  0  0  0  0  0  0 
1704728486.055007000  -2.49382  -0.369047  0.97224  0  0  -0.0335674  0.0064186  0.0007807  -0.0320578  0  0  0  -0  0.768124  0  0  0  0  0  0  0  0  0  0 
1704728486.060004000  -2.49379  -0.369034  0.97208  0  0  -0.0337562  0.0064186  0.0046558  -0.0320578  0  0  0  -0  0.781896  0  0  0  0  0  0  0  0  0  0 
1704728486.065005000  -2.49375  -0.369  0.971919  0  0  -0.0339451  0.0064186  0.0085992  -0.0320578  0  0  0  -0  0.795419  0  0  0  0  0  0  0  0  0  0 
1704728486.070007000  -2.49372  -0.368947  0.971759  0  0  -0.034134  0.0064186  0.0126096  -0.0320578  0  0  0  -0  0.808691  0  0  0  0  0  0  0  0  0  0 
1704728486.075004000  -2.49369  -0.368874  0.971599  0  0  -0.0343228  0.0064186  0.0166857  -0.0320578  0  0  0  -0  0.821714  0  0  0  0  0  0  0  0  0  0 
1704728486.080005000  -2.49366  -0.368781  0.971438  0  0  -0.0345117  0.0064186  0.0208263  -0.0320578  0  0  0  -0  0.834486  0  0  0  0  0  0  0  0  0  0 
1704728486.085005000  -2.49363  -0.368666  0.971278  0  0  -0.0347006  0.0064186  0.0250302  -0.0320578  0  0  0  -0  0.847008  0  0  0  0  0  0  0  0  0  0 
1704728486.090008000  -2.49359  -0.36853  0.971118  0  0  -0.0348895  0.0064186  0.029296  -0.0320578  0  0  0  -0  0.859281  0  0  0  0  0  0  0  0  0  0 
1704728486.095008000  -2.49356  -0.368373  0.970958  0  0  -0.0350783  0.0064186  0.0336226  -0.0320578  0  0  0  -0  0.871303  0  0  0  0  0  0  0  0  0  0 
1704728486.100006000  -2.49353  -0.368194  0.970797  0  0  -0.0352672  0.0064186  0.0380086  -0.0320578  0  0  0  -0  0.883076  0  0  0  0  0  0  0  0  0  0 
1704728486.105007000  -2.4935  -0.367993  0.970637  0  0  -0.0354561  0.0064186  0.0424529  -0.0320578  0  0  0  -0  0.894598  0  0  0  0  0  0  0  0  0  0 
1704728486.110005000  -2.49347  -0.367769  0.970477  0  0  -0.0356449  0.0064186  0.0469542  -0.0320578  0  0  0  -0  0.905871  0  0  0  0  0  0  0  0  0  0 
1704728486.115005000  -2.49343  -0.367523  0.970316  0  0  -0.0358338  0.0064186  0.0515112  -0.0320578  0  0  0  -0  0.916893  0  0  0  0  0  0  0  0  0  0 
1704728486.120005000  -2.4934  -0.367254  0.970156  0  0  -0.0360227  0.0064186  0.0561227  -0.0320578  0  0  0  -0  0.927666  0  0  0  0  0  0  0  0  0  0 
1704728486.125004000  -2.49337  -0.366962  0.969996  0  0  -0.0362116  0.0064186  0.0607874  -0.0320578  0  0  0  -0  0.938188  0  0  0  0  0  0  0  0  0  0 
1704728486.130008000  -2.49334  -0.366646  0.969836  0  0  -0.0364004  0.0064186  0.0655042  -0.0320578  0  0  0  -0  0.948461  0  0  0  0  0  0  0  0  0  0 
1704728486.135007000  -2.4933  -0.366307  0.969675  0  0  -0.0365893  0.0064186  0.0702716  -0.0320578  0  0  0  -0  0.958483  0  0  0  0  0  0  0  0  0  0 
1704728486.140015000  -2.49327  -0.365943  0.969515  0  0  -0.0367782  0.0064186  0.0750886  -0.0320578  0  0  0  -0  0.968255  0  0  0  0  0  0  0  0  0  0 
1704728486.145012000  -2.49324  -0.365556  0.969355  0  0  -0.036967  0.0064186  0.0799538  -0.0320578  0  0  0  -0  0.977778  0  0  0  0  0  0  0  0  0  0 
1704728486.150009000  -2.49321  -0.365144  0.969194  0  0  -0.0371559  0.0064186  0.0848659  -0.0320578  0  0  0  -0  0.98705  0  0  0  0  0  0  0  0  0  0 
1704728486.155008000  -2.49318  -0.364707  0.969034  0  0  -0.0373448  0.0064186  0.0898239  -0.0320578  0  0  0  -0  0.996073  0  0  0  0  0  0  0  0  0  0 
1704728486.160015000  -2.49314  -0.364245  0.968874  0  0  -0.0375337  0.0064186  0.0948263  -0.0320578  0  0  0  -0  1.00485  0  0  0  0  0  0  0  0  0  0 
1704728486.165012000  -2.49311  -0.363759  0.968714  0  0  -0.0377225  0.0064186  0.0998719  -0.0320578  0  0  0  -0  1.01337  0  0  0  0  0  0  0  0  0  0 
1704728486.170008000  -2.49308  -0.363246  0.968553  0  0  -0.0379114  0.0064186  0.10496  -0.0320578  0  0  0  -0  1.02164  0  0  0  0  0  0  0  0  0  0 
1704728486.175008000  -2.49305  -0.362709  0.968393  0  0  -0.0381003  0.0064186  0.110088  -0.0320578  0  0  0  -0  1.02966  0  0  0  0  0  0  0  0  0  0 
1704728486.180008000  -2.49302  -0.362146  0.968233  0  0  -0.0382891  0.0064186  0.115256  -0.0320578  0  0  0  -0  1.03744  0  0  0  0  0  0  0  0  0  0 
1704728486.185014000  -2.49298  -0.361556  0.968072  0  0  -0.038478  0.0064186  0.120462  -0.0320578  0  0  0  -0  1.04496  0  0  0  0  0  0  0  0  0  0 
1704728486.190008000  -2.49295  -0.360941  0.967912  0  0  -0.0386669  0.0064186  0.125705  -0.0320578  0  0  0  -0  1.05223  0  0  0  0  0  0  0  0  0  0 
1704728486.195008000  -2.49292  -0.360299  0.967752  0  0  -0.0388558  0.0064186  0.130984  -0.0320578  0  0  0  -0  1.05925  0  0  0  0  0  0  0  0  0  0 
1704728486.200004000  -2.49289  -0.359631  0.967592  0  0  -0.0390446  0.0064186  0.136297  -0.0320578  0  0  0  -0  1.06602  0  0  0  0  0  0  0  0  0  0 
1704728486.205014000  -2.49286  -0.358936  0.967431  0  0  -0.0392335  0.0064186  0.141644  -0.0320578  0  0  0  -0  1.07255  0  0  0  0  0  0  0  0  0  0 
1704728486.210006000  -2.49282  -0.358214  0.967271  0  0  -0.0394224  0.0064186  0.147022  -0.0320578  0  0  0  -0  1.07882  0  0  0  0  0  0  0  0  0  0 
1704728486.215006000  -2.49279  -0.357466  0.967111  0  0  -0.0396112  0.0064186  0.152431  -0.0320578  0  0  0  -0  1.08484  0  0  0  0  0  0  0  0  0  0 
1704728486.220015000  -2.49276  -0.35669  0.96695  0  0  -0.0398001  0.0064186  0.15787  -0.0320578  0  0  0  -0  1.09061  0  0  0  0  0  0  0  0  0  0 
1704728486.225014000  -2.49273  -0.355887  0.96679  0  0  -0.039989  0.0064186  0.163337  -0.0320578  0  0  0  -0  1.09614  0  0  0  0  0  0  0  0  0  0 
1704728486.230008000  -2.4927  -0.355057  0.96663  0  0  -0.0401779  0.0064186  0.168831  -0.0320578  0  0  0  -0  1.10141  0  0  0  0  0  0  0  0  0  0 
1704728486.235007000  -2.49266  -0.354199  0.966469  0  0  -0.0403667  0.0064186  0.174351  -0.0320578  0  0  0  -0  1.10643  0  0  0  0  0  0  0  0  0  0 
1704728486.240015000  -2.49263  -0.353313  0.966309  0  0  -0.0405556  0.0064186  0.179895  -0.0320578  0  0  0  -0  1.1112  0  0  0  0  0  0  0  0  0  0 
1704728486.245013000  -2.4926  -0.3524  0.966149  0  0  -0.0407445  0.0064186  0.185462  -0.0320578  0  0  0  -0  1.11573  0  0  0  0  0  0  0  0  0  0 
1704728486.250007000  -2.49257  -0.351458  0.965989  0  0  -0.0409335  0.0064186  0.191052  -0.0320578  0  0  0  -0  1.12  0  0  0  0  0  0  0  0  0  0 
1704728486.255007000  -2.49253  -0.350489  0.965828  0  0  -0.0411226  0.0064186  0.196662  -0.0320578  0  0  0  -0  1.12402  0  0  0  0  0  0  0  0  0  0 
1704728486.260015000  -2.4925  -0.349492  0.965668  0  0  -0.0413118  0.0064186  0.202292  -0.0320578  0  0  0  -0  1.12779  0  0  0  0  0  0  0  0  0  0 
1704728486.265015000  -2.49247  -0.348466  0.965508  0  0  -0.0415013  0.0064186  0.207939  -0.0320578  0  0  0  -0  1.13132  0  0  0  0  0  0  0  0  0  0 
1704728486.270028000  -2.49244  -0.347412  0.965347  0  0  -0.041691  0.0064186  0.213604  -0.0320578  0  0  0  -0  1.13459  0  0  0  0  0  0  0  0  0  0 
1704728486.275016000  -2.49241  -0.34633  0.965187  0  0  -0.041881  0.0064186  0.219285  -0.0320578  0  0  0  -0  1.13761  0  0  0  0  0  0  0  0  0  0 
1704728486.280016000  -2.49237  -0.34522  0.965027  0  0  -0.0420716  0.0064186  0.22498  -0.0320578  0  0  0  -0  1.14038  0  0  0  0  0  0  0  0  0  0 
1704728486.285018000  -2.49234  -0.34408  0.964867  0  0  -0.0422626  0.0064186  0.230688  -0.0320578  0  0  0  -0  1.14291  0  0  0  0  0  0  0  0  0  0 
1704728486.290017000  -2.49231  -0.342913  0.964706  0  0  -0.0424544  0.0064186  0.236409  -0.0320578  0  0  0  -0  1.14518  0  0  0  0  0  0  0  0  0  0 
1704728486.295016000  -2.49228  -0.341716  0.964546  0  0  -0.0426469  0.0064186  0.24214  -0.0320578  0  0  0  -0  1.1472  0  0  0  0  0  0  0  0  0  0 
1704728486.300015000  -2.49225  -0.340491  0.964386  0  0  -0.0428403  0.0064186  0.24788  -0.0320578  0  0  0  -0  1.14897  0  0  0  0  0  0  0  0  0  0 
1704728486.305016000  -2.49221  -0.339237  0.964225  0  0  -0.0430347  0.0064186  0.253629  -0.0320578  0  0  0  -0  1.1505  0  0  0  0  0  0  0  0  0  0 
1704728486.310017000  -2.49218  -0.337955  0.964065  0  0  -0.0432304  0.0064186  0.259385  -0.0320578  0  0  0  -0  1.15177  0  0  0  0  0  0  0  0  0  0 
1704728486.315013000  -2.49215  -0.336644  0.963905  0  0  -0.0434274  0.0064186  0.265146  -0.0320578  0  0  0  -0  1.15279  0  0  0  0  0  0  0  0  0  0 
1704728486.320016000  -2.49212  -0.335303  0.963745  0  0  -0.0436259  0.0064186  0.270912  -0.0320578  0  0  0  -0  1.15356  0  0  0  0  0  0  0  0  0  0 
1704728486.325013000  -2.49209  -0.333934  0.963584  0  0  -0.0438261  0.0064186  0.276682  -0.0320578  0  0  0  -0  1.15409  0  0  0  0  0  0  0  0  0  0 
1704728486.330011000  -2.49205  -0.332537  0.963424  0  0  -0.0440283  0.0064186  0.282453  -0.0320578  0  0  0  -0  1.15436  0  0  0  0  0  0  0  0  0  0 
1704728486.335030000  -2.49202  -0.33111  0.963264  0  0  -0.0442325  0.0064186  0.288225  -0.0320578  0  0  0  -0  1.15438  0  0  0  0  0  0  0  0  0  0 
1704728486.340005000  -2.49199  -0.329654  0.963103  0  0  -0.044439  0.0064186  0.293996  -0.0320578  0  0  0  -0  1.15415  0  0  0  0  0  0  0  0  0  0 
1704728486.345006000  -2.49196  -0.32817  0.962943  0  0  -0.0446481  0.0064186  0.299766  -0.0320578  0  0  0  -0  1.15368  0  0  0  0  0  0  0  0  0  0 
1704728486.350006000  -2.49192  -0.326657  0.962783  0  0  -0.0448599  0.0064186  0.305533  -0.0320578  0  0  0  -0  1.15295  0  0  0  0  0  0  0  0  0  0 
1704728486.355005000  -2.49189  -0.325115  0.962623  0  0  -0.0450747  0.0064186  0.311295  -0.0320578  0  0  0  -0  1.15197  0  0  0  0  0  0  0  0  0  0 
1704728486.360031000  -2.49186  -0.323544  0.962462  0  0  -0.0452927  0.0064186  0.317052  -0.0320578  0  0  0  -0  1.15074  0  0  0  0  0  0  0  0  0  0 
1704728486.365006000  -2.49183  -0.321944  0.962302  0  0  -0.0455142  0.0064186  0.322802  -0.0320578  0  0  0  -0  1.14927  0  0  0  0  0  0  0  0  0  0 
1704728486.370008000  -2.4918  -0.320316  0.962142  0  0  -0.0457394  0.0064186  0.328544  -0.0320578  0  0  0  -0  1.14754  0  0  0  0  0  0  0  0  0  0 
1704728486.375006000  -2.49176  -0.318659  0.961981  0  0  -0.0459685  0.0064186  0.334277  -0.0320578  0  0  0  -0  1.14556  0  0  0  0  0  0  0  0  0  0 
1704728486.380004000  -2.49173  -0.316973  0.961821  0  0  -0.0462018  0.0064186  0.339999  -0.0320578  0  0  0  -0  1.14333  0  0  0  0  0  0  0  0  0  0 
1704728486.385006000  -2.4917  -0.315259  0.961661  0  0  -0.0464395  0.0064186  0.34571  -0.0320578  0  0  0  -0  1.14086  0  0  0  0  0  0  0  0  0  0 
1704728486.390007000  -2.49167  -0.313516  0.961501  0  0  -0.0466816  0.0064186  0.351407  -0.0320578  0  0  0  -0  1.13813  0  0  0  0  0  0  0  0  0  0 
1704728486.395005000  -2.49164  -0.311745  0.96134  0  0  -0.0469285  0.0064186  0.357091  -0.0320578  0  0  0  -0  1.13515  0  0  0  0  0  0  0  0  0  0 
1704728486.400004000  -2.4916  -0.309945  0.96118  0  0  -0.0471802  0.0064186  0.362758  -0.0320578  0  0  0  -0  1.13192  0  0  0  0  0  0  0  0  0  0 
1704728486.405004000  -2.49157  -0.308117  0.96102  0  0  -0.047437  0.0064186  0.36841  -0.0320578  0  0  0  -0  1.12845  0  0  0  0  0  0  0  0  0  0 
1704728486.410028000  -2.49154  -0.306261  0.960859  0  0  -0.047699  0.0064186  0.374043  -0.0320578  0  0  0  -0  1.12472  0  0  0  0  0  0  0  0  0  0 
1704728486.415006000  -2.49151  -0.304377  0.960699  0  0  -0.0479663  0.0064186  0.379656  -0.0320578  0  0  0  -0  1.12074  0  0  0  0  0  0  0  0  0  0 
1704728486.420006000  -2.49148  -0.302464  0.960539  0  0  -0.048239  0.0064186  0.38525  -0.0320578  0  0  0  -0  1.11651  0  0  0  0  0  0  0  0  0  0 
1704728486.425003000  -2.49144  -0.300524  0.960378  0  0  -0.0485174  0.0064186  0.390821  -0.0320578  0  0  0  -0  1.11204  0  0  0  0  0  0  0  0  0  0 
1704728486.430006000  -2.49141  -0.298556  0.960218  0  0  -0.0488014  0.0064186  0.396369  -0.0320578  0  0  0  -0  1.10731  0  0  0  0  0  0  0  0  0  0 
1704728486.435005000  -2.49138  -0.296561  0.960058  0  0  -0.0490913  0.0064186  0.401894  -0.0320578  0  0  0  -0  1.10233  0  0  0  0  0  0  0  0  0  0 
1704728486.440005000  -2.49135  -0.294537  0.959898  0  0  -0.049387  0.0064186  0.407392  -0.0320578  0  0  0  -0  1.0971  0  0  0  0  0  0  0  0  0  0 
1704728486.445005000  -2.49132  -0.292487  0.959737  0  0  -0.0496887  0.0064186  0.412864  -0.0320578  0  0  0  -0  1.09163  0  0  0  0  0  0  0  0  0  0 
1704728486.450007000  -2.49128  -0.290409  0.959577  0  0  -0.0499964  0.0064186  0.418308  -0.0320578  0  0  0  -0  1.0859  0  0  0  0  0  0  0  0  0  0 
1704728486.455004000  -2.49125  -0.288304  0.959417  0  0  -0.0503103  0.0064186  0.423723  -0.0320578  0  0  0  -0  1.07992  0  0  0  0  0  0  0  0  0  0 
1704728486.460004000  -2.49122  -0.286172  0.959256  0  0  -0.0506302  0.0064186  0.429107  -0.0320578  0  0  0  -0  1.07369  0  0  0  0  0  0  0  0  0  0 
1704728486.465005000  -2.49119  -0.284013  0.959096  0  0  -0.0509564  0.0064186  0.434459  -0.0320578  0  0  0  -0  1.06722  0  0  0  0  0  0  0  0  0  0 
1704728486.470007000  -2.49115  -0.281827  0.958936  0  0  -0.0512887  0.0064186  0.439779  -0.0320578  0  0  0  -0  1.06049  0  0  0  0  0  0  0  0  0  0 
1704728486.475004000  -2.49112  -0.279615  0.958776  0  0  -0.0516273  0.0064186  0.445064  -0.0320578  0  0  0  -0  1.05351  0  0  0  0  0  0  0  0  0  0 
1704728486.480004000  -2.49109  -0.277377  0.958615  0  0  -0.0519722  0.0064186  0.450313  -0.0320578  0  0  0  -0  1.04628  0  0  0  0  0  0  0  0  0  0 
1704728486.485026000  -2.49106  -0.275112  0.958455  0  0  -0.0523233  0.0064186  0.455526  -0.0320578  0  0  0  -0  1.03881  0  0  0  0  0  0  0  0  0  0 
1704728486.490007000  -2.49103  -0.272821  0.958295  0  0  -0.0526807  0.0064186  0.460701  -0.0320578  0  0  0  -0  1.03108  0  0  0  0  0  0  0  0  0  0 
1704728486.495007000  -2.49099  -0.270505  0.958134  0  0  -0.0530443  0.0064186  0.465837  -0.0320578  0  0  0  -0  1.0231  0  0  0  0  0  0  0  0  0  0 
1704728486.500006000  -2.49096  -0.268163  0.957974  0  0  -0.0534141  0.0064186  0.470932  -0.0320578  0  0  0  -0  1.01487  0  0  0  0  0  0  0  0  0  0 
1704728486.505007000  -2.49093  -0.265796  0.957814  0  0  -0.0537902  0.0064186  0.475985  -0.0320578  0  0  0  -0  1.00639  0  0  0  0  0  0  0  0  0  0 
1704728486.510009000  -2.4909  -0.263403  0.957654  0  0  -0.0541726  0.0064186  0.480995  -0.0320578  0  0  0  -0  0.997667  0  0  0  0  0  0  0  0  0  0 
1704728486.515006000  -2.49087  -0.260986  0.957493  0  0  -0.0545612  0.0064186  0.485961  -0.0320578  0  0  0  -0  0.98869  0  0  0  0  0  0  0  0  0  0 
1704728486.520006000  -2.49083  -0.258544  0.957333  0  0  -0.054956  0.0064186  0.490882  -0.0320578  0  0  0  -0  0.979462  0  0  0  0  0  0  0  0  0  0 
1704728486.525014000  -2.4908  -0.256077  0.957173  0  0  -0.0553571  0.0064186  0.495755  -0.0320578  0  0  0  -0  0.969985  0  0  0  0  0  0  0  0  0  0 
1704728486.530005000  -2.49077  -0.253586  0.957012  0  0  -0.0557645  0.0064187  0.500581  -0.0320578  0  0  0  4.52e-05  0.960257  0  0  0  0  0  0  0  0  0  0 
1704728486.535008000  -2.49074  -0.251071  0.956852  0  0  -0.0561781  0.0064195  0.505358  -0.0320578  0  0  0  0.0003206  0.95028  0  0  0  0  0  0  0  0  0  0 
1704728486.540003000  -2.49071  -0.248533  0.956692  0  0  -0.056598  0.0064223  0.510083  -0.0320578  0  0  0  0.0008459  0.940052  0  0  0  0  0  0  0  0  0  0 
1704728486.545006000  -2.49067  -0.245971  0.956532  0  0  -0.0570241  0.0064284  0.514758  -0.0320578  0  0  0  0.0016213  0.929575  0  0  0  0  0  0  0  0  0  0 
1704728486.550007000  -2.49064  -0.243385  0.956371  0  0  -0.0574564  0.0064389  0.519379  -0.0320578  0  0  0  0.0026467  0.918847  0  0  0  0  0  0  0  0  0  0 
1704728486.555005000  -2.49061  -0.240777  0.956211  0  0  -0.057895  0.0064552  0.523946  -0.0320578  0  0  0  0.003922  0.90787  0  0  0  0  0  0  0  0  0  0 
1704728486.560005000  -2.49058  -0.238146  0.956051  0  0  -0.0583399  0.0064786  0.528457  -0.0320578  0  0  0  0.0054474  0.896642  0  0  0  0  0  0  0  0  0  0 
1704728486.565005000  -2.49054  -0.235492  0.95589  0  0  -0.058791  0.0065101  0.532912  -0.0320578  0  0  0  0.0072228  0.885165  0  0  0  0  0  0  0  0  0  0 
1704728486.570008000  -2.49051  -0.232817  0.95573  0  0  -0.0592483  0.0065512  0.537308  -0.0320578  0  0  0  0.0092481  0.873437  0  0  0  0  0  0  0  0  0  0 
1704728486.575004000  -2.49048  -0.230119  0.95557  0  0  -0.059712  0.006603  0.541646  -0.0320578  0  0  0  0.0115235  0.861459  0  0  0  0  0  0  0  0  0  0 
1704728486.580005000  -2.49045  -0.227401  0.95541  0  0  -0.0601818  0.0066669  0.545922  -0.0320578  0  0  0  0.0140489  0.849232  0  0  0  0  0  0  0  0  0  0 
1704728486.585006000  -2.49041  -0.22466  0.955249  0  0  -0.0606579  0.0067439  0.550138  -0.0320578  0  0  0  0.0168242  0.836754  0  0  0  0  0  0  0  0  0  0 
1704728486.590006000  -2.49038  -0.221899  0.955089  0  0  -0.0611403  0.0068355  0.55429  -0.0320578  0  0  0  0.0198496  0.824027  0  0  0  0  0  0  0  0  0  0 
1704728486.595006000  -2.49034  -0.219118  0.954929  0  0  -0.0616289  0.0069429  0.558377  -0.0320578  0  0  0  0.023125  0.811049  0  0  0  0  0  0  0  0  0  0 
1704728486.600005000  -2.49031  -0.216316  0.954768  0  0  -0.0621237  0.0070672  0.5624  -0.0320578  0  0  0  0.0266503  0.797822  0  0  0  0  0  0  0  0  0  0 
1704728486.605005000  -2.49027  -0.213494  0.954608  0  0  -0.0626248  0.0072098  0.566355  -0.0320578  0  0  0  0.0304257  0.784344  0  0  0  0  0  0  0  0  0  0 
1704728486.610026000  -2.49024  -0.210652  0.954448  0  0  -0.0631322  0.0073719  0.570243  -0.0320578  0  0  0  0.0344511  0.770617  0  0  0  0  0  0  0  0  0  0 
1704728486.615006000  -2.4902  -0.207791  0.954288  0  0  -0.0636458  0.0075547  0.574061  -0.0320578  0  0  0  0.0387264  0.756639  0  0  0  0  0  0  0  0  0  0 
1704728486.620005000  -2.49016  -0.204912  0.954127  0  0  -0.0641656  0.0077595  0.577809  -0.0320578  0  0  0  0.0432518  0.742412  0  0  0  0  0  0  0  0  0  0 
1704728486.625004000  -2.49012  -0.202013  0.953967  0  0  -0.0646918  0.0079876  0.581485  -0.0320578  0  0  0  0.0480271  0.727934  0  0  0  0  0  0  0  0  0  0 
1704728486.630006000  -2.49008  -0.199097  0.953807  0  0  -0.0652241  0.0082402  0.585088  -0.0320578  0  0  0  0.0530525  0.713206  0  0  0  0  0  0  0  0  0  0 
1704728486.635004000  -2.49004  -0.196163  0.953646  0  0  -0.0657627  0.0085186  0.588616  -0.0320578  0  0  0  0.0583279  0.698229  4.8e-05  0  0  0  0  0  0  0  0  0 
1704728486.640005000  -2.49  -0.193211  0.953486  0  0  -0.0663076  0.0088239  0.592069  -0.032057  0  0  0  0.0638532  0.683001  0.000328  0  0  0  0  0  0  0  0  0 
1704728486.645005000  -2.48995  -0.190242  0.953326  0  0  -0.0668587  0.0091575  0.595446  -0.0320541  0  0  0  0.0696286  0.667524  0.000858  0  0  0  0  0  0  0  0  0 
1704728486.650013000  -2.4899  -0.187257  0.953166  0  0  -0.067416  0.0095206  0.598744  -0.032048  0  0  0  0.075654  0.651796  0.001638  0  0  0  0  0  0  0  0  0 
1704728486.655005000  -2.48986  -0.184255  0.953005  0  0  -0.0679796  0.0099145  0.601963  -0.0320373  0  0  0  0.0819293  0.635819  0.002668  0  0  0  0  0  0  0  0  0 
1704728486.660006000  -2.4898  -0.181237  0.952845  0  0  -0.0685495  0.0103403  0.605102  -0.0320209  0  0  0  0.0884547  0.619591  0.003948  0  0  0  0  0  0  0  0  0 
1704728486.665006000  -2.48975  -0.178204  0.952685  0  0  -0.0691256  0.0107994  0.608159  -0.0319974  0  0  0  0.0952301  0.603114  0.005478  0  0  0  0  0  0  0  0  0 
1704728486.670009000  -2.4897  -0.175156  0.952525  0  0  -0.0697079  0.011293  0.611133  -0.0319657  0  0  0  0.102255  0.586386  0.007258  0  0  0  0  0  0  0  0  0 
1704728486.675005000  -2.48964  -0.172093  0.952365  0  0  -0.0702966  0.0118224  0.614022  -0.0319244  0  0  0  0.109531  0.569409  0.009288  0  0  0  0  0  0  0  0  0 
1704728486.680005000  -2.48958  -0.169016  0.952206  0  0  -0.0708914  0.0123888  0.616826  -0.0318724  0  0  0  0.117056  0.552181  0.011568  0  0  0  0  0  0  0  0  0 
1704728486.685024000  -2.48951  -0.165925  0.952047  0  0  -0.0714925  0.0129934  0.619544  -0.0318083  0  0  0  0.124832  0.534704  0.014098  0  0  0  0  0  0  0  0  0 
1704728486.690007000  -2.48945  -0.16282  0.951888  0  0  -0.0720999  0.0136375  0.622173  -0.031731  0  0  0  0.132857  0.516976  0.016878  0  0  0  0  0  0  0  0  0 
1704728486.695006000  -2.48938  -0.159703  0.951729  0  0  -0.0727135  0.0143224  0.624713  -0.0316391  0  0  0  0.141132  0.498998  0.019908  0  0  0  0  0  0  0  0  0 
1704728486.700004000  -2.48931  -0.156573  0.951572  0  0  -0.0733333  0.0150492  0.627163  -0.0315315  0  0  0  0.149658  0.480771  0.023188  0  0  0  0  0  0  0  0  0 
1704728486.705006000  -2.48923  -0.153432  0.951414  0  0  -0.0739594  0.0158194  0.62952  -0.0314068  0  0  0  0.158433  0.462293  0.026718  0  0  0  0  0  0  0  0  0 
1704728486.710023000  -2.48915  -0.150278  0.951258  0  0  -0.0745918  0.016634  0.631785  -0.0312639  0  0  0  0.167458  0.443566  0.030498  0  0  0  0  0  0  0  0  0 
1704728486.715007000  -2.48906  -0.147114  0.951102  0  0  -0.0752304  0.0174944  0.633956  -0.0311014  0  0  0  0.176734  0.424588  0.034528  0  0  0  0  0  0  0  0  0 
1704728486.720022000  -2.48897  -0.143939  0.950947  0  0  -0.0758752  0.0184017  0.636031  -0.0309182  0  0  0  0.186259  0.405598  0.038808  0  0  0  0  0  0  0  0  0 
1704728486.725006000  -2.48888  -0.140754  0.950792  0  0  -0.0765264  0.0193574  0.638012  -0.0307129  0  0  0  0.196034  0.386857  0.043338  0  0  0  0  0  0  0  0  0 
1704728486.730003000  -2.48878  -0.137559  0.950639  0  0  -0.0771837  0.0203625  0.6399  -0.0304844  0  0  0  0.20606  0.368366  0.048118  0  0  0  0  0  0  0  0  0 
1704728486.735020000  -2.48867  -0.134355  0.950488  0  0  -0.0778473  0.0214184  0.641696  -0.0302313  0  0  0  0.216335  0.350125  0.053148  0  0  0  0  0  0  0  0  0 
1704728486.740019000  -2.48856  -0.131142  0.950337  0  0  -0.0785172  0.0225263  0.643402  -0.0299525  0  0  0  0.226861  0.332134  0.058428  0  0  0  0  0  0  0  0  0 
1704728486.745017000  -2.48845  -0.127921  0.950188  0  0  -0.0791933  0.0236874  0.645018  -0.0296466  0  0  0  0.237636  0.314394  0.063958  0  0  0  0  0  0  0  0  0 
1704728486.750018000  -2.48833  -0.124692  0.950041  0  0  -0.0798756  0.024903  0.646546  -0.0293125  0  0  0  0.248661  0.296903  0.069738  0  0  0  0  0  0  0  0  0 
1704728486.755016000  -2.4882  -0.121456  0.949895  0  0  -0.0805642  0.0261744  0.647987  -0.0289488  0  0  0  0.259937  0.279662  0.075768  0  0  0  0  0  0  0  0  0 
1704728486.760015000  -2.48807  -0.118212  0.949751  0  0  -0.0812591  0.0275028  0.649343  -0.0285544  0  0  0  0.271423  0.262671  0.082048  0  0  0  0  0  0  0  0  0 
1704728486.765016000  -2.48792  -0.114962  0.94961  0  0  -0.0819602  0.0288883  0.650614  -0.0281279  0  0  0  0.28275  0.24593  0.088578  0  0  0  0  0  0  0  0  0 
1704728486.770017000  -2.48778  -0.111706  0.94947  0  0  -0.0826675  0.0303299  0.651803  -0.0276682  0  0  0  0.293827  0.229439  0.095358  0  0  0  0  0  0  0  0  0 
1704728486.775014000  -2.48762  -0.108444  0.949333  0  0  -0.0833812  0.0318262  0.652909  -0.0271739  0  0  0  0.304655  0.213199  0.102388  0  0  0  0  0  0  0  0  0 
1704728486.780017000  -2.48746  -0.105177  0.949198  0  0  -0.084101  0.033376  0.653935  -0.0266439  0  0  0  0.315232  0.197208  0.109668  0  0  0  0  0  0  0  0  0 
1704728486.785014000  -2.48729  -0.101905  0.949067  0  0  -0.0848271  0.0349781  0.654882  -0.0260768  0  0  0  0.32556  0.181467  0.117198  0  0  0  0  0  0  0  0  0 
1704728486.790016000  -2.48711  -0.0986286  0.948938  0  0  -0.0855595  0.0366312  0.65575  -0.0254715  0  0  0  0.335637  0.165976  0.124978  0  0  0  0  0  0  0  0  0 
1704728486.795014000  -2.48692  -0.0953479  0.948812  0  0  -0.0862981  0.0383341  0.656542  -0.0248267  0  0  0  0.345464  0.150735  0.133008  0  0  0  0  0  0  0  0  0 
1704728486.800017000  -2.48672  -0.0920633  0.94869  0  0  -0.0870429  0.0400854  0.657258  -0.024141  0  0  0  0.355042  0.135744  0.141288  0  0  0  0  0  0  0  0  0 
1704728486.805015000  -2.48652  -0.0887754  0.948571  0  0  -0.087794  0.0418841  0.6579  -0.0234134  0  0  0  0.364369  0.121004  0.149818  0  0  0  0  0  0  0  0  0 
