ts fx fy fz tx ty tz exfx exfy exfz extx exty extz xd yd zd rolld pitchd yawd vxd vyd vzd wxd wyd wzd axd ayd azd e_x e_y e_z e_vx e_vy e_vz e_rx e_ry e_rz e_wx e_wy e_wz
1704728484.855678000  0  0  11.3035  0.0713917  -0.130089  0.0156487  nan  nan  nan  nan  nan  nan  -2.5  -0.3  1  0.0160027  -0.0314608  -0.000503419  0  0  0  0  0  0  0  0  0  0.0254211  0.00362222  -0.00324995  -0.0169581  0.0120394  -0.00235092  -0.014887  0.0295747  -0.0251744  -0.00582262  -0.0119093  0.0561359 
1704728484.859790000  0  0  11.2454  0.0555973  -0.109191  0.0177019  nan  nan  nan  nan  nan  nan  -2.5  -0.3  1  0.0155103  -0.030524  -0.000473401  0  0  0  0  0  0  0  0  0  0.0253431  0.00366583  -0.0032201  -0.0181607  0.0112246  0.00243694  -0.0141922  0.0282854  -0.025153  0.0193736  -0.0418437  0.0302556 
1704728484.864788000  0  0  11.2671  0.054414  -0.113862  0.0247286  nan  nan  nan  nan  nan  nan  -2.5  -0.3  1  0.0161039  -0.0306429  -0.000493434  0  0  0  0  0  0  0  0  0  0.0253615  0.00365787  -0.00321145  -0.0179785  0.0120223  0.000618057  -0.0146133  0.0282479  -0.0258703  0.0256143  -0.0321576  -0.0504042 
1704728484.868790000  0  0  11.246  0.0814177  -0.11192  0.0197635  nan  nan  nan  nan  nan  nan  -2.5  -0.3  1  0.0164242  -0.030701  -0.000504206  0  0  0  0  0  0  0  0  0  0.0252924  0.00370698  -0.00319724  -0.0178239  0.0122754  0.00235165  -0.0152835  0.0281565  -0.0255125  -0.0222268  -0.0351993  0.0080813 
1704728484.874821000  0  0  11.2547  0.0792881  -0.113137  0.0203173  nan  nan  nan  nan  nan  nan  -2.5  -0.3  1  0.0159603  -0.0302864  -0.000483348  0  0  0  0  0  0  0  0  0  0.0252806  0.00369487  -0.00317164  -0.0182876  0.0117385  0.00157154  -0.0149661  0.0276059  -0.0254435  -0.0208883  -0.0277003  0.000468988 
1704728484.879791000  0  0  11.2105  0.0866536  -0.0977344  0.0252128  nan  nan  nan  nan  nan  nan  -2.5  -0.3  1  0.0168297  -0.029305  -0.000493171  0  0  0  0  0  0  0  0  0  0.0252936  0.00368197  -0.00310671  -0.019688  0.0127721  0.00512085  -0.0159504  0.0262796  -0.0260332  -0.0265637  -0.0463034  -0.0548283 
1704728484.884793000  0  0  11.2147  0.103807  -0.0947195  0.021316  nan  nan  nan  nan  nan  nan  -2.5  -0.3  1  0.0166282  -0.0303276  -0.000504263  0  0  0  0  0  0  0  0  0  0.0252092  0.00373943  -0.0030915  -0.0182119  0.0124003  0.0047496  -0.0162285  0.026911  -0.0258432  -0.0583108  -0.0581425  -0.00801796 
1704728484.889825000  0  0  11.2886  0.107254  -0.120151  0.0206072  nan  nan  nan  nan  nan  nan  -2.5  -0.3  1  0.0170028  -0.0298629  -0.000507725  0  0  0  0  0  0  0  0  0  0.0252153  0.00372676  -0.00309617  -0.018559  0.0130352  -0.00140983  -0.0168539  0.0266925  -0.0257722  -0.0594525  -0.00526806  0.000131624 
1704728484.893665000  0  0  11.2203  0.116104  -0.0975281  0.0217537  nan  nan  nan  nan  nan  nan  -2.5  -0.3  1  0.0179078  -0.0276941  -0.000495929  0  0  0  0  0  0  0  0  0  0.0251202  0.00378283  -0.00304584  -0.0212796  0.0139112  0.00417133  -0.0180151  0.0242452  -0.0259062  -0.0664691  -0.0279995  -0.0128582 
1704728484.899703000  0  0  11.2159  0.0976925  -0.0814754  0.0221034  nan  nan  nan  nan  nan  nan  -2.5  -0.3  1  0.0166346  -0.0298461  -0.000496449  0  0  0  0  0  0  0  0  0  0.0251498  0.00375784  -0.00298775  -0.0186768  0.0123697  0.004439  -0.0169034  0.0256591  -0.0260377  -0.0398742  -0.0731129  -0.0159155 
1704728484.903708000  0  0  11.3403  0.105146  -0.125468  0.0202931  nan  nan  nan  nan  nan  nan  -2.5  -0.3  1  0.0175045  -0.0302174  -0.000528914  0  0  0  0  0  0  0  0  0  0.0250779  0.00382116  -0.00305724  -0.0176342  0.0135549  -0.0057979  -0.0179931  0.0265136  -0.0258891  -0.0447563  0.00700995  0.00522728 
1704728484.909704000  0  0  11.1757  0.123079  -0.0964491  0.0169297  nan  nan  nan  nan  nan  nan  -2.5  -0.3  1  0.0179014  -0.0266699  -0.000477423  0  0  0  0  0  0  0  0  0  0.0250317  0.00382674  -0.00291427  -0.0224927  0.0137179  0.00760099  -0.0189588  0.0228566  -0.0254318  -0.071738  -0.0173826  0.0426967 
1704728484.914700000  0  0  11.2436  0.0811792  -0.0914581  0.0230307  nan  nan  nan  nan  nan  nan  -2.5  -0.3  1  0.016727  -0.0290996  -0.000486724  0  0  0  0  0  0  0  0  0  0.0250948  0.00378833  -0.00290511  -0.0193956  0.0124693  0.00194693  -0.0174543  0.0248267  -0.0260002  -0.00177872  -0.0454891  -0.0278819 
1704728484.920099000  0  0  11.3113  0.111762  -0.150548  0.0199162  nan  nan  nan  nan  nan  nan  -2.5  -0.3  1  0.0184095  -0.0285254  -0.000525126  0  0  0  0  0  0  0  0  0  0.0249845  0.00388453  -0.00294347  -0.0196505  0.0144967  -0.0036495  -0.019552  0.0252563  -0.0258904  -0.0436459  0.0687389  0.00995151 
1704728484.926706000  0  0  11.1839  0.10433  -0.113329  0.0164981  nan  nan  nan  nan  nan  nan  -2.5  -0.3  1  0.0177254  -0.0263253  -0.000466622  0  0  0  0  0  0  0  0  0  0.0249563  0.00387267  -0.00281752  -0.0227293  0.0134141  0.00670015  -0.0190085  0.0229199  -0.0253554  -0.0337823  0.0157958  0.0473282 
1704728484.931706000  0  0  11.3288  0.0631328  -0.161118  0.0278951  nan  nan  nan  nan  nan  nan  -2.5  -0.3  1  0.0177074  -0.0293735  -0.000520108  0  0  0  0  0  0  0  0  0  0.0250389  0.00383978  -0.00285062  -0.018648  0.0137478  -0.00530225  -0.0183928  0.0266324  -0.0265531  0.0429486  0.0772179  -0.0831583 
1704728484.936655000  0  0  11.2623  0.0992118  -0.17447  0.0168108  nan  nan  nan  nan  nan  nan  -2.5  -0.3  1  0.0178365  -0.0283207  -0.00050513  0  0  0  0  0  0  0  0  0  0.0250694  0.00380632  -0.00277348  -0.0202504  0.0138544  4.57244e-05  -0.0190215  0.0263981  -0.0255432  -0.0234254  0.106078  0.0452976 
1704728484.941694000  0  0  11.1937  0.0675139  -0.128966  0.0164666  nan  nan  nan  nan  nan  nan  -2.5  -0.3  1  0.0170444  -0.0266241  -0.00045378  0  0  0  0  0  0  0  0  0  0.024949  0.00386946  -0.00272231  -0.0223127  0.0125937  0.00566879  -0.0177973  0.0244042  -0.0252295  0.0287074  0.0334139  0.0464626 
1704728484.946733000  0  0  11.2475  0.0428912  -0.134552  0.0253804  nan  nan  nan  nan  nan  nan  -2.5  -0.3  1  0.0176416  -0.0275607  -0.000486204  0  0  0  0  0  0  0  0  0  0.0248535  0.00394446  -0.00274504  -0.0207692  0.0132743  0.00124645  -0.017723  0.0254493  -0.0262124  0.0772687  0.0349712  -0.0551314 
1704728484.951705000  0  0  11.2107  0.0805379  -0.143238  0.0178024  nan  nan  nan  nan  nan  nan  -2.5  -0.3  1  0.0176356  -0.02781  -0.000490435  0  0  0  0  0  0  0  0  0  0.0249237  0.00389912  -0.00266406  -0.0207264  0.0132958  0.00412541  -0.018071  0.0260744  -0.0255773  0.00517736  0.0465927  0.0332437 
1704728484.956774000  0  0  11.1817  0.0664565  -0.117278  0.0165893  nan  nan  nan  nan  nan  nan  -2.5  -0.3  1  0.0165265  -0.0268308  -0.000443407  0  0  0  0  0  0  0  0  0  0.0249558  0.00383762  -0.00258345  -0.0221071  0.0119981  0.00638682  -0.0167549  0.0249548  -0.0252269  0.0212322  0.00497226  0.0449028 
1704728484.960726000  0  0  11.1826  0.0463033  -0.0965424  0.0242957  nan  nan  nan  nan  nan  nan  -2.5  -0.3  1  0.0170008  -0.0263317  -0.000447651  2e-07  -2e-07  -2e-07  0  0  0  0.000125  -0.000125  -0.000125  0.0248693  0.00389182  -0.00256581  -0.0225167  0.0124527  0.00627649  -0.0167266  0.0240864  -0.0259936  0.0612781  -0.0285103  -0.0437594 
1704728484.966695000  0  0  11.1889  0.0783982  -0.121081  0.0173873  nan  nan  nan  nan  nan  nan  -2.5  -0.3  1  0.0165612  -0.0281544  -0.000466251  1.7e-06  -1.7e-06  -1.7e-06  0  0  0  0.0005  -0.0005  -0.0005  0.0249426  0.00384037  -0.0024876  -0.0203459  0.0119841  0.00554693  -0.0165944  0.0261086  -0.0254584  -0.00412764  0.00196287  0.0372434 
1704728484.971692000  0  0  11.187  0.0803503  -0.109076  0.0148896  nan  nan  nan  nan  nan  nan  -2.5  -0.3  1  0.0165113  -0.0261991  -0.00043257  5.6e-06  -5.6e-06  -5.6e-06  0  0  0  0.001125  -0.001125  -0.001125  0.0249694  0.00377392  -0.00240765  -0.0227648  0.0119881  0.00547635  -0.0165626  0.024168  -0.0249204  -0.00832522  -0.00419259  0.0630843 
1704728484.976686000  0  0  11.1139  0.0597095  -0.0710017  0.0240203  nan  nan  nan  nan  nan  nan  -2.5  -0.3  1  0.0166934  -0.0253548  -0.00042335  1.33e-05  -1.33e-05  -1.33e-05  0  0  0  0.002  -0.002  -0.002  0.0248506  0.00383337  -0.00232921  -0.0236469  0.0118359  0.0113388  -0.0163509  0.0225666  -0.0257827  0.0310089  -0.065609  -0.0424268 
1704728484.981682000  0  0  11.2127  0.0714288  -0.11267  0.0228358  nan  nan  nan  nan  nan  nan  -2.5  -0.3  1  0.0164121  -0.0278293  -0.00045702  2.6e-05  -2.6e-05  -2.6e-05  0  0  0  0.003125  -0.003125  -0.003125  0.0249398  0.00376703  -0.00230363  -0.0203384  0.0116722  0.00294551  -0.0161974  0.025335  -0.0258903  0.00615878  -0.00774236  -0.0265451 
1704728484.986700000  0  0  11.1888  0.0981581  -0.114855  0.0164473  nan  nan  nan  nan  nan  nan  -2.5  -0.3  1  0.0175481  -0.0247609  -0.000435006  4.5e-05  -4.5e-05  -4.5e-05  0  0  0  0.0045  -0.0045  -0.0045  0.0247998  0.00383742  -0.00226399  -0.0237431  0.0127122  0.00469971  -0.0177039  0.0225689  -0.0251879  -0.0334401  0.0220756  0.0462877 
1704728484.991692000  0  0  11.0999  0.067745  -0.0753733  0.0231968  nan  nan  nan  nan  nan  nan  -2.5  -0.300001  0.999999  0.0165291  -0.0244378  -0.000404932  7.15e-05  -7.15e-05  -7.15e-05  0  0  0  0.006125  -0.006125  -0.006125  0.0248468  0.00375152  -0.00212425  -0.0242868  0.0112669  0.0116805  -0.016308  0.0215932  -0.0258036  0.0145435  -0.0479113  -0.0319242 
1704728484.996700000  0  0  11.2117  0.0771324  -0.12432  0.0252247  nan  nan  nan  nan  nan  nan  -2.5  -0.300001  0.999999  0.0168885  -0.0268006  -0.00045431  0.0001067  -0.0001067  -0.0001067  0  0  0  0.008  -0.008  -0.008  0.0249398  0.0036879  -0.00210609  -0.0210053  0.0118223  0.00214252  -0.0167648  0.0244614  -0.0262592  -2.87247e-05  0.023595  -0.0527167 
1704728485.001696000  0  0  11.1695  0.113092  -0.128269  0.01591  nan  nan  nan  nan  nan  nan  -2.5  -0.300002  0.999998  0.0180635  -0.0242269  -0.000440328  0.0001519  -0.0001519  -0.0001519  0  0  0  0.010125  -0.010125  -0.010125  0.0248048  0.00375996  -0.0020564  -0.0237565  0.0127738  0.00532914  -0.0185303  0.0223246  -0.0253408  -0.0557065  0.0511516  0.0545331 
1704728485.006704000  0  0  11.1114  0.0814325  -0.102278  0.021101  nan  nan  nan  nan  nan  nan  -2.5  -0.300003  0.999997  0.01701  -0.0240219  -0.000412812  0.0002083  -0.0002083  -0.0002083  0  0  0  0.0125  -0.0125  -0.0125  0.024864  0.00367654  -0.00194125  -0.023998  0.0112406  0.00971227  -0.017213  0.0218711  -0.0257054  -0.00450535  0.00334296  -0.00670881 
1704728485.010707000  0  0  11.1813  0.077506  -0.125888  0.0256018  nan  nan  nan  nan  nan  nan  -2.5  -0.300004  0.999996  0.0176763  -0.0246586  -0.000441973  0.0002773  -0.0002773  -0.0002773  0  0  0  0.015125  -0.015125  -0.015125  0.024785  0.00372917  -0.0019605  -0.0225106  0.0117504  0.00367693  -0.0177799  0.0228741  -0.0262966  0.00856346  0.0413335  -0.057056 
1704728485.016701000  0  0  11.1466  0.117292  -0.141994  0.0152636  nan  nan  nan  nan  nan  nan  -2.49999  -0.300005  0.999995  0.0183944  -0.0242992  -0.000455577  0.00036  -0.00036  -0.00036  0  0  0  0.018  -0.018  -0.018  0.0248284  0.00367853  -0.0018512  -0.0227815  0.0123205  0.00604196  -0.019195  0.0231831  -0.0252873  -0.05799  0.0707028  0.0620781 
1704728485.021693000  0  0  11.0922  0.0939359  -0.129217  0.0191428  nan  nan  nan  nan  nan  nan  -2.49999  -0.300007  0.999993  0.0176417  -0.0239376  -0.000434203  0.0004577  -0.0004577  -0.0004577  0  0  0  0.021125  -0.021125  -0.021125  0.0248996  0.00359404  -0.00174048  -0.0231371  0.0110733  0.010044  -0.0183072  0.0229709  -0.0254391  -0.0194452  0.0471016  0.015106 
1704728485.026699000  0  0  11.1299  0.0932639  -0.129708  0.0243756  nan  nan  nan  nan  nan  nan  -2.49999  -0.30001  0.99999  0.0188279  -0.0234049  -0.000456677  0.0005717  -0.0005717  -0.0005717  0  0  0  0.0244764  -0.0245  -0.0245  0.0247906  0.00365843  -0.0017289  -0.0230274  0.0120436  0.00655002  -0.0194085  0.0226684  -0.0260758  -0.00797003  0.0508664  -0.0439375 
1704728485.031700000  0  0  11.1359  0.117709  -0.141568  0.018881  nan  nan  nan  nan  nan  nan  -2.49999  -0.300013  0.999987  0.0191195  -0.0243272  -0.000486234  0.0007022  -0.0007031  -0.0007031  0  0  0  0.027698  -0.028125  -0.028125  0.0248817  0.00358739  -0.00165059  -0.0216627  0.012115  0.00552646  -0.0201879  0.0240108  -0.0255991  -0.0496896  0.062237  0.0199777 
1704728485.036698000  0  0  11.1024  0.106168  -0.132952  0.0196131  nan  nan  nan  nan  nan  nan  -2.49998  -0.300017  0.999983  0.0197142  -0.0225718  -0.000472305  0.0008482  -0.0008533  -0.0008533  0  0  0  0.0306695  -0.032  -0.032  0.024754  0.00364503  -0.00159901  -0.0232592  0.0121593  0.00783468  -0.020704  0.0225256  -0.025557  -0.0218594  0.0586691  0.0104064 
1704728485.041693000  0  0  11.0684  0.0960205  -0.107506  0.0243396  nan  nan  nan  nan  nan  nan  -2.49998  -0.300022  0.999978  0.0198841  -0.022075  -0.000473765  0.0010085  -0.0010235  -0.0010235  0  0  0  0.033391  -0.036125  -0.036125  0.0248312  0.0035731  -0.00149543  -0.0237826  0.0119303  0.0100743  -0.0206875  0.0218709  -0.0261017  -0.00171606  0.0137984  -0.0432283 
1704728485.046699000  0  0  11.1805  0.104388  -0.132701  0.0210859  nan  nan  nan  nan  nan  nan  -2.49997  -0.300027  0.999973  0.0200973  -0.0241218  -0.0005285  0.0011817  -0.001215  -0.001215  0  0  0  0.0358626  -0.0405  -0.0405  0.0249264  0.00350488  -0.001487  -0.0208596  0.0120388  0.000280862  -0.0210719  0.0242825  -0.0259087  -0.014915  0.0420042  -0.00448633 
1704728485.051700000  0  0  11.1308  0.117396  -0.135319  0.0176796  nan  nan  nan  nan  nan  nan  -2.49997  -0.300034  0.999966  0.0215575  -0.0220627  -0.000529952  0.0013667  -0.001429  -0.001429  0  0  0  0.0380841  -0.045125  -0.045125  0.024807  0.00357217  -0.00143782  -0.0229926  0.0129997  0.00386713  -0.0227025  0.0226564  -0.0254827  -0.0259291  0.0621994  0.0338326 
1704728485.056699000  0  0  11.0711  0.0917368  -0.0885992  0.0212353  nan  nan  nan  nan  nan  nan  -2.49996  -0.300042  0.999958  0.0211358  -0.0212682  -0.000516253  0.0015621  -0.0016667  -0.0016667  0  0  0  0.0400556  -0.05  -0.05  0.0248738  0.00349971  -0.00133462  -0.0240166  0.0118804  0.00818355  -0.0218923  0.0213381  -0.0257485  0.0179352  -0.0191121  -0.00795615 
1704728485.061692000  0  0  11.2273  0.0835092  -0.123592  0.0216999  nan  nan  nan  nan  nan  nan  -2.49995  -0.300051  0.999949  0.0221646  -0.0231122  -0.000593311  0.0017668  -0.0019294  -0.0019294  0  0  0  0.0417772  -0.055125  -0.055125  0.024785  0.00357005  -0.00141491  -0.0209273  0.0127232  -0.0051552  -0.0226344  0.0235193  -0.025878  0.0412183  0.0308056  -0.0124691 
1704728485.065699000  0  0  11.1885  0.115688  -0.14054  0.0165626  nan  nan  nan  nan  nan  nan  -2.49994  -0.300061  0.999939  0.0239722  -0.0216226  -0.000615999  0.0019795  -0.0022183  -0.0022183  0  0  0  0.0432487  -0.0605  -0.0605  0.0246836  0.00363591  -0.00139102  -0.0224653  0.0140489  -0.00250287  -0.0247271  0.0225943  -0.0253188  -0.00388559  0.0732128  0.046156 
1704728485.071702000  0  0  11.0747  0.0921066  -0.0842489  0.0182598  nan  nan  nan  nan  nan  nan  -2.49993  -0.300073  0.999927  0.022675  -0.0208545  -0.000589522  0.0021989  -0.0025348  -0.0025348  0  0  0  0.0444702  -0.066125  -0.066125  0.0249246  0.00344686  -0.0012287  -0.0240677  0.0118554  0.00613505  -0.0230958  0.0212838  -0.0252  0.028268  -0.0273129  0.0237518 
1704728485.076708000  0  0  11.2541  0.0751497  -0.116372  0.0229772  nan  nan  nan  nan  nan  nan  -2.49992  -0.300086  0.999914  0.0239962  -0.0229033  -0.00068785  0.0024238  -0.00288  -0.0028799  0  0  0  0.0454418  -0.072  -0.0719119  0.0248416  0.00352637  -0.00133984  -0.0207769  0.0130361  -0.00913186  -0.0238875  0.0235398  -0.0257251  0.0694655  0.016177  -0.0299643 
1704728485.081702000  0  0  11.171  0.120293  -0.139617  0.0157001  nan  nan  nan  nan  nan  nan  -2.49991  -0.300102  0.999898  0.0258175  -0.0218411  -0.000726563  0.0026529  -0.0032552  -0.0032535  0  0  0  0.0461633  -0.078125  -0.07749  0.0249041  0.00348514  -0.00126225  -0.0223519  0.0143922  -0.00291849  -0.0260962  0.0231919  -0.0249745  -0.000501529  0.0658675  0.0534939 
1704728485.086710000  0  0  11.0776  0.0923097  -0.0861699  0.017307  nan  nan  nan  nan  nan  nan  -2.49989  -0.300119  0.999881  0.0255079  -0.0197986  -0.000694997  0.002885  -0.0036617  -0.0036544  0  0  0  0.0466348  -0.0845  -0.0828181  0.0247671  0.00354929  -0.0012086  -0.0247315  0.0127925  0.00426911  -0.0253201  0.0205767  -0.0248754  0.048326  -0.0169654  0.0324169 
1704728485.091708000  0  0  11.2421  0.0602094  -0.115051  0.0262363  nan  nan  nan  nan  nan  nan  -2.49988  -0.300138  0.999862  0.0263977  -0.021952  -0.000799971  0.0031188  -0.0041006  -0.0040813  0  0  0  0.0468564  -0.091125  -0.0878962  0.0248774  0.00349875  -0.00128278  -0.0218914  0.0136399  -0.00975591  -0.0253058  0.0229796  -0.0258726  0.112395  0.0186906  -0.0692275 
1704728485.096710000  0  0  11.1414  0.107725  -0.130516  0.0162695  nan  nan  nan  nan  nan  nan  -2.49986  -0.30016  0.99984  0.028001  -0.0219436  -0.000868855  0.0033531  -0.0045733  -0.0045329  0  0  0  0.0468279  -0.098  -0.0927243  0.0249416  0.00344778  -0.00120181  -0.0222895  0.0145717  -0.00200705  -0.0271746  0.0234574  -0.024957  0.0345567  0.0452226  0.0462012 
1704728485.101687000  0  0  11.0844  0.0962402  -0.0977755  0.0150487  nan  nan  nan  nan  nan  nan  -2.49984  -0.300184  0.999816  0.0277731  -0.0204631  -0.000859931  0.0035867  -0.005081  -0.0050081  0  0  0  0.0465494  -0.105125  -0.0973024  0.024816  0.00351112  -0.00117587  -0.02401  0.0130696  0.00226767  -0.0266264  0.0216753  -0.0245006  0.0524827  -0.00386212  0.0568969 
1704728485.106708000  0  0  11.1772  0.0706374  -0.110314  0.0243895  nan  nan  nan  nan  nan  nan  -2.49983  -0.300211  0.99979  0.028951  -0.0214965  -0.000954872  0.0038182  -0.005625  -0.0055055  0  0  0  0.046021  -0.1125  -0.101631  0.0249134  0.00346138  -0.00120636  -0.0227941  0.0139919  -0.00578926  -0.0269292  0.0228186  -0.0254099  0.106474  0.0106973  -0.0507692 
1704728485.111709000  0  0  11.0867  0.108963  -0.124211  0.0164511  nan  nan  nan  nan  nan  nan  -2.49981  -0.300241  0.999761  0.0307637  -0.0217712  -0.00104682  0.0040465  -0.0062065  -0.006024  0  0  0  0.0452425  -0.120125  -0.105709  0.024805  0.00353935  -0.00116303  -0.022524  0.0147943  0.00126253  -0.028853  0.0233795  -0.0246678  0.0475224  0.0333305  0.0410386 
1704728485.116708000  0  0  11.0811  0.101131  -0.121246  0.0139211  nan  nan  nan  nan  nan  nan  -2.49979  -0.300273  0.99973  0.0305251  -0.0214297  -0.0010796  0.0042702  -0.0068267  -0.0065622  0  0  0  0.044214  -0.128  -0.109537  0.0248633  0.00345705  -0.00112549  -0.0232176  0.0136643  0.00129821  -0.0282609  0.0232239  -0.0240558  0.0577382  0.0288316  0.0665443 
1704728485.121701000  0  0  11.0903  0.0760428  -0.108041  0.0228604  nan  nan  nan  nan  nan  nan  -2.49976  -0.300309  0.999696  0.0315969  -0.0212078  -0.00114787  0.0044882  -0.0074869  -0.0071189  0  0  0  0.0429356  -0.136125  -0.113115  0.0249372  0.0033932  -0.00109211  -0.0237922  0.0141267  0.000152266  -0.0284242  0.022898  -0.0248222  0.109417  0.00541956  -0.0375331 
1704728485.126710000  0  0  11.0642  0.0937332  -0.124036  0.0176108  nan  nan  nan  nan  nan  nan  -2.49974  -0.300348  0.999659  0.033067  -0.0228757  -0.00129064  0.0046992  -0.0081883  -0.0076929  0  0  0  0.0414071  -0.1445  -0.116443  0.0248429  0.00346404  -0.00107528  -0.0217788  0.0146204  0.00197578  -0.0296261  0.0247003  -0.0243084  0.0850938  0.0208287  0.0229485 
1704728485.131693000  0  0  11.0827  0.11123  -0.139103  0.0135346  nan  nan  nan  nan  nan  nan  -2.49972  -0.300391  0.999619  0.033822  -0.0225425  -0.00135716  0.0049019  -0.0089323  -0.008283  0  0  0  0.0396286  -0.153123  -0.119521  0.0248955  0.00339735  -0.00104121  -0.0224807  0.0146728  6.9646e-05  -0.0302439  0.024838  -0.0236126  0.0557842  0.049695  0.0669443 
1704728485.136701000  0  0  11.033  0.0931115  -0.106408  0.0209917  nan  nan  nan  nan  nan  nan  -2.49969  -0.300437  0.999576  0.0353607  -0.021184  -0.00140854  0.005095  -0.0097195  -0.0088877  0  0  0  0.0376002  -0.161703  -0.122349  0.0247619  0.00347012  -0.001006  -0.024228  0.0151233  0.00390858  -0.0310016  0.0231424  -0.0241632  0.0989919  -9.46662e-05  -0.020764 
1704728485.141694000  0  0  11.0732  0.0811715  -0.147892  0.0220912  nan  nan  nan  nan  nan  nan  -2.49967  -0.300488  0.99953  0.0345121  -0.0265861  -0.0016459  0.0052774  -0.0105489  -0.009506  0  0  0  0.0353217  -0.170034  -0.124927  0.02533  0.00310844  -0.000908626  -0.0190257  0.0139721  9.76997e-05  -0.0295556  0.0289463  -0.024343  0.109569  0.0294778  -0.0327101 
1704728485.146702000  0  0  11.0833  0.113265  -0.166723  0.0163606  nan  nan  nan  nan  nan  nan  -2.49964  -0.300543  0.999481  0.0354102  -0.0268801  -0.00175351  0.0054478  -0.0114194  -0.0101366  0  0  0  0.0327932  -0.178114  -0.127255  0.0255247  0.00293511  -0.000834785  -0.0193801  0.0144759  -0.00112732  -0.0304629  0.029779  -0.0237378  0.0537281  0.0594802  0.0328705 
1704728485.151701000  0  0  11.025  0.0941823  -0.131208  0.0188298  nan  nan  nan  nan  nan  nan  -2.49961  -0.300602  0.999428  0.0364402  -0.0254599  -0.00180718  0.005605  -0.0123296  -0.0107782  0  0  0  0.0300147  -0.185944  -0.129334  0.0254076  0.00300224  -0.000793583  -0.0213839  0.0143666  0.00348157  -0.0307691  0.0280205  -0.0238042  0.0947115  0.00462709  0.00266912 
1704728485.156701000  0  0  11.0638  0.0791356  -0.164164  0.0218893  nan  nan  nan  nan  nan  nan  -2.49958  -0.300666  0.999373  0.0367916  -0.02913  -0.00203327  0.0057476  -0.0132784  -0.0114295  0  0  0  0.0269863  -0.193525  -0.131162  0.0257014  0.0028247  -0.000725864  -0.0177855  0.0143775  -5.6322e-05  -0.030411  0.0319816  -0.0241391  0.12151  0.0340962  -0.0322252 
1704728485.160703000  0  0  11.0955  0.112383  -0.176846  0.0164077  nan  nan  nan  nan  nan  nan  -2.49955  -0.300735  0.999314  0.0388766  -0.0288548  -0.00216989  0.0058744  -0.0142645  -0.0120894  0  0  0  0.0237078  -0.200855  -0.13274  0.0256174  0.00290534  -0.000734434  -0.0182393  0.0159689  -0.00283245  -0.0324919  0.0320872  -0.0235334  0.0741585  0.0584897  0.0302381 
1704728485.166701000  0  0  11.0206  0.0999372  -0.154954  0.0160675  nan  nan  nan  nan  nan  nan  -2.49952  -0.300809  0.999252  0.0389409  -0.0286602  -0.00225516  0.0059845  -0.0152865  -0.0127565  0  0  0  0.0203913  -0.207935  -0.134068  0.0257115  0.00279786  -0.000642091  -0.0193452  0.0150615  0.00311994  -0.0319161  0.0317638  -0.0231941  0.093754  0.0176813  0.0310968 
1704728485.171702000  0  0  11.0621  0.0941163  -0.15394  0.0211823  nan  nan  nan  nan  nan  nan  -2.49949  -0.300888  0.999186  0.0404304  -0.0291894  -0.00241472  0.0060787  -0.0163434  -0.0134296  0  0  0  0.0173233  -0.214765  -0.135146  0.0256959  0.00282823  -0.000640584  -0.0189051  0.0161335  -0.000413651  -0.0327312  0.0322376  -0.0236291  0.112895  0.011295  -0.0284875 
1704728485.176700000  0  0  11.0458  0.119666  -0.151766  0.0168667  nan  nan  nan  nan  nan  nan  -2.49946  -0.300973  0.999118  0.0422123  -0.0296559  -0.0025864  0.0061582  -0.0174338  -0.0141075  0  0  0  0.0145052  -0.221346  -0.135974  0.0256069  0.00291322  -0.000627864  -0.0185312  0.0172207  0.000852334  -0.0343309  0.032653  -0.0231219  0.0765124  0.00312335  0.0203854 
1704728485.181694000  0  0  11.0638  0.115358  -0.148277  0.0165911  nan  nan  nan  nan  nan  nan  -2.49943  -0.301062  0.999045  0.0430095  -0.0289486  -0.00268406  0.0062242  -0.0185564  -0.014789  0  0  0  0.0119371  -0.227676  -0.136552  0.0255782  0.00293416  -0.000611348  -0.0195965  0.0174344  -0.000713468  -0.0346199  0.0319404  -0.0228777  0.0877869  0.00270248  0.0213873 
1704728485.186703000  0  0  11.003  0.103488  -0.116325  0.0204399  nan  nan  nan  nan  nan  nan  -2.4994  -0.301158  0.99897  0.0448748  -0.0279134  -0.00280049  0.006278  -0.0197101  -0.0154727  0  0  0  0.0096191  -0.233756  -0.13688  0.0254705  0.00302538  -0.000571525  -0.0211037  0.0184497  0.0043023  -0.0356631  0.0303644  -0.0231447  0.121123  -0.0467023  -0.0240511 
1704728485.191701000  0  0  11.0548  0.112862  -0.120616  0.0187898  nan  nan  nan  nan  nan  nan  -2.49937  -0.30126  0.998891  0.0453717  -0.0300125  -0.00302285  0.0063208  -0.0208936  -0.0161574  0  0  0  0.007551  -0.239587  -0.136958  0.0254783  0.00305169  -0.000569766  -0.0186289  0.0185084  -1.87456e-06  -0.0357841  0.032073  -0.0229319  0.10349  -0.0538403  -0.00555326 
1704728485.195704000  0  0  11.1231  0.120275  -0.134924  0.0163487  nan  nan  nan  nan  nan  nan  -2.49934  -0.301367  0.998808  0.0470025  -0.0293389  -0.00315772  0.0063539  -0.0221056  -0.0168418  0  0  0  0.0057329  -0.245167  -0.136787  0.0253894  0.00315431  -0.000598108  -0.0192532  0.0199317  -0.00559199  -0.037019  0.0315139  -0.0225458  0.100025  -0.0200799  0.0210998 
1704728485.201694000  0  0  10.9543  0.10236  -0.0848835  0.0184587  nan  nan  nan  nan  nan  nan  -2.49931  -0.301481  0.998722  0.0478332  -0.0277907  -0.00322986  0.0063786  -0.0233448  -0.0175248  0  0  0  0.0041649  -0.250497  -0.136365  0.0254904  0.00305547  -0.000430127  -0.0221099  0.0196048  0.00823358  -0.036835  0.028972  -0.022619  0.134162  -0.096775  -0.00454354 
1704728485.206688000  0  0  11.0888  0.0850461  -0.0965909  0.0208264  nan  nan  nan  nan  nan  nan  -2.49927  -0.301601  0.998633  0.0479559  -0.0304172  -0.00348538  0.006396  -0.0246101  -0.0182051  0  0  0  0.0028468  -0.255578  -0.135693  0.0254844  0.00309588  -0.000480247  -0.018595  0.0197181  -0.00275927  -0.0360698  0.0310202  -0.0228305  0.16175  -0.0922036  -0.032025 
1704728485.211712000  0  0  11.1367  0.112962  -0.134129  0.0165431  nan  nan  nan  nan  nan  nan  -2.49924  -0.301727  0.99854  0.0502325  -0.0294377  -0.00363586  0.0064074  -0.0259002  -0.0188813  0  0  0  0.0017787  -0.260408  -0.134771  0.0253789  0.00321454  -0.000518701  -0.0195278  0.0219155  -0.00654864  -0.0379332  0.0304508  -0.022364  0.123062  -0.0118887  0.016851 
1704728485.216708000  0  0  10.9502  0.0999425  -0.0807279  0.0159872  nan  nan  nan  nan  nan  nan  -2.49921  -0.30186  0.998444  0.0502592  -0.0279711  -0.0036972  0.0064142  -0.0272138  -0.0195523  0  0  0  0.0009607  -0.264988  -0.133599  0.0254512  0.00314912  -0.000373967  -0.0221888  0.0204717  0.00884565  -0.0371228  0.0280307  -0.0221112  0.141644  -0.0964272  0.0212714 
1704728485.221701000  0  0  11.1006  0.0724042  -0.0778572  0.0213503  nan  nan  nan  nan  nan  nan  -2.49918  -0.301999  0.998345  0.0501813  -0.0300035  -0.00393545  0.0064175  -0.0285497  -0.0202169  0  0  0  0.0003926  -0.269318  -0.132177  0.0254472  0.00320141  -0.000440626  -0.0192621  0.0205304  -0.00334561  -0.0359192  0.0292732  -0.022587  0.185648  -0.113599  -0.0410089 
1704728485.226709000  0  0  11.1128  0.119099  -0.129915  0.0141811  nan  nan  nan  nan  nan  nan  -2.49915  -0.302145  0.998242  0.0529653  -0.0284186  -0.0040774  0.0064185  -0.0299066  -0.0208737  0  0  0  7.45e-05  -0.273399  -0.130505  0.0253367  0.00332972  -0.000458074  -0.0209517  0.0232396  -0.00413945  -0.0384607  0.0283029  -0.0218593  0.115641  -0.000557094  0.0413287 
1704728485.230711000  0  0  10.894  0.119442  -0.0835149  0.0100153  nan  nan  nan  nan  nan  nan  -2.49911  -0.302298  0.998136  0.0542862  -0.0259842  -0.00412881  0.0064186  -0.0312832  -0.0215215  0  0  0  -0  -0.277229  -0.128583  0.0252099  0.0034497  -0.000301319  -0.024314  0.0228069  0.0139915  -0.0392534  0.025168  -0.0210731  0.122247  -0.064516  0.0855399 
1704728485.236708000  0  0  11.1037  0.0593706  -0.0955566  0.0225489  nan  nan  nan  nan  nan  nan  -2.49908  -0.302458  0.998027  0.052398  -0.0290634  -0.00439074  0.0064186  -0.0326784  -0.0221591  0  0  0  -0  -0.280809  -0.126412  0.0253483  0.00333904  -0.000351865  -0.0202069  0.0215035  -0.00310582  -0.0356686  0.0276146  -0.0222407  0.209409  -0.0629416  -0.0594546 
1704728485.241700000  0  0  11.1469  0.0928509  -0.137308  0.0175296  nan  nan  nan  nan  nan  nan  -2.49905  -0.302625  0.997914  0.0544104  -0.029439  -0.00462303  0.0064186  -0.0340909  -0.0227852  0  0  0  -0  -0.28414  -0.12399  0.0254465  0.00333918  -0.000383845  -0.0197942  0.0238182  -0.00637264  -0.0371854  0.0285646  -0.0218495  0.156403  0.0118228  -0.000624941 
1704728485.246709000  0  0  10.9597  0.0889826  -0.102574  0.0137354  nan  nan  nan  nan  nan  nan  -2.49902  -0.302799  0.997799  0.054404  -0.0281569  -0.00470956  0.0064186  -0.0355194  -0.0233986  0  0  0  -0  -0.28722  -0.121318  0.025387  0.0033873  -0.000243978  -0.0218361  0.0221828  0.00921074  -0.0364476  0.0267546  -0.0212092  0.157353  -0.0409949  0.0403999 
1704728485.251707000  0  0  11.135  0.0483475  -0.111893  0.0238045  nan  nan  nan  nan  nan  nan  -2.49899  -0.30298  0.99768  0.0545618  -0.0285726  -0.00489651  0.0064186  -0.0369627  -0.023998  0  0  0  -0  -0.29005  -0.118396  0.0252944  0.0035076  -0.000342056  -0.0205515  0.0227976  -0.00484495  -0.0351026  0.0270427  -0.0221779  0.226249  -0.0250082  -0.0757774 
1704728485.256708000  0  0  11.1252  0.0703359  -0.135984  0.0187008  nan  nan  nan  nan  nan  nan  -2.49895  -0.303169  0.997559  0.0561227  -0.0295157  -0.0051571  0.0064186  -0.0384195  -0.0245821  0  0  0  -0  -0.292631  -0.115224  0.025407  0.00348298  -0.000325882  -0.019642  0.0243829  -0.00370953  -0.0358806  0.0282861  -0.0218361  0.189429  0.0117356  -0.0153988 
1704728485.260709000  0  0  11.0309  0.0844621  -0.129618  0.0127146  nan  nan  nan  nan  nan  nan  -2.49892  -0.303364  0.997435  0.0566866  -0.0289134  -0.00530543  0.0064186  -0.0398886  -0.0251498  0  0  0  -0  -0.294961  -0.111802  0.0253178  0.00361038  -0.000243127  -0.020481  0.023906  0.00431934  -0.0359931  0.0276761  -0.0210074  0.162213  0.00461542  0.0511418 
1704728485.266659000  0  0  11.1073  0.044859  -0.129067  0.0199789  nan  nan  nan  nan  nan  nan  -2.49889  -0.303568  0.997307  0.0556886  -0.0285598  -0.00542528  0.0064186  -0.0413687  -0.0256997  0  0  0  -0  -0.297041  -0.10813  0.0253903  0.00353306  -0.00025584  -0.0208302  0.0230545  -0.0016357  -0.033321  0.0273657  -0.0216016  0.216835  0.00637078  -0.0337195 
1704728485.271687000  0  0  11.0607  0.0654765  -0.13887  0.0179774  nan  nan  nan  nan  nan  nan  -2.49886  -0.303778  0.997178  0.0566972  -0.0305428  -0.00573768  0.0064186  -0.0428586  -0.0262307  0  0  0  -0  -0.298871  -0.104208  0.0255373  0.00346735  -0.000171466  -0.0188431  0.0238989  0.00248859  -0.0335789  0.029323  -0.0214555  0.177973  0.00796864  -0.0101621 
1704728485.276708000  0  0  11.0485  0.0817622  -0.150045  0.0115756  nan  nan  nan  nan  nan  nan  -2.49882  -0.303996  0.997045  0.0565057  -0.0299985  -0.00587434  0.0064186  -0.044357  -0.0267414  0  0  0  -0  -0.300452  -0.100036  0.0254312  0.00357558  -0.000153753  -0.0193089  0.0231438  0.00385772  -0.0329282  0.0291396  -0.0205232  0.139415  0.0320052  0.0605366 
1704728485.280712000  0  0  11.0579  0.0661494  -0.126624  0.0155972  nan  nan  nan  nan  nan  nan  -2.49879  -0.304222  0.99691  0.0577908  -0.0277606  -0.00595899  0.0064186  -0.0458627  -0.0272306  0  0  0  -0  -0.301782  -0.0956146  0.0253302  0.00372011  -0.000120962  -0.0217887  0.0242995  0.00349219  -0.033257  0.0267591  -0.0206202  0.173666  0.00706465  0.0112372 
1704728485.285704000  0  0  11.0353  0.0674043  -0.11579  0.0199446  nan  nan  nan  nan  nan  nan  -2.49876  -0.304455  0.996773  0.0580522  -0.0291855  -0.00622644  0.0064186  -0.0473744  -0.0276971  0  0  0  -0  -0.302862  -0.0909427  0.0254114  0.00368826  -4.29679e-05  -0.020274  0.0243893  0.00569946  -0.0326563  0.0277779  -0.0210371  0.165629  -0.0239762  -0.0389374 
1704728485.291708000  0  0  11.0984  0.0944421  -0.145971  0.0136036  nan  nan  nan  nan  nan  nan  -2.49873  -0.304695  0.996633  0.0578839  -0.0301812  -0.00645819  0.0064186  -0.0488909  -0.0281397  0  0  0  -0  -0.303693  -0.0860208  0.0253633  0.00374255  -7.41668e-05  -0.018717  0.0243477  0.000970327  -0.0321721  0.0292057  -0.0202604  0.107099  0.0232509  0.0325594 
1704728485.296692000  0  0  11.0409  0.0897115  -0.110474  0.0177539  nan  nan  nan  nan  nan  nan  -2.4987  -0.304944  0.996492  0.0588174  -0.0276685  -0.00651916  0.0064186  -0.0504109  -0.0285569  0  0  0  -0  -0.304273  -0.0808489  0.0252945  0.00382549  -8.61157e-06  -0.0218307  0.024878  0.00616216  -0.0324069  0.0263262  -0.0204605  0.118721  -0.0212532  -0.0173197 
1704728485.301700000  0  0  11.05  0.0832976  -0.105396  0.0227003  nan  nan  nan  nan  nan  nan  -2.49866  -0.3052  0.996348  0.0592044  -0.028672  -0.00677136  0.0064186  -0.0519332  -0.0289477  0  0  0  -0  -0.304603  -0.075427  0.0251953  0.00394887  1.35603e-05  -0.0203306  0.0250795  0.0059157  -0.0321259  0.0269377  -0.0210267  0.128963  -0.0370352  -0.0734865 
1704728485.306709000  0  0  11.0933  0.117182  -0.13653  0.0175024  nan  nan  nan  nan  nan  nan  -2.49863  -0.305463  0.996202  0.059623  -0.0295855  -0.00702111  0.0064186  -0.0534565  -0.0293108  0  0  0  -0  -0.304684  -0.0697551  0.0253292  0.00390872  5.10604e-05  -0.0193416  0.0259442  0.00278072  -0.0325329  0.0282018  -0.0206508  0.0649383  0.0136032  -0.0122725 
1704728485.311712000  0  0  11.0231  0.123667  -0.103348  0.0169778  nan  nan  nan  nan  nan  nan  -2.4986  -0.305734  0.996055  0.0604495  -0.0270511  -0.00707652  0.0064186  -0.0549796  -0.0296451  0  0  0  -0  -0.304514  -0.0639859  0.0252086  0.00403691  0.000122936  -0.0223999  0.0262443  0.00905532  -0.0331055  0.0253087  -0.0204576  0.0572361  -0.0261453  -0.00764666 
1704728485.316709000  0  0  11.053  0.102056  -0.102091  0.021957  nan  nan  nan  nan  nan  nan  -2.49857  -0.306013  0.995906  0.060204  -0.0278695  -0.00730437  0.0064186  -0.0565012  -0.0299511  0  0  0  -0  -0.304094  -0.0584546  0.0251728  0.00412284  0.000146762  -0.0212108  0.0259896  0.00706253  -0.0322031  0.0258487  -0.020992  0.0921571  -0.0336255  -0.0645418 
1704728485.321701000  0  0  11.1121  0.124455  -0.122751  0.0179188  nan  nan  nan  nan  nan  nan  -2.49854  -0.306299  0.995755  0.0613347  -0.0283384  -0.00755068  0.0064186  -0.0580201  -0.03023  0  0  0  -0  -0.303424  -0.0531734  0.0251351  0.00422651  0.00014893  -0.020335  0.0276236  0.00267244  -0.0332513  0.0265447  -0.0206426  0.0570016  0.00129082  -0.0175594 
1704728485.326707000  0  0  11.0747  0.129699  -0.112775  0.0146815  nan  nan  nan  nan  nan  nan  -2.4985  -0.306593  0.995604  0.061602  -0.0266926  -0.0076435  0.0064186  -0.0595351  -0.0304832  0  0  0  -0  -0.302505  -0.0481422  0.0250095  0.00435862  0.000201973  -0.0221902  0.0275304  0.00616069  -0.0333409  0.0248857  -0.0201301  0.0473393  -0.00339771  0.017782 
1704728485.331709000  0  0  11.1047  0.104224  -0.104266  0.0201241  nan  nan  nan  nan  nan  nan  -2.49847  -0.306894  0.995451  0.0614693  -0.0262611  -0.0078005  0.0064186  -0.0610448  -0.0307119  0  0  0  -0  -0.301335  -0.0433609  0.024972  0.0044462  0.000214517  -0.0225385  0.0275209  0.00411465  -0.0324974  0.0243  -0.0205674  0.0905289  -0.0150276  -0.0458775 
1704728485.335710000  0  0  11.0929  0.104015  -0.106688  0.0198568  nan  nan  nan  nan  nan  nan  -2.49844  -0.307203  0.995296  0.0624868  -0.0267421  -0.0080451  0.0064186  -0.062548  -0.0309172  0  0  0  -0  -0.299915  -0.0388297  0.0248875  0.00462194  0.000277088  -0.021766  0.0284728  0.00543256  -0.033092  0.0247118  -0.0205392  0.0964161  -0.013973  -0.0428179 
1704728485.341701000  0  0  11.1596  0.115286  -0.123852  0.0156911  nan  nan  nan  nan  nan  nan  -2.49841  -0.30752  0.995141  0.0619812  -0.0268405  -0.00822564  0.0064186  -0.0640435  -0.0311006  0  0  0  -0  -0.298246  -0.0345485  0.0248443  0.00467721  0.000234339  -0.0213374  0.0283882  0.000371182  -0.0323662  0.0251154  -0.0200578  0.0671975  0.0166417  0.00443907 
1704728485.345704000  0  0  11.1258  0.0954819  -0.109759  0.0180024  nan  nan  nan  nan  nan  nan  -2.49838  -0.307844  0.994985  0.0627574  -0.0245463  -0.00829073  0.0064186  -0.06553  -0.0312631  0  0  0  -0  -0.296326  -0.0305173  0.0247324  0.00485598  0.000299627  -0.0240134  0.0289783  0.00346734  -0.0324197  0.0228137  -0.0201565  0.107297  0.00963137  -0.0234658 
1704728485.351684000  0  0  11.0961  0.0701742  -0.101896  0.0212472  nan  nan  nan  nan  nan  nan  -2.49834  -0.308175  0.994829  0.0618023  -0.025968  -0.00854354  0.0064186  -0.0670063  -0.0314062  0  0  0  -0  -0.294156  -0.026736  0.0246914  0.00489761  0.000314527  -0.0222448  0.0277524  0.00628285  -0.0304642  0.0239129  -0.0205796  0.139922  -0.0162073  -0.0597939 
1704728485.356708000  0  0  11.2025  0.0802294  -0.140215  0.0167017  nan  nan  nan  nan  nan  nan  -2.49831  -0.308514  0.994671  0.0615828  -0.0263536  -0.0087503  0.0064186  -0.0684712  -0.0315309  0  0  0  -0  -0.291737  -0.0232048  0.0246786  0.00498562  0.00025873  -0.0214098  0.0283088  -0.00213492  -0.0298041  0.024967  -0.0201816  0.113739  0.0507326  -0.00695537 
1704728485.360717000  0  0  11.0873  0.0842759  -0.123411  0.0141658  nan  nan  nan  nan  nan  nan  -2.49828  -0.30886  0.994513  0.0624743  -0.0230242  -0.00875446  0.0064186  -0.0699233  -0.0316386  0  0  0  -0  -0.289067  -0.0199236  0.0245519  0.00516883  0.000370895  -0.0255614  0.0285824  0.00756528  -0.0302393  0.021819  -0.0197566  0.10965  0.0460863  0.0204937 
1704728485.366708000  0  0  11.0957  0.0383209  -0.0967346  0.0220278  nan  nan  nan  nan  nan  nan  -2.49825  -0.309213  0.994355  0.0605098  -0.0246888  -0.00899869  0.0064186  -0.0713614  -0.0317306  0  0  0  -0  -0.286147  -0.0168923  0.0245386  0.00519194  0.000361036  -0.0234623  0.0265096  0.00716552  -0.0269764  0.0229096  -0.0205345  0.171542  -0.0172992  -0.0700025 
1704728485.371708000  0  0  11.2257  0.0632127  -0.157874  0.0199136  nan  nan  nan  nan  nan  nan  -2.49822  -0.309573  0.994196  0.061048  -0.0261852  -0.00929236  0.0064186  -0.0727843  -0.031808  0  0  0  -0  -0.282977  -0.0141111  0.0245426  0.00528337  0.000293907  -0.0212141  0.0282283  -0.00324658  -0.0271918  0.0253966  -0.0205081  0.123739  0.0820999  -0.0438389 
1704728485.376708000  0  0  11.0381  0.0769425  -0.118028  0.0134645  nan  nan  nan  nan  nan  nan  -2.49818  -0.309941  0.994037  0.0611006  -0.0221277  -0.00923439  0.0064186  -0.0741908  -0.0318721  0  0  0  -0  -0.279558  -0.0115799  0.0243758  0.00542369  0.00043227  -0.0263757  0.0271872  0.0123196  -0.0269743  0.0213769  -0.0197443  0.0942782  0.0393894  0.0291369 
1704728485.381700000  0  0  11.0951  0.0196203  -0.0963866  0.0222092  nan  nan  nan  nan  nan  nan  -2.49815  -0.310315  0.993878  0.0590713  -0.024179  -0.00949951  0.0064186  -0.0755795  -0.0319242  0  0  0  -0  -0.275888  -0.0092987  0.0243951  0.00547979  0.000422533  -0.0237522  0.0253797  0.00779412  -0.023651  0.0229139  -0.0205644  0.178349  -0.0180345  -0.0719706 
1704728485.385706000  0  0  11.2278  0.0451443  -0.154367  0.0237016  nan  nan  nan  nan  nan  nan  -2.49812  -0.310697  0.993718  0.0602658  -0.0252661  -0.00978297  0.0064186  -0.0769492  -0.0319655  0  0  0  -0  -0.271968  -0.0072674  0.0243072  0.0056903  0.000391603  -0.021803  0.0277477  -0.00296134  -0.0246088  0.0248946  -0.0208967  0.136113  0.0797041  -0.0873027 
1704728485.391707000  0  0  10.9946  0.0918782  -0.127679  0.0117109  nan  nan  nan  nan  nan  nan  -2.49809  -0.311085  0.993558  0.0598575  -0.021874  -0.00975818  0.0064186  -0.0782988  -0.0319973  0  0  0  -0  -0.267799  -0.0054862  0.0242469  0.00570657  0.000527297  -0.0264836  0.0262227  0.0162993  -0.0245639  0.0218661  -0.0196657  0.042231  0.0541907  0.0502709 
1704728485.396706000  0  0  11.0607  0.0275996  -0.104511  0.0226072  nan  nan  nan  nan  nan  nan  -2.49805  -0.31148  0.993398  0.0576288  -0.0236719  -0.0100019  0.0064186  -0.0796268  -0.0320208  0  0  0  -0  -0.263379  -0.003955  0.0242725  0.00575686  0.00051713  -0.0241767  0.0243418  0.0109241  -0.0211625  0.0232294  -0.0206423  0.139496  -0.00468861  -0.0761673 
1704728485.401701000  0  0  11.1617  0.0499094  -0.144942  0.0241206  nan  nan  nan  nan  nan  nan  -2.49802  -0.311881  0.993238  0.058528  -0.0242768  -0.0102476  0.0064186  -0.0809321  -0.0320372  0  0  0  -0  -0.258709  -0.0026737  0.0241626  0.00591241  0.000492764  -0.0228829  0.0263343  0.00270956  -0.0218292  0.0245588  -0.0211052  0.10101  0.0639442  -0.0904558 
1704728485.406708000  0  0  10.9549  0.0994879  -0.118335  0.00957501  nan  nan  nan  nan  nan  nan  -2.49799  -0.312289  0.993077  0.0567582  -0.0237285  -0.0103621  0.0064186  -0.0822135  -0.0320479  0  0  0  -0  -0.25379  -0.0016425  0.0244439  0.00577396  0.000555298  -0.0247576  0.0237756  0.0198169  -0.0206906  0.0240532  -0.0195978  -0.00862279  0.0153802  0.0762902 
1704728485.411709000  0  0  11.0201  0.0433277  -0.102549  0.0208497  nan  nan  nan  nan  nan  nan  -2.49796  -0.312703  0.992917  0.0552301  -0.0241719  -0.0105391  0.0064186  -0.0834696  -0.0320541  0  0  0  -0  -0.24862  -0.0008613  0.0243357  0.00589561  0.000578489  -0.0238052  0.0226873  0.014385  -0.0182865  0.0241552  -0.020483  0.0815803  -0.0171299  -0.0557908 
1704728485.416710000  0  0  11.0989  0.0620374  -0.139971  0.0242137  nan  nan  nan  nan  nan  nan  -2.49793  -0.313124  0.992757  0.0549224  -0.0266634  -0.0108575  0.0064186  -0.0846993  -0.032057  0  0  0  -0  -0.2432  -0.00033  0.0246676  0.00582409  0.00048827  -0.0212377  0.0235976  0.00803966  -0.0179965  0.0271971  -0.0211427  0.0414929  0.0297285  -0.0912448 
1704728485.421703000  0  0  11.02  0.0911028  -0.1342  0.014781  nan  nan  nan  nan  nan  nan  -2.49789  -0.31355  0.992597  0.0535464  -0.0269726  -0.0110262  0.0064186  -0.0859012  -0.0320578  0  0  0  -0  -0.23753  -4.88e-05  0.02482  0.0057637  0.000490066  -0.021442  0.0222786  0.014571  -0.0171506  0.0275907  -0.0202131  -0.0244201  0.0145656  0.0173691 
1704728485.426713000  0  0  11.0493  0.05509  -0.111216  0.0230967  nan  nan  nan  nan  nan  nan  -2.49786  -0.313983  0.992436  0.0525801  -0.0260823  -0.011142  0.0064186  -0.0870742  -0.0320578  0  0  0  -0  -0.231611  0  0.0247124  0.00587341  0.000534638  -0.0222108  0.0217778  0.0120297  -0.0157053  0.0263861  -0.0209582  0.0343085  -0.0203211  -0.0791268 
1704728485.431712000  0  0  11.0925  0.0681167  -0.124106  0.0260729  nan  nan  nan  nan  nan  nan  -2.49783  -0.314421  0.992276  0.051822  -0.0283246  -0.0114274  0.0064186  -0.0882169  -0.0320578  0  0  0  -0  -0.225441  0  0.0249904  0.00584275  0.000434214  -0.0199299  0.021908  0.00861618  -0.0151573  0.0286454  -0.0216096  0.00321406  -0.0153247  -0.109815 
1704728485.435715000  0  0  11.0826  0.09758  -0.135112  0.0160074  nan  nan  nan  nan  nan  nan  -2.4978  -0.314865  0.992116  0.051624  -0.0281213  -0.0116001  0.0064186  -0.0893282  -0.0320578  0  0  0  -0  -0.219021  0  0.0249052  0.0060188  0.000510714  -0.0200135  0.0220276  0.0092589  -0.0155195  0.0286399  -0.0206238  -0.0523808  0.00673585  0.00614573 
1704728485.441705000  0  0  11.0619  0.083522  -0.115651  0.0168971  nan  nan  nan  nan  nan  nan  -2.49777  -0.315314  0.991955  0.0504702  -0.0262753  -0.0116632  0.0064186  -0.0904067  -0.0320578  0  0  0  -0  -0.212352  0  0.0248294  0.00601972  0.000542946  -0.02219  0.021356  0.010878  -0.0144846  0.0266178  -0.0204706  -0.0337861  -0.0135816  -0.00650796 
1704728485.446711000  0  0  11.0883  0.0751969  -0.111031  0.0224662  nan  nan  nan  nan  nan  nan  -2.49773  -0.315769  0.991795  0.0492318  -0.0272468  -0.0118673  0.0064186  -0.0914513  -0.0320578  0  0  0  -0  -0.205432  0  0.0247966  0.00608739  0.000560672  -0.0208463  0.0206847  0.00861045  -0.0133896  0.0273192  -0.0210894  -0.0272093  -0.0292738  -0.0699342 
1704728485.451709000  0  0  11.1466  0.0958399  -0.134365  0.014593  nan  nan  nan  nan  nan  nan  -2.4977  -0.316228  0.991635  0.0491446  -0.0269472  -0.0120391  0.0064186  -0.0924606  -0.0320578  0  0  0  -0  -0.198262  0  0.0246955  0.00620104  0.000564097  -0.020803  0.0215489  0.00373373  -0.0138083  0.0274183  -0.0202503  -0.0646439  0.016482  0.0200913 
1704728485.456710000  0  0  11.038  0.083093  -0.108855  0.0160049  nan  nan  nan  nan  nan  nan  -2.49767  -0.316693  0.991475  0.0482024  -0.0248673  -0.0121023  0.0064186  -0.0934335  -0.0320578  0  0  0  -0  -0.190843  0  0.0246316  0.00626299  0.000655821  -0.0235516  0.0206329  0.0125514  -0.0130329  0.025136  -0.0201441  -0.0462836  -0.0135405  0.00137989 
1704728485.461692000  0  0  11.1027  0.0648788  -0.100764  0.0225769  nan  nan  nan  nan  nan  nan  -2.49764  -0.317163  0.991314  0.0467661  -0.0254236  -0.0122813  0.0064186  -0.0943686  -0.0320578  0  0  0  -0  -0.183173  0  0.024532  0.00636604  0.00066184  -0.0224714  0.0199355  0.00711249  -0.0116005  0.0253781  -0.0208319  -0.0230325  -0.0319499  -0.0738914 
1704728485.466714000  0  0  11.144  0.0924404  -0.131562  0.0177963  nan  nan  nan  nan  nan  nan  -2.49761  -0.317637  0.991154  0.0464979  -0.0252574  -0.0124556  0.0064186  -0.0952648  -0.0320578  0  0  0  -0  -0.175253  0  0.0245014  0.0064388  0.000648377  -0.0224831  0.0206569  0.00367499  -0.0119875  0.0257045  -0.0204742  -0.0745959  0.0266429  -0.0177121 
1704728485.471775000  0  0  11.004  0.0878822  -0.103057  0.0173039  nan  nan  nan  nan  nan  nan  -2.49757  -0.318115  0.990994  0.0453897  -0.0231765  -0.012522  0.0064186  -0.0961207  -0.0320578  0  0  0  -0  -0.167083  0  0.0243584  0.00652944  0.000771958  -0.0251222  0.0194446  0.015045  -0.0112566  0.0233993  -0.0202876  -0.0722041  -0.00915968  -0.0134228 
1704728485.476710000  0  0  11.109  0.0606258  -0.10488  0.0238242  nan  nan  nan  nan  nan  nan  -2.49754  -0.318598  0.990833  0.0434614  -0.0238999  -0.0126975  0.0064186  -0.0969352  -0.0320578  0  0  0  -0  -0.158664  0  0.0243334  0.00658455  0.000728264  -0.0239158  0.018521  0.00632791  -0.00931961  0.0240311  -0.0210503  -0.0355112  -0.0113272  -0.0873004 
1704728485.481706000  0  0  11.1466  0.0789944  -0.129325  0.019811  nan  nan  nan  nan  nan  nan  -2.49751  -0.319085  0.990673  0.0429482  -0.0244507  -0.0128978  0.0064186  -0.0977069  -0.0320578  0  0  0  -0  -0.150012  0  0.0243292  0.00665055  0.000686091  -0.0231189  0.0190025  0.00325684  -0.0093962  0.0250346  -0.0208319  -0.0715437  0.0283313  -0.0393186 
1704728485.486711000  0  0  11.0826  0.0779202  -0.116012  0.0172253  nan  nan  nan  nan  nan  nan  -2.49748  -0.319575  0.990513  0.0418324  -0.0233108  -0.0130116  0.0064186  -0.0984356  -0.0320578  0  0  0  -0  -0.141476  0  0.0242059  0.0067409  0.000755842  -0.0244367  0.0182206  0.00840567  -0.00869601  0.0238896  -0.0205019  -0.0758372  0.0122394  -0.0102966 
1704728485.491710000  0  0  11.1622  0.0580451  -0.12457  0.0218001  nan  nan  nan  nan  nan  nan  -2.49744  -0.320069  0.990353  0.0393876  -0.0247276  -0.0131993  0.0064186  -0.0991221  -0.0320578  0  0  0  -0  -0.133191  0  0.0244523  0.00667368  0.00050083  -0.0230444  0.0167295  0.00222806  -0.00645817  0.0255039  -0.0210144  -0.0566751  0.0145046  -0.0623569 
1704728485.496710000  0  0  11.2093  0.0587034  -0.136387  0.0191642  nan  nan  nan  nan  nan  nan  -2.49741  -0.320566  0.990192  0.0379425  -0.0267363  -0.0134285  0.0064186  -0.0997679  -0.0320578  0  0  0  -0  -0.125155  0  0.0246894  0.00665627  0.000233568  -0.0209489  0.0161542  -0.0011926  -0.00545724  0.0277229  -0.0208453  -0.0672002  0.0177245  -0.0310997 
1704728485.501703000  0  0  11.1825  0.0699591  -0.143752  0.0159718  nan  nan  nan  nan  nan  nan  -2.49738  -0.321066  0.990032  0.037224  -0.0263655  -0.0135844  0.0064186  -0.100374  -0.0320578  0  0  0  -0  -0.11737  0  0.0245855  0.00673891  0.000256182  -0.0212635  0.0159541  0.000959628  -0.00532753  0.0276186  -0.0204008  -0.0909049  0.0334138  0.00436087 
1704728485.505656000  0  0  11.1885  0.0691231  -0.140098  0.0171952  nan  nan  nan  nan  nan  nan  -2.49735  -0.32157  0.989872  0.0364762  -0.0252757  -0.0137138  0.0064186  -0.100942  -0.0320578  0  0  0  -0  -0.109834  0  0.0244889  0.00690691  0.000289267  -0.0223916  0.0156445  0.000363184  -0.00493739  0.0267003  -0.0203706  -0.0928222  0.0345535  -0.0112342 
1704728485.511695000  0  0  11.2074  0.060244  -0.131013  0.0215195  nan  nan  nan  nan  nan  nan  -2.49732  -0.322076  0.989711  0.0345425  -0.0268282  -0.0139074  0.0064186  -0.101473  -0.0320578  0  0  0  -0  -0.102548  0  0.0246434  0.00680212  3.92947e-05  -0.0207702  0.0144382  -0.000750058  -0.00353531  0.0281176  -0.0208813  -0.0879632  0.0033433  -0.0601811 
1704728485.516709000  0  0  11.27  0.0784031  -0.16714  0.0198536  nan  nan  nan  nan  nan  nan  -2.49728  -0.322584  0.989551  0.0339721  -0.0282501  -0.0141292  0.0064186  -0.101968  -0.0320578  0  0  0  -0  -0.0955128  0  0.0247466  0.00683379  -0.00018204  -0.0190284  0.0147529  -0.00553327  -0.00382059  0.0301593  -0.0207882  -0.121657  0.0568156  -0.040288 
1704728485.521701000  0  0  11.1914  0.0915573  -0.157787  0.017878  nan  nan  nan  nan  nan  nan  -2.49725  -0.323095  0.989391  0.0328666  -0.026532  -0.0142303  0.0064186  -0.102428  -0.0320578  0  0  0  -0  -0.0887272  0  0.0248444  0.00684194  -0.000290203  -0.0216472  0.0139524  0.00119926  -0.00365931  0.0286961  -0.020545  -0.149449  0.0515704  -0.0180251 
1704728485.526661000  0  0  11.196  0.0747312  -0.12846  0.0216803  nan  nan  nan  nan  nan  nan  -2.49722  -0.323609  0.989231  0.0313407  -0.0268738  -0.0143894  0.0064186  -0.102856  -0.0320578  0  0  0  -0  -0.0821916  0  0.0247504  0.00690898  -0.000296922  -0.0210188  0.0127392  0.000796832  -0.00263291  0.0286696  -0.0209291  -0.12524  -0.0068402  -0.0617131 
1704728485.531710000  0  0  11.2988  0.0985282  -0.174745  0.0208694  nan  nan  nan  nan  nan  nan  -2.49719  -0.324124  0.98907  0.0318169  -0.0288256  -0.0146531  0.0064186  -0.103251  -0.0320578  0  0  0  -0  -0.075906  0  0.0247325  0.00697193  -0.000410368  -0.0181966  0.014306  -0.00754634  -0.00412774  0.0313038  -0.0209866  -0.159081  0.061496  -0.0510011 
1704728485.535717000  0  0  11.1608  0.131322  -0.151377  0.0150472  nan  nan  nan  nan  nan  nan  -2.49716  -0.324641  0.98891  0.0316116  -0.0258774  -0.0147429  0.0064186  -0.103615  -0.0320578  0  0  0  -0  -0.0698704  0  0.0246197  0.00713257  -0.000304054  -0.0220519  0.0140256  0.00372221  -0.00514227  0.0284273  -0.0202824  -0.215335  0.0412226  0.0147333 
1704728485.541703000  0  0  11.1935  0.08692  -0.10089  0.0220785  nan  nan  nan  nan  nan  nan  -2.49712  -0.32516  0.98875  0.029022  -0.026518  -0.0148833  0.0064186  -0.10395  -0.0320578  0  0  0  -0  -0.0640848  0  0.0245656  0.00707913  -0.000392283  -0.0210799  0.011754  0.00113821  -0.00316308  0.0281176  -0.0209652  -0.14474  -0.0569016  -0.0663292 
1704728485.546709000  0  0  11.2657  0.116176  -0.146162  0.0210201  nan  nan  nan  nan  nan  nan  -2.49709  -0.325681  0.988589  0.0296597  -0.0270587  -0.0151052  0.0064186  -0.104256  -0.0320578  0  0  0  -0  -0.0585492  0  0.0245418  0.00714409  -0.000487007  -0.020114  0.0133229  -0.00468062  -0.00497138  0.0291934  -0.0210141  -0.186616  0.0237456  -0.05261 
1704728485.551710000  0  0  11.1151  0.147013  -0.105018  0.0128369  nan  nan  nan  nan  nan  nan  -2.49706  -0.326203  0.988429  0.0290109  -0.0242065  -0.0151937  0.0064186  -0.104536  -0.0320578  0  0  0  -0  -0.0532636  0  0.0244097  0.00720981  -0.000393609  -0.0238124  0.0126039  0.00765959  -0.00586695  0.0259431  -0.0200339  -0.24005  -0.0286407  0.0398775 
1704728485.556711000  0  0  11.1896  0.0977409  -0.0844181  0.0211429  nan  nan  nan  nan  nan  nan  -2.49703  -0.326726  0.988269  0.0269921  -0.0258206  -0.0153772  0.0064186  -0.104789  -0.0320578  0  0  0  -0  -0.048228  0  0.0245585  0.00718272  -0.000595522  -0.0219632  0.0109938  0.00185144  -0.0042274  0.0268423  -0.0207093  -0.15659  -0.0781132  -0.057193 
1704728485.561655000  0  0  11.2771  0.102187  -0.110864  0.0241474  nan  nan  nan  nan  nan  nan  -2.497  -0.32725  0.988109  0.0275157  -0.0263713  -0.0155948  0.0064186  -0.105018  -0.0320578  0  0  0  -0  -0.0434424  0  0.0244642  0.00726092  -0.000646371  -0.020791  0.0123242  -0.00532832  -0.00550162  0.0275157  -0.0212203  -0.153759  -0.0314174  -0.0896395 
1704728485.566695000  0  0  11.197  0.124449  -0.094744  0.0141385  nan  nan  nan  nan  nan  nan  -2.49696  -0.327776  0.987948  0.0262244  -0.025659  -0.0157309  0.0064186  -0.105224  -0.0320578  0  0  0  -0  -0.0389068  0  0.0245823  0.00725623  -0.00082301  -0.0221981  0.0110706  0.00168706  -0.00556509  0.0264677  -0.0201597  -0.1977  -0.0540153  0.0248662 
1704728485.571711000  0  0  11.2864  0.0785164  -0.0803134  0.0207032  nan  nan  nan  nan  nan  nan  -2.49693  -0.328303  0.987788  0.0248056  -0.0259256  -0.01589  0.0064186  -0.105408  -0.0320578  0  0  0  -0  -0.0346212  0  0.0246203  0.00728343  -0.00106334  -0.021712  0.0100199  -0.00527376  -0.00426896  0.0262125  -0.0206682  -0.117758  -0.0805279  -0.0521083 
1704728485.576710000  0  0  11.2948  0.0831893  -0.0976951  0.0215949  nan  nan  nan  nan  nan  nan  -2.4969  -0.32883  0.987628  0.0245852  -0.0263367  -0.0160832  0.0064186  -0.105571  -0.0320578  0  0  0  -0  -0.0305856  0  0.0245245  0.00733959  -0.00108816  -0.0209565  0.0101388  -0.00593411  -0.00467018  0.0265699  -0.0209497  -0.123413  -0.0490532  -0.0604389 
1704728485.581702000  0  0  11.2757  0.102986  -0.110659  0.011459  nan  nan  nan  nan  nan  nan  -2.49687  -0.329358  0.987467  0.0235073  -0.0261144  -0.0162385  0.0064186  -0.105714  -0.0320578  0  0  0  -0  -0.0268  0  0.0244788  0.00736247  -0.00113903  -0.0212065  0.00916546  -0.00426286  -0.0046667  0.0264332  -0.0197666  -0.163039  -0.0218677  0.054428 
1704728485.586710000  0  0  11.271  0.0617075  -0.0923727  0.0183623  nan  nan  nan  nan  nan  nan  -2.49684  -0.329887  0.987307  0.0227096  -0.0244103  -0.0163678  0.0064186  -0.105839  -0.0320578  0  0  0  -0  -0.0232644  0  0.0243596  0.00740571  -0.00115804  -0.0231026  0.00853571  -0.0038376  -0.00386776  0.0244521  -0.0201646  -0.0878316  -0.0402137  -0.0278823 
1704728485.591709000  0  0  11.2622  0.0494548  -0.101915  0.0227539  nan  nan  nan  nan  nan  nan  -2.4968  -0.330417  0.987147  0.0218127  -0.0258238  -0.0165656  0.0064186  -0.105947  -0.0320578  0  0  0  -0  -0.0199788  0  0.0243249  0.00742238  -0.00121931  -0.021293  0.00773639  -0.00299016  -0.00321621  0.0256915  -0.0207595  -0.0693205  -0.0325306  -0.0768283 
1704728485.595720000  0  0  11.3175  0.0688633  -0.134376  0.0181028  nan  nan  nan  nan  nan  nan  -2.49677  -0.330947  0.986987  0.0217811  -0.026258  -0.0167632  0.0064186  -0.106039  -0.0320578  0  0  0  -0  -0.0169432  0  0.0242415  0.007564  -0.00124165  -0.0203956  0.00788319  -0.00756134  -0.00381891  0.0266024  -0.0203116  -0.102593  0.02401  -0.0231684 
1704728485.601703000  0  0  11.2263  0.0632164  -0.122533  0.0181156  nan  nan  nan  nan  nan  nan  -2.49674  -0.331477  0.986826  0.0207974  -0.0238888  -0.0168768  0.0064186  -0.106117  -0.0320578  0  0  0  -0  -0.0141576  0  0.0241687  0.00747459  -0.00128262  -0.0234765  0.00703641  9.67184e-05  -0.0033903  0.0244208  -0.0201946  -0.0952422  0.0203952  -0.024499 
1704728485.606661000  0  0  11.2197  0.0501725  -0.117186  0.0239859  nan  nan  nan  nan  nan  nan  -2.49671  -0.332008  0.986666  0.0198361  -0.0247533  -0.0170599  0.0064186  -0.106181  -0.0320578  0  0  0  -0  -0.011622  0  0.0240691  0.00750924  -0.00128834  -0.0222103  0.00604414  0.000643663  -0.00270611  0.02517  -0.0208719  -0.0754488  0.0028074  -0.0911039 
1704728485.610713000  0  0  11.3347  0.0840732  -0.173675  0.0191863  nan  nan  nan  nan  nan  nan  -2.49667  -0.332539  0.986506  0.0199483  -0.0271135  -0.0172987  0.0064186  -0.106234  -0.0320578  0  0  0  -0  -0.0093364  0  0.0242033  0.00758995  -0.00155844  -0.0192053  0.00648715  -0.00839812  -0.00372777  0.0284817  -0.0204817  -0.133851  0.0853194  -0.0350123 
1704728485.616709000  0  0  11.2294  0.0878293  -0.153989  0.0131945  nan  nan  nan  nan  nan  nan  -2.49664  -0.33307  0.986345  0.0179601  -0.0272962  -0.0174369  0.0064186  -0.106275  -0.0320578  0  0  0  -0  -0.0073008  0  0.0246813  0.00732553  -0.00222615  -0.0203992  0.0046153  0.00173145  -0.00266685  0.0287195  -0.0197076  -0.151124  0.0437581  0.0321444 
1704728485.621688000  0  0  11.2594  0.0640143  -0.142629  0.0229521  nan  nan  nan  nan  nan  nan  -2.49661  -0.333602  0.986185  0.016923  -0.0294897  -0.0176345  0.0064186  -0.106307  -0.0320578  0  0  0  -0  -0.0055152  0  0.0247729  0.00728609  -0.00234439  -0.0177836  0.00363591  -0.000531314  -0.00199835  0.0305924  -0.0206628  -0.109644  0.00380882  -0.0802739 
1704728485.626710000  0  0  11.3284  0.108757  -0.174337  0.0170854  nan  nan  nan  nan  nan  nan  -2.49658  -0.334133  0.986025  0.0174742  -0.0291236  -0.0178333  0.0064186  -0.106331  -0.0320578  0  0  0  -0  -0.0039796  0  0.0246838  0.00731391  -0.00240475  -0.0178013  0.00458947  -0.00616474  -0.00383737  0.030888  -0.0201913  -0.18221  0.0645055  -0.0116547 
1704728485.631709000  0  0  11.1981  0.114789  -0.136922  0.012735  nan  nan  nan  nan  nan  nan  -2.49655  -0.334665  0.985864  0.0171361  -0.0274205  -0.0179832  0.0064186  -0.106347  -0.0320578  0  0  0  -0  -0.002694  0  0.0246109  0.00731496  -0.00235645  -0.0201899  0.00411539  0.00459039  -0.00450242  0.028886  -0.0194645  -0.188156  0.00809278  0.0354582 
1704728485.636711000  0  0  11.2196  0.0925165  -0.125908  0.0205834  nan  nan  nan  nan  nan  nan  -2.49651  -0.335197  0.985704  0.016798  -0.0277188  -0.0181677  0.0064186  -0.106358  -0.0320578  0  0  0  -0  -0.0016584  0  0.0245124  0.00733527  -0.00236784  -0.0195367  0.00380666  0.00282309  -0.00461842  0.0289234  -0.0201169  -0.142544  -0.0142789  -0.056123 
1704728485.641655000  0  0  11.2876  0.12413  -0.14076  0.0192213  nan  nan  nan  nan  nan  nan  -2.49648  -0.335728  0.985544  0.0173014  -0.0278816  -0.0183734  0.0064186  -0.106364  -0.0320578  0  0  0  -0  -0.0008728  0  0.0244763  0.00734813  -0.0024308  -0.0190245  0.00462164  -0.00271894  -0.00637974  0.0293004  -0.0200329  -0.189567  0.0119559  -0.0399378 
1704728485.646710000  0  0  11.2456  0.138655  -0.119868  0.0163292  nan  nan  nan  nan  nan  nan  -2.49645  -0.33626  0.985384  0.0167558  -0.0276292  -0.0185428  0.0064186  -0.106367  -0.0320578  0  0  0  -0  -0.0003372  0  0.0245391  0.00727797  -0.00249445  -0.0196202  0.0040848  0.000913773  -0.00710104  0.0286803  -0.0195877  -0.21198  -0.0241223  -0.00823725 
1704728485.651709000  0  0  11.2414  0.123991  -0.111398  0.0239986  nan  nan  nan  nan  nan  nan  -2.49642  -0.336792  0.985223  0.0168759  -0.0269026  -0.0187228  0.0064186  -0.106368  -0.0320578  0  0  0  -0  -5.16e-05  0  0.0244411  0.00729997  -0.00249133  -0.0203168  0.00422495  0.00125427  -0.00787711  0.0277284  -0.0204137  -0.175513  -0.0323048  -0.0958462 
1704728485.656709000  0  0  11.2656  0.138878  -0.1136  0.0210138  nan  nan  nan  nan  nan  nan  -2.49639  -0.337324  0.985063  0.0166105  -0.028059  -0.0189237  0.0064186  -0.106368  -0.0320578  0  0  0  -0  1.25e-05  0  0.0245596  0.00723924  -0.00261332  -0.0190608  0.00404621  -0.000512166  -0.00877026  0.0286258  -0.0203254  -0.197069  -0.0361568  -0.0594192 
1704728485.661704000  0  0  11.3191  0.143058  -0.121065  0.0170988  nan  nan  nan  nan  nan  nan  -2.49635  -0.337856  0.984903  0.0166335  -0.0278367  -0.0191095  0.0064186  -0.106368  -0.0320578  0  0  0  -0  0.0002165  0  0.0244587  0.00725998  -0.00265421  -0.0189434  0.0041492  -0.00488681  -0.0097732  0.028402  -0.0198888  -0.196202  -0.0191686  -0.0148478 
1704728485.666710000  0  0  11.2443  0.128692  -0.109324  0.0198997  nan  nan  nan  nan  nan  nan  -2.49632  -0.338388  0.984742  0.0164203  -0.0268498  -0.0192763  0.0064186  -0.106366  -0.0320578  0  0  0  -0  0.0006706  0  0.024523  0.00719268  -0.00270547  -0.0205554  0.00397344  0.00144944  -0.0101988  0.0271339  -0.0201306  -0.163555  -0.0309833  -0.047441 
