    ts      x      y      z   roll  pitch    yaw     vx     vy     vz     wx     wy     wz     ax     ay     az    dwx    dwy    dwz
 0.0050000  -2.5000000  -0.3000000   1.0000000   0.0000000   0.0000000  -0.0000000   0.0000002  -0.0000002  -0.0000002   0.0000000   0.0000000   0.0000000   0.0001250  -0.0001250  -0.0001250   0.0000000   0.0000000   0.0000000
 0.0100000  -2.5000000  -0.3000000   1.0000000   0.0000000   0.0000000  -0.0000000   0.0000017  -0.0000017  -0.0000017   0.0000000   0.0000000   0.0000000   0.0005000  -0.0005000  -0.0005000   0.0000000   0.0000000   0.0000000
 0.0150000  -2.5000000  -0.3000000   1.0000000   0.0000000   0.0000000  -0.0000000   0.0000056  -0.0000056  -0.0000056   0.0000000   0.0000000   0.0000000   0.0011250  -0.0011250  -0.0011250   0.0000000   0.0000000   0.0000000
 0.0200000  -2.5000000  -0.3000000   1.0000000   0.0000000   0.0000000  -0.0000001   0.0000133  -0.0000133  -0.0000133   0.0000000   0.0000000   0.0000000   0.0020000  -0.0020000  -0.0020000   0.0000000   0.0000000   0.0000000
 0.0250000  -2.5000000  -0.3000000   1.0000000   0.0000000   0.0000000  -0.0000003   0.0000260  -0.0000260  -0.0000260   0.0000000   0.0000000   0.0000000   0.0031250  -0.0031250  -0.0031250   0.0000000   0.0000000   0.0000000
 0.0300000  -2.5000000  -0.3000000   1.0000000   0.0000000   0.0000000  -0.0000005   0.0000450  -0.0000450  -0.0000450   0.0000000   0.0000000   0.0000000   0.0045000  -0.0045000  -0.0045000   0.0000000   0.0000000   0.0000000
 0.0350000  -2.5000000  -0.3000010   0.9999990   0.0000000   0.0000000  -0.0000010   0.0000715  -0.0000715  -0.0000715   0.0000000   0.0000000   0.0000000   0.0061250  -0.0061250  -0.0061250   0.0000000   0.0000000   0.0000000
 0.0400000  -2.5000000  -0.3000010   0.9999990   0.0000000   0.0000000  -0.0000017   0.0001067  -0.0001067  -0.0001067   0.0000000   0.0000000   0.0000000   0.0080000  -0.0080000  -0.0080000   0.0000000   0.0000000   0.0000000
 0.0450000  -2.5000000  -0.3000020   0.9999980   0.0000000   0.0000000  -0.0000027   0.0001519  -0.0001519  -0.0001519   0.0000000   0.0000000   0.0000000   0.0101250  -0.0101250  -0.0101250   0.0000000   0.0000000   0.0000000
 0.0500000  -2.5000000  -0.3000030   0.9999970   0.0000000   0.0000000  -0.0000042   0.0002083  -0.0002083  -0.0002083   0.0000000   0.0000000   0.0000000   0.0125000  -0.0125000  -0.0125000   0.0000000   0.0000000   0.0000000
 0.0550000  -2.5000000  -0.3000040   0.9999960   0.0000000   0.0000000  -0.0000061   0.0002773  -0.0002773  -0.0002773   0.0000000   0.0000000   0.0000000   0.0151250  -0.0151250  -0.0151250   0.0000000   0.0000000   0.0000000
 0.0600000  -2.4999900  -0.3000050   0.9999950   0.0000000   0.0000000  -0.0000086   0.0003600  -0.0003600  -0.0003600   0.0000000   0.0000000   0.0000000   0.0180000  -0.0180000  -0.0180000   0.0000000   0.0000000   0.0000000
 0.0650000  -2.4999900  -0.3000070   0.9999930   0.0000000   0.0000000  -0.0000119   0.0004577  -0.0004577  -0.0004577   0.0000000   0.0000000   0.0000000   0.0211250  -0.0211250  -0.0211250   0.0000000   0.0000000   0.0000000
 0.0700000  -2.4999900  -0.3000100   0.9999900   0.0000000   0.0000000  -0.0000160   0.0005717  -0.0005717  -0.0005717   0.0000000   0.0000000   0.0000000   0.0244764  -0.0245000  -0.0245000   0.0000000   0.0000000   0.0000000
 0.0750000  -2.4999900  -0.3000130   0.9999870   0.0000000   0.0000000  -0.0000211   0.0007022  -0.0007031  -0.0007031   0.0000000   0.0000000   0.0000000   0.0276980  -0.0281250  -0.0281250   0.0000000   0.0000000   0.0000000
 0.0800000  -2.4999800  -0.3000170   0.9999830   0.0000000   0.0000000  -0.0000273   0.0008482  -0.0008533  -0.0008533   0.0000000   0.0000000   0.0000000   0.0306695  -0.0320000  -0.0320000   0.0000000   0.0000000   0.0000000
 0.0850000  -2.4999800  -0.3000220   0.9999780   0.0000000   0.0000000  -0.0000348   0.0010085  -0.0010235  -0.0010235   0.0000000   0.0000000   0.0000000   0.0333910  -0.0361250  -0.0361250   0.0000000   0.0000000   0.0000000
 0.0900000  -2.4999700  -0.3000270   0.9999730   0.0000000   0.0000000  -0.0000437   0.0011817  -0.0012150  -0.0012150   0.0000000   0.0000000   0.0000000   0.0358626  -0.0405000  -0.0405000   0.0000000   0.0000000   0.0000000
 0.0950000  -2.4999700  -0.3000340   0.9999660   0.0000000   0.0000000  -0.0000543   0.0013667  -0.0014290  -0.0014290   0.0000000   0.0000000   0.0000000   0.0380841  -0.0451250  -0.0451250   0.0000000   0.0000000   0.0000000
 0.1000000  -2.4999600  -0.3000420   0.9999580   0.0000000   0.0000000  -0.0000667   0.0015621  -0.0016667  -0.0016667   0.0000000   0.0000000   0.0000000   0.0400556  -0.0500000  -0.0500000   0.0000000   0.0000000   0.0000000
 0.1050000  -2.4999500  -0.3000510   0.9999490   0.0000000   0.0000000  -0.0000810   0.0017668  -0.0019294  -0.0019294   0.0000000   0.0000000   0.0000000   0.0417772  -0.0551250  -0.0551250   0.0000000   0.0000000   0.0000000
 0.1100000  -2.4999400  -0.3000610   0.9999390   0.0000000   0.0000000  -0.0000976   0.0019795  -0.0022183  -0.0022183   0.0000000   0.0000000   0.0000000   0.0432487  -0.0605000  -0.0605000   0.0000000   0.0000000   0.0000000
 0.1150000  -2.4999300  -0.3000730   0.9999270   0.0000000   0.0000000  -0.0001166   0.0021989  -0.0025348  -0.0025348   0.0000000   0.0000000   0.0000000   0.0444702  -0.0661250  -0.0661250   0.0000000   0.0000000   0.0000000
 0.1200000  -2.4999200  -0.3000860   0.9999140   0.0000000   0.0000000  -0.0001382   0.0024238  -0.0028800  -0.0028799   0.0000000   0.0000000   0.0000000   0.0454418  -0.0720000  -0.0719119   0.0000000   0.0000000   0.0000000
 0.1250000  -2.4999100  -0.3001020   0.9998980   0.0000000   0.0000000  -0.0001626   0.0026529  -0.0032552  -0.0032535   0.0000000   0.0000000   0.0000000   0.0461633  -0.0781250  -0.0774900   0.0000000   0.0000000   0.0000000
 0.1300000  -2.4998900  -0.3001190   0.9998810   0.0000000   0.0000000  -0.0001899   0.0028850  -0.0036617  -0.0036544   0.0000000   0.0000000   0.0000000   0.0466348  -0.0845000  -0.0828181   0.0000000   0.0000000   0.0000000
 0.1350000  -2.4998800  -0.3001380   0.9998620   0.0000000   0.0000000  -0.0002204   0.0031188  -0.0041006  -0.0040813   0.0000000   0.0000000   0.0000000   0.0468564  -0.0911250  -0.0878962   0.0000000   0.0000000   0.0000000
 0.1400000  -2.4998600  -0.3001600   0.9998400   0.0000000   0.0000000  -0.0002543   0.0033531  -0.0045733  -0.0045329   0.0000000   0.0000000   0.0000000   0.0468279  -0.0980000  -0.0927243   0.0000000   0.0000000   0.0000000
 0.1450000  -2.4998400  -0.3001840   0.9998160   0.0000000   0.0000000  -0.0002915   0.0035867  -0.0050810  -0.0050081   0.0000000   0.0000000   0.0000000   0.0465494  -0.1051250  -0.0973024   0.0000000   0.0000000   0.0000000
 0.1500000  -2.4998300  -0.3002110   0.9997900   0.0000000   0.0000000  -0.0003324   0.0038182  -0.0056250  -0.0055055   0.0000000   0.0000000   0.0000000   0.0460210  -0.1125000  -0.1016310   0.0000000   0.0000000   0.0000000
 0.1550000  -2.4998100  -0.3002410   0.9997610   0.0000000   0.0000000  -0.0003769   0.0040465  -0.0062065  -0.0060240   0.0000000   0.0000000   0.0000000   0.0452425  -0.1201250  -0.1057090   0.0000000   0.0000000   0.0000000
 0.1600000  -2.4997900  -0.3002730   0.9997300   0.0000000   0.0000000  -0.0004253   0.0042702  -0.0068267  -0.0065622   0.0000000   0.0000000   0.0000000   0.0442140  -0.1280000  -0.1095370   0.0000000   0.0000000   0.0000000
 0.1650000  -2.4997600  -0.3003090   0.9996960   0.0000000   0.0000000  -0.0004776   0.0044882  -0.0074869  -0.0071189   0.0000000   0.0000000   0.0000000   0.0429356  -0.1361250  -0.1131150   0.0000000   0.0000000   0.0000000
 0.1700000  -2.4997400  -0.3003480   0.9996590   0.0000000   0.0000000  -0.0005340   0.0046992  -0.0081883  -0.0076929   0.0000000   0.0000000   0.0000000   0.0414071  -0.1445000  -0.1164430   0.0000000   0.0000000   0.0000000
 0.1750000  -2.4997200  -0.3003910   0.9996190   0.0000000   0.0000000  -0.0005945   0.0049019  -0.0089323  -0.0082830   0.0000000   0.0000000   0.0000000   0.0396286  -0.1531230  -0.1195210   0.0000000   0.0000000   0.0000000
 0.1800000  -2.4996900  -0.3004370   0.9995760   0.0000000   0.0000000  -0.0006592   0.0050950  -0.0097195  -0.0088877   0.0000000   0.0000000   0.0000000   0.0376002  -0.1617030  -0.1223490   0.0000000   0.0000000   0.0000000
 0.1850000  -2.4996700  -0.3004880   0.9995300   0.0000000   0.0000000  -0.0007281   0.0052774  -0.0105489  -0.0095060   0.0000000   0.0000000   0.0000000   0.0353217  -0.1700340  -0.1249270   0.0000000   0.0000000   0.0000000
 0.1900000  -2.4996400  -0.3005430   0.9994810   0.0000000   0.0000000  -0.0008014   0.0054478  -0.0114194  -0.0101366   0.0000000   0.0000000   0.0000000   0.0327932  -0.1781140  -0.1272550   0.0000000   0.0000000   0.0000000
 0.1950000  -2.4996100  -0.3006020   0.9994280   0.0000000   0.0000000  -0.0008791   0.0056050  -0.0123296  -0.0107782   0.0000000   0.0000000   0.0000000   0.0300147  -0.1859440  -0.1293340   0.0000000   0.0000000   0.0000000
 0.2000000  -2.4995800  -0.3006660   0.9993730   0.0000000   0.0000000  -0.0009612   0.0057476  -0.0132784  -0.0114295   0.0000000   0.0000000   0.0000000   0.0269863  -0.1935250  -0.1311620   0.0000000   0.0000000   0.0000000
 0.2050000  -2.4995500  -0.3007350   0.9993140   0.0000000   0.0000000  -0.0010477   0.0058744  -0.0142645  -0.0120894   0.0000000   0.0000000   0.0000000   0.0237078  -0.2008550  -0.1327400   0.0000000   0.0000000   0.0000000
 0.2100000  -2.4995200  -0.3008090   0.9992520   0.0000000   0.0000000  -0.0011387   0.0059845  -0.0152865  -0.0127565   0.0000000   0.0000000   0.0000000   0.0203913  -0.2079350  -0.1340680   0.0000000   0.0000000   0.0000000
 0.2150000  -2.4994900  -0.3008880   0.9991860   0.0000000   0.0000000  -0.0012341   0.0060787  -0.0163434  -0.0134296   0.0000000   0.0000000   0.0000000   0.0173233  -0.2147650  -0.1351460   0.0000000   0.0000000   0.0000000
 0.2200000  -2.4994600  -0.3009730   0.9991180   0.0000000   0.0000000  -0.0013340   0.0061582  -0.0174338  -0.0141075   0.0000000   0.0000000   0.0000000   0.0145052  -0.2213460  -0.1359740   0.0000000   0.0000000   0.0000000
 0.2250000  -2.4994300  -0.3010620   0.9990450   0.0000000   0.0000000  -0.0014384   0.0062242  -0.0185564  -0.0147890   0.0000000   0.0000000   0.0000000   0.0119371  -0.2276760  -0.1365520   0.0000000   0.0000000   0.0000000
 0.2300000  -2.4994000  -0.3011580   0.9989700   0.0000000   0.0000000  -0.0015472   0.0062780  -0.0197101  -0.0154727   0.0000000   0.0000000   0.0000000   0.0096191  -0.2337560  -0.1368800   0.0000000   0.0000000   0.0000000
 0.2350000  -2.4993700  -0.3012600   0.9988910   0.0000000   0.0000000  -0.0016604   0.0063208  -0.0208936  -0.0161574   0.0000000   0.0000000   0.0000000   0.0075510  -0.2395870  -0.1369580   0.0000000   0.0000000   0.0000000
 0.2400000  -2.4993400  -0.3013670   0.9988080   0.0000000   0.0000000  -0.0017779   0.0063539  -0.0221056  -0.0168418   0.0000000   0.0000000   0.0000000   0.0057329  -0.2451670  -0.1367870   0.0000000   0.0000000   0.0000000
 0.2450000  -2.4993100  -0.3014810   0.9987220   0.0000000   0.0000000  -0.0018997   0.0063786  -0.0233448  -0.0175248   0.0000000   0.0000000   0.0000000   0.0041649  -0.2504970  -0.1363650   0.0000000   0.0000000   0.0000000
 0.2500000  -2.4992700  -0.3016010   0.9986330   0.0000000   0.0000000  -0.0020258   0.0063960  -0.0246101  -0.0182051   0.0000000   0.0000000   0.0000000   0.0028468  -0.2555780  -0.1356930   0.0000000   0.0000000   0.0000000
 0.2550000  -2.4992400  -0.3017270   0.9985400   0.0000000   0.0000000  -0.0021561   0.0064074  -0.0259002  -0.0188813   0.0000000   0.0000000   0.0000000   0.0017787  -0.2604080  -0.1347710   0.0000000   0.0000000   0.0000000
 0.2600000  -2.4992100  -0.3018600   0.9984440   0.0000000   0.0000000  -0.0022904   0.0064142  -0.0272138  -0.0195523   0.0000000   0.0000000   0.0000000   0.0009607  -0.2649880  -0.1335990   0.0000000   0.0000000   0.0000000
 0.2650000  -2.4991800  -0.3019990   0.9983450   0.0000000   0.0000000  -0.0024288   0.0064175  -0.0285497  -0.0202169   0.0000000   0.0000000   0.0000000   0.0003926  -0.2693180  -0.1321770   0.0000000   0.0000000   0.0000000
 0.2700000  -2.4991500  -0.3021450   0.9982420   0.0000000   0.0000000  -0.0025710   0.0064185  -0.0299066  -0.0208737   0.0000000   0.0000000   0.0000000   0.0000745  -0.2733990  -0.1305050   0.0000000   0.0000000   0.0000000
 0.2750000  -2.4991100  -0.3022980   0.9981360   0.0000000   0.0000000  -0.0027170   0.0064186  -0.0312832  -0.0215215   0.0000000   0.0000000   0.0000000  -0.0000000  -0.2772290  -0.1285830   0.0000000   0.0000000   0.0000000
 0.2800000  -2.4990800  -0.3024580   0.9980270   0.0000000   0.0000000  -0.0028667   0.0064186  -0.0326784  -0.0221591   0.0000000   0.0000000   0.0000000  -0.0000000  -0.2808090  -0.1264120   0.0000000   0.0000000   0.0000000
 0.2850000  -2.4990500  -0.3026250   0.9979140   0.0000000   0.0000000  -0.0030199   0.0064186  -0.0340909  -0.0227852   0.0000000   0.0000000   0.0000000  -0.0000000  -0.2841400  -0.1239900   0.0000000   0.0000000   0.0000000
 0.2900000  -2.4990200  -0.3027990   0.9977990   0.0000000   0.0000000  -0.0031764   0.0064186  -0.0355194  -0.0233986   0.0000000   0.0000000   0.0000000  -0.0000000  -0.2872200  -0.1213180   0.0000000   0.0000000   0.0000000
 0.2950000  -2.4989900  -0.3029800   0.9976800   0.0000000   0.0000000  -0.0033362   0.0064186  -0.0369627  -0.0239980   0.0000000   0.0000000   0.0000000  -0.0000000  -0.2900500  -0.1183960   0.0000000   0.0000000   0.0000000
 0.3000000  -2.4989500  -0.3031690   0.9975590   0.0000000   0.0000000  -0.0034991   0.0064186  -0.0384195  -0.0245821   0.0000000   0.0000000   0.0000000  -0.0000000  -0.2926310  -0.1152240   0.0000000   0.0000000   0.0000000
 0.3050000  -2.4989200  -0.3033640   0.9974350   0.0000000   0.0000000  -0.0036649   0.0064186  -0.0398886  -0.0251498   0.0000000   0.0000000   0.0000000  -0.0000000  -0.2949610  -0.1118020   0.0000000   0.0000000   0.0000000
 0.3100000  -2.4988900  -0.3035680   0.9973070   0.0000000   0.0000000  -0.0038334   0.0064186  -0.0413687  -0.0256997   0.0000000   0.0000000   0.0000000  -0.0000000  -0.2970410  -0.1081300   0.0000000   0.0000000   0.0000000
 0.3150000  -2.4988600  -0.3037780   0.9971780   0.0000000   0.0000000  -0.0040044   0.0064186  -0.0428586  -0.0262307   0.0000000   0.0000000   0.0000000  -0.0000000  -0.2988710  -0.1042080   0.0000000   0.0000000   0.0000000
 0.3200000  -2.4988200  -0.3039960   0.9970450   0.0000000   0.0000000  -0.0041777   0.0064186  -0.0443570  -0.0267414   0.0000000   0.0000000   0.0000000  -0.0000000  -0.3004520  -0.1000360   0.0000000   0.0000000   0.0000000
 0.3250000  -2.4987900  -0.3042220   0.9969100   0.0000000   0.0000000  -0.0043531   0.0064186  -0.0458627  -0.0272306   0.0000000   0.0000000   0.0000000  -0.0000000  -0.3017820  -0.0956146   0.0000000   0.0000000   0.0000000
 0.3300000  -2.4987600  -0.3044550   0.9967730   0.0000000   0.0000000  -0.0045305   0.0064186  -0.0473744  -0.0276971   0.0000000   0.0000000   0.0000000  -0.0000000  -0.3028620  -0.0909427   0.0000000   0.0000000   0.0000000
 0.3350000  -2.4987300  -0.3046950   0.9966330   0.0000000   0.0000000  -0.0047095   0.0064186  -0.0488909  -0.0281397   0.0000000   0.0000000   0.0000000  -0.0000000  -0.3036930  -0.0860208   0.0000000   0.0000000   0.0000000
 0.3400000  -2.4987000  -0.3049440   0.9964920   0.0000000   0.0000000  -0.0048901   0.0064186  -0.0504109  -0.0285569   0.0000000   0.0000000   0.0000000  -0.0000000  -0.3042730  -0.0808489   0.0000000   0.0000000   0.0000000
 0.3450000  -2.4986600  -0.3052000   0.9963480   0.0000000   0.0000000  -0.0050721   0.0064186  -0.0519332  -0.0289477   0.0000000   0.0000000   0.0000000  -0.0000000  -0.3046030  -0.0754270   0.0000000   0.0000000   0.0000000
 0.3500000  -2.4986300  -0.3054630   0.9962020   0.0000000   0.0000000  -0.0052553   0.0064186  -0.0534565  -0.0293108   0.0000000   0.0000000   0.0000000  -0.0000000  -0.3046840  -0.0697551   0.0000000   0.0000000   0.0000000
 0.3550000  -2.4986000  -0.3057340   0.9960550   0.0000000   0.0000000  -0.0054395   0.0064186  -0.0549796  -0.0296451   0.0000000   0.0000000   0.0000000  -0.0000000  -0.3045140  -0.0639859   0.0000000   0.0000000   0.0000000
 0.3600000  -2.4985700  -0.3060130   0.9959060   0.0000000   0.0000000  -0.0056247   0.0064186  -0.0565012  -0.0299511   0.0000000   0.0000000   0.0000000  -0.0000000  -0.3040940  -0.0584546   0.0000000   0.0000000   0.0000000
 0.3650000  -2.4985400  -0.3062990   0.9957550   0.0000000   0.0000000  -0.0058106   0.0064186  -0.0580201  -0.0302300   0.0000000   0.0000000   0.0000000  -0.0000000  -0.3034240  -0.0531734   0.0000000   0.0000000   0.0000000
 0.3700000  -2.4985000  -0.3065930   0.9956040   0.0000000   0.0000000  -0.0059973   0.0064186  -0.0595351  -0.0304832   0.0000000   0.0000000   0.0000000  -0.0000000  -0.3025050  -0.0481422   0.0000000   0.0000000   0.0000000
 0.3750000  -2.4984700  -0.3068940   0.9954510   0.0000000   0.0000000  -0.0061844   0.0064186  -0.0610448  -0.0307119   0.0000000   0.0000000   0.0000000  -0.0000000  -0.3013350  -0.0433609   0.0000000   0.0000000   0.0000000
 0.3800000  -2.4984400  -0.3072030   0.9952960   0.0000000   0.0000000  -0.0063721   0.0064186  -0.0625480  -0.0309172   0.0000000   0.0000000   0.0000000  -0.0000000  -0.2999150  -0.0388297   0.0000000   0.0000000   0.0000000
 0.3850000  -2.4984100  -0.3075200   0.9951410   0.0000000   0.0000000  -0.0065601   0.0064186  -0.0640435  -0.0311006   0.0000000   0.0000000   0.0000000  -0.0000000  -0.2982460  -0.0345485   0.0000000   0.0000000   0.0000000
 0.3900000  -2.4983800  -0.3078440   0.9949850   0.0000000   0.0000000  -0.0067484   0.0064186  -0.0655300  -0.0312631   0.0000000   0.0000000   0.0000000  -0.0000000  -0.2963260  -0.0305173   0.0000000   0.0000000   0.0000000
 0.3950000  -2.4983400  -0.3081750   0.9948290   0.0000000   0.0000000  -0.0069368   0.0064186  -0.0670063  -0.0314062   0.0000000   0.0000000   0.0000000  -0.0000000  -0.2941560  -0.0267360   0.0000000   0.0000000   0.0000000
 0.4000000  -2.4983100  -0.3085140   0.9946710   0.0000000   0.0000000  -0.0071255   0.0064186  -0.0684712  -0.0315309   0.0000000   0.0000000   0.0000000  -0.0000000  -0.2917370  -0.0232048   0.0000000   0.0000000   0.0000000
 0.4050000  -2.4982800  -0.3088600   0.9945130   0.0000000   0.0000000  -0.0073143   0.0064186  -0.0699233  -0.0316386   0.0000000   0.0000000   0.0000000  -0.0000000  -0.2890670  -0.0199236   0.0000000   0.0000000   0.0000000
 0.4100000  -2.4982500  -0.3092130   0.9943550   0.0000000   0.0000000  -0.0075031   0.0064186  -0.0713614  -0.0317306   0.0000000   0.0000000   0.0000000  -0.0000000  -0.2861470  -0.0168923   0.0000000   0.0000000   0.0000000
 0.4150000  -2.4982200  -0.3095730   0.9941960   0.0000000   0.0000000  -0.0076920   0.0064186  -0.0727843  -0.0318080   0.0000000   0.0000000   0.0000000  -0.0000000  -0.2829770  -0.0141111   0.0000000   0.0000000   0.0000000
 0.4200000  -2.4981800  -0.3099410   0.9940370   0.0000000   0.0000000  -0.0078808   0.0064186  -0.0741908  -0.0318721   0.0000000   0.0000000   0.0000000  -0.0000000  -0.2795580  -0.0115799   0.0000000   0.0000000   0.0000000
 0.4250000  -2.4981500  -0.3103150   0.9938780   0.0000000   0.0000000  -0.0080697   0.0064186  -0.0755795  -0.0319242   0.0000000   0.0000000   0.0000000  -0.0000000  -0.2758880  -0.0092987   0.0000000   0.0000000   0.0000000
 0.4300000  -2.4981200  -0.3106970   0.9937180   0.0000000   0.0000000  -0.0082586   0.0064186  -0.0769492  -0.0319655   0.0000000   0.0000000   0.0000000  -0.0000000  -0.2719680  -0.0072674   0.0000000   0.0000000   0.0000000
 0.4350000  -2.4980900  -0.3110850   0.9935580   0.0000000   0.0000000  -0.0084474   0.0064186  -0.0782988  -0.0319973   0.0000000   0.0000000   0.0000000  -0.0000000  -0.2677990  -0.0054862   0.0000000   0.0000000   0.0000000
 0.4400000  -2.4980500  -0.3114800   0.9933980   0.0000000   0.0000000  -0.0086363   0.0064186  -0.0796268  -0.0320208   0.0000000   0.0000000   0.0000000  -0.0000000  -0.2633790  -0.0039550   0.0000000   0.0000000   0.0000000
 0.4450000  -2.4980200  -0.3118810   0.9932380   0.0000000   0.0000000  -0.0088252   0.0064186  -0.0809321  -0.0320372   0.0000000   0.0000000   0.0000000  -0.0000000  -0.2587090  -0.0026737   0.0000000   0.0000000   0.0000000
 0.4500000  -2.4979900  -0.3122890   0.9930770   0.0000000   0.0000000  -0.0090140   0.0064186  -0.0822135  -0.0320479   0.0000000   0.0000000   0.0000000  -0.0000000  -0.2537900  -0.0016425   0.0000000   0.0000000   0.0000000
 0.4550000  -2.4979600  -0.3127030   0.9929170   0.0000000   0.0000000  -0.0092029   0.0064186  -0.0834696  -0.0320541   0.0000000   0.0000000   0.0000000  -0.0000000  -0.2486200  -0.0008613   0.0000000   0.0000000   0.0000000
 0.4600000  -2.4979300  -0.3131240   0.9927570   0.0000000   0.0000000  -0.0093918   0.0064186  -0.0846993  -0.0320570   0.0000000   0.0000000   0.0000000  -0.0000000  -0.2432000  -0.0003300   0.0000000   0.0000000   0.0000000
 0.4650000  -2.4978900  -0.3135500   0.9925970   0.0000000   0.0000000  -0.0095807   0.0064186  -0.0859012  -0.0320578   0.0000000   0.0000000   0.0000000  -0.0000000  -0.2375300  -0.0000488   0.0000000   0.0000000   0.0000000
 0.4700000  -2.4978600  -0.3139830   0.9924360   0.0000000   0.0000000  -0.0097695   0.0064186  -0.0870742  -0.0320578   0.0000000   0.0000000   0.0000000  -0.0000000  -0.2316110   0.0000000   0.0000000   0.0000000   0.0000000
 0.4750000  -2.4978300  -0.3144210   0.9922760   0.0000000   0.0000000  -0.0099584   0.0064186  -0.0882169  -0.0320578   0.0000000   0.0000000   0.0000000  -0.0000000  -0.2254410   0.0000000   0.0000000   0.0000000   0.0000000
 0.4800000  -2.4978000  -0.3148650   0.9921160   0.0000000   0.0000000  -0.0101473   0.0064186  -0.0893282  -0.0320578   0.0000000   0.0000000   0.0000000  -0.0000000  -0.2190210   0.0000000   0.0000000   0.0000000   0.0000000
 0.4850000  -2.4977700  -0.3153140   0.9919550   0.0000000   0.0000000  -0.0103361   0.0064186  -0.0904067  -0.0320578   0.0000000   0.0000000   0.0000000  -0.0000000  -0.2123520   0.0000000   0.0000000   0.0000000   0.0000000
 0.4900000  -2.4977300  -0.3157690   0.9917950   0.0000000   0.0000000  -0.0105250   0.0064186  -0.0914513  -0.0320578   0.0000000   0.0000000   0.0000000  -0.0000000  -0.2054320   0.0000000   0.0000000   0.0000000   0.0000000
 0.4950000  -2.4977000  -0.3162280   0.9916350   0.0000000   0.0000000  -0.0107139   0.0064186  -0.0924606  -0.0320578   0.0000000   0.0000000   0.0000000  -0.0000000  -0.1982620   0.0000000   0.0000000   0.0000000   0.0000000
 0.5000000  -2.4976700  -0.3166930   0.9914750   0.0000000   0.0000000  -0.0109028   0.0064186  -0.0934335  -0.0320578   0.0000000   0.0000000   0.0000000  -0.0000000  -0.1908430   0.0000000   0.0000000   0.0000000   0.0000000
 0.5050000  -2.4976400  -0.3171630   0.9913140   0.0000000   0.0000000  -0.0110916   0.0064186  -0.0943686  -0.0320578   0.0000000   0.0000000   0.0000000  -0.0000000  -0.1831730   0.0000000   0.0000000   0.0000000   0.0000000
 0.5100000  -2.4976100  -0.3176370   0.9911540   0.0000000   0.0000000  -0.0112805   0.0064186  -0.0952648  -0.0320578   0.0000000   0.0000000   0.0000000  -0.0000000  -0.1752530   0.0000000   0.0000000   0.0000000   0.0000000
 0.5150000  -2.4975700  -0.3181150   0.9909940   0.0000000   0.0000000  -0.0114694   0.0064186  -0.0961207  -0.0320578   0.0000000   0.0000000   0.0000000  -0.0000000  -0.1670830   0.0000000   0.0000000   0.0000000   0.0000000
 0.5200000  -2.4975400  -0.3185980   0.9908330   0.0000000   0.0000000  -0.0116582   0.0064186  -0.0969352  -0.0320578   0.0000000   0.0000000   0.0000000  -0.0000000  -0.1586640   0.0000000   0.0000000   0.0000000   0.0000000
 0.5250000  -2.4975100  -0.3190850   0.9906730   0.0000000   0.0000000  -0.0118471   0.0064186  -0.0977069  -0.0320578   0.0000000   0.0000000   0.0000000  -0.0000000  -0.1500120   0.0000000   0.0000000   0.0000000   0.0000000
 0.5300000  -2.4974800  -0.3195750   0.9905130   0.0000000   0.0000000  -0.0120360   0.0064186  -0.0984356  -0.0320578   0.0000000   0.0000000   0.0000000  -0.0000000  -0.1414760   0.0000000   0.0000000   0.0000000   0.0000000
 0.5350000  -2.4974400  -0.3200690   0.9903530   0.0000000   0.0000000  -0.0122249   0.0064186  -0.0991221  -0.0320578   0.0000000   0.0000000   0.0000000  -0.0000000  -0.1331910   0.0000000   0.0000000   0.0000000   0.0000000
 0.5400000  -2.4974100  -0.3205660   0.9901920   0.0000000   0.0000000  -0.0124137   0.0064186  -0.0997679  -0.0320578   0.0000000   0.0000000   0.0000000  -0.0000000  -0.1251550   0.0000000   0.0000000   0.0000000   0.0000000
 0.5450000  -2.4973800  -0.3210660   0.9900320   0.0000000   0.0000000  -0.0126026   0.0064186  -0.1003740  -0.0320578   0.0000000   0.0000000   0.0000000  -0.0000000  -0.1173700   0.0000000   0.0000000   0.0000000   0.0000000
 0.5500000  -2.4973500  -0.3215700   0.9898720   0.0000000   0.0000000  -0.0127915   0.0064186  -0.1009420  -0.0320578   0.0000000   0.0000000   0.0000000  -0.0000000  -0.1098340   0.0000000   0.0000000   0.0000000   0.0000000
 0.5550000  -2.4973200  -0.3220760   0.9897110   0.0000000   0.0000000  -0.0129804   0.0064186  -0.1014730  -0.0320578   0.0000000   0.0000000   0.0000000  -0.0000000  -0.1025480   0.0000000   0.0000000   0.0000000   0.0000000
 0.5600000  -2.4972800  -0.3225840   0.9895510   0.0000000   0.0000000  -0.0131692   0.0064186  -0.1019680  -0.0320578   0.0000000   0.0000000   0.0000000  -0.0000000  -0.0955128   0.0000000   0.0000000   0.0000000   0.0000000
 0.5650000  -2.4972500  -0.3230950   0.9893910   0.0000000   0.0000000  -0.0133581   0.0064186  -0.1024280  -0.0320578   0.0000000   0.0000000   0.0000000  -0.0000000  -0.0887272   0.0000000   0.0000000   0.0000000   0.0000000
 0.5700000  -2.4972200  -0.3236090   0.9892310   0.0000000   0.0000000  -0.0135470   0.0064186  -0.1028560  -0.0320578   0.0000000   0.0000000   0.0000000  -0.0000000  -0.0821916   0.0000000   0.0000000   0.0000000   0.0000000
 0.5750000  -2.4971900  -0.3241240   0.9890700   0.0000000   0.0000000  -0.0137358   0.0064186  -0.1032510  -0.0320578   0.0000000   0.0000000   0.0000000  -0.0000000  -0.0759060   0.0000000   0.0000000   0.0000000   0.0000000
 0.5800000  -2.4971600  -0.3246410   0.9889100   0.0000000   0.0000000  -0.0139247   0.0064186  -0.1036150  -0.0320578   0.0000000   0.0000000   0.0000000  -0.0000000  -0.0698704   0.0000000   0.0000000   0.0000000   0.0000000
 0.5850000  -2.4971200  -0.3251600   0.9887500   0.0000000   0.0000000  -0.0141136   0.0064186  -0.1039500  -0.0320578   0.0000000   0.0000000   0.0000000  -0.0000000  -0.0640848   0.0000000   0.0000000   0.0000000   0.0000000
 0.5900000  -2.4970900  -0.3256810   0.9885890   0.0000000   0.0000000  -0.0143025   0.0064186  -0.1042560  -0.0320578   0.0000000   0.0000000   0.0000000  -0.0000000  -0.0585492   0.0000000   0.0000000   0.0000000   0.0000000
 0.5950000  -2.4970600  -0.3262030   0.9884290   0.0000000   0.0000000  -0.0144913   0.0064186  -0.1045360  -0.0320578   0.0000000   0.0000000   0.0000000  -0.0000000  -0.0532636   0.0000000   0.0000000   0.0000000   0.0000000
 0.6000000  -2.4970300  -0.3267260   0.9882690   0.0000000   0.0000000  -0.0146802   0.0064186  -0.1047890  -0.0320578   0.0000000   0.0000000   0.0000000  -0.0000000  -0.0482280   0.0000000   0.0000000   0.0000000   0.0000000
 0.6050000  -2.4970000  -0.3272500   0.9881090   0.0000000   0.0000000  -0.0148691   0.0064186  -0.1050180  -0.0320578   0.0000000   0.0000000   0.0000000  -0.0000000  -0.0434424   0.0000000   0.0000000   0.0000000   0.0000000
 0.6100000  -2.4969600  -0.3277760   0.9879480   0.0000000   0.0000000  -0.0150579   0.0064186  -0.1052240  -0.0320578   0.0000000   0.0000000   0.0000000  -0.0000000  -0.0389068   0.0000000   0.0000000   0.0000000   0.0000000
 0.6150000  -2.4969300  -0.3283030   0.9877880   0.0000000   0.0000000  -0.0152468   0.0064186  -0.1054080  -0.0320578   0.0000000   0.0000000   0.0000000  -0.0000000  -0.0346212   0.0000000   0.0000000   0.0000000   0.0000000
 0.6200000  -2.4969000  -0.3288300   0.9876280   0.0000000   0.0000000  -0.0154357   0.0064186  -0.1055710  -0.0320578   0.0000000   0.0000000   0.0000000  -0.0000000  -0.0305856   0.0000000   0.0000000   0.0000000   0.0000000
 0.6250000  -2.4968700  -0.3293580   0.9874670   0.0000000   0.0000000  -0.0156246   0.0064186  -0.1057140  -0.0320578   0.0000000   0.0000000   0.0000000  -0.0000000  -0.0268000   0.0000000   0.0000000   0.0000000   0.0000000
 0.6300000  -2.4968400  -0.3298870   0.9873070   0.0000000   0.0000000  -0.0158134   0.0064186  -0.1058390  -0.0320578   0.0000000   0.0000000   0.0000000  -0.0000000  -0.0232644   0.0000000   0.0000000   0.0000000   0.0000000
 0.6350000  -2.4968000  -0.3304170   0.9871470   0.0000000   0.0000000  -0.0160023   0.0064186  -0.1059470  -0.0320578   0.0000000   0.0000000   0.0000000  -0.0000000  -0.0199788   0.0000000   0.0000000   0.0000000   0.0000000
 0.6400000  -2.4967700  -0.3309470   0.9869870   0.0000000   0.0000000  -0.0161912   0.0064186  -0.1060390  -0.0320578   0.0000000   0.0000000   0.0000000  -0.0000000  -0.0169432   0.0000000   0.0000000   0.0000000   0.0000000
 0.6450000  -2.4967400  -0.3314770   0.9868260   0.0000000   0.0000000  -0.0163800   0.0064186  -0.1061170  -0.0320578   0.0000000   0.0000000   0.0000000  -0.0000000  -0.0141576   0.0000000   0.0000000   0.0000000   0.0000000
 0.6500000  -2.4967100  -0.3320080   0.9866660   0.0000000   0.0000000  -0.0165689   0.0064186  -0.1061810  -0.0320578   0.0000000   0.0000000   0.0000000  -0.0000000  -0.0116220   0.0000000   0.0000000   0.0000000   0.0000000
 0.6550000  -2.4966700  -0.3325390   0.9865060   0.0000000   0.0000000  -0.0167578   0.0064186  -0.1062340  -0.0320578   0.0000000   0.0000000   0.0000000  -0.0000000  -0.0093364   0.0000000   0.0000000   0.0000000   0.0000000
 0.6600000  -2.4966400  -0.3330700   0.9863450   0.0000000   0.0000000  -0.0169467   0.0064186  -0.1062750  -0.0320578   0.0000000   0.0000000   0.0000000  -0.0000000  -0.0073008   0.0000000   0.0000000   0.0000000   0.0000000
 0.6650000  -2.4966100  -0.3336020   0.9861850   0.0000000   0.0000000  -0.0171355   0.0064186  -0.1063070  -0.0320578   0.0000000   0.0000000   0.0000000  -0.0000000  -0.0055152   0.0000000   0.0000000   0.0000000   0.0000000
 0.6700000  -2.4965800  -0.3341330   0.9860250   0.0000000   0.0000000  -0.0173244   0.0064186  -0.1063310  -0.0320578   0.0000000   0.0000000   0.0000000  -0.0000000  -0.0039796   0.0000000   0.0000000   0.0000000   0.0000000
 0.6750000  -2.4965500  -0.3346650   0.9858640   0.0000000   0.0000000  -0.0175133   0.0064186  -0.1063470  -0.0320578   0.0000000   0.0000000   0.0000000  -0.0000000  -0.0026940   0.0000000   0.0000000   0.0000000   0.0000000
 0.6800000  -2.4965100  -0.3351970   0.9857040   0.0000000   0.0000000  -0.0177021   0.0064186  -0.1063580  -0.0320578   0.0000000   0.0000000   0.0000000  -0.0000000  -0.0016584   0.0000000   0.0000000   0.0000000   0.0000000
 0.6850000  -2.4964800  -0.3357280   0.9855440   0.0000000   0.0000000  -0.0178910   0.0064186  -0.1063640  -0.0320578   0.0000000   0.0000000   0.0000000  -0.0000000  -0.0008728   0.0000000   0.0000000   0.0000000   0.0000000
 0.6900000  -2.4964500  -0.3362600   0.9853840   0.0000000   0.0000000  -0.0180799   0.0064186  -0.1063670  -0.0320578   0.0000000   0.0000000   0.0000000  -0.0000000  -0.0003372   0.0000000   0.0000000   0.0000000   0.0000000
 0.6950000  -2.4964200  -0.3367920   0.9852230   0.0000000   0.0000000  -0.0182688   0.0064186  -0.1063680  -0.0320578   0.0000000   0.0000000   0.0000000  -0.0000000  -0.0000516   0.0000000   0.0000000   0.0000000   0.0000000
 0.7000000  -2.4963900  -0.3373240   0.9850630   0.0000000   0.0000000  -0.0184576   0.0064186  -0.1063680  -0.0320578   0.0000000   0.0000000   0.0000000  -0.0000000   0.0000125   0.0000000   0.0000000   0.0000000   0.0000000
 0.7050000  -2.4963500  -0.3378560   0.9849030   0.0000000   0.0000000  -0.0186465   0.0064186  -0.1063680  -0.0320578   0.0000000   0.0000000   0.0000000  -0.0000000   0.0002165   0.0000000   0.0000000   0.0000000   0.0000000
 0.7100000  -2.4963200  -0.3383880   0.9847420   0.0000000   0.0000000  -0.0188354   0.0064186  -0.1063660  -0.0320578   0.0000000   0.0000000   0.0000000  -0.0000000   0.0006706   0.0000000   0.0000000   0.0000000   0.0000000
 0.7150000  -2.4962900  -0.3389190   0.9845820   0.0000000   0.0000000  -0.0190242   0.0064186  -0.1063610  -0.0320578   0.0000000   0.0000000   0.0000000  -0.0000000   0.0013746   0.0000000   0.0000000   0.0000000   0.0000000
 0.7200000  -2.4962600  -0.3394510   0.9844220   0.0000000   0.0000000  -0.0192131   0.0064186  -0.1063510  -0.0320578   0.0000000   0.0000000   0.0000000  -0.0000000   0.0023286   0.0000000   0.0000000   0.0000000   0.0000000
 0.7250000  -2.4962300  -0.3399830   0.9842620   0.0000000   0.0000000  -0.0194020   0.0064186  -0.1063370  -0.0320578   0.0000000   0.0000000   0.0000000  -0.0000000   0.0035327   0.0000000   0.0000000   0.0000000   0.0000000
 0.7300000  -2.4961900  -0.3405150   0.9841010   0.0000000   0.0000000  -0.0195909   0.0064186  -0.1063160  -0.0320578   0.0000000   0.0000000   0.0000000  -0.0000000   0.0049867   0.0000000   0.0000000   0.0000000   0.0000000
 0.7350000  -2.4961600  -0.3410460   0.9839410   0.0000000   0.0000000  -0.0197797   0.0064186  -0.1062870  -0.0320578   0.0000000   0.0000000   0.0000000  -0.0000000   0.0066908   0.0000000   0.0000000   0.0000000   0.0000000
 0.7400000  -2.4961300  -0.3415770   0.9837810   0.0000000   0.0000000  -0.0199686   0.0064186  -0.1062480  -0.0320578   0.0000000   0.0000000   0.0000000  -0.0000000   0.0086448   0.0000000   0.0000000   0.0000000   0.0000000
 0.7450000  -2.4961000  -0.3421090   0.9836200   0.0000000   0.0000000  -0.0201575   0.0064186  -0.1062000  -0.0320578   0.0000000   0.0000000   0.0000000  -0.0000000   0.0108488   0.0000000   0.0000000   0.0000000   0.0000000
 0.7500000  -2.4960600  -0.3426390   0.9834600   0.0000000   0.0000000  -0.0203463   0.0064186  -0.1061400  -0.0320578   0.0000000   0.0000000   0.0000000  -0.0000000   0.0133029   0.0000000   0.0000000   0.0000000   0.0000000
 0.7550000  -2.4960300  -0.3431700   0.9833000   0.0000000   0.0000000  -0.0205352   0.0064186  -0.1060660  -0.0320578   0.0000000   0.0000000   0.0000000  -0.0000000   0.0160069   0.0000000   0.0000000   0.0000000   0.0000000
 0.7600000  -2.4960000  -0.3437000   0.9831400   0.0000000   0.0000000  -0.0207241   0.0064186  -0.1059790  -0.0320578   0.0000000   0.0000000   0.0000000  -0.0000000   0.0189610   0.0000000   0.0000000   0.0000000   0.0000000
 0.7650000  -2.4959700  -0.3442300   0.9829790   0.0000000   0.0000000  -0.0209130   0.0064186  -0.1058760  -0.0320578   0.0000000   0.0000000   0.0000000  -0.0000000   0.0221650   0.0000000   0.0000000   0.0000000   0.0000000
 0.7700000  -2.4959400  -0.3447590   0.9828190   0.0000000   0.0000000  -0.0211018   0.0064186  -0.1057570  -0.0320578   0.0000000   0.0000000   0.0000000  -0.0000000   0.0256190   0.0000000   0.0000000   0.0000000   0.0000000
 0.7750000  -2.4959000  -0.3452870   0.9826590   0.0000000   0.0000000  -0.0212907   0.0064186  -0.1056200  -0.0320578   0.0000000   0.0000000   0.0000000  -0.0000000   0.0293231   0.0000000   0.0000000   0.0000000   0.0000000
 0.7800000  -2.4958700  -0.3458150   0.9824980   0.0000000   0.0000000  -0.0214796   0.0064186  -0.1054630  -0.0320578   0.0000000   0.0000000   0.0000000  -0.0000000   0.0332771   0.0000000   0.0000000   0.0000000   0.0000000
 0.7850000  -2.4958400  -0.3463420   0.9823380   0.0000000   0.0000000  -0.0216684   0.0064186  -0.1052870  -0.0320578   0.0000000   0.0000000   0.0000000  -0.0000000   0.0374812   0.0000000   0.0000000   0.0000000   0.0000000
 0.7900000  -2.4958100  -0.3468680   0.9821780   0.0000000   0.0000000  -0.0218573   0.0064186  -0.1050880  -0.0320578   0.0000000   0.0000000   0.0000000  -0.0000000   0.0419352   0.0000000   0.0000000   0.0000000   0.0000000
 0.7950000  -2.4957800  -0.3473930   0.9820180   0.0000000   0.0000000  -0.0220462   0.0064186  -0.1048670  -0.0320578   0.0000000   0.0000000   0.0000000  -0.0000000   0.0466392   0.0000000   0.0000000   0.0000000   0.0000000
 0.8000000  -2.4957400  -0.3479160   0.9818570   0.0000000   0.0000000  -0.0222351   0.0064186  -0.1046210  -0.0320578   0.0000000   0.0000000   0.0000000  -0.0000000   0.0515933   0.0000000   0.0000000   0.0000000   0.0000000
 0.8050000  -2.4957100  -0.3484390   0.9816970   0.0000000   0.0000000  -0.0224239   0.0064186  -0.1043500  -0.0320578   0.0000000   0.0000000   0.0000000  -0.0000000   0.0567973   0.0000000   0.0000000   0.0000000   0.0000000
 0.8100000  -2.4956800  -0.3489600   0.9815370   0.0000000   0.0000000  -0.0226128   0.0064186  -0.1040530  -0.0320578   0.0000000   0.0000000   0.0000000  -0.0000000   0.0622513   0.0000000   0.0000000   0.0000000   0.0000000
 0.8150000  -2.4956500  -0.3494790   0.9813760   0.0000000   0.0000000  -0.0228017   0.0064186  -0.1037270  -0.0320578   0.0000000   0.0000000   0.0000000  -0.0000000   0.0679554   0.0000000   0.0000000   0.0000000   0.0000000
 0.8200000  -2.4956200  -0.3499970   0.9812160   0.0000000   0.0000000  -0.0229905   0.0064186  -0.1033730  -0.0320578   0.0000000   0.0000000   0.0000000  -0.0000000   0.0739094   0.0000000   0.0000000   0.0000000   0.0000000
 0.8250000  -2.4955800  -0.3505130   0.9810560   0.0000000   0.0000000  -0.0231794   0.0064186  -0.1029880  -0.0320578   0.0000000   0.0000000   0.0000000  -0.0000000   0.0801135   0.0000000   0.0000000   0.0000000   0.0000000
 0.8300000  -2.4955500  -0.3510270   0.9808960   0.0000000   0.0000000  -0.0233683   0.0064186  -0.1025710  -0.0320578   0.0000000   0.0000000   0.0000000  -0.0000000   0.0865675   0.0000000   0.0000000   0.0000000   0.0000000
 0.8350000  -2.4955200  -0.3515390   0.9807350   0.0000000   0.0000000  -0.0235572   0.0064186  -0.1021220  -0.0320578   0.0000000   0.0000000   0.0000000  -0.0000000   0.0932715   0.0000000   0.0000000   0.0000000   0.0000000
 0.8400000  -2.4954900  -0.3520480   0.9805750   0.0000000   0.0000000  -0.0237460   0.0064186  -0.1016380  -0.0320578   0.0000000   0.0000000   0.0000000  -0.0000000   0.1002260   0.0000000   0.0000000   0.0000000   0.0000000
 0.8450000  -2.4954600  -0.3525550   0.9804150   0.0000000   0.0000000  -0.0239349   0.0064186  -0.1011190  -0.0320578   0.0000000   0.0000000   0.0000000  -0.0000000   0.1074300   0.0000000   0.0000000   0.0000000   0.0000000
 0.8500000  -2.4954200  -0.3530590   0.9802540   0.0000000   0.0000000  -0.0241238   0.0064186  -0.1005640  -0.0320578   0.0000000   0.0000000   0.0000000  -0.0000000   0.1148840   0.0000000   0.0000000   0.0000000   0.0000000
 0.8550000  -2.4953900  -0.3535610   0.9800940   0.0000000   0.0000000  -0.0243126   0.0064186  -0.0999699  -0.0320578   0.0000000   0.0000000   0.0000000  -0.0000000   0.1225880   0.0000000   0.0000000   0.0000000   0.0000000
 0.8600000  -2.4953600  -0.3540590   0.9799340   0.0000000   0.0000000  -0.0245015   0.0064186  -0.0993372  -0.0320578   0.0000000   0.0000000   0.0000000  -0.0000000   0.1305420   0.0000000   0.0000000   0.0000000   0.0000000
 0.8650000  -2.4953300  -0.3545540   0.9797730   0.0000000   0.0000000  -0.0246904   0.0064186  -0.0986641  -0.0320578   0.0000000   0.0000000   0.0000000  -0.0000000   0.1387460   0.0000000   0.0000000   0.0000000   0.0000000
 0.8700000  -2.4952900  -0.3550450   0.9796130   0.0000000   0.0000000  -0.0248793   0.0064186  -0.0979493  -0.0320578   0.0000000   0.0000000   0.0000000  -0.0000000   0.1472000   0.0000000   0.0000000   0.0000000   0.0000000
 0.8750000  -2.4952600  -0.3555330   0.9794530   0.0000000   0.0000000  -0.0250681   0.0064186  -0.0971917  -0.0320578   0.0000000   0.0000000   0.0000000  -0.0000000   0.1559040   0.0000000   0.0000000   0.0000000   0.0000000
 0.8800000  -2.4952300  -0.3560170   0.9792930   0.0000000   0.0000000  -0.0252570   0.0064186  -0.0963899  -0.0320578   0.0000000   0.0000000   0.0000000  -0.0000000   0.1648580   0.0000000   0.0000000   0.0000000   0.0000000
 0.8850000  -2.4952000  -0.3564970   0.9791320   0.0000000   0.0000000  -0.0254459   0.0064186  -0.0955427  -0.0320578   0.0000000   0.0000000   0.0000000  -0.0000000   0.1740620   0.0000000   0.0000000   0.0000000   0.0000000
 0.8900000  -2.4951700  -0.3569730   0.9789720   0.0000000   0.0000000  -0.0256347   0.0064186  -0.0946489  -0.0320578   0.0000000   0.0000000   0.0000000  -0.0000000   0.1835160   0.0000000   0.0000000   0.0000000   0.0000000
 0.8950000  -2.4951300  -0.3574440   0.9788120   0.0000000   0.0000000  -0.0258236   0.0064186  -0.0937071  -0.0320578   0.0000000   0.0000000   0.0000000  -0.0000000   0.1932200   0.0000000   0.0000000   0.0000000   0.0000000
 0.9000000  -2.4951000  -0.3579100   0.9786510   0.0000000   0.0000000  -0.0260125   0.0064186  -0.0927162  -0.0320578   0.0000000   0.0000000   0.0000000  -0.0000000   0.2031740   0.0000000   0.0000000   0.0000000   0.0000000
 0.9050000  -2.4950700  -0.3583710   0.9784910   0.0000000   0.0000000  -0.0262014   0.0064186  -0.0916750  -0.0320578   0.0000000   0.0000000   0.0000000  -0.0000000   0.2133780   0.0000000   0.0000000   0.0000000   0.0000000
 0.9100000  -2.4950400  -0.3588260   0.9783310   0.0000000   0.0000000  -0.0263902   0.0064186  -0.0905820  -0.0320578   0.0000000   0.0000000   0.0000000  -0.0000000   0.2238320   0.0000000   0.0000000   0.0000000   0.0000000
 0.9150000  -2.4950100  -0.3592760   0.9781710   0.0000000   0.0000000  -0.0265791   0.0064186  -0.0894362  -0.0320578   0.0000000   0.0000000   0.0000000  -0.0000000   0.2345360   0.0000000   0.0000000   0.0000000   0.0000000
 0.9200000  -2.4949700  -0.3597210   0.9780100   0.0000000   0.0000000  -0.0267680   0.0064186  -0.0882363  -0.0320578   0.0000000   0.0000000   0.0000000  -0.0000000   0.2454900   0.0000000   0.0000000   0.0000000   0.0000000
 0.9250000  -2.4949400  -0.3601590   0.9778500   0.0000000   0.0000000  -0.0269569   0.0064186  -0.0869809  -0.0320578   0.0000000   0.0000000   0.0000000  -0.0000000   0.2566940   0.0000000   0.0000000   0.0000000   0.0000000
 0.9300000  -2.4949100  -0.3605900   0.9776900   0.0000000   0.0000000  -0.0271457   0.0064186  -0.0856689  -0.0320578   0.0000000   0.0000000   0.0000000  -0.0000000   0.2681480   0.0000000   0.0000000   0.0000000   0.0000000
 0.9350000  -2.4948800  -0.3610150   0.9775290   0.0000000   0.0000000  -0.0273346   0.0064186  -0.0842990  -0.0320578   0.0000000   0.0000000   0.0000000  -0.0000000   0.2798520   0.0000000   0.0000000   0.0000000   0.0000000
 0.9400000  -2.4948500  -0.3614330   0.9773690   0.0000000   0.0000000  -0.0275235   0.0064186  -0.0828700  -0.0320578   0.0000000   0.0000000   0.0000000  -0.0000000   0.2918060   0.0000000   0.0000000   0.0000000   0.0000000
 0.9450000  -2.4948100  -0.3618440   0.9772090   0.0000000   0.0000000  -0.0277123   0.0064186  -0.0813805  -0.0320578   0.0000000   0.0000000   0.0000000  -0.0000000   0.3040100   0.0000000   0.0000000   0.0000000   0.0000000
 0.9500000  -2.4947800  -0.3622470   0.9770490   0.0000000   0.0000000  -0.0279012   0.0064186  -0.0798294  -0.0320578   0.0000000   0.0000000   0.0000000  -0.0000000   0.3164640   0.0000000   0.0000000   0.0000000   0.0000000
 0.9550000  -2.4947500  -0.3626420   0.9768880   0.0000000   0.0000000  -0.0280901   0.0064186  -0.0782155  -0.0320578   0.0000000   0.0000000   0.0000000  -0.0000000   0.3291680   0.0000000   0.0000000   0.0000000   0.0000000
 0.9600000  -2.4947200  -0.3630290   0.9767280   0.0000000   0.0000000  -0.0282790   0.0064186  -0.0765373  -0.0320578   0.0000000   0.0000000   0.0000000  -0.0000000   0.3421230   0.0000000   0.0000000   0.0000000   0.0000000
 0.9650000  -2.4946800  -0.3634070   0.9765680   0.0000000   0.0000000  -0.0284678   0.0064186  -0.0747938  -0.0320578   0.0000000   0.0000000   0.0000000  -0.0000000   0.3553270   0.0000000   0.0000000   0.0000000   0.0000000
 0.9700000  -2.4946500  -0.3637770   0.9764070   0.0000000   0.0000000  -0.0286567   0.0064186  -0.0729837  -0.0320578   0.0000000   0.0000000   0.0000000  -0.0000000   0.3687810   0.0000000   0.0000000   0.0000000   0.0000000
 0.9750000  -2.4946200  -0.3641370   0.9762470   0.0000000   0.0000000  -0.0288456   0.0064186  -0.0711056  -0.0320578   0.0000000   0.0000000   0.0000000  -0.0000000   0.3824850   0.0000000   0.0000000   0.0000000   0.0000000
 0.9800000  -2.4945900  -0.3644880   0.9760870   0.0000000   0.0000000  -0.0290344   0.0064186  -0.0691584  -0.0320578   0.0000000   0.0000000   0.0000000  -0.0000000   0.3964390   0.0000000   0.0000000   0.0000000   0.0000000
 0.9850000  -2.4945600  -0.3648280   0.9759270   0.0000000   0.0000000  -0.0292233   0.0064186  -0.0671408  -0.0320578   0.0000000   0.0000000   0.0000000  -0.0000000   0.4106430   0.0000000   0.0000000   0.0000000   0.0000000
 0.9900000  -2.4945200  -0.3651590   0.9757660   0.0000000   0.0000000  -0.0294122   0.0064186  -0.0650516  -0.0320578   0.0000000   0.0000000   0.0000000  -0.0000000   0.4250970   0.0000000   0.0000000   0.0000000   0.0000000
 0.9950000  -2.4944900  -0.3654790   0.9756060   0.0000000   0.0000000  -0.0296011   0.0064186  -0.0628894  -0.0320578   0.0000000   0.0000000   0.0000000  -0.0000000   0.4398010   0.0000000   0.0000000   0.0000000   0.0000000
 1.0000000  -2.4944600  -0.3657880   0.9754460   0.0000000   0.0000000  -0.0297899   0.0064186  -0.0606531  -0.0320578   0.0000000   0.0000000   0.0000000  -0.0000000   0.4547550   0.0000000   0.0000000   0.0000000   0.0000000
 1.0050000  -2.4944300  -0.3660850   0.9752850   0.0000000   0.0000000  -0.0299788   0.0064186  -0.0583414  -0.0320578   0.0000000   0.0000000   0.0000000  -0.0000000   0.4699590   0.0000000   0.0000000   0.0000000   0.0000000
 1.0100000  -2.4944000  -0.3663710   0.9751250   0.0000000   0.0000000  -0.0301677   0.0064186  -0.0559531  -0.0320578   0.0000000   0.0000000   0.0000000  -0.0000000   0.4854130   0.0000000   0.0000000   0.0000000   0.0000000
 1.0150000  -2.4943600  -0.3666450   0.9749650   0.0000000   0.0000000  -0.0303565   0.0064186  -0.0534869  -0.0320578   0.0000000   0.0000000   0.0000000  -0.0000000   0.5011170   0.0000000   0.0000000   0.0000000   0.0000000
 1.0200000  -2.4943300  -0.3669060   0.9748050   0.0000000   0.0000000  -0.0305454   0.0064186  -0.0509415  -0.0320578   0.0000000   0.0000000   0.0000000  -0.0000000   0.5170710   0.0000000   0.0000000   0.0000000   0.0000000
 1.0250000  -2.4943000  -0.3671540   0.9746440   0.0000000   0.0000000  -0.0307343   0.0064186  -0.0483158  -0.0320578   0.0000000   0.0000000   0.0000000  -0.0000000   0.5332750   0.0000000   0.0000000   0.0000000   0.0000000
 1.0300000  -2.4942700  -0.3673890   0.9744840   0.0000000   0.0000000  -0.0309232   0.0064186  -0.0456084  -0.0320578   0.0000000   0.0000000   0.0000000  -0.0000000   0.5497290   0.0000000   0.0000000   0.0000000   0.0000000
 1.0350000  -2.4942400  -0.3676100   0.9743240   0.0000000   0.0000000  -0.0311120   0.0064186  -0.0428181  -0.0320578   0.0000000   0.0000000   0.0000000  -0.0000000   0.5664330   0.0000000   0.0000000   0.0000000   0.0000000
 1.0400000  -2.4942000  -0.3678170   0.9741630   0.0000000   0.0000000  -0.0313009   0.0064186  -0.0399436  -0.0320578   0.0000000   0.0000000   0.0000000  -0.0000000   0.5833540   0.0000000   0.0000000   0.0000000   0.0000000
 1.0450000  -2.4941700  -0.3680090   0.9740030   0.0000000   0.0000000  -0.0314898   0.0064186  -0.0369848  -0.0320578   0.0000000   0.0000000   0.0000000  -0.0000000   0.6001270   0.0000000   0.0000000   0.0000000   0.0000000
 1.0500000  -2.4941400  -0.3681870   0.9738430   0.0000000   0.0000000  -0.0316786   0.0064186  -0.0339428  -0.0320578   0.0000000   0.0000000   0.0000000  -0.0000000   0.6166490   0.0000000   0.0000000   0.0000000   0.0000000
 1.0550000  -2.4941100  -0.3683480   0.9736830   0.0000000   0.0000000  -0.0318675   0.0064186  -0.0308188  -0.0320578   0.0000000   0.0000000   0.0000000  -0.0000000   0.6329220   0.0000000   0.0000000   0.0000000   0.0000000
 1.0600000  -2.4940800  -0.3684950   0.9735220   0.0000000   0.0000000  -0.0320564   0.0064186  -0.0276140  -0.0320578   0.0000000   0.0000000   0.0000000  -0.0000000   0.6489440   0.0000000   0.0000000   0.0000000   0.0000000
 1.0650000  -2.4940400  -0.3686240   0.9733620   0.0000000   0.0000000  -0.0322453   0.0064186  -0.0243297  -0.0320578   0.0000000   0.0000000   0.0000000  -0.0000000   0.6647160   0.0000000   0.0000000   0.0000000   0.0000000
 1.0700000  -2.4940100  -0.3687380   0.9732020   0.0000000   0.0000000  -0.0324341   0.0064186  -0.0209672  -0.0320578   0.0000000   0.0000000   0.0000000  -0.0000000   0.6802390   0.0000000   0.0000000   0.0000000   0.0000000
 1.0750000  -2.4939800  -0.3688340   0.9730410   0.0000000   0.0000000  -0.0326230   0.0064186  -0.0175278  -0.0320578   0.0000000   0.0000000   0.0000000  -0.0000000   0.6955110   0.0000000   0.0000000   0.0000000   0.0000000
 1.0800000  -2.4939500  -0.3689130   0.9728810   0.0000000   0.0000000  -0.0328119   0.0064186  -0.0140126  -0.0320578   0.0000000   0.0000000   0.0000000  -0.0000000   0.7105340   0.0000000   0.0000000   0.0000000   0.0000000
 1.0850000  -2.4939100  -0.3689740   0.9727210   0.0000000   0.0000000  -0.0330007   0.0064186  -0.0104228  -0.0320578   0.0000000   0.0000000   0.0000000  -0.0000000   0.7253060   0.0000000   0.0000000   0.0000000   0.0000000
 1.0900000  -2.4938800  -0.3690170   0.9725600   0.0000000   0.0000000  -0.0331896   0.0064186  -0.0067599  -0.0320578   0.0000000   0.0000000   0.0000000  -0.0000000   0.7398290   0.0000000   0.0000000   0.0000000   0.0000000
 1.0950000  -2.4938500  -0.3690420   0.9724000   0.0000000   0.0000000  -0.0333785   0.0064186  -0.0030250  -0.0320578   0.0000000   0.0000000   0.0000000  -0.0000000   0.7541010   0.0000000   0.0000000   0.0000000   0.0000000
 1.1000000  -2.4938200  -0.3690470   0.9722400   0.0000000   0.0000000  -0.0335674   0.0064186   0.0007807  -0.0320578   0.0000000   0.0000000   0.0000000  -0.0000000   0.7681240   0.0000000   0.0000000   0.0000000   0.0000000
 1.1050000  -2.4937900  -0.3690340   0.9720800   0.0000000   0.0000000  -0.0337562   0.0064186   0.0046558  -0.0320578   0.0000000   0.0000000   0.0000000  -0.0000000   0.7818960   0.0000000   0.0000000   0.0000000   0.0000000
 1.1100000  -2.4937500  -0.3690000   0.9719190   0.0000000   0.0000000  -0.0339451   0.0064186   0.0085992  -0.0320578   0.0000000   0.0000000   0.0000000  -0.0000000   0.7954190   0.0000000   0.0000000   0.0000000   0.0000000
 1.1150000  -2.4937200  -0.3689470   0.9717590   0.0000000   0.0000000  -0.0341340   0.0064186   0.0126096  -0.0320578   0.0000000   0.0000000   0.0000000  -0.0000000   0.8086910   0.0000000   0.0000000   0.0000000   0.0000000
 1.1200000  -2.4936900  -0.3688740   0.9715990   0.0000000   0.0000000  -0.0343228   0.0064186   0.0166857  -0.0320578   0.0000000   0.0000000   0.0000000  -0.0000000   0.8217140   0.0000000   0.0000000   0.0000000   0.0000000
 1.1250000  -2.4936600  -0.3687810   0.9714380   0.0000000   0.0000000  -0.0345117   0.0064186   0.0208263  -0.0320578   0.0000000   0.0000000   0.0000000  -0.0000000   0.8344860   0.0000000   0.0000000   0.0000000   0.0000000
 1.1300000  -2.4936300  -0.3686660   0.9712780   0.0000000   0.0000000  -0.0347006   0.0064186   0.0250302  -0.0320578   0.0000000   0.0000000   0.0000000  -0.0000000   0.8470080   0.0000000   0.0000000   0.0000000   0.0000000
 1.1350000  -2.4935900  -0.3685300   0.9711180   0.0000000   0.0000000  -0.0348895   0.0064186   0.0292960  -0.0320578   0.0000000   0.0000000   0.0000000  -0.0000000   0.8592810   0.0000000   0.0000000   0.0000000   0.0000000
 1.1400000  -2.4935600  -0.3683730   0.9709580   0.0000000   0.0000000  -0.0350783   0.0064186   0.0336226  -0.0320578   0.0000000   0.0000000   0.0000000  -0.0000000   0.8713030   0.0000000   0.0000000   0.0000000   0.0000000
 1.1450000  -2.4935300  -0.3681940   0.9707970   0.0000000   0.0000000  -0.0352672   0.0064186   0.0380086  -0.0320578   0.0000000   0.0000000   0.0000000  -0.0000000   0.8830760   0.0000000   0.0000000   0.0000000   0.0000000
 1.1500000  -2.4935000  -0.3679930   0.9706370   0.0000000   0.0000000  -0.0354561   0.0064186   0.0424529  -0.0320578   0.0000000   0.0000000   0.0000000  -0.0000000   0.8945980   0.0000000   0.0000000   0.0000000   0.0000000
 1.1550000  -2.4934700  -0.3677690   0.9704770   0.0000000   0.0000000  -0.0356449   0.0064186   0.0469542  -0.0320578   0.0000000   0.0000000   0.0000000  -0.0000000   0.9058710   0.0000000   0.0000000   0.0000000   0.0000000
 1.1600000  -2.4934300  -0.3675230   0.9703160   0.0000000   0.0000000  -0.0358338   0.0064186   0.0515112  -0.0320578   0.0000000   0.0000000   0.0000000  -0.0000000   0.9168930   0.0000000   0.0000000   0.0000000   0.0000000
 1.1650000  -2.4934000  -0.3672540   0.9701560   0.0000000   0.0000000  -0.0360227   0.0064186   0.0561227  -0.0320578   0.0000000   0.0000000   0.0000000  -0.0000000   0.9276660   0.0000000   0.0000000   0.0000000   0.0000000
 1.1700000  -2.4933700  -0.3669620   0.9699960   0.0000000   0.0000000  -0.0362116   0.0064186   0.0607874  -0.0320578   0.0000000   0.0000000   0.0000000  -0.0000000   0.9381880   0.0000000   0.0000000   0.0000000   0.0000000
 1.1750000  -2.4933400  -0.3666460   0.9698360   0.0000000   0.0000000  -0.0364004   0.0064186   0.0655042  -0.0320578   0.0000000   0.0000000   0.0000000  -0.0000000   0.9484610   0.0000000   0.0000000   0.0000000   0.0000000
 1.1800000  -2.4933000  -0.3663070   0.9696750   0.0000000   0.0000000  -0.0365893   0.0064186   0.0702716  -0.0320578   0.0000000   0.0000000   0.0000000  -0.0000000   0.9584830   0.0000000   0.0000000   0.0000000   0.0000000
 1.1850000  -2.4932700  -0.3659430   0.9695150   0.0000000   0.0000000  -0.0367782   0.0064186   0.0750886  -0.0320578   0.0000000   0.0000000   0.0000000  -0.0000000   0.9682550   0.0000000   0.0000000   0.0000000   0.0000000
 1.1900000  -2.4932400  -0.3655560   0.9693550   0.0000000   0.0000000  -0.0369670   0.0064186   0.0799538  -0.0320578   0.0000000   0.0000000   0.0000000  -0.0000000   0.9777780   0.0000000   0.0000000   0.0000000   0.0000000
 1.1950000  -2.4932100  -0.3651440   0.9691940   0.0000000   0.0000000  -0.0371559   0.0064186   0.0848659  -0.0320578   0.0000000   0.0000000   0.0000000  -0.0000000   0.9870500   0.0000000   0.0000000   0.0000000   0.0000000
 1.2000000  -2.4931800  -0.3647070   0.9690340   0.0000000   0.0000000  -0.0373448   0.0064186   0.0898239  -0.0320578   0.0000000   0.0000000   0.0000000  -0.0000000   0.9960730   0.0000000   0.0000000   0.0000000   0.0000000
 1.2050000  -2.4931400  -0.3642450   0.9688740   0.0000000   0.0000000  -0.0375337   0.0064186   0.0948263  -0.0320578   0.0000000   0.0000000   0.0000000  -0.0000000   1.0048500   0.0000000   0.0000000   0.0000000   0.0000000
 1.2100000  -2.4931100  -0.3637590   0.9687140   0.0000000   0.0000000  -0.0377225   0.0064186   0.0998719  -0.0320578   0.0000000   0.0000000   0.0000000  -0.0000000   1.0133700   0.0000000   0.0000000   0.0000000   0.0000000
 1.2150000  -2.4930800  -0.3632460   0.9685530   0.0000000   0.0000000  -0.0379114   0.0064186   0.1049600  -0.0320578   0.0000000   0.0000000   0.0000000  -0.0000000   1.0216400   0.0000000   0.0000000   0.0000000   0.0000000
 1.2200000  -2.4930500  -0.3627090   0.9683930   0.0000000   0.0000000  -0.0381003   0.0064186   0.1100880  -0.0320578   0.0000000   0.0000000   0.0000000  -0.0000000   1.0296600   0.0000000   0.0000000   0.0000000   0.0000000
 1.2250000  -2.4930200  -0.3621460   0.9682330   0.0000000   0.0000000  -0.0382891   0.0064186   0.1152560  -0.0320578   0.0000000   0.0000000   0.0000000  -0.0000000   1.0374400   0.0000000   0.0000000   0.0000000   0.0000000
 1.2300000  -2.4929800  -0.3615560   0.9680720   0.0000000   0.0000000  -0.0384780   0.0064186   0.1204620  -0.0320578   0.0000000   0.0000000   0.0000000  -0.0000000   1.0449600   0.0000000   0.0000000   0.0000000   0.0000000
 1.2350000  -2.4929500  -0.3609410   0.9679120   0.0000000   0.0000000  -0.0386669   0.0064186   0.1257050  -0.0320578   0.0000000   0.0000000   0.0000000  -0.0000000   1.0522300   0.0000000   0.0000000   0.0000000   0.0000000
 1.2400000  -2.4929200  -0.3602990   0.9677520   0.0000000   0.0000000  -0.0388558   0.0064186   0.1309840  -0.0320578   0.0000000   0.0000000   0.0000000  -0.0000000   1.0592500   0.0000000   0.0000000   0.0000000   0.0000000
 1.2450000  -2.4928900  -0.3596310   0.9675920   0.0000000   0.0000000  -0.0390446   0.0064186   0.1362970  -0.0320578   0.0000000   0.0000000   0.0000000  -0.0000000   1.0660200   0.0000000   0.0000000   0.0000000   0.0000000
 1.2500000  -2.4928600  -0.3589360   0.9674310   0.0000000   0.0000000  -0.0392335   0.0064186   0.1416440  -0.0320578   0.0000000   0.0000000   0.0000000  -0.0000000   1.0725500   0.0000000   0.0000000   0.0000000   0.0000000
 1.2550000  -2.4928200  -0.3582140   0.9672710   0.0000000   0.0000000  -0.0394224   0.0064186   0.1470220  -0.0320578   0.0000000   0.0000000   0.0000000  -0.0000000   1.0788200   0.0000000   0.0000000   0.0000000   0.0000000
 1.2600000  -2.4927900  -0.3574660   0.9671110   0.0000000   0.0000000  -0.0396112   0.0064186   0.1524310  -0.0320578   0.0000000   0.0000000   0.0000000  -0.0000000   1.0848400   0.0000000   0.0000000   0.0000000   0.0000000
 1.2650000  -2.4927600  -0.3566900   0.9669500   0.0000000   0.0000000  -0.0398001   0.0064186   0.1578700  -0.0320578   0.0000000   0.0000000   0.0000000  -0.0000000   1.0906100   0.0000000   0.0000000   0.0000000   0.0000000
 1.2700000  -2.4927300  -0.3558870   0.9667900   0.0000000   0.0000000  -0.0399890   0.0064186   0.1633370  -0.0320578   0.0000000   0.0000000   0.0000000  -0.0000000   1.0961400   0.0000000   0.0000000   0.0000000   0.0000000
 1.2750000  -2.4927000  -0.3550570   0.9666300   0.0000000   0.0000000  -0.0401779   0.0064186   0.1688310  -0.0320578   0.0000000   0.0000000   0.0000000  -0.0000000   1.1014100   0.0000000   0.0000000   0.0000000   0.0000000
 1.2800000  -2.4926600  -0.3541990   0.9664690   0.0000000   0.0000000  -0.0403667   0.0064186   0.1743510  -0.0320578   0.0000000   0.0000000   0.0000000  -0.0000000   1.1064300   0.0000000   0.0000000   0.0000000   0.0000000
 1.2850000  -2.4926300  -0.3533130   0.9663090   0.0000000   0.0000000  -0.0405556   0.0064186   0.1798950  -0.0320578   0.0000000   0.0000000   0.0000000  -0.0000000   1.1112000   0.0000000   0.0000000   0.0000000   0.0000000
 1.2900000  -2.4926000  -0.3524000   0.9661490   0.0000000   0.0000000  -0.0407445   0.0064186   0.1854620  -0.0320578   0.0000000   0.0000000   0.0000000  -0.0000000   1.1157300   0.0000000   0.0000000   0.0000000   0.0000000
 1.2950000  -2.4925700  -0.3514580   0.9659890   0.0000000   0.0000000  -0.0409335   0.0064186   0.1910520  -0.0320578   0.0000000   0.0000000   0.0000000  -0.0000000   1.1200000   0.0000000   0.0000000   0.0000000   0.0000000
 1.3000000  -2.4925300  -0.3504890   0.9658280   0.0000000   0.0000000  -0.0411226   0.0064186   0.1966620  -0.0320578   0.0000000   0.0000000   0.0000000  -0.0000000   1.1240200   0.0000000   0.0000000   0.0000000   0.0000000
 1.3050000  -2.4925000  -0.3494920   0.9656680   0.0000000   0.0000000  -0.0413118   0.0064186   0.2022920  -0.0320578   0.0000000   0.0000000   0.0000000  -0.0000000   1.1277900   0.0000000   0.0000000   0.0000000   0.0000000
 1.3100000  -2.4924700  -0.3484660   0.9655080   0.0000000   0.0000000  -0.0415013   0.0064186   0.2079390  -0.0320578   0.0000000   0.0000000   0.0000000  -0.0000000   1.1313200   0.0000000   0.0000000   0.0000000   0.0000000
 1.3150000  -2.4924400  -0.3474120   0.9653470   0.0000000   0.0000000  -0.0416910   0.0064186   0.2136040  -0.0320578   0.0000000   0.0000000   0.0000000  -0.0000000   1.1345900   0.0000000   0.0000000   0.0000000   0.0000000
