ts fx fy fz tx ty tz exfx exfy exfz extx exty extz xd yd zd rolld pitchd yawd vxd vyd vzd wxd wyd wzd axd ayd azd e_x e_y e_z e_vx e_vy e_vz e_rx e_ry e_rz e_wx e_wy e_wz
1704190503.214473000  0  0  11.4573  0.073049  -0.137721  0.0223485  nan  nan  nan  nan  nan  nan  -2.5  -0.3  1  0.0120169  -0.0246562  -0.000296275  0  0  0  0  0  0  0  0  0  0.0179587  0.0054288  -0.00856196  -0.00850648  0.00323127  -0.00425179  -0.0134325  0.027108  -0.0284062  -0.0225186  0.0260497  0.00470617 
1704190503.217442000  0  0  11.4717  0.0744585  -0.144158  0.0204776  nan  nan  nan  nan  nan  nan  -2.5  -0.3  1  0.0124612  -0.023225  -0.000289399  0  0  0  0  0  0  0  0  0  0.0179125  0.00544421  -0.0085732  -0.0101897  0.00378304  -0.0054276  -0.013892  0.0259918  -0.0281681  -0.0211103  0.0491902  0.0257103 
1704190503.222445000  0  0  11.3476  0.0630857  -0.109394  0.0220469  nan  nan  nan  nan  nan  nan  -2.5  -0.3  1  0.0121312  -0.0225791  -0.000273902  0  0  0  0  0  0  0  0  0  0.0179199  0.0053956  -0.00841213  -0.0113424  0.00330327  0.00459551  -0.0134322  0.0248669  -0.0282666  -0.00259511  -0.00998827  0.00707964 
1704190503.227477000  0  0  11.4051  0.0614819  -0.128896  0.0235124  nan  nan  nan  nan  nan  nan  -2.5  -0.3  1  0.0125248  -0.0242154  -0.000303278  0  0  0  0  0  0  0  0  0  0.0178822  0.00541683  -0.00844127  -0.00903864  0.0038318  -0.000143654  -0.0137605  0.0266517  -0.028451  0.00363283  0.0125962  -0.0093943 
1704190503.232457000  0  0  11.465  0.0779079  -0.142907  0.0205358  nan  nan  nan  nan  nan  nan  -2.5  -0.3  1  0.0126546  -0.0231792  -0.000293313  0  0  0  0  0  0  0  0  0  0.0178757  0.00537942  -0.00839751  -0.0101834  0.00416431  -0.00524224  -0.0141943  0.0260722  -0.0281252  -0.0252286  0.045951  0.0245546 
1704190503.237922000  0  0  11.3795  0.0547196  -0.112901  0.0230829  nan  nan  nan  nan  nan  nan  -2.5  -0.3  1  0.0122012  -0.0227944  -0.000278108  0  0  0  0  0  0  0  0  0  0.017878  0.00534344  -0.00827466  -0.0108964  0.00355069  0.00164167  -0.0134091  0.0252647  -0.0283834  0.0139246  -0.00663321  -0.00470266 
1704190503.242454000  0  0  11.4103  0.063146  -0.126038  0.0231755  nan  nan  nan  nan  nan  nan  -2.5  -0.3  1  0.0131595  -0.0234499  -0.000308578  0  0  0  0  0  0  0  0  0  0.0178387  0.00536924  -0.00829419  -0.00989847  0.00474977  -0.000887335  -0.0143659  0.026052  -0.0284395  0.00587414  0.012397  -0.00529929 
1704190503.244453000  0  0  11.4338  0.0737497  -0.135437  0.0217214  nan  nan  nan  nan  nan  nan  -2.5  -0.3  1  0.0132289  -0.0233126  -0.000308392  0  0  0  0  0  0  0  0  0  0.0178178  0.00537797  -0.00831086  -0.00996489  0.00485325  -0.00282132  -0.014615  0.026131  -0.0282771  -0.0130413  0.0304692  0.011253 
1704190503.244453000  0  0  11.4338  0.0737497  -0.135437  0.0217214  nan  nan  nan  nan  nan  nan  -2.5  -0.3  1  0.0132289  -0.0233126  -0.000308392  0  0  0  0  0  0  0  0  0  0.0178178  0.00537797  -0.00831086  -0.00996489  0.00485325  -0.00282132  -0.014615  0.026131  -0.0282771  -0.0130413  0.0304692  0.011253 
1704190503.257404000  0  0  11.4115  0.0706834  -0.116515  0.0225794  nan  nan  nan  nan  nan  nan  -2.5  -0.3  1  0.0134594  -0.0222725  -0.000299767  0  0  0  0  0  0  0  0  0  0.0177801  0.00532842  -0.00818945  -0.0112591  0.00522291  -0.00120117  -0.0147288  0.0248805  -0.0283617  -0.00586191  0.0041302  0.00137425 
1704190503.262402000  0  0  11.4126  0.0663759  -0.113689  0.022144  nan  nan  nan  nan  nan  nan  -2.5  -0.3  1  0.0120956  -0.0226198  -0.00027359  0  0  0  0  0  0  0  0  0  0.0177303  0.00533742  -0.00819522  -0.0107059  0.00347514  -0.00128576  -0.0134956  0.0252195  -0.0282831  -0.00859197  -0.00464191  0.00603073 
1704190503.267482000  0  0  11.4342  0.0619479  -0.106059  0.0229748  nan  nan  nan  nan  nan  nan  -2.5  -0.3  1  0.0129023  -0.0221717  -0.000286059  0  0  0  0  0  0  0  0  0  0.0177222  0.00532409  -0.00815581  -0.011203  0.00455876  -0.00316066  -0.0141096  0.0245603  -0.0284112  0.00591203  -0.013836  -0.0030728 
1704190503.272574000  0  0  11.3518  0.0855116  -0.103663  0.0213358  nan  nan  nan  nan  nan  nan  -2.5  -0.3  1  0.0127604  -0.0218739  -0.000279113  2e-07  2e-07  2e-07  0  0  0  0.000125  0.000125  0.000125  0.0177192  0.00528961  -0.00803497  -0.0117593  0.00435424  0.00346503  -0.0144796  0.024155  -0.0282118  -0.037811  -0.0148994  0.015421 
1704190503.277507000  0  0  11.4403  0.0517825  -0.100375  0.0234418  nan  nan  nan  nan  nan  nan  -2.5  -0.3  1  0.0119519  -0.0228048  -0.000272551  1.7e-06  1.7e-06  1.7e-06  0  0  0  0.0005  0.0005  0.0005  0.0176747  0.00530517  -0.00808824  -0.0102145  0.00346448  -0.00375302  -0.0132501  0.0248536  -0.0284295  0.0183363  -0.0279036  -0.0087282 
1704190503.282511000  0  0  11.4605  0.081737  -0.106081  0.0207128  nan  nan  nan  nan  nan  nan  -2.5  -0.3  1  0.0138306  -0.0212971  -0.000294549  5.6e-06  5.6e-06  5.6e-06  0  0  0  0.001125  0.001125  0.001125  0.0176378  0.00532075  -0.00806518  -0.0119217  0.00592888  -0.00543392  -0.0154597  0.0234156  -0.0281482  -0.0212445  -0.00326171  0.022572 
1704190503.287514000  0  0  11.3907  0.0726386  -0.0757705  0.0223803  nan  nan  nan  nan  nan  nan  -2.5  -0.3  1  0.0122055  -0.0217161  -0.000265148  1.33e-05  1.33e-05  1.33e-05  0  0  0  0.002  0.002  0.002  0.0176234  0.0052946  -0.00799204  -0.0114151  0.00393348  0.000330116  -0.0139626  0.0232077  -0.0282441  -0.0168209  -0.0619702  0.00268688 
1704190503.292513000  0  0  11.4743  0.0575745  -0.0884059  0.0241912  nan  nan  nan  nan  nan  nan  -2.5  -0.3  1  0.012334  -0.0227799  -0.000281256  2.6e-05  2.6e-05  2.6e-05  0  0  0  0.003125  0.003125  0.003125  0.0175788  0.00532275  -0.00805447  -0.00961433  0.00429019  -0.00639524  -0.0138437  0.0241004  -0.0285022  0.012213  -0.0449115  -0.0173689 
1704190503.297507000  0  0  11.4428  0.099887  -0.102427  0.0188951  nan  nan  nan  nan  nan  nan  -2.5  -0.3  1  0.0136281  -0.0206438  -0.000281833  4.5e-05  4.5e-05  4.5e-05  0  0  0  0.0045  0.0045  0.0045  0.0175366  0.00532382  -0.00800942  -0.0121424  0.00606541  -0.00375033  -0.0157637  0.0221912  -0.027939  -0.0547482  0.000694393  0.0432014 
1704190503.302453000  0  0  11.3953  0.0774069  -0.076779  0.0202332  nan  nan  nan  nan  nan  nan  -2.5  -0.299999  1  0.0123423  -0.0199953  -0.000247785  7.15e-05  7.15e-05  7.15e-05  0  0  0  0.006125  0.006125  0.006125  0.0174733  0.00533913  -0.00799145  -0.0127276  0.00453742  0.000342102  -0.014384  0.0210859  -0.027927  -0.022481  -0.0404321  0.0263541 
1704190503.307453000  0  0  11.474  0.0587091  -0.096228  0.0242346  nan  nan  nan  nan  nan  nan  -2.5  -0.299999  1  0.0131028  -0.021773  -0.00028698  0.0001067  0.0001067  0.0001067  0  0  0  0.008  0.008  0.008  0.0174723  0.00534917  -0.00800356  -0.0100445  0.00582945  -0.00600715  -0.014774  0.0227894  -0.0284118  0.0185023  -0.0172061  -0.0188141 
1704190503.312789000  0  0  11.4704  0.101139  -0.111545  0.0190221  nan  nan  nan  nan  nan  nan  -2.5  -0.299998  1  0.0138752  -0.0202521  -0.0002837  0.0001519  0.0001519  0.0001519  0  0  0  0.010125  0.010125  0.010125  0.0174271  0.00534591  -0.00798092  -0.0116219  0.00708625  -0.00557579  -0.0163131  0.0216667  -0.0277928  -0.0521976  0.0237562  0.0401517 
1704190503.317450000  0  0  11.4309  0.067328  -0.0833553  0.0197146  nan  nan  nan  nan  nan  nan  -2.5  -0.299997  1  0.0122973  -0.018973  -0.000237514  0.0002083  0.0002083  0.0002083  0  0  0  0.0125  0.0125  0.0125  0.0173615  0.00536109  -0.00796888  -0.0128911  0.00528853  -0.00205912  -0.0143574  0.0200277  -0.0277198  -0.0025675  -0.0175444  0.0307651 
1704190503.322452000  0  0  11.4575  0.0502825  -0.0990767  0.0237996  nan  nan  nan  nan  nan  nan  -2.5  -0.299996  1  0.0129385  -0.0203608  -0.000269534  0.0002773  0.0002773  0.0002773  0  0  0  0.015125  0.015125  0.015125  0.0173484  0.00537627  -0.0079604  -0.010705  0.00643979  -0.00404676  -0.014548  0.0214104  -0.028224  0.0332766  0.00117777  -0.0152558 
1704190503.327452000  0  0  11.4684  0.090905  -0.129786  0.0198053  nan  nan  nan  nan  nan  nan  -2.49999  -0.299995  1.00001  0.0134071  -0.0193329  -0.000267797  0.00036  0.00036  0.00036  0  0  0  0.018  0.018  0.018  0.0172764  0.00541741  -0.00799288  -0.0114653  0.00732641  -0.00463933  -0.015745  0.0212003  -0.0277551  -0.0369557  0.0645285  0.0299847 
1704190503.332451000  0  0  11.4621  0.0471487  -0.103876  0.0220873  nan  nan  nan  nan  nan  nan  -2.49999  -0.299993  1.00001  0.0117132  -0.017812  -0.000220534  0.0004577  0.0004577  0.0004577  0  0  0  0.021125  0.021125  0.021125  0.0172372  0.00539162  -0.00796324  -0.0129349  0.00561321  -0.00386361  -0.0134029  0.0195812  -0.0279277  0.0290094  0.0276044  0.00318606 
1704190503.337447000  0  0  11.4537  0.0293855  -0.121847  0.0233816  nan  nan  nan  nan  nan  nan  -2.49999  -0.29999  1.00001  0.011931  -0.0185985  -0.000237896  0.0005717  0.0005717  0.0005717  0  0  0  0.0245  0.0245  0.0245  0.0171913  0.00542619  -0.0079706  -0.0114201  0.00623026  -0.0028299  -0.0130956  0.0207559  -0.0281125  0.0617083  0.0527392  -0.0111453 
1704190503.342452000  0  0  11.4873  0.0516107  -0.151537  0.0199123  nan  nan  nan  nan  nan  nan  -2.49999  -0.299987  1.00001  0.0119716  -0.01832  -0.000240417  0.0007031  0.0007031  0.0007031  0  0  0  0.028125  0.028125  0.028125  0.0171692  0.00542484  -0.00795305  -0.0111971  0.00678934  -0.00533532  -0.0133478  0.0213581  -0.0277326  0.0195787  0.10658  0.0284223 
1704190503.347455000  0  0  11.4802  0.0239033  -0.127923  0.0214375  nan  nan  nan  nan  nan  nan  -2.49998  -0.299983  1.00002  0.0104345  -0.0162428  -0.000196784  0.0008533  0.0008533  0.0008533  0  0  0  0.0319374  0.032  0.032  0.0171294  0.00539291  -0.00791053  -0.0132915  0.00538175  -0.00445945  -0.0112163  0.0194612  -0.0278342  0.0553835  0.076802  0.0103731 
1704190503.352452000  0  0  11.4408  0.00761048  -0.125075  0.0241498  nan  nan  nan  nan  nan  nan  -2.49998  -0.299978  1.00002  0.01006  -0.0170727  -0.000206549  0.0010221  0.0010235  0.0010235  0  0  0  0.0355621  0.036125  0.036125  0.017083  0.00541971  -0.00789352  -0.0117449  0.00532298  -0.000815382  -0.01026  0.020447  -0.0281734  0.0791709  0.062038  -0.0201393 
1704190503.357446000  0  0  11.4915  0.0301449  -0.152533  0.0208009  nan  nan  nan  nan  nan  nan  -2.49997  -0.299973  1.00003  0.00995403  -0.0172669  -0.000215573  0.0012085  0.001215  0.001215  0  0  0  0.0389369  0.0405  0.0405  0.0170537  0.00541043  -0.00788741  -0.0109071  0.00581955  -0.00465211  -0.0102816  0.0214441  -0.0278529  0.0343011  0.10778  0.018518 
1704190503.362403000  0  0  11.4941  0.0182084  -0.124955  0.0196423  nan  nan  nan  nan  nan  nan  -2.49997  -0.299966  1.00003  0.00900115  -0.0146589  -0.000186246  0.0014111  0.001429  0.001429  0  0  0  0.0420616  0.045125  0.045125  0.016976  0.00543299  -0.00789774  -0.013666  0.00514201  -0.00440002  -0.00897777  0.0190335  -0.0276007  0.0461787  0.0748025  0.030478 
1704190503.367454000  0  0  11.4356  -0.00288081  -0.110208  0.024221  nan  nan  nan  nan  nan  nan  -2.49996  -0.299958  1.00004  0.00796322  -0.0155671  -0.000190662  0.0016287  0.0016667  0.0016667  0  0  0  0.0449364  0.05  0.05  0.0169567  0.0054143  -0.00782585  -0.0121997  0.00442377  0.000789927  -0.00736837  0.0197994  -0.0281215  0.0735506  0.0382616  -0.0215466 
1704190503.372456000  0  0  11.4776  0.0348402  -0.139347  0.0212012  nan  nan  nan  nan  nan  nan  -2.49995  -0.299949  1.00005  0.00837862  -0.0159273  -0.000214447  0.00186  0.0019294  0.0019294  0  0  0  0.0475611  0.055125  0.055125  0.0169184  0.00541051  -0.00780795  -0.011249  0.00564866  -0.00227873  -0.00819368  0.0208427  -0.0278511  0.0057014  0.08694  0.0134958 
1704190503.377449000  0  0  11.4642  0.0335897  -0.110241  0.0205232  nan  nan  nan  nan  nan  nan  -2.49994  -0.299939  1.00006  0.00709042  -0.0131417  -0.000190679  0.0021039  0.0022183  0.0022183  0  0  0  0.0499359  0.0605  0.0605  0.0168306  0.00542954  -0.00780408  -0.0143267  0.00463461  -0.000643631  -0.00695884  0.0181682  -0.0276779  -0.00315797  0.0533354  0.020239 
1704190503.382452000  0  0  11.4275  0.00569941  -0.090065  0.025301  nan  nan  nan  nan  nan  nan  -2.49993  -0.299927  1.00007  0.00587945  -0.0139809  -0.000198398  0.002359  0.0025348  0.0025348  0  0  0  0.0520606  0.066125  0.066125  0.016821  0.00540335  -0.00772224  -0.013024  0.00383887  0.00277793  -0.00528937  0.0186529  -0.0282726  0.0372634  0.00852317  -0.0335364 
1704190503.387457000  0  0  11.46  0.0510504  -0.11912  0.0218957  nan  nan  nan  nan  nan  nan  -2.49992  -0.299914  1.00009  0.00673138  -0.0139152  -0.000231067  0.0026241  0.00288  0.00288  0  0  0  0.0539354  0.072  0.072  0.0167596  0.0054409  -0.00774163  -0.0126825  0.00560602  0.000658735  -0.00683668  0.0192152  -0.027972  -0.0392034  0.0614589  0.00602342 
1704190503.392454000  0  0  11.4714  0.0492331  -0.0911209  0.0203472  nan  nan  nan  nan  nan  nan  -2.4999  -0.299898  1.0001  0.00505254  -0.0117872  -0.000220754  0.0028979  0.0032552  0.0032552  0  0  0  0.0555601  0.078125  0.078125  0.0166611  0.00543338  -0.00772317  -0.0149537  0.00426797  0.000264248  -0.00546723  0.0170232  -0.0276971  -0.0481677  0.0256279  0.0226309 
1704190503.397448000  0  0  11.4581  0.0325655  -0.0772749  0.0247358  nan  nan  nan  nan  nan  nan  -2.49989  -0.299881  1.00012  0.00447476  -0.0120126  -0.000241453  0.0031792  0.0036617  0.0036617  0  0  0  0.0569349  0.0845  0.0845  0.0166083  0.00545115  -0.00770178  -0.0143923  0.00429318  0.00193115  -0.00479406  0.0169996  -0.0281618  -0.0210257  -0.00184628  -0.0275793 
1704190503.402451000  0  0  11.4463  0.0773453  -0.105517  0.0213565  nan  nan  nan  nan  nan  nan  -2.49987  -0.299862  1.00014  0.00506113  -0.0118122  -0.000276682  0.0034668  0.0041006  0.0041006  0  0  0  0.0580596  0.091125  0.091125  0.0165336  0.00548746  -0.00768137  -0.014354  0.00579199  0.0034902  -0.00635433  0.0173941  -0.0278297  -0.0962308  0.0510089  0.0113409 
1704190503.407451000  0  0  11.5082  0.0639442  -0.0844697  0.0213722  nan  nan  nan  nan  nan  nan  -2.49985  -0.29984  1.00016  0.00315871  -0.0103605  -0.000281825  0.0037594  0.0045733  0.0045733  0  0  0  0.0589343  0.098  0.098  0.0164414  0.0054817  -0.00769404  -0.0158144  0.00427847  -0.00097444  -0.00480672  0.0158994  -0.027739  -0.0836665  0.0226648  0.0102373 
1704190503.412459000  0  0  11.4842  0.0555358  -0.0772552  0.0249262  nan  nan  nan  nan  nan  nan  -2.49983  -0.299816  1.00018  0.00271874  -0.00980321  -0.000310952  0.0040558  0.005081  0.005081  0  0  0  0.0595591  0.105125  0.105125  0.0163607  0.00550742  -0.00766614  -0.0162948  0.00455452  0.00164478  -0.00454424  0.015321  -0.0281653  -0.0692647  0.0135574  -0.0299249 
1704190503.417448000  0  0  11.4352  0.0834939  -0.0936101  0.022442  nan  nan  nan  nan  nan  nan  -2.49981  -0.299789  1.00021  0.00235264  -0.0100849  -0.000346226  0.0043546  0.005625  0.005625  0  0  0  0.0599338  0.1125  0.1125  0.0162753  0.00554021  -0.00761727  -0.0157529  0.00493612  0.00631566  -0.0051521  0.015983  -0.0279406  -0.119588  0.0401768  -0.00111929 
1704190503.422449000  0  0  11.5636  0.0643557  -0.0960704  0.022439  nan  nan  nan  nan  nan  nan  -2.49979  -0.299759  1.00024  0.000708114  -0.00952717  -0.000370646  0.0046547  0.0062065  0.0062065  0  0  0  0.0600586  0.120125  0.120125  0.0161812  0.00555103  -0.00767356  -0.0161015  0.00379895  -0.00353575  -0.00381756  0.0157231  -0.0278942  -0.0935899  0.0474888  -0.00154556 
1704190503.427455000  0  0  11.5329  0.0654234  -0.0938545  0.0238406  nan  nan  nan  nan  nan  nan  -2.49977  -0.299727  1.00027  0.000692424  -0.0078863  -0.000414061  0.0049548  0.0068267  0.0068267  0  0  0  0.0599333  0.128  0.128  0.0160851  0.00558338  -0.00764691  -0.0180393  0.00470326  -0.000285099  -0.0042011  0.014395  -0.0280641  -0.0921966  0.0552753  -0.0173655 
1704190503.432455000  0  0  11.4621  0.0713419  -0.0999087  0.0232244  nan  nan  nan  nan  nan  nan  -2.49974  -0.299691  1.00031  -0.000565672  -0.00897084  -0.000451426  0.0052536  0.0074869  0.0074869  0  0  0  0.0595581  0.136125  0.136125  0.0160059  0.00559085  -0.00757599  -0.016592  0.00410783  0.00623385  -0.00368254  0.0157246  -0.0280187  -0.108805  0.055151  -0.0101181 
1704190503.437449000  0  0  11.6482  0.0619804  -0.128024  0.0222242  nan  nan  nan  nan  nan  nan  -2.49971  -0.299652  1.00035  -0.00180139  -0.00907717  -0.000491349  0.0055499  0.0081883  0.0081883  0  0  0  0.0589328  0.1445  0.144461  0.0159173  0.00561038  -0.00768805  -0.0161519  0.00351433  -0.00826433  -0.00286086  0.0166766  -0.0278797  -0.097641  0.102623  0.000995099 
1704190503.442452000  0  0  11.6116  0.0597013  -0.112902  0.0209309  nan  nan  nan  nan  nan  nan  -2.49968  -0.299609  1.00039  -0.00200935  -0.00663801  -0.000548962  0.0058425  0.0089323  0.0089312  0  0  0  0.0580576  0.153125  0.15264  0.0157944  0.00563608  -0.00765216  -0.0191746  0.00429083  -0.00449242  -0.00304198  0.0146033  -0.0276487  -0.0914164  0.0914545  0.0148502 
1704190503.447455000  0  0  11.5533  0.0431151  -0.105915  0.0230547  nan  nan  nan  nan  nan  nan  -2.49965  -0.299563  1.00044  -0.0039879  -0.00810294  -0.000587986  0.0061301  0.00972  0.0097143  0  0  0  0.0569323  0.162  0.160568  0.0157202  0.00563614  -0.00759974  -0.0173162  0.0028872  0.00100471  -0.0013931  0.0161359  -0.0278139  -0.0734137  0.06338  -0.0100453 
1704190503.452454000  0  0  11.7397  0.0467662  -0.139723  0.0213687  nan  nan  nan  nan  nan  nan  -2.49962  -0.299512  1.00049  -0.00440407  -0.00833667  -0.000644885  0.0064114  0.0105527  0.0105364  0  0  0  0.0555571  0.171125  0.168246  0.0156309  0.00566176  -0.00773123  -0.0168199  0.00336061  -0.0135374  -0.00140405  0.0173324  -0.0276122  -0.0806152  0.119987  0.00901392 
1704190503.457433000  0  0  11.6695  0.0400582  -0.115533  0.0197189  nan  nan  nan  nan  nan  nan  -2.49959  -0.299457  1.00054  -0.00543941  -0.00605016  -0.000713491  0.0066853  0.0114317  0.0113963  0  0  0  0.0539318  0.1805  0.175674  0.0155158  0.00566748  -0.00768882  -0.0198017  0.00322982  -0.00704872  -0.000685447  0.0153121  -0.0272735  -0.0738102  0.090194  0.0262487 
1704190503.462456000  0  0  11.6444  0.00674528  -0.108117  0.0241659  nan  nan  nan  nan  nan  nan  -2.49956  -0.299398  1.0006  -0.00770042  -0.00753635  -0.000756466  0.0069503  0.0123581  0.0122928  0  0  0  0.0520566  0.190125  0.182852  0.0154335  0.00567525  -0.00769317  -0.0179528  0.00152024  -0.00427225  0.00166964  0.0168646  -0.0276997  -0.0288512  0.0610791  -0.0250758 
1704190503.467457000  0  0  11.7952  0.0321464  -0.144025  0.0225058  nan  nan  nan  nan  nan  nan  -2.49952  -0.299333  1.00067  -0.00759649  -0.00743106  -0.000829549  0.0072054  0.0133333  0.0132244  0  0  0  0.0499313  0.2  0.189781  0.0152994  0.00572996  -0.00785779  -0.0179366  0.00265697  -0.0158489  0.000913705  0.0178129  -0.0275597  -0.0726988  0.124171  -0.00572578 
1704190503.472454000  0  0  11.7329  0.0223862  -0.115098  0.0209417  nan  nan  nan  nan  nan  nan  -2.49948  -0.299264  1.00073  -0.00968059  -0.00547714  -0.000907777  0.0074492  0.0143585  0.0141901  0  0  0  0.0475561  0.210125  0.196459  0.015144  0.00571397  -0.00800862  -0.0204948  0.0013133  -0.00968303  0.0028255  0.0162206  -0.02729  -0.0707669  0.0809661  0.0111294 
1704190503.477448000  0  0  11.7121  -0.00155117  -0.101068  0.0262587  nan  nan  nan  nan  nan  nan  -2.49945  -0.29919  1.00081  -0.0113688  -0.00677365  -0.000961989  0.0076806  0.015435  0.0151886  0  0  0  0.0449308  0.2205  0.202887  0.0150629  0.00571836  -0.00804064  -0.0189753  0.000441734  -0.00727483  0.00450792  0.0174121  -0.0279006  -0.0383705  0.0419451  -0.0492272 
1704190503.482453000  0  0  11.7979  0.0325677  -0.13098  0.0234716  nan  nan  nan  nan  nan  nan  -2.49941  -0.29911  1.00089  -0.0117548  -0.00700243  -0.00103809  0.0078981  0.016564  0.0162186  0  0  0  0.0420556  0.231125  0.209065  0.0149723  0.0057212  -0.00811175  -0.0187757  0.00116673  -0.0136993  0.0039599  0.0184507  -0.0277007  -0.101567  0.0922137  -0.0163873 
1704190503.487458000  0  0  11.7339  0.0191121  -0.107596  0.0219162  nan  nan  nan  nan  nan  nan  -2.49937  -0.299024  1.00097  -0.0142381  -0.00589115  -0.00112112  0.0081007  0.0177467  0.0172788  0  0  0  0.0389303  0.242  0.214994  0.0148607  0.00571468  -0.00811261  -0.0204279  -0.000593378  -0.00776457  0.0060049  0.0174498  -0.0274549  -0.0934693  0.0546539  0.000595822 
1704190503.492457000  0  0  11.7224  0.00630666  -0.100413  0.0247461  nan  nan  nan  nan  nan  nan  -2.49933  -0.298932  1.00106  -0.0152476  -0.00649611  -0.00119374  0.008287  0.0189844  0.0183681  0  0  0  0.0355551  0.253125  0.220672  0.0147795  0.00570142  -0.00811403  -0.0198978  -0.000452108  -0.00626385  0.00676033  0.0180419  -0.0277789  -0.0748084  0.0348412  -0.0315365 
1704190503.497447000  0  0  11.7481  0.0452852  -0.124136  0.0206046  nan  nan  nan  nan  nan  nan  -2.49928  -0.298834  1.00115  -0.0165744  -0.00719974  -0.00126426  0.0084558  0.0202783  0.0194851  0  0  0  0.0319298  0.2645  0.2261  0.0146821  0.00567968  -0.00812489  -0.0192075  -0.000739496  -0.00786049  0.00676329  0.0193695  -0.0272811  -0.152793  0.0700734  0.0152536 
1704190503.502450000  0  0  11.7468  0.021966  -0.107639  0.0210482  nan  nan  nan  nan  nan  nan  -2.49924  -0.298729  1.00125  -0.0190958  -0.00689438  -0.00134563  0.0086059  0.0216298  0.0206287  0  0  0  0.0281174  0.276125  0.231278  0.0145808  0.00566355  -0.00815773  -0.0198719  -0.00251917  -0.00716304  0.00883806  0.0191443  -0.0271441  -0.125242  0.0391504  0.00833775 
1704190503.507455000  0  0  11.7142  0.0273001  -0.0996445  0.022281  nan  nan  nan  nan  nan  nan  -2.4992  -0.298618  1.00136  -0.0194373  -0.00640003  -0.00144959  0.0087374  0.02304  0.0217975  0  0  0  0.0244929  0.288  0.236207  0.0144876  0.00565537  -0.00813541  -0.0207959  -0.00137049  -0.0040125  0.00848472  0.0186665  -0.0272012  -0.13266  0.0275569  -0.00650109 
1704190503.512927000  0  0  11.7264  0.0488856  -0.116699  0.0201416  nan  nan  nan  nan  nan  nan  -2.49915  -0.298499  1.00147  -0.0215101  -0.00763255  -0.0015092  0.0088513  0.0245102  0.0229903  0  0  0  0.0211184  0.300125  0.240885  0.0143406  0.00562988  -0.0082205  -0.0192882  -0.00250763  -0.00439088  0.00929253  0.0204739  -0.0268211  -0.183263  0.0450378  0.0164419 
1704190503.517450000  0  0  11.7747  0.032437  -0.116213  0.0215199  nan  nan  nan  nan  nan  nan  -2.49911  -0.298372  1.00159  -0.0233459  -0.00734815  -0.00160392  0.008949  0.0260417  0.0242059  0  0  0  0.017994  0.3125  0.245313  0.0142468  0.00560242  -0.00828702  -0.019814  -0.00339578  -0.00783091  0.0105578  0.0204445  -0.0268236  -0.162006  0.0443359  -0.000762206 
1704190503.522451000  0  0  11.7069  0.0433513  -0.100718  0.0220213  nan  nan  nan  nan  nan  nan  -2.49907  -0.298238  1.00171  -0.0241175  -0.0064762  -0.00172388  0.0090316  0.0276356  0.0254431  0  0  0  0.0151195  0.325125  0.249491  0.0141521  0.0055827  -0.00822952  -0.0211628  -0.00257767  -0.00187455  0.010301  0.0195255  -0.0267869  -0.181472  0.0218012  -0.00739722 
1704190503.527454000  0  0  11.7294  0.0400706  -0.115257  0.0221755  nan  nan  nan  nan  nan  nan  -2.49902  -0.298096  1.00184  -0.0266092  -0.00831098  -0.0017659  0.0091006  0.0292933  0.0267004  0  0  0  0.012495  0.338  0.253419  0.0140615  0.00555869  -0.00825844  -0.0188943  -0.00420598  -0.00329382  0.0117262  0.0216184  -0.0267316  -0.188022  0.031624  -0.00987781 
1704190503.532456000  0  0  11.7967  0.0360353  -0.12053  0.0222633  nan  nan  nan  nan  nan  nan  -2.49897  -0.297945  1.00198  -0.0277888  -0.00740996  -0.00189033  0.009157  0.031016  0.0279768  0  0  0  0.0101205  0.351125  0.257098  0.0139502  0.00553085  -0.00828858  -0.0200748  -0.00422417  -0.00845579  0.0120298  0.0210637  -0.0266919  -0.182744  0.0472738  -0.0113723 
1704190503.537920000  0  0  11.6966  0.0440824  -0.100906  0.0219414  nan  nan  nan  nan  nan  nan  -2.49893  -0.297786  1.00212  -0.0293368  -0.00655814  -0.00201525  0.0092022  0.032805  0.029271  0  0  0  0.007996  0.3645  0.260526  0.013851  0.00550904  -0.00819312  -0.0213214  -0.00418093  5.90629e-05  0.0123294  0.0201171  -0.0265755  -0.201595  0.0167351  -0.008512 
1704190503.542451000  0  0  11.73  0.0297132  -0.111901  0.0238803  nan  nan  nan  nan  nan  nan  -2.49888  -0.297617  1.00227  -0.0321382  -0.00862679  -0.00204356  0.0092374  0.0346615  0.0305817  0  0  0  0.0061215  0.378125  0.263704  0.0137688  0.00546248  -0.00823634  -0.0186654  -0.00611806  -0.00229787  0.0142937  0.0223214  -0.0267614  -0.190928  0.0184452  -0.0308889 
1704190503.547455000  0  0  11.79  0.0357387  -0.122455  0.0223053  nan  nan  nan  nan  nan  nan  -2.49884  -0.297439  1.00243  -0.0332511  -0.00789456  -0.0021733  0.0092638  0.0365867  0.0319076  0  0  0  0.004497  0.391986  0.266632  0.0136677  0.00542986  -0.00826077  -0.0195577  -0.0059595  -0.00693303  0.0143021  0.0219796  -0.0265912  -0.203057  0.0426981  -0.0129043 
1704190503.552460000  0  0  11.6991  0.0337124  -0.0971819  0.0222798  nan  nan  nan  nan  nan  nan  -2.49879  -0.297251  1.00259  -0.0353438  -0.00709159  -0.00230175  0.0092828  0.0385811  0.0332476  0  0  0  0.0031225  0.40574  0.269311  0.0135534  0.00540154  -0.00821323  -0.020613  -0.0065348  0.000869583  0.0152977  0.02094  -0.0265126  -0.208163  0.00171558  -0.0133715 
1704190503.557449000  0  0  11.7327  0.0237235  -0.106043  0.0238387  nan  nan  nan  nan  nan  nan  -2.49874  -0.297053  1.00276  -0.0376904  -0.00844374  -0.002352  0.0092955  0.0406436  0.0346003  0  0  0  0.001998  0.419245  0.271739  0.0134742  0.00534497  -0.00820144  -0.0188011  -0.00789438  -0.00168221  0.0166571  0.022375  -0.0266886  -0.200693  0.00623503  -0.0310968 
1704190503.562456000  0  0  11.7649  0.0263148  -0.115804  0.0220568  nan  nan  nan  nan  nan  nan  -2.4987  -0.296844  1.00294  -0.0389215  -0.00829703  -0.00246651  0.0093032  0.0427731  0.0359646  0  0  0  0.0011235  0.4325  0.273917  0.0133822  0.00531259  -0.00823659  -0.0188793  -0.00788686  -0.00404821  0.0168084  0.0225118  -0.0264755  -0.207267  0.0244997  -0.0109539 
1704190503.567456000  0  0  11.7195  0.0270987  -0.0965867  0.0216844  nan  nan  nan  nan  nan  nan  -2.49865  -0.296625  1.00312  -0.0408642  -0.00756023  -0.00260079  0.0093071  0.0449682  0.0373391  0  0  0  0.000499  0.445505  0.275845  0.0132777  0.00525729  -0.00817691  -0.0197409  -0.00844619  -0.000132825  0.0175892  0.0215681  -0.0263437  -0.216018  -0.00525336  -0.00761763 
1704190503.572455000  0  0  11.718  0.0213956  -0.0938928  0.022465  nan  nan  nan  nan  nan  nan  -2.4986  -0.296395  1.00331  -0.0431525  -0.00814845  -0.00267926  0.0093086  0.0472277  0.0387226  0  0  0  0.0001245  0.45826  0.277524  0.0131898  0.00519723  -0.00813784  -0.0188417  -0.00967124  0.000139355  0.0187858  0.0220577  -0.0263657  -0.215621  -0.0151449  -0.0171551 
1704190503.577451000  0  0  11.7523  0.0227565  -0.104567  0.021635  nan  nan  nan  nan  nan  nan  -2.49856  -0.296153  1.00351  -0.0446319  -0.00860894  -0.00276862  0.0093088  0.0495504  0.0401139  0  0  0  0  0.470764  0.278952  0.0131072  0.00515112  -0.00816723  -0.0180534  -0.0100826  -0.00247317  0.0191176  0.0226563  -0.0262194  -0.221395  0.000695513  -0.0082444 
1704190503.582452000  0  0  11.7245  0.0323074  -0.101476  0.0205005  nan  nan  nan  nan  nan  nan  -2.49851  -0.295899  1.00371  -0.0461306  -0.00744481  -0.00293213  0.0093088  0.051935  0.0415117  0  0  0  0  0.483019  0.28013  0.0130031  0.00508988  -0.00810581  -0.0193799  -0.0102023  -9.7255e-05  0.0192685  0.0215632  -0.0259676  -0.241885  0.00456953  0.0034201 
1704190503.587455000  0  0  11.6901  0.020809  -0.0867061  0.0217662  nan  nan  nan  nan  nan  nan  -2.49846  -0.295633  1.00392  -0.0487547  -0.00776062  -0.00302044  0.0093088  0.0543802  0.0429148  0  0  0  0  0.495024  0.281058  0.0129074  0.00502967  -0.00808104  -0.0188016  -0.0117801  0.00289971  0.0207736  0.0216222  -0.0259843  -0.232735  -0.025512  -0.0122337 
1704190503.592452000  0  0  11.7411  0.0204356  -0.109207  0.0226605  nan  nan  nan  nan  nan  nan  -2.49842  -0.295355  1.00414  -0.0501434  -0.00930674  -0.00305574  0.0093088  0.0568848  0.0443219  0  0  0  0  0.506779  0.281736  0.0128434  0.00496456  -0.00806594  -0.0166091  -0.0122413  -0.00127816  0.0209503  0.0233693  -0.0260769  -0.233614  0.00341628  -0.022487 
1704190503.597444000  0  0  11.7212  0.0463314  -0.114455  0.0200542  nan  nan  nan  nan  nan  nan  -2.49837  -0.295064  1.00437  -0.0509245  -0.007287  -0.0032755  0.0093088  0.0594476  0.0457317  0  0  0  0  0.518283  0.282165  0.0127265  0.00490539  -0.00801774  -0.0190164  -0.0115467  0.000403642  0.0200508  0.0216891  -0.0256852  -0.27713  0.0293707  0.0061755 
1704190503.602452000  0  0  11.6649  0.0237127  -0.0740014  0.0230356  nan  nan  nan  nan  nan  nan  -2.49832  -0.294761  1.0046  -0.0540416  -0.00772352  -0.00335351  0.0093088  0.0620672  0.0471431  0  0  0  0  0.529538  0.282343  0.0126324  0.00483475  -0.00797156  -0.0183065  -0.0136854  0.00513856  0.0220463  0.0214177  -0.0259053  -0.250252  -0.0490396  -0.0288924 
1704190503.607451000  0  0  11.7463  0.0339802  -0.104945  0.0236115  nan  nan  nan  nan  nan  nan  -2.49828  -0.294444  1.00484  -0.05487  -0.0100837  -0.00334216  0.0093088  0.0647425  0.0485547  0  0  0  0  0.540543  0.282271  0.0125777  0.00477072  -0.0079723  -0.0150425  -0.0137304  -0.00162053  0.0214244  0.0239207  -0.0260558  -0.265065  -0.0101808  -0.034585 
1704190503.612454000  0  0  11.723  0.0663373  -0.111747  0.0185282  nan  nan  nan  nan  nan  nan  -2.49823  -0.294113  1.00509  -0.0554818  -0.00761153  -0.00359807  0.0093088  0.0674722  0.0499654  0  0  0  0  0.551298  0.281949  0.0124593  0.00471927  -0.00795974  -0.018044  -0.0128926  0.000347898  0.0200907  0.0218235  -0.0253775  -0.317509  0.0227181  0.0221717 
1704190503.617445000  0  0  11.6898  0.0249859  -0.0659769  0.0235175  nan  nan  nan  nan  nan  nan  -2.49818  -0.293769  1.00534  -0.0582628  -0.00796938  -0.00368076  0.0093088  0.0702551  0.0513738  0  0  0  0  0.561803  0.281378  0.0123228  0.00468004  -0.00798611  -0.0173242  -0.0148818  0.00323585  0.0219916  0.0213389  -0.0257911  -0.252294  -0.0643638  -0.0360574 
1704190503.622451000  0  0  11.7772  0.0487018  -0.112353  0.0236187  nan  nan  nan  nan  nan  nan  -2.49814  -0.29341  1.0056  -0.0580306  -0.0103019  -0.00367211  0.0093088  0.0730898  0.0527788  0  0  0  0  0.572057  0.280556  0.0122252  0.00466379  -0.00806742  -0.0139816  -0.013821  -0.00396019  0.0201616  0.0241024  -0.0259201  -0.282891  0.00296331  -0.0360322 
1704190503.627451000  0  0  11.7322  0.0842201  -0.117837  0.0177701  nan  nan  nan  nan  nan  nan  -2.49809  -0.293038  1.00587  -0.0591256  -0.00740003  -0.00395756  0.0093088  0.0759752  0.054179  0  0  0  0  0.582062  0.279484  0.0121064  0.00460705  -0.00804628  -0.0175745  -0.013545  -0.000251514  0.0190954  0.0216942  -0.0251235  -0.344118  0.0360873  0.0291085 
1704190503.632453000  0  0  11.72  0.0230245  -0.0654896  0.0244031  nan  nan  nan  nan  nan  nan  -2.49805  -0.292651  1.00614  -0.0618814  -0.00807781  -0.0040202  0.0093088  0.07891  0.0555732  0  0  0  0  0.591817  0.278162  0.0120086  0.00454633  -0.00805784  -0.0165062  -0.015684  0.000792814  0.0212736  0.021409  -0.0257564  -0.241766  -0.0659833  -0.0474746 
1704190503.637913000  0  0  11.7671  0.0707098  -0.128658  0.0222508  nan  nan  nan  nan  nan  nan  -2.498  -0.292249  1.00642  -0.0615399  -0.0100826  -0.00402445  0.0093088  0.081893  0.0569602  0  0  0  0  0.601322  0.276591  0.0119435  0.00449306  -0.00800168  -0.0137014  -0.01425  -0.00340524  0.0187525  0.0242034  -0.0256762  -0.313943  0.0346437  -0.0213729 
1704190503.642451000  0  0  11.7157  0.0944962  -0.120791  0.0182368  nan  nan  nan  nan  nan  nan  -2.49795  -0.291832  1.00671  -0.0633667  -0.00773213  -0.00428009  0.0093088  0.0849228  0.0583387  0  0  0  0  0.610577  0.274769  0.011839  0.00439322  -0.00800057  -0.0166127  -0.0148642  0.000831566  0.0185582  0.0221688  -0.0250349  -0.359727  0.0376283  0.0223893 
1704190503.647452000  0  0  11.7251  0.0365537  -0.0825883  0.0260996  nan  nan  nan  nan  nan  nan  -2.49791  -0.291399  1.00701  -0.0657363  -0.00854814  -0.00433297  0.0093088  0.0879983  0.0597074  0  0  0  0  0.619581  0.272697  0.0117654  0.00432774  -0.00801297  -0.0153991  -0.0167331  2.51523e-06  0.0202727  0.0222862  -0.0258583  -0.259616  -0.0398561  -0.067662 
1704190503.652450000  0  0  11.7466  0.0828496  -0.139568  0.0236093  nan  nan  nan  nan  nan  nan  -2.49786  -0.290952  1.00731  -0.0658694  -0.0100261  -0.00435944  0.0093088  0.0911182  0.0610652  0  0  0  0  0.628336  0.270375  0.0116999  0.00426485  -0.00803091  -0.0133112  -0.0158241  -0.00196422  0.0182315  0.0246379  -0.0257894  -0.333429  0.0524677  -0.0372222 
1704190503.657445000  0  0  11.6959  0.0828251  -0.125188  0.0206078  nan  nan  nan  nan  nan  nan  -2.49781  -0.290488  1.00762  -0.0676534  -0.00859938  -0.00456314  0.0093088  0.0942813  0.0624108  0  0  0  0  0.636841  0.267804  0.0116165  0.00415232  -0.00793912  -0.0150611  -0.0164307  0.00194608  0.0182796  0.0233777  -0.0253666  -0.333823  0.0353009  -0.00393125 
1704190503.662403000  0  0  11.7026  0.044691  -0.10692  0.0259205  nan  nan  nan  nan  nan  nan  -2.49777  -0.290009  1.00793  -0.0695053  -0.0088038  -0.00465791  0.0093088  0.0974862  0.0637428  0  0  0  0  0.645096  0.264982  0.0115506  0.00406128  -0.00793885  -0.014664  -0.0176393  0.00123009  0.0192898  0.0233227  -0.0259904  -0.266848  -0.000728959  -0.0641032 
1704190503.667451000  0  0  11.6818  0.0720341  -0.149784  0.0231256  nan  nan  nan  nan  nan  nan  -2.49772  -0.289513  1.00825  -0.0705458  -0.0104438  -0.00465792  0.0093088  0.100732  0.0650602  0  0  0  0  0.653101  0.26191  0.0115116  0.00396828  -0.0078639  -0.0124791  -0.0176186  0.00255753  0.0183998  0.0257506  -0.0258195  -0.313346  0.0626627  -0.0308757 
1704190503.672451000  0  0  11.6827  0.0632896  -0.141003  0.0210811  nan  nan  nan  nan  nan  nan  -2.49767  -0.289001  1.00858  -0.0719601  -0.00965722  -0.00482477  0.0093088  0.104017  0.0663615  0  0  0  0  0.660855  0.258588  0.0114436  0.00384937  -0.00780098  -0.0133716  -0.0182065  0.00213942  0.0184153  0.025185  -0.0255121  -0.296  0.0503042  -0.00839357 
1704190503.677444000  0  0  11.6732  0.0516079  -0.126036  0.0226948  nan  nan  nan  nan  nan  nan  -2.49763  -0.288473  1.00892  -0.0734723  -0.00922562  -0.00496686  0.0093088  0.10734  0.0676456  0  0  0  0  0.66836  0.255016  0.0113768  0.00375547  -0.00779263  -0.0138159  -0.018926  0.00267952  0.0187262  0.0247043  -0.0256434  -0.275497  0.0247919  -0.0272509 
1704190503.682453000  0  0  11.66  0.0495373  -0.144511  0.0229315  nan  nan  nan  nan  nan  nan  -2.49758  -0.287928  1.00926  -0.0753261  -0.0113147  -0.00491711  0.0093088  0.1107  0.0689113  0  0  0  0  0.675615  0.251195  0.0113487  0.00361984  -0.0076995  -0.011074  -0.0200129  0.00330486  0.0191506  0.0271255  -0.0256868  -0.27526  0.0394663  -0.0297758 
1704190503.687923000  0  0  11.6912  0.0540906  -0.145172  0.0211548  nan  nan  nan  nan  nan  nan  -2.49753  -0.287366  1.00961  -0.0754487  -0.0102465  -0.00512146  0.0093088  0.114096  0.0701572  0  0  0  0  0.68262  0.247123  0.0112976  0.0035278  -0.00760543  -0.0123286  -0.0193313  0.000174772  0.0178213  0.0263581  -0.0254455  -0.272137  0.0478491  -0.0099801 
1704190503.692452000  0  0  11.634  0.0432385  -0.114699  0.021169  nan  nan  nan  nan  nan  nan  -2.49749  -0.286787  1.00996  -0.0775177  -0.00935512  -0.00529437  0.0093088  0.117526  0.0713821  0  0  0  0  0.689374  0.242801  0.0112291  0.00338319  -0.00758897  -0.0134216  -0.0203368  0.00464229  0.0188141  0.0251285  -0.0253358  -0.259566  -0.00178503  -0.0112548 
1704190503.697444000  0  0  11.6482  0.0316664  -0.121665  0.022887  nan  nan  nan  nan  nan  nan  -2.49744  -0.286191  1.01032  -0.0795409  -0.0114554  -0.00523302  0.0093088  0.120989  0.0725848  0  0  0  0  0.695879  0.238229  0.0111685  0.00327747  -0.00757017  -0.0105702  -0.0220323  0.00309134  0.019676  0.0272044  -0.0254986  -0.244353  -0.00695034  -0.0311014 
1704190503.702451000  0  0  11.6909  0.0534606  -0.125045  0.0204935  nan  nan  nan  nan  nan  nan  -2.49739  -0.285577  1.01069  -0.0791096  -0.00957324  -0.00551219  0.0093088  0.124484  0.073764  0  0  0  0  0.702134  0.233408  0.0110829  0.00318705  -0.00759442  -0.0127925  -0.0208392  -0.000838666  0.0177471  0.0255162  -0.0251949  -0.270194  0.0153416  -0.0042195 
1704190503.707451000  0  0  11.5992  0.0353381  -0.0817684  0.0217357  nan  nan  nan  nan  nan  nan  -2.49735  -0.284946  1.01106  -0.0815417  -0.00884476  -0.00567329  0.0093088  0.12801  0.0749184  0  0  0  0  0.708139  0.228336  0.0110042  0.00302278  -0.00748759  -0.0136832  -0.0220278  0.00627296  0.0191515  0.0241276  -0.0252142  -0.24687  -0.0584367  -0.0195552 
1704190503.712403000  0  0  11.6144  0.0218264  -0.0886764  0.0245824  nan  nan  nan  nan  nan  nan  -2.4973  -0.284297  1.01144  -0.0834852  -0.0110399  -0.00559731  0.0093088  0.131565  0.0760469  0  0  0  0  0.713894  0.223014  0.0109564  0.00289905  -0.00748644  -0.0107458  -0.0236842  0.00460978  0.0200727  0.0259891  -0.0256024  -0.228322  -0.061747  -0.0512559 
1704190503.717443000  0  0  11.6605  0.0536875  -0.0956421  0.0198582  nan  nan  nan  nan  nan  nan  -2.49725  -0.28363  1.01182  -0.0826054  -0.00895425  -0.00590485  0.0093088  0.135148  0.0771481  0  0  0  0  0.719398  0.217442  0.010847  0.00281389  -0.00748582  -0.0131694  -0.0220664  0.000249726  0.0176024  0.0239724  -0.0250529  -0.269317  -0.0292614  0.00230172 
1704190503.722450000  0  0  11.5746  0.0425212  -0.0507842  0.0210387  nan  nan  nan  nan  nan  nan  -2.49721  -0.282945  1.01221  -0.0848898  -0.00835474  -0.00606027  0.0093088  0.138759  0.0782209  0  0  0  0  0.724653  0.211621  0.0107424  0.00270207  -0.00748799  -0.0138229  -0.0232866  0.00703931  0.0186585  0.022417  -0.025013  -0.2567  -0.104668  -0.0128541 
1704190503.727451000  0  0  11.6134  0.0405567  -0.064401  0.0235526  nan  nan  nan  nan  nan  nan  -2.49716  -0.282242  1.0126  -0.085987  -0.010344  -0.00600457  0.0093088  0.142395  0.0792639  0  0  0  0  0.729658  0.205549  0.0106924  0.00258353  -0.0074919  -0.0111227  -0.0241842  0.00332385  0.0185242  0.0240072  -0.0253403  -0.251536  -0.0920639  -0.041004 
1704190503.732452000  0  0  11.6337  0.0709958  -0.0758102  0.0189382  nan  nan  nan  nan  nan  nan  -2.49711  -0.281521  1.013  -0.0854414  -0.00916688  -0.00623607  0.0093088  0.146055  0.080276  0  0  0  0  0.734413  0.199227  0.0106262  0.00243415  -0.00742068  -0.0124916  -0.0227266  0.000896342  0.0162767  0.0227616  -0.0247606  -0.291737  -0.0577866  0.0108794 
1704190503.737397000  0  0  11.584  0.0591008  -0.0535183  0.0202542  nan  nan  nan  nan  nan  nan  -2.49707  -0.280782  1.0134  -0.0877085  -0.00892649  -0.00636137  0.0093088  0.149738  0.0812558  0  0  0  0  0.738918  0.192655  0.0105669  0.00230187  -0.00737791  -0.0127502  -0.0242971  0.00449815  0.0172187  0.0218356  -0.0247359  -0.276614  -0.0938509  -0.00581848 
1704190503.742453000  0  0  11.5871  0.0578451  -0.0686415  0.0222327  nan  nan  nan  nan  nan  nan  -2.49702  -0.280024  1.01381  -0.0883802  -0.0102921  -0.00635932  0.0093088  0.153444  0.0822021  0  0  0  0  0.743172  0.185833  0.0105473  0.0021361  -0.00728463  -0.0109577  -0.0242936  0.0034591  0.0165998  0.0229516  -0.0249377  -0.268409  -0.073872  -0.0285307 
1704190503.747451000  0  0  11.5985  0.0851209  -0.0916813  0.0192335  nan  nan  nan  nan  nan  nan  -2.49697  -0.279247  1.01423  -0.0881825  -0.010115  -0.00650203  0.0093088  0.15717  0.0831137  0  0  0  0  0.747177  0.178762  0.0105038  0.00196678  -0.00720798  -0.0110909  -0.0232644  0.00169117  0.014645  0.0229474  -0.0245341  -0.304976  -0.0277532  0.00492244 
1704190503.752451000  0  0  11.5778  0.0723177  -0.0868449  0.0205369  nan  nan  nan  nan  nan  nan  -2.49693  -0.278452  1.01464  -0.0898784  -0.00978245  -0.00663981  0.0093088  0.160915  0.0839893  0  0  0  0  0.750932  0.17144  0.0104497  0.00183801  -0.00717775  -0.0114507  -0.0244721  0.00279214  0.0150405  0.0224513  -0.0245324  -0.283008  -0.0328619  -0.0113865 
1704190503.757450000  0  0  11.548  0.0683311  -0.0877389  0.0227944  nan  nan  nan  nan  nan  nan  -2.49688  -0.277638  1.01506  -0.0901199  -0.010663  -0.00668286  0.0093088  0.164679  0.0848277  0  0  0  0  0.754437  0.163868  0.0104203  0.00168239  -0.00707532  -0.0102974  -0.0237009  0.00436539  0.0140774  0.0230989  -0.0247639  -0.266174  -0.0370321  -0.0372914 
1704190503.762402000  0  0  11.5934  0.0962683  -0.120738  0.0205612  nan  nan  nan  nan  nan  nan  -2.49683  -0.276805  1.01549  -0.0900817  -0.011289  -0.00675173  0.0093088  0.168459  0.0856276  0  0  0  0  0.757692  0.156046  0.0103697  0.00155826  -0.0071025  -0.00933881  -0.0234247  -9.23845e-05  0.0122443  0.0241891  -0.0245122  -0.305184  0.018936  -0.0118926 
1704190503.767452000  0  0  11.5912  0.0821298  -0.113345  0.0210428  nan  nan  nan  nan  nan  nan  -2.49679  -0.275953  1.01592  -0.0911797  -0.0101349  -0.00696985  0.0093088  0.172255  0.0863877  0  0  0  0  0.760696  0.147975  0.0102913  0.00142028  -0.00707441  -0.0106847  -0.0241131  -0.000621908  0.0121532  0.0231271  -0.024439  -0.276069  0.013921  -0.018645 
1704190503.772454000  0  0  11.5179  0.0755251  -0.103  0.0237512  nan  nan  nan  nan  nan  nan  -2.49674  -0.275083  1.01635  -0.0915984  -0.010901  -0.0070202  0.0093088  0.176065  0.0871069  0  0  0  0  0.763451  0.139661  0.0101954  0.00130703  -0.00709777  -0.00958211  -0.0233114  0.00476153  0.0114772  0.0236738  -0.0247445  -0.25664  -0.0117997  -0.0494452 
1704190503.777446000  0  0  11.6031  0.101626  -0.142303  0.0210708  nan  nan  nan  nan  nan  nan  -2.4967  -0.274193  1.01679  -0.0915486  -0.0121713  -0.00702914  0.0093088  0.179889  0.0877845  0  0  0  0  0.765956  0.13143  0.010164  0.00118565  -0.00715541  -0.00778437  -0.0235427  -0.00299578  0.00969518  0.0255862  -0.0244915  -0.292448  0.0492128  -0.0184692 
1704190503.782455000  0  0  11.5933  0.0899005  -0.122822  0.020371  nan  nan  nan  nan  nan  nan  -2.49665  -0.273284  1.01723  -0.0923179  -0.0102833  -0.00731958  0.0093088  0.183725  0.0884216  0  0  0  0  0.768211  0.123448  0.0100747  0.000999702  -0.00712606  -0.010064  -0.0237112  -0.0029036  0.00941799  0.0237685  -0.0243069  -0.266447  0.0269741  -0.0115689 
1704190503.787403000  0  0  11.5064  0.0800563  -0.105141  0.0235346  nan  nan  nan  nan  nan  nan  -2.4966  -0.272356  1.01768  -0.0928881  -0.0114132  -0.00733341  0.0093088  0.187571  0.0890194  0  0  0  0  0.770215  0.115717  0.0100293  0.000878982  -0.00708609  -0.00862422  -0.0230364  0.00353923  0.00894372  0.0244718  -0.0246749  -0.242395  -0.0148585  -0.0474337 
1704190503.792455000  0  0  11.6066  0.0970959  -0.147213  0.0207303  nan  nan  nan  nan  nan  nan  -2.49656  -0.271408  1.01812  -0.0929729  -0.0127154  -0.00733603  0.0093088  0.191426  0.0895792  0  0  0  0  0.77197  0.108235  0.010022  0.000703697  -0.00709206  -0.00681727  -0.0235842  -0.00549056  0.00761583  0.0265169  -0.0243967  -0.264257  0.0504708  -0.0151616 
1704190503.797444000  0  0  11.5825  0.0775511  -0.116627  0.0199945  nan  nan  nan  nan  nan  nan  -2.49651  -0.270441  1.01857  -0.0939143  -0.0108293  -0.00762659  0.0093088  0.19529  0.0901022  0  0  0  0  0.773475  0.101004  0.00995407  0.000516723  -0.00707392  -0.00916165  -0.023916  -0.00410825  0.00778978  0.0244752  -0.0241844  -0.226768  0.00808285  -0.00808697 
1704190503.802452000  0  0  11.5166  0.055815  -0.0982293  0.0234741  nan  nan  nan  nan  nan  nan  -2.49646  -0.269455  1.01902  -0.0944582  -0.0119034  -0.007644  0.0093088  0.199161  0.0905897  0  0  0  0  0.77473  0.0940222  0.00991369  0.000402468  -0.00704241  -0.00778495  -0.023521  0.000678872  0.00770746  0.02502  -0.0245879  -0.182539  -0.0337251  -0.0475478 
1704190503.807453000  0  0  11.5935  0.0777899  -0.135785  0.0203703  nan  nan  nan  nan  nan  nan  -2.49642  -0.26845  1.01948  -0.0941482  -0.0125971  -0.00770722  0.0093088  0.203037  0.0910428  0  0  0  0  0.775735  0.0872908  0.00991927  0.000242062  -0.0069993  -0.00681626  -0.0234561  -0.00646816  0.00615836  0.0262329  -0.0242784  -0.212237  0.0302272  -0.0118453 
1704190503.812453000  0  0  11.5686  0.0588336  -0.105358  0.0199718  nan  nan  nan  nan  nan  nan  -2.49637  -0.267425  1.01993  -0.0950185  -0.0110144  -0.00797198  0.0093088  0.206918  0.091463  0  0  0  0  0.776489  0.0808093  0.00985766  0.00011945  -0.00700022  -0.0087806  -0.023924  -0.00491176  0.00639618  0.0243247  -0.0241174  -0.176512  -0.013071  -0.00847339 
1704190503.817450000  0  0  11.5047  0.0458268  -0.0946188  0.0232009  nan  nan  nan  nan  nan  nan  -2.49632  -0.26638  1.02039  -0.0953254  -0.0122117  -0.0079792  0.0093088  0.210801  0.0918513  0  0  0  0  0.776994  0.0745778  0.00985501  -9.52647e-06  -0.0068873  -0.0073275  -0.0233038  -0.00041136  0.00621319  0.0250443  -0.0244455  -0.148815  -0.0411698  -0.0455569 
1704190503.822455000  0  0  11.5498  0.0715725  -0.12581  0.0195273  nan  nan  nan  nan  nan  nan  -2.49628  -0.265317  1.02085  -0.0951048  -0.0122528  -0.00810301  0.0093088  0.214687  0.0922092  0  0  0  0  0.777249  0.0685964  0.00983285  -0.000144712  -0.00685409  -0.0071811  -0.0231702  -0.0048197  0.00486203  0.0255578  -0.0240173  -0.187876  0.0164872  -0.00391794 
1704190503.827455000  0  0  11.5244  0.0456128  -0.0985885  0.0208016  nan  nan  nan  nan  nan  nan  -2.49623  -0.264234  1.02131  -0.0961546  -0.0113145  -0.00830552  0.0093088  0.218574  0.0925377  0  0  0  0  0.777254  0.0628649  0.00978065  -0.000269262  -0.00685544  -0.00833133  -0.0239523  -0.00314048  0.0054865  0.0242213  -0.024065  -0.141701  -0.0256585  -0.0193706 
1704190503.832458000  0  0  11.4848  0.049379  -0.0924069  0.0220936  nan  nan  nan  nan  nan  nan  -2.49618  -0.263131  1.02178  -0.0953088  -0.0121229  -0.00836289  0.0093088  0.222459  0.0928382  0  0  0  0  0.777009  0.0573834  0.00977684  -0.000411677  -0.00677841  -0.00733852  -0.0221789  -0.000606516  0.00404896  0.0246102  -0.0242135  -0.136009  -0.0416003  -0.0340348 
1704190503.837440000  0  0  11.4887  0.0792044  -0.10992  0.0181935  nan  nan  nan  nan  nan  nan  -2.49614  -0.262009  1.02224  -0.0950318  -0.0122365  -0.00848056  0.0093088  0.226343  0.093112  0  0  0  0  0.776513  0.052152  0.00974751  -0.000525638  -0.0067904  -0.0071351  -0.0216805  -0.00142569  0.00255009  0.02492  -0.0237102  -0.18187  -0.00942407  0.00968319 
1704190503.842450000  0  0  11.5093  0.0487139  -0.0895922  0.0210586  nan  nan  nan  nan  nan  nan  -2.49609  -0.260868  1.02271  -0.0960996  -0.0122647  -0.00858965  0.0093088  0.230224  0.0933602  0  0  0  0  0.775768  0.0471705  0.00973058  -0.000696442  -0.00672935  -0.00706205  -0.0229736  -0.0036317  0.003313  0.0244412  -0.023903  -0.127907  -0.0456749  -0.0242027 
1704190503.847453000  0  0  11.4691  0.0718241  -0.0931793  0.0208948  nan  nan  nan  nan  nan  nan  -2.49604  -0.259707  1.02318  -0.0944726  -0.0119831  -0.00876147  0.0093088  0.2341  0.0935841  0  0  0  0  0.774773  0.0424391  0.00971914  -0.000841441  -0.0065912  -0.00744562  -0.0202814  -0.00117099  0.000876935  0.0239505  -0.0238688  -0.151716  -0.0339864  -0.0224971 
1704190503.852453000  0  0  11.4324  0.0868106  -0.0957459  0.0185583  nan  nan  nan  nan  nan  nan  -2.496  -0.258527  1.02364  -0.0947288  -0.0121746  -0.00886528  0.0093088  0.237971  0.093785  0  0  0  0  0.773528  0.0379576  0.00969033  -0.00094612  -0.0065663  -0.00720038  -0.0201489  0.00142297  6.82876e-05  0.024039  -0.02351  -0.174249  -0.0296673  0.00312048 
1704190503.857446000  0  0  11.5348  0.0503252  -0.0874972  0.0225061  nan  nan  nan  nan  nan  nan  -2.49595  -0.257327  1.02411  -0.0949057  -0.0128134  -0.00892731  0.0093088  0.241835  0.0939641  0  0  0  0  0.772033  0.0337261  0.00969143  -0.00112877  -0.0065526  -0.00626908  -0.0212445  -0.00748297  0.000220078  0.0242373  -0.0239103  -0.102675  -0.0479891  -0.0422231 
1704190503.862395000  0  0  11.4563  0.0878776  -0.087177  0.0195739  nan  nan  nan  nan  nan  nan  -2.4959  -0.256108  1.02458  -0.0927115  -0.0113407  -0.00921759  0.0093088  0.245691  0.0941227  0  0  0  0  0.770287  0.0297447  0.00963564  -0.00121093  -0.0065279  -0.00812248  -0.0176571  -0.00157904  -0.00297253  0.0226186  -0.0236067  -0.148408  -0.0337376  -0.00860759 
1704190503.867443000  0  0  11.381  0.073654  -0.0795388  0.0200406  nan  nan  nan  nan  nan  nan  -2.49586  -0.25487  1.02506  -0.0950254  -0.0126323  -0.00919301  0.0093088  0.249538  0.094262  0  0  0  0  0.768292  0.0260132  0.00967411  -0.0014582  -0.00630233  -0.00669582  -0.0195155  0.00404783  -0.00123671  0.0234439  -0.0235717  -0.13593  -0.0566066  -0.0147898 
1704190503.872444000  0  0  11.5124  0.0530993  -0.0944218  0.0230154  nan  nan  nan  nan  nan  nan  -2.49581  -0.253613  1.02553  -0.0944636  -0.0132285  -0.00926879  0.0093088  0.253374  0.0943832  0  0  0  0  0.766047  0.0225317  0.00963289  -0.00159694  -0.00636651  -0.00567554  -0.0201728  -0.00710439  -0.0018985  0.023967  -0.0239502  -0.0887325  -0.0316526  -0.0481902 
1704190503.877443000  0  0  11.4082  0.0986312  -0.0940083  0.0189308  nan  nan  nan  nan  nan  nan  -2.49576  -0.252336  1.026  -0.0925337  -0.0112737  -0.00960094  0.0093088  0.257198  0.0944877  0  0  0  0  0.763552  0.0193003  0.00957203  -0.00166303  -0.00631352  -0.00816421  -0.0167899  0.000961949  -0.00500097  0.022007  -0.0234994  -0.151253  -0.0144479  -0.00164128 
1704190503.882444000  0  0  11.3584  0.0602121  -0.0811382  0.0219127  nan  nan  nan  nan  nan  nan  -2.49572  -0.251041  1.02647  -0.0947568  -0.0128996  -0.00954614  0.0093088  0.261009  0.0945766  0  0  0  0  0.760807  0.0163188  0.00958993  -0.00185127  -0.00619012  -0.0062411  -0.0190229  0.00475026  -0.00291269  0.0231138  -0.0237741  -0.0936275  -0.0503709  -0.0361679 
1704190503.887395000  0  0  11.489  0.060809  -0.113526  0.0230843  nan  nan  nan  nan  nan  nan  -2.49567  -0.249726  1.02694  -0.0926591  -0.0136232  -0.0096313  0.0093088  0.264805  0.0946513  0  0  0  0  0.757811  0.0135873  0.00955832  -0.00194216  -0.0062814  -0.00505861  -0.0179228  -0.00636349  -0.0052354  0.024126  -0.0240467  -0.0734522  0.00509314  -0.0480864 
1704190503.892443000  0  0  11.3457  0.102031  -0.108972  0.0184258  nan  nan  nan  nan  nan  nan  -2.49562  -0.248393  1.02742  -0.0919171  -0.011711  -0.00994275  0.0093088  0.268587  0.0947129  0  0  0  0  0.754566  0.0111059  0.00952498  -0.00206077  -0.00611529  -0.00761351  -0.0156413  0.00488556  -0.00710834  0.0222877  -0.023526  -0.138664  0.0128969  0.00493659 
1704190503.897428000  0  0  11.3331  0.0537276  -0.0882723  0.023243  nan  nan  nan  nan  nan  nan  -2.49558  -0.247041  1.02789  -0.0936104  -0.0133101  -0.00989762  0.0093088  0.272351  0.0947628  0  0  0  0  0.751071  0.0088744  0.00954297  -0.00223895  -0.00600821  -0.00568128  -0.0177039  0.00565186  -0.0052293  0.0232977  -0.0240187  -0.0593455  -0.0377941  -0.0503513 
1704190503.902445000  0  0  11.446  0.0720246  -0.122593  0.0224534  nan  nan  nan  nan  nan  nan  -2.49553  -0.245669  1.02837  -0.0908534  -0.0140443  -0.00999285  0.0093088  0.276097  0.0948021  0  0  0  0  0.747326  0.0068929  0.00951625  -0.00230047  -0.00608306  -0.00450865  -0.0157402  -0.00402491  -0.00836072  0.02443  -0.0240969  -0.0671307  0.0204303  -0.039698 
1704190503.907442000  0  0  11.3129  0.0957287  -0.114351  0.0175651  nan  nan  nan  nan  nan  nan  -2.49549  -0.24428  1.02884  -0.0907903  -0.0126758  -0.0102433  0.0093088  0.279824  0.0948321  0  0  0  0  0.74333  0.0051615  0.00949112  -0.00243577  -0.00591526  -0.0063878  -0.0145066  0.00651131  -0.00923124  0.0230989  -0.02349  -0.10653  0.0161914  0.0153361 
1704190503.912393000  0  0  11.3442  0.0517812  -0.0904308  0.0230554  nan  nan  nan  nan  nan  nan  -2.49544  -0.242871  1.02931  -0.0911686  -0.0133633  -0.0103006  0.0093088  0.28353  0.0948541  0  0  0  0  0.739085  0.00368  0.00946399  -0.00253385  -0.00592011  -0.00543575  -0.0156274  0.00382269  -0.00847423  0.0232402  -0.0240492  -0.0255995  -0.0329486  -0.0477004 
1704190503.917444000  0  0  11.3975  0.0782398  -0.117841  0.0209828  nan  nan  nan  nan  nan  nan  -2.49539  -0.241444  1.02979  -0.0889366  -0.014238  -0.0103777  0.0093088  0.287214  0.0948693  0  0  0  0  0.73459  0.0024485  0.00947607  -0.00265539  -0.00586732  -0.00426122  -0.01367  -0.00105647  -0.0111075  0.024374  -0.0239246  -0.0542903  0.0114408  -0.0230395 
1704190503.922444000  0  0  11.3391  0.0933776  -0.114738  0.0168816  nan  nan  nan  nan  nan  nan  -2.49535  -0.239999  1.03026  -0.0888608  -0.0132118  -0.0105953  0.0093088  0.290875  0.094879  0  0  0  0  0.729845  0.0014671  0.00946349  -0.00279622  -0.00574697  -0.00563087  -0.0132744  0.00344121  -0.011745  0.0234269  -0.0233291  -0.0787009  0.0139486  0.0222704 
1704190503.927442000  0  0  11.3667  0.0536223  -0.0822924  0.021449  nan  nan  nan  nan  nan  nan  -2.4953  -0.238536  1.03074  -0.0882236  -0.0130369  -0.0107443  0.0093088  0.294512  0.0948844  0  0  0  0  0.72485  0.0007356  0.00943099  -0.00286628  -0.0057595  -0.00574857  -0.0132211  0.00106475  -0.011822  0.0225854  -0.0237252  0.00151747  -0.0432008  -0.0308603 
1704190503.932443000  0  0  11.3663  0.0716203  -0.108498  0.0202251  nan  nan  nan  nan  nan  nan  -2.49525  -0.237054  1.03121  -0.0875291  -0.0143298  -0.010765  0.0093088  0.298123  0.0948868  0  0  0  0  0.719604  0.0002541  0.00942929  -0.00308985  -0.00562992  -0.00410979  -0.0125335  0.000705857  -0.0126764  0.0240453  -0.0235729  -0.0266181  -0.00422007  -0.0170848 
1704190503.937444000  0  0  11.3773  0.0740743  -0.10804  0.0175441  nan  nan  nan  nan  nan  nan  -2.49521  -0.235554  1.03169  -0.0866156  -0.0135475  -0.0109712  0.0093088  0.301708  0.0948874  0  0  0  0  0.714109  2.27e-05  0.00940385  -0.00315387  -0.00563692  -0.00503104  -0.0120371  -0.000303295  -0.0136901  0.023318  -0.0231521  -0.0221994  0.00155443  0.0122204 
1704190503.942443000  0  0  11.355  0.0434809  -0.0755739  0.020523  nan  nan  nan  nan  nan  nan  -2.49516  -0.234037  1.03216  -0.0862935  -0.0125762  -0.0111846  0.0093088  0.305264  0.0948874  0  0  0  0  0.708364  0  0.00939088  -0.00330555  -0.00554199  -0.00627351  -0.0117935  0.00135234  -0.0133603  0.0216741  -0.0233863  0.0359534  -0.0482541  -0.0226752 
1704190503.947442000  0  0  11.3469  0.0457252  -0.0955512  0.0210567  nan  nan  nan  nan  nan  nan  -2.49511  -0.232502  1.03264  -0.0866524  -0.0147174  -0.0111191  0.0093088  0.308791  0.0948874  0  0  0  0  0.702369  0  0.00944222  -0.00359069  -0.00537361  -0.00370588  -0.0123264  0.00169362  -0.0128127  0.0237118  -0.0234683  0.0264263  -0.0270464  -0.0285257 
1704190503.952427000  0  0  11.3921  0.0552123  -0.103452  0.0195531  nan  nan  nan  nan  nan  nan  -2.49507  -0.230949  1.03311  -0.0848788  -0.0139609  -0.0113347  0.0093088  0.312287  0.0948874  0  0  0  0  0.696124  0  0.00941806  -0.00365101  -0.00539627  -0.00453302  -0.0111756  -0.00217059  -0.014483  0.023041  -0.0232821  0.0228186  -0.00507381  -0.0115924 
1704190503.957443000  0  0  11.3357  0.0367837  -0.0719425  0.0207292  nan  nan  nan  nan  nan  nan  -2.49502  -0.229379  1.03358  -0.0847232  -0.013149  -0.0115309  0.0093088  0.315752  0.0948874  0  0  0  0  0.689628  0  0.00939571  -0.00377394  -0.00530277  -0.00560281  -0.0109855  0.00233204  -0.0141022  0.0215814  -0.0233509  0.0561733  -0.0546641  -0.0256058 
1704190503.963049000  0  0  11.3609  0.0345047  -0.101802  0.0230877  nan  nan  nan  nan  nan  nan  -2.49497  -0.227792  1.03406  -0.0831559  -0.0160504  -0.0114349  0.0093089  0.319183  0.0948874  0  0  0  0.0001052  0.682883  0  0.00940353  -0.00371211  -0.00521037  -0.00188587  -0.0102928  -0.000118723  -0.0151716  0.0243807  -0.0237213  0.070569  -0.0206993  -0.051384 
1704190503.967443000  0  0  11.3868  0.0598848  -0.119045  0.019606  nan  nan  nan  nan  nan  nan  -2.49493  -0.226187  1.03453  -0.0814208  -0.0147317  -0.0116955  0.0093103  0.32258  0.0948874  0  0  0  0.0004596  0.675888  0  0.00937444  -0.00393795  -0.00527919  -0.00339523  -0.00871431  -0.00228115  -0.0169706  0.0234247  -0.0233852  0.0363597  0.0225818  -0.0112229 
1704190503.972442000  0  0  11.3269  0.0425424  -0.0786351  0.0200815  nan  nan  nan  nan  nan  nan  -2.49488  -0.224566  1.03501  -0.0808479  -0.0133046  -0.0119447  0.0093139  0.325942  0.0948874  0  0  0  0.001064  0.668643  0  0.00933189  -0.00398192  -0.00524537  -0.00512299  -0.00825161  0.00260773  -0.0169593  0.0213526  -0.0233519  0.070941  -0.0391739  -0.0174994 
1704190503.977446000  0  0  11.3446  0.0327432  -0.0946455  0.0238736  nan  nan  nan  nan  nan  nan  -2.49483  -0.222928  1.03548  -0.0801301  -0.0160939  -0.0118554  0.0093213  0.329266  0.0948874  0  0  0  0.0019184  0.661148  0  0.00936184  -0.00411153  -0.00518644  -0.00152965  -0.00821772  0.000935949  -0.0170693  0.0238785  -0.0238595  0.0915509  -0.0303915  -0.0598255 
1704190503.982447000  0  0  11.3734  0.0809951  -0.117301  0.0182571  nan  nan  nan  nan  nan  nan  -2.49479  -0.221273  1.03596  -0.0772421  -0.0145608  -0.0121458  0.0093335  0.332553  0.0948874  0  0  0  0.0030228  0.653402  0  0.00933877  -0.00420445  -0.00515627  -0.00320222  -0.00559533  -0.00178411  -0.0202368  0.022766  -0.0232937  0.0241885  0.0251541  0.00472318 
1704190503.987445000  0  0  11.3209  0.0634298  -0.0745437  0.0191999  nan  nan  nan  nan  nan  nan  -2.49474  -0.219602  1.03643  -0.076928  -0.0132647  -0.0123754  0.0093519  0.3358  0.0948874  0  0  0  0.0043771  0.645407  0  0.00930164  -0.0042397  -0.00511574  -0.004671  -0.00566454  0.0024983  -0.0200555  0.0207805  -0.0232682  0.0576508  -0.0420933  -0.0073167 
1704190503.992445000  0  0  11.3409  0.0538295  -0.0914169  0.0221426  nan  nan  nan  nan  nan  nan  -2.49469  -0.217915  1.03691  -0.0757607  -0.0153902  -0.0123546  0.0093777  0.339006  0.0948874  0  0  0  0.0059815  0.637162  0  0.0093318  -0.00435399  -0.00507317  -0.00181344  -0.00519797  0.000639275  -0.02059  0.0227262  -0.0236148  0.081769  -0.0262469  -0.0406348 
1704190503.997390000  0  0  11.364  0.0995356  -0.102338  0.0172453  nan  nan  nan  nan  nan  nan  -2.49465  -0.216212  1.03738  -0.0730546  -0.0136884  -0.012646  0.0094122  0.342171  0.0948874  0  0  0  0.0078359  0.628667  0  0.00925963  -0.00452084  -0.00506435  -0.00350501  -0.00267162  -0.00154468  -0.0234825  0.0212384  -0.0230163  0.0169679  0.00928275  0.0145967 
1704190504.002432000  0  0  11.3413  0.0789598  -0.0694652  0.019229  nan  nan  nan  nan  nan  nan  -2.4946  -0.214494  1.03785  -0.0725376  -0.0128057  -0.0128423  0.0094565  0.345292  0.0948874  0  0  0  0.0099403  0.619921  0  0.00923088  -0.00453019  -0.00504053  -0.00432589  -0.00291031  0.00028326  -0.0234566  0.0197491  -0.0230915  0.0578812  -0.0427613  -0.00944779 
1704190504.007444000  0  0  11.3587  0.0653809  -0.0864452  0.0222424  nan  nan  nan  nan  nan  nan  -2.49455  -0.21276  1.03833  -0.0713589  -0.0135876  -0.0129267  0.009512  0.34837  0.0948874  0  0  0  0.0122947  0.610926  0  0.009271  -0.00469663  -0.00494993  -0.00309585  -0.00235325  -0.00144764  -0.0238508  0.0204995  -0.0234797  0.0886657  -0.0157052  -0.0432333 
1704190504.012394000  0  0  11.3491  0.104891  -0.0932754  0.0197489  nan  nan  nan  nan  nan  nan  -2.4945  -0.21101  1.0388  -0.0681512  -0.0128635  -0.0131449  0.0095799  0.351401  0.0948874  0  0  0  0.014899  0.601681  0  0.00924743  -0.00470653  -0.00494802  -0.00359968  0.000611741  -0.000943761  -0.0272004  0.0198615  -0.0232352  0.0404627  0.00382485  -0.014509 
