ts fx fy fz tx ty tz exfx exfy exfz extx exty extz xd yd zd rolld pitchd yawd vxd vyd vzd wxd wyd wzd axd ayd azd e_x e_y e_z e_vx e_vy e_vz e_rx e_ry e_rz e_wx e_wy e_wz
1701778892.347064000  0  0  11.5064  0.0350153  -0.0966484  0.0100806  nan  nan  nan  nan  nan  nan  -2  -1  1.5  0.00294272  -0.0177551  -5.22457e-05  0  0  0  0  0  0  0  0  0  0.00863198  -0.00266707  -0.00655684  0.00352007  0.00968847  0.00554813  -0.00689647  0.0165748  -0.0132888  -0.006583  0.0408089  0.00688058 
1701778892.351120000  0  0  11.5065  0.0326695  -0.104926  0.0102933  nan  nan  nan  nan  nan  nan  -2  -1  1.5  0.0034265  -0.0174996  -5.99598e-05  0  0  0  0  0  0  0  0  0  0.00864302  -0.00262508  -0.00653204  0.00316932  0.0102137  0.00547744  -0.00729141  0.0166854  -0.0132916  0.00174193  0.0563462  0.00425017 
1701778892.356588000  0  0  11.4233  0.0510827  -0.0688093  0.0109419  nan  nan  nan  nan  nan  nan  -2  -1  1.5  0.00280867  -0.0184226  -5.17402e-05  0  0  0  0  0  0  0  0  0  0.00867586  -0.00267485  -0.00646459  0.00410598  0.00950842  0.012285  -0.00714365  0.0170162  -0.0133657  -0.0364437  -0.0189306  -0.00311698 
1701778892.361123000  0  0  11.5025  0.0533462  -0.084604  0.0104199  nan  nan  nan  nan  nan  nan  -2  -1  1.5  0.00353603  -0.0177147  -6.26368e-05  0  0  0  0  0  0  0  0  0  0.00868706  -0.00262601  -0.0064738  0.00333869  0.0103542  0.00569024  -0.00799259  0.0165762  -0.0133115  -0.0331605  0.0167072  0.00286667 
1701778892.366121000  0  0  11.4943  0.0606025  -0.0796913  0.010036  nan  nan  nan  nan  nan  nan  -2  -1  1.5  0.00342237  -0.0176284  -6.03281e-05  0  0  0  0  0  0  0  0  0  0.00870492  -0.00269087  -0.00648351  0.00317267  0.01035  0.00638916  -0.008178  0.0165256  -0.013258  -0.0459673  0.00734693  0.00713033 
1701778892.371544000  0  0  11.4357  0.0732163  -0.0420558  0.0106132  nan  nan  nan  nan  nan  nan  -2  -1  1.5  0.00296579  -0.0182945  -5.42547e-05  0  0  0  0  0  0  0  0  0  0.00872872  -0.0027504  -0.0064558  0.00385117  0.0098798  0.0112288  -0.00830508  0.0163253  -0.0133173  -0.0700258  -0.0660814  0.000508612 
1701778892.376120000  0  0  11.4993  0.0693298  -0.0494454  0.0108252  nan  nan  nan  nan  nan  nan  -2  -1  1.5  0.00375277  -0.0176283  -6.61519e-05  0  0  0  0  0  0  0  0  0  0.00873926  -0.00269926  -0.00645864  0.00310583  0.0107926  0.00593029  -0.00921006  0.015576  -0.0133396  -0.053927  -0.0444085  -0.00191927 
1701778892.381121000  0  0  11.468  0.0713699  -0.0470735  0.0102085  nan  nan  nan  nan  nan  nan  -2  -1  1.5  0.00336144  -0.017805  -5.98475e-05  0  0  0  0  0  0  0  0  0  0.0087674  -0.00275805  -0.00643653  0.00320708  0.0104116  0.00849405  -0.00913492  0.0155706  -0.0132838  -0.0586987  -0.0491023  0.00523228 
1701778892.386122000  0  0  11.4488  0.0629618  -0.0201258  0.00999134  nan  nan  nan  nan  nan  nan  -2  -1  1.5  0.00371139  -0.0179718  -6.66971e-05  0  0  0  0  0  0  0  0  0  0.00878498  -0.00270557  -0.0063832  0.00334199  0.0107328  0.00999945  -0.00956794  0.0148934  -0.0132319  -0.0378986  -0.0967674  0.00742696 
1701778892.391124000  0  0  11.5309  0.0713883  -0.0506173  0.00858313  nan  nan  nan  nan  nan  nan  -2  -1  1.5  0.0036151  -0.0172692  -6.2427e-05  0  0  0  0  0  0  0  0  0  0.00880266  -0.00275734  -0.00642356  0.00256637  0.0107584  0.00323178  -0.00982159  0.0143961  -0.0130443  -0.0524179  -0.031209  0.0231543 
1701778892.396125000  0  0  11.4774  0.0653248  -0.0361847  0.00813172  nan  nan  nan  nan  nan  nan  -2  -1  1.5  0.00306851  -0.0176305  -5.40968e-05  0  0  0  0  0  0  0  0  0  0.00882615  -0.00281017  -0.0063962  0.00287229  0.0101574  0.00763638  -0.00946214  0.0143545  -0.0128912  -0.0435979  -0.0596918  0.0272659 
1701778892.401120000  0  0  11.4779  0.0498726  -0.028502  0.0093521  nan  nan  nan  nan  nan  nan  -2  -1  1.5  0.0035432  -0.0176235  -6.24408e-05  0  0  0  0  0  0  0  0  0  0.00884068  -0.00275649  -0.00636039  0.00283191  0.0106435  0.00753004  -0.00977095  0.0138689  -0.0129267  -0.00985237  -0.0705898  0.0123652 
1701778892.406129000  0  0  11.5772  0.0530917  -0.0581114  0.00921494  nan  nan  nan  nan  nan  nan  -2  -1  1.5  0.00331165  -0.0170181  -5.63554e-05  0  0  0  0  0  0  0  0  0  0.00885301  -0.00281005  -0.00643121  0.00222001  0.0105039  -0.000602262  -0.00967005  0.0136254  -0.0128845  -0.017219  -0.00913064  0.0136585 
1701778892.411124000  0  0  11.5543  0.0504361  -0.0524556  0.00955298  nan  nan  nan  nan  nan  nan  -2  -1  1.5  0.00350438  -0.0171619  -6.0139e-05  0  0  0  0  0  0  0  0  0  0.00886709  -0.00275877  -0.00639872  0.00233012  0.0106289  0.00123522  -0.00986392  0.0136009  -0.0128643  -0.0101241  -0.0202175  0.00923068 
1701778892.416241000  0  0  11.5624  0.0265965  -0.0489156  0.0105179  nan  nan  nan  nan  nan  nan  -2  -1  1.5  0.00335215  -0.0172762  -5.79097e-05  0  0  0  0  0  0  0  0  0  0.00888609  -0.00280994  -0.00642771  0.00245001  0.0105501  0.000631463  -0.0092949  0.0135093  -0.0129641  0.0323201  -0.0264542  -0.00183297 
1701778892.421067000  0  0  11.6199  0.0396807  -0.0787669  0.00994832  nan  nan  nan  nan  nan  nan  -2  -1  1.5  0.00311055  -0.017264  -5.3698e-05  0  0  0  0  0  0  0  0  0  0.00890352  -0.00285876  -0.00648303  0.00250602  0.0103682  -0.00405014  -0.00920946  0.0140032  -0.0129142  0.00536559  0.0287044  0.00478796 
1701778892.426117000  0  0  11.5504  0.030562  -0.0719662  0.0103578  nan  nan  nan  nan  nan  nan  -2  -1  1.5  0.00302574  -0.0175115  -5.29827e-05  0  0  0  0  0  0  0  0  0  0.00891787  -0.00281085  -0.00643921  0.00265856  0.0101289  0.00164925  -0.00893338  0.0142446  -0.0129454  0.0210632  0.0128822  -1.94598e-05 
1701778892.431120000  0  0  11.5471  0.0141245  -0.0691237  0.0106081  nan  nan  nan  nan  nan  nan  -2  -1  1.5  0.00291026  -0.0174433  -5.0762e-05  0  0  0  0  0  0  0  0  0  0.00891765  -0.00286028  -0.00648346  0.00256485  0.0100894  0.0020255  -0.00837708  0.0141589  -0.0130041  0.0488201  0.00798543  -0.00256028 
1701778892.436081000  0  0  11.6086  0.0213036  -0.0818908  0.0102277  nan  nan  nan  nan  nan  nan  -2  -1  1.5  0.00301169  -0.017527  -5.27835e-05  0  0  0  0  0  0  0  0  0  0.00893192  -0.00281122  -0.00652076  0.00276059  0.0101311  -0.00303038  -0.00840522  0.0145475  -0.0129672  0.0347208  0.0299442  0.00182589 
1701778892.441131000  0  0  11.5585  0.0183794  -0.0881417  0.00986739  nan  nan  nan  nan  nan  nan  -2  -1  1.5  0.00299222  -0.0177391  -5.30766e-05  0  0  0  0  0  0  0  0  0  0.00894428  -0.00284299  -0.00652354  0.00290806  0.0101599  0.00114742  -0.00823204  0.0150416  -0.0129225  0.0389759  0.0379011  0.00588239 
1701778892.446249000  0  0  11.5408  0.0063725  -0.0826939  0.0098968  nan  nan  nan  nan  nan  nan  -2  -1  1.5  0.00259169  -0.0177663  -4.60423e-05  0  0  0  0  0  0  0  0  0  0.0089663  -0.00290233  -0.00653847  0.00285884  0.00977238  0.0026621  -0.00741241  0.0151311  -0.012921  0.0554492  0.0261818  0.00549954 
1701778892.451078000  0  0  11.5591  0.0176499  -0.0824481  0.00993235  nan  nan  nan  nan  nan  nan  -2  -1  1.5  0.0026196  -0.0179534  -4.70282e-05  0  0  0  0  0  0  0  0  0  0.008982  -0.00285669  -0.00654359  0.00310053  0.00971208  0.00114383  -0.00743414  0.0154092  -0.0129  0.0330943  0.023132  0.00484589 
1701778892.456127000  0  0  11.5174  0.0166992  -0.0816191  0.0100713  nan  nan  nan  nan  nan  nan  -2  -1  1.5  0.00260182  -0.0180516  -4.69647e-05  0  0  0  0  0  0  0  0  0  0.00900632  -0.00290764  -0.00652376  0.00308905  0.0097904  0.00458002  -0.00725577  0.0155951  -0.0129092  0.0333546  0.0197633  0.00320118 
1701778892.461076000  0  0  11.4706  0.0203901  -0.0761217  0.0103975  nan  nan  nan  nan  nan  nan  -2  -1  1.5  0.00295302  -0.0179301  -5.29452e-05  0  0  0  0  0  0  0  0  0  0.00901887  -0.00285766  -0.00647505  0.00281237  0.0101133  0.00837864  -0.0074822  0.0154591  -0.0129398  0.028056  0.0100195  -0.000570184 
1701778892.467124000  0  0  11.4947  0.0347283  -0.0623739  0.01049  nan  nan  nan  nan  nan  nan  -2  -1  1.5  0.00251037  -0.0181428  -4.55428e-05  0  0  0  0  0  0  0  0  0  0.00903156  -0.00290518  -0.006501  0.00310388  0.00966158  0.00642558  -0.0072829  0.0153957  -0.0129703  -0.00245386  -0.016893  -0.00142166 
1701778892.472063000  0  0  11.489  0.035674  -0.0607592  0.0104776  nan  nan  nan  nan  nan  nan  -2  -1  1.5  0.00285055  -0.0180906  -5.15656e-05  0  0  0  0  0  0  0  0  0  0.00904536  -0.00285562  -0.00647008  0.0029951  0.00998405  0.00683549  -0.00761775  0.0152313  -0.0129715  -0.00126467  -0.0186094  -0.00125526 
1701778892.477546000  0  0  11.4912  0.0391165  -0.0549681  0.010213  nan  nan  nan  nan  nan  nan  -2  -1  1.5  0.00246469  -0.0183759  -4.52884e-05  0  0  0  0  0  0  0  0  0  0.00907289  -0.00290565  -0.00644975  0.0033024  0.00960329  0.00661973  -0.00739206  0.0152284  -0.0129422  -0.0102262  -0.0301651  0.00175931 
1701778892.482062000  0  0  11.5169  0.0530771  -0.0312118  0.00939131  nan  nan  nan  nan  nan  nan  -2  -1  1.5  0.00213615  -0.0185768  -3.96807e-05  -6e-07  -6e-07  6e-07  0  0  0  -0.000375  -0.000375  0.000375  0.00909382  -0.00296684  -0.00646266  0.00351689  0.00927747  0.00454915  -0.00754543  0.0146245  -0.0128048  -0.0367362  -0.0721218  0.0106562 
1701778892.487495000  0  0  11.5335  0.0521405  -0.0478159  0.00955234  nan  nan  nan  nan  nan  nan  -2  -1  1.5  0.00297832  -0.0179189  -5.33655e-05  -5e-06  -5e-06  5e-06  0  0  0  -0.0015  -0.0015  0.0014996  0.00910616  -0.0030011  -0.00645793  0.00253533  0.0102913  0.00325282  -0.0083766  0.0142169  -0.0128028  -0.0272162  -0.0351638  0.00862415 
1701778892.492114000  0  0  11.4873  0.0683307  -0.0392946  0.00980023  nan  nan  nan  nan  nan  nan  -2  -1  1.5  0.00313966  -0.0186065  -5.84149e-05  -1.69e-05  -1.69e-05  1.55e-05  0  0  0  -0.003375  -0.003375  0.0025892  0.00912326  -0.00295824  -0.00640126  0.00304092  0.0101443  0.00709556  -0.00900672  0.0145304  -0.012789  -0.0537996  -0.0550901  0.00538672 
1701778892.497114000  0  0  11.5019  0.0708052  -0.0330932  0.00965489  nan  nan  nan  nan  nan  nan  -2  -1  1.5  0.00366431  -0.0187305  -6.85305e-05  -4e-05  -4e-05  2.96e-05  0  0  0  -0.006  -0.006  0.0029289  0.00913084  -0.00297966  -0.00640608  0.00287357  0.0105281  0.00592178  -0.0098021  0.0142089  -0.0127521  -0.0514311  -0.0645359  0.00683511 
1701778892.502118000  0  0  11.5017  0.0829642  -0.0591969  0.0094205  nan  nan  nan  nan  nan  nan  -2  -1  1.5  0.00476988  -0.0186212  -8.86165e-05  -7.81e-05  -7.81e-05  4.36e-05  0  0  0  -0.009375  -0.009375  0.0025185  0.00913925  -0.00292238  -0.00638071  0.00227917  0.0113773  0.00583483  -0.0112881  0.0143938  -0.0126757  -0.062078  -0.0140295  0.00900068 
1701778892.507115000  0  0  11.4706  0.0896508  -0.0502956  0.00969971  nan  nan  nan  nan  nan  nan  -2  -1  1.5  0.00490552  -0.0196367  -9.59227e-05  -0.000135  -0.000135  5.36e-05  0  0  0  -0.0135  -0.0135  0.0013619  0.00915667  -0.00296629  -0.00635334  0.00293783  0.0110981  0.00825503  -0.0118789  0.0150557  -0.0126781  -0.0700153  -0.0379215  0.00553434 
1701778892.512350000  0  0  11.4877  0.0858029  -0.0487118  0.0103308  nan  nan  nan  nan  nan  nan  -2  -1  1.5  0.00567671  -0.0200262  -0.000113077  -0.0002144  -0.0002144  5.74e-05  0  0  0  -0.018375  -0.018375  0.0003076  0.0091653  -0.00300137  -0.00635234  0.00282364  0.0115396  0.00672599  -0.0128394  0.0151486  -0.0127382  -0.0534835  -0.0419433  -0.00175308 
1701778892.517067000  0  0  11.5015  0.0952133  -0.0904448  0.0108934  nan  nan  nan  nan  nan  nan  -2  -1  1.5  0.00700155  -0.0200694  -0.000139709  -0.00032  -0.00032  5.79e-05  0  0  0  -0.024  -0.024  -3.3e-06  0.00917083  -0.00294416  -0.00633443  0.00217148  0.0123873  0.0054824  -0.0144639  0.0159885  -0.0128262  -0.0573584  0.0337956  -0.00790567 
1701778892.522114000  0  0  11.475  0.0882576  -0.0603298  0.011299  nan  nan  nan  nan  nan  nan  -2.00001  -1.00001  1.5  0.00740351  -0.0213906  -0.000157357  -0.0004549  -0.0004556  5.71e-05  0  0  0  -0.0298319  -0.030375  -0.0004491  0.00919455  -0.00296574  -0.00630829  0.00299115  0.0121028  0.0076102  -0.0149982  0.0166386  -0.0129221  -0.0385318  -0.0324156  -0.012017 
1701778892.527065000  0  0  11.53  0.086532  -0.0752506  0.010359  nan  nan  nan  nan  nan  nan  -2.00001  -1.00001  1.5  0.00891053  -0.021633  -0.000191552  -0.0006171  -0.000625  5.22e-05  0  0  0  -0.0349304  -0.0375  -0.0016448  0.00920331  -0.00290393  -0.00631495  0.0027555  0.0130205  0.00290719  -0.0164665  0.0170107  -0.0128289  -0.0215726  -0.00599679  -0.00119883 
1701778892.532113000  0  0  11.5239  0.0985947  -0.106075  0.00951715  nan  nan  nan  nan  nan  nan  -2.00001  -1.00001  1.5  0.00952645  -0.0221519  -0.000209618  -0.0008029  -0.0008318  3.94e-05  0  0  0  -0.0392789  -0.0452796  -0.0035905  0.00921178  -0.00293425  -0.00631826  0.00282563  0.0128651  0.00321793  -0.0174169  0.0182066  -0.0127209  -0.0369539  0.04465  0.00824499 
1701778892.537497000  0  0  11.4788  0.0799708  -0.0712689  0.00959326  nan  nan  nan  nan  nan  nan  -2.00002  -1.00002  1.5  0.0102646  -0.0232087  -0.000236515  -0.0010086  -0.0010769  1.5e-05  0  0  0  -0.0428774  -0.0526197  -0.0062863  0.0092375  -0.00294851  -0.00628542  0.00354109  0.0128414  0.00666274  -0.0178897  0.0185869  -0.0126855  0.00464333  -0.0284616  0.00693896 
1701778892.542114000  0  0  11.5534  0.0801787  -0.0878415  0.00880479  nan  nan  nan  nan  nan  nan  -2.00002  -1.00002  1.5  0.0109275  -0.0226254  -0.000245229  -0.0012224  -0.0013394  -1.7e-05  0  0  0  -0.0425024  -0.0522447  -0.0066612  0.00924218  -0.00289064  -0.00631343  0.00302299  0.0136975  0.000460093  -0.0184238  0.0182365  -0.0125659  0.00914202  0.00790751  0.015599 
1701778892.547064000  0  0  11.5291  0.0797185  -0.0958439  0.00841702  nan  nan  nan  nan  nan  nan  -2.00003  -1.00003  1.5  0.0107775  -0.0222871  -0.000237889  -0.0014324  -0.0015981  -5.29e-05  0  0  0  -0.0413774  -0.0511197  -0.0077862  0.00925134  -0.00289042  -0.0063053  0.00265337  0.013621  0.00235032  -0.0182603  0.0181662  -0.0124618  0.00855759  0.0245586  0.0194048 
1701778892.552118000  0  0  11.5064  0.045596  -0.0506604  0.0094226  nan  nan  nan  nan  nan  nan  -2.00004  -1.00004  1.5  0.0110219  -0.0226228  -0.000246635  -0.0016349  -0.0018493  -9.62e-05  0  0  0  -0.0395024  -0.0492447  -0.0096612  0.00927234  -0.00282041  -0.00627466  0.00322154  0.0139925  0.00402262  -0.0177688  0.0176346  -0.0124952  0.0722811  -0.0609178  0.00716955 
1701778892.557118000  0  0  11.5707  0.0492745  -0.0698941  0.0087464  nan  nan  nan  nan  nan  nan  -2.00004  -1.00005  1.5  0.0109277  -0.0217533  -0.000234404  -0.0018262  -0.0020893  -0.0001507  0  0  0  -0.0368774  -0.0466197  -0.0122863  0.00926478  -0.00281902  -0.006332  0.00262069  0.0142865  -0.00147146  -0.0174139  0.0169249  -0.0124259  0.0616592  -0.0159205  0.0149287 
1701778892.562545000  0  0  11.499  0.0433124  -0.0595333  0.00898776  nan  nan  nan  nan  nan  nan  -2.00005  -1.00006  1.5  0.010087  -0.0212251  -0.000210189  -0.0020024  -0.0023142  -0.0002203  0  0  0  -0.0335024  -0.0432447  -0.0156613  0.00925919  -0.00283903  -0.00631604  0.00221977  0.0136061  0.00415609  -0.0162721  0.016268  -0.0124013  0.063078  -0.0305992  0.0116656 
1701778892.567061000  0  0  11.4479  0.00900709  -0.0183167  0.00990904  nan  nan  nan  nan  nan  nan  -2.00006  -1.00007  1.5  0.010164  -0.0211217  -0.000209972  -0.0021599  -0.0025205  -0.0003086  0  0  0  -0.0293774  -0.0391197  -0.0197863  0.00927268  -0.0027763  -0.00627211  0.00247002  0.0140401  0.00794719  -0.0153337  0.0151348  -0.0124816  0.123056  -0.102606  0.000953291 
1701778892.572116000  0  0  11.5026  0.0249279  -0.0349931  0.00997094  nan  nan  nan  nan  nan  nan  -2.00008  -1.00008  1.5  0.00992263  -0.0201168  -0.000193805  -0.0022949  -0.0027042  -0.0004194  0  0  0  -0.0245024  -0.0342447  -0.0246613  0.00928946  -0.00270786  -0.00629014  0.00190599  0.0142716  0.00295525  -0.0148379  0.0140659  -0.0124976  0.0866528  -0.0594202  0.000339734 
1701778892.577069000  0  0  11.4708  0.031422  -0.0447073  0.010298  nan  nan  nan  nan  nan  nan  -2.00009  -1.0001  1.49999  0.00968553  -0.019277  -0.000179602  -0.0024037  -0.0028617  -0.0005564  0  0  0  -0.0188774  -0.0286197  -0.0302863  0.00929503  -0.00263032  -0.00624819  0.00147848  0.0144892  0.00496948  -0.0144113  0.0133248  -0.0125508  0.0697404  -0.0331736  -0.00321743 
1701778892.582117000  0  0  11.4092  -0.00356727  -0.0026592  0.0104633  nan  nan  nan  nan  nan  nan  -2.0001  -1.00011  1.49999  0.0094408  -0.0186726  -0.000167379  -0.0024825  -0.0029891  -0.0007235  0  0  0  -0.0125024  -0.0222447  -0.0366613  0.00930144  -0.00256059  -0.00618984  0.00138872  0.0147814  0.0093928  -0.0130726  0.0116854  -0.0125992  0.127402  -0.102187  -0.00479901 
1701778892.587353000  0  0  11.4709  0.0114729  -0.0216316  0.0094187  nan  nan  nan  nan  nan  nan  -2.00011  -1.00013  1.49999  0.0078334  -0.0172717  -0.000124292  -0.0025275  -0.0030829  -0.0009243  0  0  0  -0.0053774  -0.0151197  -0.0437863  0.00926034  -0.00261295  -0.00625882  0.000742254  0.0138351  0.0036976  -0.011319  0.0103504  -0.0125459  0.0811886  -0.0519604  0.00772547 
1701778892.592110000  0  0  11.4176  0.00201206  -0.0177979  0.00858262  nan  nan  nan  nan  nan  nan  -2.00012  -1.00014  1.49998  0.00759758  -0.0165128  -0.000111654  -0.002535  -0.0031391  -0.0011626  0  0  0  0.0024976  -0.0072447  -0.0516613  0.00926344  -0.00254715  -0.0062022  0.000687387  0.0143611  0.00726371  -0.0106184  0.00945324  -0.0123924  0.0936655  -0.0513741  0.0166413 
1701778892.597118000  0  0  11.3563  -0.0139778  0.00418711  0.00862955  nan  nan  nan  nan  nan  nan  -2.00014  -1.00016  1.49998  0.00641976  -0.0153762  -8.16092e-05  -0.0025013  -0.0031541  -0.0014422  0  0  0  0.0111226  0.0013803  -0.0602863  0.00924691  -0.00260211  -0.00616774  0.000291304  0.0140603  0.0114689  -0.00874675  0.00772828  -0.0123633  0.108426  -0.0794744  0.0157633 
1701778892.602068000  0  0  11.4264  0.0224043  -0.0194785  0.00794755  nan  nan  nan  nan  nan  nan  -2.00015  -1.00018  1.49997  0.00522577  -0.014222  -5.30191e-05  -0.0024225  -0.003124  -0.0017667  0  0  0  0.0204976  0.0107553  -0.0696613  0.00924734  -0.00253282  -0.00618608  0.000155942  0.0136524  0.00474191  -0.00805176  0.00690048  -0.012204  0.0292676  -0.0245274  0.0226956 
1701778892.607060000  0  0  11.3789  -0.000362865  -0.0114308  0.00883412  nan  nan  nan  nan  nan  nan  -2.00016  -1.00019  1.49996  0.0039837  -0.0128244  -2.47875e-05  -0.002295  -0.0030453  -0.00214  0  0  0  0.0306226  0.0208803  -0.0797863  0.00921853  -0.00259253  -0.00614304  -0.000314236  0.0134958  0.00763048  -0.0063133  0.00540771  -0.012251  0.0588081  -0.0268894  0.0120832 
1701778892.612113000  0  0  11.3416  0.0107552  -0.0108085  0.00926449  nan  nan  nan  nan  nan  nan  -2.00017  -1.00021  1.49995  0.00320595  -0.0114814  -4.40812e-06  -0.002115  -0.002914  -0.0025658  0  0  0  0.0414976  0.0317553  -0.0906613  0.00921507  -0.00251693  -0.00609119  -0.000646979  0.0137367  0.00957068  -0.0054642  0.00401233  -0.0122827  0.0287602  -0.0152964  0.00702095 
1701778892.617115000  0  0  11.3652  0.0264939  -0.0241514  0.00936249  nan  nan  nan  nan  nan  nan  -2.00018  -1.00022  1.49993  0.00127153  -0.0101667  2.67729e-05  -0.0018788  -0.0027265  -0.0030479  0  0  0  0.0531226  0.0433803  -0.102286  0.00918752  -0.00257122  -0.00610005  -0.000713644  0.0129256  0.00648423  -0.00392954  0.0030667  -0.0123264  -0.016836  0.0200891  0.00623334 
1701778892.622113000  0  0  11.3279  -0.00291362  -0.0223708  0.0107805  nan  nan  nan  nan  nan  nan  -2.00019  -1.00023  1.49992  1.39387e-05  -0.0083194  4.8184e-05  -0.0015826  -0.0024789  -0.00359  0  0  0  0.0654976  0.0557553  -0.114661  0.00915954  -0.00260371  -0.0060809  -0.00141959  0.0130089  0.0083431  -0.00219182  0.00145827  -0.0125365  0.0259919  0.0313254  -0.00939159 
1701778892.627062000  0  0  11.2725  0.00374739  -0.0228714  0.011401  nan  nan  nan  nan  nan  nan  -2.0002  -1.00024  1.4999  -0.000995204  -0.00676405  6.50316e-05  -0.0012226  -0.0021677  -0.0041958  0  0  0  0.0786226  0.0688803  -0.127786  0.00915571  -0.00253847  -0.00601415  -0.00171423  0.013296  0.0115408  -0.00129672  0.000227177  -0.0126837  0.00443502  0.0436528  -0.0156755 
1701778892.632114000  0  0  11.2854  0.025345  -0.0391252  0.0118769  nan  nan  nan  nan  nan  nan  -2.0002  -1.00025  1.49987  -0.00323303  -0.00537481  8.74769e-05  -0.0007951  -0.0017889  -0.0048691  0  0  0  0.0924976  0.0827553  -0.141661  0.00913809  -0.0025894  -0.00598089  -0.00161417  0.0123946  0.00904997  0.000272554  -0.00043642  -0.0128577  -0.0531974  0.0822654  -0.0198844 
1701778892.637451000  0  0  11.2728  0.0108068  -0.0427848  0.0120471  nan  nan  nan  nan  nan  nan  -2.00021  -1.00026  1.49985  -0.0049229  -0.00332432  0.000100065  -0.0002963  -0.0013388  -0.0056136  0  0  0  0.107123  0.0973803  -0.156286  0.00913522  -0.00261927  -0.0059453  -0.00229343  0.0122386  0.00860873  0.00186973  -0.00173219  -0.0130108  -0.0388152  0.101506  -0.0204815 
1701778892.642270000  0  0  11.2101  0.0291506  -0.0408011  0.0106721  nan  nan  nan  nan  nan  nan  -2.00021  -1.00027  1.49982  -0.00665581  -0.00225079  0.000114381  0.0002774  -0.0008138  -0.0064332  0  0  0  0.122498  0.112755  -0.171661  0.0091319  -0.00255631  -0.00587111  -0.00165925  0.0119612  0.0121906  0.00298831  -0.00230058  -0.0129479  -0.0857936  0.102767  -0.00392178 
1701778892.647229000  0  0  11.2122  0.0286464  -0.0555225  0.0101794  nan  nan  nan  nan  nan  nan  -2.0002  -1.00027  1.49978  -0.00884413  -0.000109828  0.000118271  0.0009299  -0.00021  -0.0073315  0  0  0  0.138623  0.12888  -0.187786  0.00910707  -0.00258278  -0.00583614  -0.00218663  0.0113756  0.010383  0.00461299  -0.00344727  -0.0129483  -0.0997323  0.14276  0.00223992 
1701778892.652062000  0  0  11.2081  0.012587  -0.0576237  0.010196  nan  nan  nan  nan  nan  nan  -2.0002  -1.00027  1.49974  -0.0103414  0.00242576  0.000112613  0.0016649  0.0004762  -0.0083123  0  0  0  0.155498  0.145755  -0.204661  0.00909634  -0.00252316  -0.00579795  -0.00313967  0.0115627  0.00901539  0.00591353  -0.00502702  -0.0129483  -0.0795785  0.161496  0.00203291 
1701778892.657074000  0  0  11.1429  0.00647001  -0.040191  0.0105604  nan  nan  nan  nan  nan  nan  -2.00019  -1.00027  1.4997  -0.0129603  0.0043147  0.000104777  0.0024861  0.0012488  -0.0093793  0  0  0  0.173123  0.16338  -0.222286  0.00909027  -0.0025399  -0.00573053  -0.0031694  0.0107096  0.0126142  0.00812134  -0.00634021  -0.0130299  -0.0876564  0.138712  -0.00170669 
1701778892.662118000  0  0  11.1441  0.02355  -0.0504163  0.0107681  nan  nan  nan  nan  nan  nan  -2.00017  -1.00026  1.49965  -0.0147479  0.00645079  9.15584e-05  0.0033973  0.0021113  -0.0105364  0  0  0  0.191498  0.181755  -0.240661  0.00907038  -0.00248471  -0.00569006  -0.00339615  0.0107457  0.0106618  0.00894517  -0.00742754  -0.0130744  -0.129396  0.169166  -0.00385727 
1701778892.667069000  0  0  11.1376  0.00438885  -0.0582022  0.011353  nan  nan  nan  nan  nan  nan  -2.00015  -1.00024  1.49959  -0.0170123  0.00933244  5.70209e-05  0.0044023  0.0030676  -0.0117872  0  0  0  0.210623  0.20088  -0.259786  0.00907145  -0.00252728  -0.00562596  -0.00448868  0.0105198  0.00924703  0.0108633  -0.00903739  -0.0131898  -0.10872  0.199548  -0.0100143 
1701778892.672122000  0  0  11.0709  0.0158205  -0.0299325  0.0115304  nan  nan  nan  nan  nan  nan  -2.00013  -1.00023  1.49953  -0.0201173  0.0112392  2.19718e-05  0.0055048  0.0041213  -0.0131355  0  0  0  0.230498  0.220755  -0.279661  0.00909105  -0.00255448  -0.00553478  -0.00424051  0.00945458  0.0127184  0.0129555  -0.0103745  -0.0132873  -0.150832  0.155311  -0.0112566 
1701778892.677072000  0  0  11.0512  0.0130931  -0.0314309  0.0113705  nan  nan  nan  nan  nan  nan  -2.0001  -1.0002  1.49946  -0.0223393  0.0141643  -3.25634e-05  0.0067086  0.0052764  -0.0145851  0  0  0  0.251123  0.24138  -0.300286  0.0090668  -0.00251233  -0.00548035  -0.00508938  0.00934181  0.012291  0.0143672  -0.012274  -0.0133116  -0.158364  0.175783  -0.00901604 
1701778892.682145000  0  0  11.0459  -0.000743452  -0.0438431  0.0112669  nan  nan  nan  nan  nan  nan  -2.00006  -1.00017  1.49939  -0.0248677  0.017296  -0.000106879  0.0080173  0.0065364  -0.0161396  0  0  0  0.272498  0.262755  -0.321661  0.0090587  -0.00254233  -0.00545272  -0.00614588  0.00908109  0.010657  0.0162604  -0.0139034  -0.0133425  -0.148109  0.215598  -0.00741157 
1701778892.687428000  0  0  10.973  0.0032834  -0.0112749  0.0116069  nan  nan  nan  nan  nan  nan  -2.00002  -1.00014  1.4993  -0.028284  0.0196193  -0.000188525  0.0094348  0.0079052  -0.0178029  0  0  0  0.294623  0.28488  -0.343786  0.00906716  -0.0025529  -0.0053472  -0.00600017  0.00800038  0.0144297  0.0185215  -0.0156451  -0.013433  -0.176964  0.166485  -0.0107564 
1701778892.692129000  0  0  10.9811  -0.00178222  -0.0181147  0.011662  nan  nan  nan  nan  nan  nan  -1.99997  -1.00009  1.49921  -0.0306063  0.0233607  -0.000301543  0.0109648  0.0093864  -0.0195787  0  0  0  0.317498  0.307755  -0.366661  0.00902902  -0.00252016  -0.00531065  -0.00754532  0.00802658  0.0115345  0.0200076  -0.0182338  -0.013471  -0.180505  0.203981  -0.0110644 
1701778892.697133000  0  0  10.9551  -0.00631898  -0.0253133  0.0109537  nan  nan  nan  nan  nan  nan  -1.99991  -1.00004  1.4991  -0.0338172  0.0269724  -0.000447667  0.012611  0.010984  -0.0214708  0  0  0  0.341123  0.33138  -0.390286  0.00901765  -0.00254214  -0.00523764  -0.00880087  0.00731115  0.0113511  0.0221763  -0.0203389  -0.0134003  -0.191384  0.237745  -0.00291821 
1701778892.702134000  0  0  10.8837  -0.00800905  0.0202553  0.0114994  nan  nan  nan  nan  nan  nan  -1.99984  -0.999984  1.49899  -0.0374821  0.0299319  -0.000602166  0.0143772  0.0127015  -0.0234829  0  0  0  0.365498  0.355755  -0.414661  0.00897916  -0.00250809  -0.00514881  -0.00893682  0.0062246  0.0148456  0.0246549  -0.0229095  -0.013461  -0.210807  0.170256  -0.00913267 
1701778892.707084000  0  0  10.8917  -0.0184316  0.0259632  0.0115247  nan  nan  nan  nan  nan  nan  -1.99976  -0.999916  1.49887  -0.0406539  0.0338291  -0.00079598  0.0162672  0.0145428  -0.0256187  0  0  0  0.390623  0.38088  -0.439786  0.0089543  -0.00253729  -0.00509611  -0.0103866  0.00566991  0.0117497  0.0268134  -0.0257471  -0.0134752  -0.20982  0.184947  -0.00930656 
1701778892.712464000  0  0  10.8452  -0.0164645  0.0183353  0.0108492  nan  nan  nan  nan  nan  nan  -1.99968  -0.999838  1.49874  -0.0444366  0.0378538  -0.001039  0.0182847  0.0165116  -0.027882  0  0  0  0.416498  0.406755  -0.465661  0.00894899  -0.00258128  -0.00503584  -0.0117175  0.00477208  0.0131474  0.0291497  -0.0281552  -0.0133727  -0.235248  0.222357  -0.00188879 
1701778892.717081000  0  0  10.765  -0.0254287  0.0601216  0.010546  nan  nan  nan  nan  nan  nan  -1.99958  -0.99975  1.49859  -0.0487298  0.0415674  -0.00131419  0.0204335  0.0186116  -0.0302763  0  0  0  0.443123  0.43338  -0.492044  0.00888978  -0.0025712  -0.00492897  -0.0122669  0.00345883  0.0171763  0.0322586  -0.031458  -0.0132701  -0.245922  0.16917  0.000875282 
1701778892.722137000  0  0  10.8127  -0.0295778  0.0334809  0.0111029  nan  nan  nan  nan  nan  nan  -1.99947  -0.999652  1.49843  -0.0518682  0.0456773  -0.0015849  0.0227172  0.0208466  -0.0328013  0  0  0  0.470498  0.460755  -0.517817  0.0088633  -0.00262512  -0.00490509  -0.0138436  0.00310156  0.0108433  0.0340693  -0.033795  -0.0132933  -0.254282  0.243952  -0.00585324 
1701778892.727081000  0  0  10.8019  -0.0240341  0.0216045  0.0106292  nan  nan  nan  nan  nan  nan  -1.99935  -0.999542  1.49826  -0.0556386  0.0504298  -0.00194415  0.0251397  0.0232204  -0.0354532  0  0  0  0.498623  0.48888  -0.542839  0.00878664  -0.00261209  -0.00486025  -0.0157099  0.00226428  0.00945279  0.0362065  -0.0365965  -0.0131458  -0.285031  0.293479  -0.00140735 
1701778892.732112000  0  0  10.6835  -0.0322491  0.0699784  0.0110538  nan  nan  nan  nan  nan  nan  -1.99922  -0.999419  1.49808  -0.0611711  0.0540245  -0.00236124  0.0277047  0.0257367  -0.0382284  0  0  0  0.527498  0.517755  -0.567112  0.00876925  -0.00268066  -0.00473743  -0.0155746  0.000330753  0.0169235  0.0400345  -0.0395366  -0.0131104  -0.303819  0.22378  -0.00706893 
1701778892.737545000  0  0  10.7536  -0.0290877  0.0358065  0.0107737  nan  nan  nan  nan  nan  nan  -1.99908  -0.999284  1.49788  -0.0645177  0.0580661  -0.00271597  0.0304159  0.0283992  -0.0411231  0  0  0  0.557123  0.54738  -0.590635  0.00873292  -0.00270825  -0.00475589  -0.0169388  -0.000227107  0.0091217  0.0415071  -0.041299  -0.0130304  -0.32369  0.308338  -0.00436679 
1701778892.742116000  0  0  10.7238  -0.0190306  0.0106041  0.0104705  nan  nan  nan  nan  nan  nan  -1.99892  -0.999135  1.49767  -0.0687938  0.0629086  -0.00320607  0.0332772  0.0312117  -0.0441335  0  0  0  0.587498  0.577755  -0.613407  0.00863926  -0.00271997  -0.00469294  -0.0184178  -0.00111907  0.00959914  0.043813  -0.0437093  -0.0128399  -0.365018  0.380918  -0.00248246 
1701778892.747063000  0  0  10.6588  -0.0285359  0.0370603  0.0107394  nan  nan  nan  nan  nan  nan  -1.99874  -0.998972  1.49744  -0.0741335  0.0673785  -0.00377755  0.0362921  0.034178  -0.0472559  0  0  0  0.618623  0.60888  -0.63543  0.0085799  -0.00276275  -0.00462127  -0.0191506  -0.00278755  0.0130706  0.0471782  -0.0465597  -0.0127245  -0.376967  0.354229  -0.00699693 
1701778892.752113000  0  0  10.7184  -0.0245982  0.00469552  0.0111114  nan  nan  nan  nan  nan  nan  -1.99855  -0.998793  1.49719  -0.0774412  0.0718984  -0.00424939  0.0394646  0.0373018  -0.0504865  0  0  0  0.650498  0.640755  -0.656702  0.00848032  -0.00276863  -0.00461564  -0.0206741  -0.00303484  0.00641735  0.0483953  -0.0483263  -0.0126536  -0.39604  0.435211  -0.0123566 
1701778892.757117000  0  0  10.7107  -0.0107633  -0.0258482  0.0110597  nan  nan  nan  nan  nan  nan  -1.99835  -0.998598  1.49693  -0.0821312  0.0764267  -0.00485326  0.0427984  0.0405868  -0.0538217  0  0  0  0.683123  0.67338  -0.677225  0.00843759  -0.00281607  -0.00459022  -0.0217367  -0.00416344  0.00549191  0.0504995  -0.0497503  -0.0125098  -0.443069  0.509399  -0.0131485 
1701778892.762503000  0  0  10.6359  -0.0133289  -0.00352043  0.0116223  nan  nan  nan  nan  nan  nan  -1.99812  -0.998387  1.49666  -0.0874247  0.0807024  -0.00552202  0.0462971  0.0440368  -0.0572575  0  0  0  0.716498  0.706755  -0.696998  0.00839309  -0.00281389  -0.00457409  -0.0217978  -0.00535807  0.0102536  0.0530654  -0.0515476  -0.0124511  -0.461544  0.481279  -0.0207676 
1701778892.767062000  0  0  10.6547  -0.0163916  -0.0124909  0.0119656  nan  nan  nan  nan  nan  nan  -1.99788  -0.998158  1.49636  -0.0919981  0.0857717  -0.0062429  0.0499643  0.0476554  -0.0607904  0  0  0  0.750312  0.740692  -0.71602  0.00826978  -0.00285639  -0.00452977  -0.0233902  -0.00638925  0.00726617  0.0553662  -0.0539308  -0.0123259  -0.476586  0.521145  -0.0263108 
1701778892.772112000  0  0  10.6459  0.0110147  -0.0473436  0.0119548  nan  nan  nan  nan  nan  nan  -1.99762  -0.99791  1.49605  -0.0964626  0.0903014  -0.00694364  0.053799  0.0514426  -0.0644165  0  0  0  0.783471  0.774066  -0.734293  0.00821391  -0.00287564  -0.00454052  -0.0243072  -0.00712193  0.00687405  0.0565662  -0.0547859  -0.0122166  -0.542439  0.598718  -0.0272696 
1701778892.777065000  0  0  10.5967  0.000277073  -0.0161795  0.0123796  nan  nan  nan  nan  nan  nan  -1.99735  -0.997643  1.49572  -0.102039  0.0951746  -0.00782165  0.0577977  0.0553948  -0.0681321  0  0  0  0.81588  0.806689  -0.751815  0.00810251  -0.00291846  -0.00447933  -0.025202  -0.00873778  0.00974758  0.0593857  -0.0571667  -0.0120756  -0.546903  0.558293  -0.0339891 
1701778892.782113000  0  0  10.621  0.00168566  -0.0317906  0.0121346  nan  nan  nan  nan  nan  nan  -1.99705  -0.997356  1.49537  -0.105954  0.0995904  -0.00853355  0.0619566  0.0595083  -0.0719334  0  0  0  0.847539  0.838563  -0.768588  0.00803953  -0.00294306  -0.00448877  -0.0264971  -0.00933964  0.00676135  0.0603751  -0.0582906  -0.0119875  -0.558822  0.599855  -0.0318076 
1701778892.787494000  0  0  10.6314  0.0267057  -0.0597554  0.0119036  nan  nan  nan  nan  nan  nan  -1.99673  -0.997048  1.495  -0.110438  0.103929  -0.00932688  0.0662719  0.0637792  -0.0758167  0  0  0  0.878448  0.869686  -0.784611  0.00797941  -0.00299443  -0.00449092  -0.0276678  -0.0104765  0.005122  0.0610476  -0.0585659  -0.0118144  -0.615049  0.658317  -0.0306508 
1701778892.792115000  0  0  10.5764  0.00584104  -0.021409  0.0117185  nan  nan  nan  nan  nan  nan  -1.99638  -0.996718  1.49461  -0.116008  0.108904  -0.0103474  0.0707398  0.0682039  -0.0797783  0  0  0  0.908607  0.90006  -0.799883  0.00782228  -0.00307091  -0.00440288  -0.0287432  -0.0120987  0.00872656  0.0639005  -0.0611415  -0.0115324  -0.599567  0.60532  -0.0311573 
1701778892.797116000  0  0  10.6229  0.0107912  -0.0393513  0.0110865  nan  nan  nan  nan  nan  nan  -1.99602  -0.996365  1.4942  -0.119908  0.113042  -0.0111268  0.0753567  0.0727786  -0.0838143  0  0  0  0.938016  0.929683  -0.814406  0.00776095  -0.00312658  -0.00441552  -0.0303187  -0.0131873  0.00424785  0.0645315  -0.0617465  -0.0113297  -0.615272  0.64677  -0.025284 
1701778892.802112000  0  0  10.6193  0.0288699  -0.0561409  0.0104507  nan  nan  nan  nan  nan  nan  -1.99563  -0.99599  1.49377  -0.124631  0.117762  -0.0121045  0.0801187  0.0774995  -0.0879211  0  0  0  0.966675  0.958557  -0.828179  0.00760624  -0.00319442  -0.00439096  -0.0318804  -0.0146313  0.00404292  0.0655075  -0.0626208  -0.0109783  -0.660409  0.688393  -0.0208501 
1701778892.807061000  0  0  10.584  0.00423272  -0.0203812  0.0106043  nan  nan  nan  nan  nan  nan  -1.99522  -0.99559  1.49332  -0.129733  0.121868  -0.0130903  0.0850222  0.0823629  -0.0920948  0  0  0  0.994584  0.98668  -0.841201  0.00753515  -0.00327193  -0.00436008  -0.0325881  -0.0161516  0.00642801  0.0675786  -0.0640345  -0.0107288  -0.630188  0.62988  -0.0252656 
1701778892.812451000  0  0  10.6327  0.0154972  -0.0336055  0.0104401  nan  nan  nan  nan  nan  nan  -1.99478  -0.995166  1.49285  -0.132944  0.125364  -0.0137918  0.0900633  0.087365  -0.0963318  0  0  0  1.02174  1.01405  -0.853474  0.00747489  -0.00333325  -0.00440919  -0.0337809  -0.0167865  0.00211535  0.0670965  -0.0639084  -0.0106219  -0.648282  0.655169  -0.0242822 
1701778892.817113000  0  0  10.6025  0.0320239  -0.0421813  0.0103085  nan  nan  nan  nan  nan  nan  -1.99432  -0.994716  1.49236  -0.138166  0.13026  -0.0149682  0.0952384  0.0925022  -0.100628  0  0  0  1.04815  1.04068  -0.864996  0.00728894  -0.00344547  -0.0043459  -0.0354227  -0.01855  0.0043458  0.0686217  -0.0654044  -0.0102607  -0.695367  0.686083  -0.0262498 
1701778892.822113000  0  0  10.5276  3.11981e-05  -0.00853104  0.0113636  nan  nan  nan  nan  nan  nan  -1.99383  -0.994241  1.49184  -0.143587  0.134552  -0.0161333  0.100544  0.0977706  -0.104981  0  0  0  1.07381  1.06655  -0.875769  0.00720084  -0.00355518  -0.00424871  -0.0359786  -0.0199218  0.0101866  0.0709481  -0.0669461  -0.0100843  -0.652785  0.632966  -0.041202 
1701778892.827067000  0  0  10.5768  0.000941697  -0.00891104  0.011817  nan  nan  nan  nan  nan  nan  -1.99331  -0.993738  1.49131  -0.14734  0.138493  -0.0170545  0.105975  0.103166  -0.109385  0  0  0  1.09872  1.09167  -0.885792  0.00700889  -0.00366114  -0.00425005  -0.0377898  -0.0213882  0.00605631  0.07137  -0.0677444  -0.0100241  -0.658488  0.641071  -0.0474716 
1701778892.832112000  0  0  10.5624  0.0256268  -0.0389405  0.0117165  nan  nan  nan  nan  nan  nan  -1.99277  -0.993209  1.49075  -0.151571  0.142506  -0.0180822  0.11153  0.108686  -0.113837  0  0  0  1.12288  1.11605  -0.895064  0.00690302  -0.00377344  -0.00419757  -0.0390031  -0.0224402  0.00726662  0.07147  -0.0677654  -0.00984827  -0.708777  0.701323  -0.0479737 
1701778892.837441000  0  0  10.5052  -0.00176663  -0.00513566  0.0122605  nan  nan  nan  nan  nan  nan  -1.99219  -0.992651  1.49017  -0.156562  0.146373  -0.0192316  0.117203  0.114326  -0.118334  0  0  0  1.14629  1.13967  -0.903587  0.00678321  -0.00389484  -0.00412997  -0.0394449  -0.0237091  0.011986  0.073033  -0.0686087  -0.00968051  -0.668371  0.641472  -0.0564507 
1701778892.842112000  0  0  10.564  0.00169146  -0.0121072  0.0112182  nan  nan  nan  nan  nan  nan  -1.99159  -0.992065  1.48957  -0.160092  0.150059  -0.020164  0.122991  0.120082  -0.122872  0  0  0  1.16895  1.16254  -0.911359  0.00655514  -0.00404611  -0.00409428  -0.0413845  -0.0252991  0.00726448  0.0732638  -0.0691853  -0.00946117  -0.67741  0.660719  -0.0456153 
1701778892.847062000  0  0  10.5758  0.0216876  -0.036763  0.0104908  nan  nan  nan  nan  nan  nan  -1.99096  -0.99145  1.48894  -0.164379  0.153609  -0.0212163  0.128891  0.12595  -0.127446  0  0  0  1.19086  1.18467  -0.918382  0.00641624  -0.0042082  -0.00404036  -0.0427088  -0.0270087  0.00658211  0.0734813  -0.0689223  -0.00916139  -0.719403  0.707612  -0.0395207 
1701778892.852111000  0  0  10.5204  -0.016387  -0.0124837  0.010779  nan  nan  nan  nan  nan  nan  -1.99031  -0.990806  1.48829  -0.168796  0.157889  -0.0224405  0.134898  0.131927  -0.132054  0  0  0  1.21202  1.20604  -0.924655  0.00621867  -0.00433382  -0.00396806  -0.0437256  -0.0277998  0.0113993  0.0748948  -0.0701308  -0.00890377  -0.656258  0.67017  -0.0456993 
1701778892.857113000  0  0  10.5553  -0.00417945  -0.0258832  0.0101224  nan  nan  nan  nan  nan  nan  -1.98962  -0.990131  1.48762  -0.172646  0.160758  -0.0233633  0.14101  0.138009  -0.136692  0  0  0  1.23242  1.22667  -0.930177  0.00607787  -0.00450598  -0.00393118  -0.0448396  -0.0296106  0.00893846  0.0749964  -0.0694915  -0.00866441  -0.681608  0.691088  -0.0398859 
1701778892.862399000  0  0  10.5853  0.0197164  -0.0557078  0.00916383  nan  nan  nan  nan  nan  nan  -1.98889  -0.989425  1.48692  -0.175845  0.16347  -0.0241694  0.147221  0.144192  -0.141355  0  0  0  1.25208  1.24654  -0.93495  0.00594426  -0.00464886  -0.00392554  -0.0457685  -0.0307492  0.00704365  0.0739122  -0.068011  -0.00842004  -0.719425  0.737117  -0.0303475 
1701778892.867063000  0  0  10.553  -0.00820944  -0.0541813  0.00913963  nan  nan  nan  nan  nan  nan  -1.98814  -0.988689  1.48621  -0.180183  0.167666  -0.0254516  0.153529  0.150473  -0.14604  0  0  0  1.27099  1.26566  -0.938973  0.00568269  -0.00483859  -0.00382469  -0.0472174  -0.0319339  0.0102141  0.0753003  -0.0688023  -0.00804045  -0.676344  0.741344  -0.0338409 
1701778892.872061000  0  0  10.5839  0.0109032  -0.0467417  0.0092794  nan  nan  nan  nan  nan  nan  -1.98736  -0.98792  1.48546  -0.183373  0.170206  -0.0262634  0.15993  0.156848  -0.150743  0  0  0  1.28915  1.28404  -0.942245  0.00552655  -0.00503206  -0.003768  -0.0481448  -0.0331832  0.00823306  0.0745881  -0.0680097  -0.00792392  -0.708017  0.719173  -0.0367532 
1701778892.877115000  0  0  10.6301  0.04144  -0.075243  0.00973043  nan  nan  nan  nan  nan  nan  -1.98654  -0.98712  1.4847  -0.186557  0.172968  -0.02713  0.16642  0.163312  -0.155461  0  0  0  1.30656  1.30166  -0.944768  0.00528533  -0.00519732  -0.00376581  -0.0495451  -0.0348731  0.00531712  0.0734024  -0.0666066  -0.00784286  -0.758182  0.763267  -0.0432017 
1701778892.882062000  0  0  10.5756  0.0194356  -0.0729519  0.0102047  nan  nan  nan  nan  nan  nan  -1.9857  -0.986287  1.48391  -0.190662  0.176499  -0.0283254  0.172995  0.169863  -0.16019  0  0  0  1.32322  1.31853  -0.94654  0.00511014  -0.00541985  -0.00365718  -0.0502151  -0.0355101  0.0105095  0.0740615  -0.0665351  -0.00761688  -0.720237  0.758026  -0.0513903 
1701778892.887401000  0  0  10.6126  0.04654  -0.0799566  0.00901167  nan  nan  nan  nan  nan  nan  -1.98481  -0.985421  1.4831  -0.19324  0.178017  -0.0288784  0.179651  0.176496  -0.164925  0  0  0  1.33913  1.33466  -0.947563  0.00495704  -0.00560739  -0.00367136  -0.0503346  -0.0365424  0.00835358  0.0722397  -0.0642301  -0.00749076  -0.757685  0.75083  -0.0377382 
1701778892.892061000  0  0  10.6589  0.0757311  -0.0961678  0.00861725  nan  nan  nan  nan  nan  nan  -1.9839  -0.984522  1.48226  -0.196519  0.180917  -0.0298385  0.186385  0.183208  -0.169664  0  0  0  1.35429  1.35003  -0.947836  0.00466017  -0.005845  -0.00359796  -0.0521379  -0.0384924  0.00554904  0.0712059  -0.0634001  -0.00725551  -0.806556  0.775617  -0.0351605 
1701778892.897112000  0  0  10.5962  0.0502646  -0.0889615  0.00970213  nan  nan  nan  nan  nan  nan  -1.98295  -0.983589  1.4814  -0.199596  0.184267  -0.0308676  0.193192  0.189995  -0.174402  0  0  0  1.3687  1.36465  -0.947358  0.00446002  -0.00606271  -0.0035092  -0.052575  -0.0380104  0.0115706  0.0707685  -0.0631349  -0.00720465  -0.7516  0.758764  -0.0492302 
1701778892.902069000  0  0  10.6028  0.0573416  -0.0752482  0.00970728  nan  nan  nan  nan  nan  nan  -1.98197  -0.982622  1.48052  -0.202482  0.186652  -0.0316852  0.20007  0.196854  -0.179137  0  0  0  1.38236  1.37853  -0.946131  0.00419668  -0.00626206  -0.00345226  -0.0532175  -0.0389696  0.0120299  0.0697619  -0.0623055  -0.00714657  -0.756492  0.723707  -0.0498753 
1701778892.907112000  0  0  10.6701  0.0852282  -0.0911306  0.00974186  nan  nan  nan  nan  nan  nan  -1.98095  -0.98162  1.47961  -0.204604  0.188258  -0.0322081  0.207015  0.203779  -0.183863  0  0  0  1.39527  1.39165  -0.944153  0.00396941  -0.00651637  -0.00342278  -0.0543369  -0.0404078  0.00762434  0.0674478  -0.0601965  -0.00720564  -0.790976  0.736069  -0.0497168 
1701778892.912448000  0  0  10.6258  0.0619451  -0.0830648  0.0101381  nan  nan  nan  nan  nan  nan  -1.9799  -0.980584  1.47868  -0.207296  0.19098  -0.0330791  0.214022  0.210769  -0.188577  0  0  0  1.40742  1.40402  -0.941426  0.00380382  -0.00672277  -0.00337301  -0.0547195  -0.0401781  0.0123721  0.0664993  -0.0594203  -0.00720568  -0.735684  0.712796  -0.054669 
1701778892.917116000  0  0  10.6209  0.0771626  -0.0513905  0.0104899  nan  nan  nan  nan  nan  nan  -1.97881  -0.979513  1.47772  -0.21038  0.193058  -0.0339085  0.221088  0.217818  -0.193276  0  0  0  1.41883  1.41565  -0.937949  0.00348209  -0.00698351  -0.00324297  -0.0549448  -0.0412777  0.0137946  0.0657432  -0.0591114  -0.00719401  -0.759162  0.646606  -0.0591838 
1701778892.922111000  0  0  10.6909  0.0820054  -0.0647114  0.0100038  nan  nan  nan  nan  nan  nan  -1.97769  -0.978406  1.47674  -0.212107  0.194588  -0.0343604  0.228209  0.224924  -0.197955  0  0  0  1.42949  1.42652  -0.933721  0.00323147  -0.00726323  -0.00319612  -0.0563202  -0.0426257  0.00926061  0.0636933  -0.05741  -0.00726543  -0.749989  0.657595  -0.0523932 
1701778892.927063000  0  0  10.6844  0.0753423  -0.0680959  0.00989812  nan  nan  nan  nan  nan  nan  -1.97653  -0.977263  1.47574  -0.214152  0.197571  -0.0351911  0.235381  0.232082  -0.202612  0  0  0  1.4394  1.43664  -0.928744  0.00293425  -0.00748024  -0.0031201  -0.0578015  -0.04273  0.0110859  0.0622498  -0.0571313  -0.00729162  -0.723383  0.6618  -0.0508103 
1701778892.932060000  0  0  10.6681  0.0747397  -0.0430436  0.00971259  nan  nan  nan  nan  nan  nan  -1.97533  -0.976085  1.47472  -0.217001  0.19907  -0.0358814  0.242602  0.239289  -0.207241  0  0  0  1.44856  1.44602  -0.923017  0.00267569  -0.00777068  -0.00302947  -0.0575094  -0.0435642  0.0136309  0.0614664  -0.0562297  -0.00721973  -0.71497  0.6034  -0.0492101 
1701778892.937122000  0  0  10.7486  0.0804948  -0.0442943  0.00888983  nan  nan  nan  nan  nan  nan  -1.9741  -0.97487  1.47367  -0.217638  0.200044  -0.0360055  0.249866  0.246541  -0.21184  0  0  0  1.45697  1.45464  -0.916539  0.00239505  -0.00798148  -0.00302399  -0.0586771  -0.0444582  0.00832896  0.0586528  -0.0544253  -0.00740135  -0.700595  0.589302  -0.0371093 
1701778892.942061000  0  0  10.783  0.0760785  -0.0749718  0.00873981  nan  nan  nan  nan  nan  nan  -1.97283  -0.973619  1.4726  -0.21945  0.20269  -0.0367408  0.25717  0.253834  -0.216405  0  0  0  1.46463  1.46251  -0.909312  0.00208118  -0.00831198  -0.00295032  -0.0609401  -0.0453141  0.0070462  0.0571545  -0.0535595  -0.00735175  -0.677978  0.642691  -0.03573 
1701778892.947112000  0  0  10.6971  0.0546828  -0.00845185  0.00847201  nan  nan  nan  nan  nan  nan  -1.97153  -0.972332  1.47151  -0.223029  0.203583  -0.0374746  0.264511  0.261165  -0.220932  0  0  0  1.47154  1.46964  -0.901334  0.00182668  -0.0086247  -0.00282727  -0.0586942  -0.0456348  0.0152681  0.0576779  -0.053089  -0.00707517  -0.640002  0.505323  -0.0351485 
1701778892.952060000  0  0  10.8101  0.0614558  -0.033358  0.00855959  nan  nan  nan  nan  nan  nan  -1.97019  -0.971008  1.47039  -0.223206  0.204219  -0.0374336  0.271884  0.26853  -0.225417  0  0  0  1.4777  1.47601  -0.892607  0.00150862  -0.00887388  -0.00281865  -0.0604255  -0.0470672  0.00746527  0.0548765  -0.0508748  -0.00739393  -0.627775  0.534764  -0.0330556 
1701778892.957113000  0  0  10.8426  0.0577455  -0.0729044  0.008443  nan  nan  nan  nan  nan  nan  -1.96881  -0.969647  1.46925  -0.224456  0.206093  -0.0378982  0.279286  0.275924  -0.229857  0  0  0  1.48311  1.48164  -0.88313  0.00119355  -0.0092106  -0.00276709  -0.0619995  -0.0476005  0.00640586  0.0531687  -0.0493423  -0.00743623  -0.604643  0.599758  -0.0311752 
1701778892.962393000  0  0  10.7734  0.0462365  -0.0459652  0.00894391  nan  nan  nan  nan  nan  nan  -1.96739  -0.968248  1.46809  -0.227002  0.206637  -0.0383484  0.286714  0.283345  -0.234248  0  0  0  1.48776  1.48651  -0.872902  0.00095794  -0.00948256  -0.00268582  -0.0599608  -0.0475297  0.01343  0.0528152  -0.047798  -0.00740422  -0.578373  0.531672  -0.0377566 
1701778892.967112000  0  0  10.8904  0.0433497  -0.058083  0.0105087  nan  nan  nan  nan  nan  nan  -1.96594  -0.966813  1.46691  -0.226605  0.207177  -0.0381643  0.294163  0.290788  -0.238585  0  0  0  1.49167  1.49063  -0.861925  0.000582248  -0.00979242  -0.00263805  -0.0618574  -0.0486318  0.00529287  0.050156  -0.0458492  -0.00802293  -0.548135  0.537979  -0.0511294 
1701778892.972061000  0  0  10.9464  0.0524209  -0.0876524  0.0105629  nan  nan  nan  nan  nan  nan  -1.96445  -0.965341  1.46571  -0.227655  0.208505  -0.0384719  0.301629  0.29825  -0.242866  0  0  0  1.49483  1.49401  -0.850197  0.000222035  -0.0101755  -0.00260395  -0.0635223  -0.049764  0.00249406  0.0484344  -0.0440672  -0.00820445  -0.550438  0.580723  -0.0499922 
1701778892.977112000  0  0  10.834  0.0361574  -0.0414764  0.0113647  nan  nan  nan  nan  nan  nan  -1.96293  -0.963831  1.46448  -0.229713  0.20922  -0.0388634  0.30911  0.305727  -0.247086  0  0  0  1.49724  1.49663  -0.83772  -4.68928e-05  -0.0103977  -0.00248667  -0.0608714  -0.0484825  0.0129937  0.0481205  -0.0431736  -0.008387  -0.515024  0.48015  -0.0581884 
1701778892.982111000  0  0  10.9338  0.0360802  -0.0690078  0.0115027  nan  nan  nan  nan  nan  nan  -1.96136  -0.962283  1.46324  -0.230045  0.209394  -0.0387557  0.316601  0.313215  -0.251241  0  0  0  1.4989  1.4985  -0.824493  -0.000415231  -0.0108063  -0.00243872  -0.0623016  -0.050136  0.00650385  0.0462104  -0.0407366  -0.00876409  -0.497296  0.512792  -0.0561434 
1701778892.987400000  0  0  10.9868  0.051999  -0.105024  0.0105507  nan  nan  nan  nan  nan  nan  -1.95976  -0.960698  1.46197  -0.229827  0.209695  -0.0385569  0.324098  0.32071  -0.255329  0  0  0  1.49981  1.49963  -0.810515  -0.000698274  -0.0111206  -0.0024705  -0.0630369  -0.0503019  0.00393535  0.0433521  -0.0377956  -0.00906825  -0.502837  0.557767  -0.0412008 
1701778892.992060000  0  0  10.9124  0.0409254  -0.072353  0.0102778  nan  nan  nan  nan  nan  nan  -1.95812  -0.959076  1.46068  -0.231361  0.210682  -0.0389  0.331597  0.32821  -0.259345  0  0  0  1.5  1.5  -0.795788  -0.00108587  -0.0114528  -0.00228727  -0.0616006  -0.0493651  0.0114361  0.0428349  -0.0371472  -0.00911387  -0.475932  0.48646  -0.0373337 
1701778892.997114000  0  0  10.9807  0.0436898  -0.0714995  0.0101631  nan  nan  nan  nan  nan  nan  -1.95644  -0.957416  1.45938  -0.231528  0.210236  -0.0386144  0.339097  0.33571  -0.263286  0  0  0  1.5  1.5  -0.780311  -0.00143893  -0.0118501  -0.0022416  -0.0617894  -0.0504121  0.00751081  0.0409024  -0.0347254  -0.0093871  -0.463682  0.462473  -0.0331678 
1701778893.002071000  0  0  11.0473  0.0663707  -0.109451  0.0098969  nan  nan  nan  nan  nan  nan  -1.95473  -0.955719  1.45805  -0.230485  0.210428  -0.0382091  0.346597  0.34321  -0.267147  0  0  0  1.5  1.5  -0.764083  -0.00176564  -0.0121141  -0.00221926  -0.0627009  -0.0502506  0.00376933  0.0374612  -0.0318773  -0.00984116  -0.477384  0.512173  -0.0252996 
1701778893.007111000  0  0  10.8935  0.0417144  -0.0578306  0.00873817  nan  nan  nan  nan  nan  nan  -1.95298  -0.953984  1.4567  -0.233185  0.211012  -0.0387187  0.354097  0.35071  -0.270926  0  0  0  1.5  1.5  -0.747106  -0.00209439  -0.0125125  -0.00203313  -0.059125  -0.0486292  0.0178867  0.0382295  -0.0314399  -0.009474  -0.435141  0.404908  -0.0144871 
1701778893.012449000  0  0  10.9682  0.0532199  -0.0736318  0.00898469  nan  nan  nan  nan  nan  nan  -1.95119  -0.952212  1.45534  -0.231879  0.210214  -0.0380268  0.361597  0.35821  -0.274617  0  0  0  1.5  1.5  -0.729378  -0.00232805  -0.0127997  -0.00202858  -0.0592212  -0.0484496  0.0134318  0.0348951  -0.0284881  -0.00998382  -0.427475  0.409354  -0.0124705 
1701778893.017113000  0  0  11.0449  0.0779384  -0.112338  0.00833184  nan  nan  nan  nan  nan  nan  -1.94936  -0.950402  1.45396  -0.231508  0.210427  -0.0377743  0.369097  0.36571  -0.278218  0  0  0  1.5  1.5  -0.710901  -0.00274162  -0.0131567  -0.00192496  -0.0602508  -0.0491173  0.00902121  0.0322379  -0.0260141  -0.0101717  -0.452465  0.464007  -0.00243079 
1701778893.022112000  0  0  10.9363  0.0550146  -0.0630359  0.00916439  nan  nan  nan  nan  nan  nan  -1.9475  -0.948555  1.45256  -0.232984  0.211354  -0.0380939  0.376597  0.37321  -0.281772  0  0  0  1.5  1.5  -0.710526  -0.00309572  -0.0135591  -0.00174888  -0.0580424  -0.0471704  0.0177953  0.0320412  -0.0260025  -0.0101762  -0.404808  0.365295  -0.0127928 
1701778893.027113000  0  0  10.9637  0.0719403  -0.0702874  0.0100869  nan  nan  nan  nan  nan  nan  -1.9456  -0.94667  1.45114  -0.232085  0.210934  -0.0375783  0.384097  0.38071  -0.285322  0  0  0  1.5  1.5  -0.709401  -0.00338579  -0.0137964  -0.00169205  -0.0573946  -0.0463687  0.01547  0.0291641  -0.0237941  -0.0107159  -0.41219  0.35948  -0.0189273 
1701778893.032110000  0  0  11.0232  0.0898119  -0.0957183  0.0108576  nan  nan  nan  nan  nan  nan  -1.94366  -0.944748  1.4497  -0.232314  0.211139  -0.0374565  0.391597  0.38821  -0.288865  0  0  0  1.5  1.5  -0.707526  -0.00376525  -0.0142049  -0.00161784  -0.0581339  -0.0472009  0.0109459  0.0271569  -0.0219093  -0.0110127  -0.429467  0.393002  -0.0255934 
1701778893.037444000  0  0  10.9676  0.0822369  -0.0858882  0.011824  nan  nan  nan  nan  nan  nan  -1.94168  -0.942788  1.44825  -0.231738  0.211084  -0.0370967  0.399097  0.39571  -0.292396  0  0  0  1.5  1.5  -0.704901  -0.0039704  -0.0144395  -0.00155868  -0.0561856  -0.0446885  0.0154469  0.0248763  -0.0202218  -0.0115543  -0.393336  0.357817  -0.032257 
1701778893.042110000  0  0  10.9798  0.0961498  -0.0817204  0.0124146  nan  nan  nan  nan  nan  nan  -1.93967  -0.940791  1.44678  -0.231844  0.211204  -0.036928  0.406597  0.40321  -0.295912  0  0  0  1.5  1.5  -0.701526  -0.00436088  -0.0147832  -0.00139972  -0.0556807  -0.0443715  0.0145777  0.0230752  -0.0188932  -0.0119373  -0.404591  0.337258  -0.0358092 
1701778893.047077000  0  0  11.0305  0.106143  -0.0855059  0.0129053  nan  nan  nan  nan  nan  nan  -1.93761  -0.938756  1.44529  -0.232311  0.211234  -0.0368185  0.414097  0.41071  -0.29941  0  0  0  1.5  1.5  -0.697401  -0.00475086  -0.0152146  -0.00130465  -0.055994  -0.0452352  0.0109079  0.0215291  -0.0174646  -0.012237  -0.410352  0.331686  -0.0389463 
1701778893.052070000  0  0  11.0014  0.0839883  -0.0825653  0.0132755  nan  nan  nan  nan  nan  nan  -1.93553  -0.936684  1.44379  -0.231124  0.211403  -0.0363757  0.421597  0.41821  -0.302885  0  0  0  1.5  1.5  -0.692526  -0.00501837  -0.0154261  -0.00122314  -0.0547882  -0.0427188  0.0133689  0.0192403  -0.0161112  -0.0128561  -0.344987  0.313353  -0.0373828 
1701778893.057121000  0  0  10.976  0.0920369  -0.0651562  0.0124328  nan  nan  nan  nan  nan  nan  -1.9334  -0.934574  1.44226  -0.231627  0.211476  -0.0362844  0.429097  0.42571  -0.306334  0  0  0  1.5  1.5  -0.686901  -0.00536562  -0.0158132  -0.00107177  -0.0534594  -0.0418416  0.0157635  0.01804  -0.0153075  -0.0129719  -0.350042  0.271141  -0.0256914 
1701778893.062558000  0  0  11.0541  0.0932942  -0.0596288  0.011528  nan  nan  nan  nan  nan  nan  -1.93123  -0.932426  1.44072  -0.230781  0.210352  -0.035621  0.436597  0.43321  -0.309753  0  0  0  1.5  1.5  -0.680526  -0.00559248  -0.0160657  -0.00111495  -0.0533003  -0.0423953  0.00995282  0.015706  -0.0132255  -0.0132664  -0.331084  0.240932  -0.0114358 
1701778893.067120000  0  0  11.0323  0.0681834  -0.0597293  0.010382  nan  nan  nan  nan  nan  nan  -1.92903  -0.930242  1.43917  -0.23077  0.211728  -0.0357156  0.444097  0.44071  -0.313138  0  0  0  1.5  1.5  -0.673401  -0.00602989  -0.016438  -0.000912058  -0.0534446  -0.0409348  0.0122148  0.0149311  -0.0134539  -0.0133387  -0.273733  0.243234  0.00361121 
1701778893.072120000  0  0  11.0071  0.0681653  -0.0355302  0.00979709  nan  nan  nan  nan  nan  nan  -1.92679  -0.928019  1.43759  -0.231734  0.211759  -0.0357183  0.451597  0.44821  -0.316486  0  0  0  1.5  1.5  -0.665526  -0.00641701  -0.0168695  -0.000756906  -0.0520094  -0.0405016  0.0148629  0.0146518  -0.0130874  -0.0132159  -0.271127  0.191465  0.00969513 
1701778893.077106000  0  0  11.0532  0.069865  -0.0370038  0.0102726  nan  nan  nan  nan  nan  nan  -1.92452  -0.92576  1.436  -0.230464  0.210757  -0.0349905  0.459097  0.45571  -0.319792  0  0  0  1.5  1.5  -0.656901  -0.00667699  -0.0170807  -0.000711275  -0.0511582  -0.0398661  0.0115467  0.0123708  -0.0112249  -0.0136566  -0.253541  0.177277  0.00815841 
1701778893.082120000  0  0  11.0708  0.044952  -0.0514128  0.0103628  nan  nan  nan  nan  nan  nan  -1.9222  -0.923462  1.43439  -0.230383  0.211401  -0.0349033  0.466597  0.46321  -0.323053  0  0  0  1.5  1.5  -0.647526  -0.00706536  -0.017492  -0.000583153  -0.0514387  -0.0392827  0.0109008  0.011819  -0.0107998  -0.0137961  -0.198639  0.202184  0.00842631 
1701778893.087117000  0  0  11.0176  0.048393  -0.0256062  0.011038  nan  nan  nan  nan  nan  nan  -1.91985  -0.921127  1.43277  -0.230024  0.210389  -0.0343772  0.474097  0.47071  -0.326266  0  0  0  1.5  1.5  -0.637401  -0.00730163  -0.0176813  -0.000484779  -0.0483383  -0.0372969  0.0156572  0.0106047  -0.00944826  -0.0140912  -0.194349  0.138136  0.00293688 
1701778893.092111000  0  0  11.0856  0.0318871  -0.0311538  0.0115636  nan  nan  nan  nan  nan  nan  -1.91746  -0.918755  1.43113  -0.229917  0.210524  -0.0341695  0.481597  0.47821  -0.329426  0  0  0  1.5  1.5  -0.626526  -0.00771375  -0.0181261  -0.000379472  -0.0491164  -0.0378924  0.0111127  0.0101281  -0.00905306  -0.0143182  -0.156953  0.145596  -0.00136242 
1701778893.097115000  0  0  11.129  0.0232437  -0.0588291  0.0115571  nan  nan  nan  nan  nan  nan  -1.91503  -0.916345  1.42948  -0.229186  0.210644  -0.0338226  0.489097  0.48571  -0.33253  0  0  0  1.5  1.5  -0.614901  -0.00804946  -0.0184958  -0.000277337  -0.0494454  -0.0373371  0.00846652  0.00910006  -0.00795938  -0.0146246  -0.130208  0.190884  0.00178224 
1701778893.102116000  0  0  11.0661  0.0241098  -0.0289456  0.0116605  nan  nan  nan  nan  nan  nan  -1.91257  -0.913898  1.42781  -0.228981  0.209509  -0.0333068  0.496597  0.49321  -0.335574  0  0  0  1.5  1.5  -0.602526  -0.0082678  -0.0186728  -0.000174462  -0.0460144  -0.035332  0.0142047  0.00836923  -0.00660414  -0.0148407  -0.125217  0.118649  0.00265078 
1701778893.107112000  0  0  11.1368  -8.17911e-05  -0.0263709  0.0121458  nan  nan  nan  nan  nan  nan  -1.91007  -0.911413  1.42612  -0.228604  0.209131  -0.0329275  0.504097  0.50071  -0.338554  0  0  0  1.5  1.5  -0.589401  -0.0086601  -0.019093  -6.32162e-05  -0.0462489  -0.0357846  0.00948999  0.00816814  -0.00599748  -0.0151162  -0.0749833  0.107919  -0.000661399 
1701778893.112596000  0  0  11.1807  0.0175315  -0.0709506  0.0121916  nan  nan  nan  nan  nan  nan  -1.90753  -0.908891  1.42442  -0.226622  0.207973  -0.0320246  0.511597  0.50821  -0.341467  0  0  0  1.5  1.5  -0.575526  -0.00878463  -0.0192324  -0.000145454  -0.0454085  -0.0344171  0.00691899  0.00587234  -0.0034321  -0.0156363  -0.0890885  0.173476  0.00396782 
1701778893.117113000  0  0  11.1178  0.0174225  -0.0514047  0.0124531  nan  nan  nan  nan  nan  nan  -1.90495  -0.906331  1.42271  -0.227022  0.208117  -0.0319358  0.519097  0.51571  -0.344308  0  0  0  1.5  1.5  -0.560901  -0.00922426  -0.0196221  0.000108297  -0.0431135  -0.0325252  0.0129156  0.00586113  -0.00321826  -0.0157576  -0.0887675  0.132417  0.00191236 
1701778893.122111000  0  0  11.1776  0.00438728  -0.0352138  0.0123922  nan  nan  nan  nan  nan  nan  -1.90234  -0.903734  1.42098  -0.22681  0.207593  -0.031565  0.526597  0.52321  -0.347075  0  0  0  1.5  1.5  -0.545526  -0.00961461  -0.0200483  0.000222202  -0.0429124  -0.0328878  0.00927998  0.00575859  -0.00276162  -0.0159304  -0.0617536  0.0958346  0.0044015 
1701778893.127056000  0  0  11.2465  0.0313237  -0.0793877  0.011577  nan  nan  nan  nan  nan  nan  -1.89969  -0.901099  1.41924  -0.224594  0.206745  -0.0306913  0.534097  0.53071  -0.349762  0  0  0  1.5  1.5  -0.529401  -0.00986309  -0.0202393  0.000251298  -0.0427443  -0.0316891  0.00470239  0.00303592  -0.00045962  -0.0163649  -0.0905779  0.163004  0.0189365 
1701778893.132056000  0  0  11.1793  0.0361157  -0.0745737  0.0116949  nan  nan  nan  nan  nan  nan  -1.897  -0.898427  1.41748  -0.224807  0.206418  -0.0304613  0.541597  0.53821  -0.352367  0  0  0  1.5  1.5  -0.512526  -0.0101778  -0.0205821  0.000420162  -0.0400469  -0.0296396  0.0113144  0.00282289  0.000338279  -0.0164029  -0.0982021  0.146035  0.0178427 
1701778893.137470000  0  0  11.2148  0.0375935  -0.0454143  0.0123135  nan  nan  nan  nan  nan  nan  -1.89427  -0.895717  1.41571  -0.222661  0.204487  -0.0293712  0.549097  0.54571  -0.354886  0  0  0  1.5  1.5  -0.494901  -0.0102575  -0.0206967  0.000392278  -0.0381389  -0.027978  0.00946118  0.00065633  0.00197067  -0.0169434  -0.0812253  0.0726984  0.0155149 
1701778893.142106000  0  0  11.2898  0.0673868  -0.0943605  0.0116001  nan  nan  nan  nan  nan  nan  -1.89151  -0.89297  1.41393  -0.22124  0.203988  -0.0287594  0.556597  0.55321  -0.357315  0  0  0  1.5  1.5  -0.476526  -0.0106402  -0.0210302  0.000524712  -0.0382588  -0.0274627  0.00461395  -0.00152438  0.00388782  -0.0172006  -0.120749  0.152953  0.0270038 
1701778893.147113000  0  0  11.2091  0.054764  -0.0635188  0.0117087  nan  nan  nan  nan  nan  nan  -1.8887  -0.890185  1.41214  -0.221026  0.203377  -0.0283821  0.564097  0.56071  -0.35965  0  0  0  1.5  1.5  -0.457401  -0.0109486  -0.0213499  0.000688146  -0.0349226  -0.0246912  0.012398  -0.0018638  0.00437165  -0.0172433  -0.092381  0.0868185  0.0260738 
1701778893.152061000  0  0  11.2588  0.0647906  -0.0663836  0.0121236  nan  nan  nan  nan  nan  nan  -1.88587  -0.887363  1.41034  -0.218705  0.201926  -0.0273802  0.571597  0.56821  -0.361888  0  0  0  1.5  1.5  -0.437526  -0.0111454  -0.0215016  0.000731487  -0.0336605  -0.0230051  0.00952613  -0.00439979  0.00621579  -0.0177604  -0.0891032  0.0755819  0.0260583 
1701778893.157114000  0  0  11.341  0.0935214  -0.099814  0.011506  nan  nan  nan  nan  nan  nan  -1.88299  -0.884503  1.40852  -0.217582  0.201369  -0.02683  0.579097  0.57571  -0.364024  0  0  0  1.5  1.5  -0.416901  -0.0114634  -0.0218232  0.000782475  -0.0340083  -0.0230045  0.00451557  -0.00630664  0.00772493  -0.0178622  -0.129022  0.128559  0.034797 
