ts fx fy fz tx ty tz exfx exfy exfz extx exty extz xd yd zd rolld pitchd yawd vxd vyd vzd wxd wyd wzd axd ayd azd e_x e_y e_z e_vx e_vy e_vz e_rx e_ry e_rz e_wx e_wy e_wz
1699890643.591065000  0  0  11.3007  0.0283106  -0.0042713  0.00670049  nan  nan  nan  nan  nan  nan  -1  0  1  0.00296342  -0.0190202  -5.63615e-05  0  0  0  0  0  0  0  0  0  0.0164414  -0.00752926  -0.00730157  -0.0126525  0.0204518  0.00222367  -0.0127906  0.0094275  -0.00673466  0.0610526  -0.0781904  -0.0164095 
1699890643.595069000  0  0  11.3276  0.0513969  -0.0140069  0.00564303  nan  nan  nan  nan  nan  nan  -1  0  1  0.00308348  -0.0187914  -5.79397e-05  0  0  0  0  0  0  0  0  0  0.0163929  -0.00745187  -0.00731479  -0.0127757  0.0204398  4.85504e-06  -0.0131352  0.00913236  -0.00666104  0.0180503  -0.0560039  -0.00392747 
1699890643.600047000  0  0  11.3129  0.0676693  -0.0237385  0.00515802  nan  nan  nan  nan  nan  nan  -1  0  1  0.00241942  -0.0186911  -4.52191e-05  0  0  0  0  0  0  0  0  0  0.0164107  -0.00751717  -0.00731119  -0.012972  0.0197453  0.00121798  -0.0128388  0.00896095  -0.00664616  -0.017222  -0.0349639  0.00198638 
1699890643.605044000  0  0  11.263  0.04229  -0.0103944  0.0065348  nan  nan  nan  nan  nan  nan  -1  0  1  0.00364606  -0.0183701  -6.69748e-05  0  0  0  0  0  0  0  0  0  0.0163465  -0.00741118  -0.00727073  -0.0133347  0.0210312  0.00528891  -0.0134589  0.0082007  -0.00680147  0.0392415  -0.0546577  -0.0136702 
1699890643.610041000  0  0  11.3091  0.0610807  -0.0292201  0.00571362  nan  nan  nan  nan  nan  nan  -1  0  1  0.00294088  -0.018724  -5.50621e-05  0  0  0  0  0  0  0  0  0  0.0163549  -0.00744815  -0.00728627  -0.0128146  0.020246  0.00148894  -0.0131332  0.0086887  -0.0067564  -0.00133603  -0.0214959  -0.00385623 
1699890643.615080000  0  0  11.2839  0.0879241  -0.0367302  0.00510334  nan  nan  nan  nan  nan  nan  -1  0  1  0.00343127  -0.01802  -6.18284e-05  0  0  0  0  0  0  0  0  0  0.0162858  -0.00734684  -0.00726225  -0.0135957  0.0206275  0.00351898  -0.0142163  0.00817343  -0.00668378  -0.0450587  -0.00173515  0.00304603 
1699890643.620039000  0  0  11.2349  0.0614361  -0.0268893  0.00594661  nan  nan  nan  nan  nan  nan  -1  0  1  0.00374562  -0.0182173  -6.82315e-05  0  0  0  0  0  0  0  0  0  0.0162705  -0.00734549  -0.00721095  -0.0134139  0.0209981  0.0075029  -0.0141366  0.00808183  -0.00678902  0.00718461  -0.0205743  -0.00644241 
1699890643.625028000  0  0  11.3293  0.0802739  -0.0636079  0.0050812  nan  nan  nan  nan  nan  nan  -1  0  1  0.00327135  -0.0184885  -6.04791e-05  0  0  0  0  0  0  0  0  0  0.0162738  -0.00736457  -0.0072612  -0.0128884  0.0204829  -0.000269087  -0.0141139  0.00900382  -0.00671206  -0.0307  0.0443807  0.0036056 
1699890643.630035000  0  0  11.2954  0.093996  -0.0591808  0.00517426  nan  nan  nan  nan  nan  nan  -1  0  1  0.00384047  -0.0181091  -6.95439e-05  0  0  0  0  0  0  0  0  0  0.0162075  -0.00726231  -0.00722772  -0.0132867  0.0209576  0.00247209  -0.0150971  0.00878691  -0.00669996  -0.049099  0.037522  0.00232136 
1699890643.635077000  0  0  11.2221  0.0564793  -0.0471541  0.00576787  nan  nan  nan  nan  nan  nan  -1  0  1  0.0042926  -0.0182956  -7.85318e-05  0  0  0  0  0  0  0  0  0  0.0162295  -0.00727329  -0.0071793  -0.0132503  0.0215143  0.0084853  -0.015013  0.00885444  -0.0067803  0.0251609  0.0128473  -0.00429534 
1699890643.640062000  0  0  11.3049  0.077627  -0.0686972  0.00508588  nan  nan  nan  nan  nan  nan  -1  0  1  0.00359578  -0.0189404  -6.81018e-05  0  0  0  0  0  0  0  0  0  0.0162566  -0.00728197  -0.00723861  -0.0123322  0.0206979  0.00171014  -0.0147817  0.00993794  -0.00671872  -0.0192619  0.0459654  0.00361371 
1699890643.645021000  0  0  11.2699  0.0890434  -0.0598141  0.00472904  nan  nan  nan  nan  nan  nan  -1  0  1  0.00415544  -0.0185241  -7.69718e-05  0  0  0  0  0  0  0  0  0  0.0161931  -0.00717926  -0.00720332  -0.0127859  0.0211565  0.00454208  -0.0156179  0.00958603  -0.00665253  -0.0344022  0.0314368  0.0074123 
1699890643.650057000  0  0  11.1961  0.0604769  -0.0580333  0.00582442  nan  nan  nan  nan  nan  nan  -1  0  1  0.0044593  -0.0189325  -8.44211e-05  0  0  0  0  0  0  0  0  0  0.0162335  -0.00720423  -0.00715428  -0.0125193  0.0215557  0.0105929  -0.0154738  0.0100511  -0.00678345  0.0214049  0.0235964  -0.00497085 
1699890643.654999000  0  0  11.3062  0.0842584  -0.0729124  0.00569717  nan  nan  nan  nan  nan  nan  -1  0  1  0.00483107  -0.0186322  -9.00089e-05  0  0  0  0  0  0  0  0  0  0.0161741  -0.00710044  -0.00719432  -0.0125326  0.0218468  0.00148196  -0.01623  0.0102198  -0.00678445  -0.0192005  0.0518022  -0.00337009 
1699890643.660052000  0  0  11.2827  0.0812815  -0.0552034  0.00586713  nan  nan  nan  nan  nan  nan  -1  0  1  0.00419218  -0.0193452  -8.10939e-05  0  0  0  0  0  0  0  0  0  0.0162148  -0.00711747  -0.00719252  -0.011778  0.021071  0.00345325  -0.0158272  0.010661  -0.0068484  -0.0169526  0.0123259  -0.00485519 
1699890643.664988000  0  0  11.2154  0.055466  -0.0551631  0.0062129  nan  nan  nan  nan  nan  nan  -1  -0  1  0.00466826  -0.0193212  -9.01916e-05  6e-07  -6e-07  6e-07  0  0  0  0  0  0  0.0162302  -0.00711941  -0.00714047  -0.0119867  0.0216372  0.00895367  -0.0158279  0.0106793  -0.00692282  0.0346847  0.0120765  -0.00843311 
1699890643.670036000  0  0  11.3469  0.0821486  -0.0606783  0.00548813  nan  nan  nan  nan  nan  nan  -1  -0  1  0.00470548  -0.0189464  -8.91472e-05  5e-06  -5e-06  5e-06  0  0  0  0  0  0  0.0161719  -0.00701638  -0.00720099  -0.0120474  0.0215234  -0.00188806  -0.0162656  0.0105698  -0.00686629  -0.0146536  0.0241145  6.127e-05 
1699890643.674982000  0  0  11.3037  0.0734451  -0.0351536  0.0055685  nan  nan  nan  nan  nan  nan  -1  -1e-07  1  0.00425292  -0.0196537  -8.3581e-05  1.69e-05  -1.69e-05  1.69e-05  0  0  0  0  0  0  0.0162143  -0.00704168  -0.00719372  -0.0113443  0.0209886  0.00171172  -0.0157759  0.0107638  -0.00687259  -0.0017523  -0.02872  -0.000880361 
1699890643.679989000  0  0  11.2458  0.0577826  -0.0374692  0.00600736  nan  nan  nan  nan  nan  nan  -1  -2e-07  1  0.00541269  -0.0188055  -0.000101683  4e-05  -4e-05  4e-05  0  0  0  0  0  0  0.0161499  -0.00692922  -0.00713684  -0.0123873  0.0221604  0.00640883  -0.0164183  0.00990723  -0.0069415  0.0354836  -0.0162082  -0.00567698 
1699890643.684987000  0  0  11.3666  0.0676748  -0.0501611  0.00576737  nan  nan  nan  nan  nan  nan  -1  -5e-07  1  0.00435889  -0.0190718  -8.29276e-05  7.81e-05  -7.81e-05  7.81e-05  0  0  0  0  0  0  0.0161883  -0.00697122  -0.00722927  -0.0118841  0.0209956  -0.00345963  -0.015594  0.0103575  -0.00695444  0.00811532  0.00503301  -0.00254771 
1699890643.690043000  0  0  11.2923  0.051467  -0.0135216  0.00544851  nan  nan  nan  nan  nan  nan  -0.999999  -1e-06  1  0.00414355  -0.0195234  -8.04914e-05  0.000135  -0.000135  0.000135  0  0  0  0  0  0  0.0162191  -0.00700746  -0.00719792  -0.0115438  0.0207699  0.00268317  -0.0150667  0.00996795  -0.00691689  0.0356795  -0.0646619  0.0010625 
1699890643.694988000  0  0  11.246  0.0518714  -0.0304092  0.00460769  nan  nan  nan  nan  nan  nan  -0.999998  -1.9e-06  1  0.0050094  -0.0185887  -9.25137e-05  0.0002141  -0.0002144  0.0002134  0  0  0  0  0  0  0.0161551  -0.00690183  -0.00715406  -0.01267  0.0215958  0.00644038  -0.0156713  0.00920691  -0.00679954  0.0404332  -0.0238852  0.0103993 
1699890643.700026000  0  0  11.3196  0.0501036  -0.0170244  0.00478978  nan  nan  nan  nan  nan  nan  -0.999997  -3.2e-06  1  0.00414859  -0.018793  -7.71601e-05  0.0003149  -0.00032  0.0003113  0  0  0  0  0  0  0.0161773  -0.00693112  -0.00721106  -0.0123107  0.0206193  0.00043365  -0.0147631  0.00906882  -0.00676813  0.0356131  -0.0493843  0.00780902 
1699890643.704977000  0  0  11.243  0.0505222  0.0166794  0.00542882  nan  nan  nan  nan  nan  nan  -0.999995  -5.1e-06  1.00001  0.00528639  -0.0184333  -9.64409e-05  0.0004338  -0.0004556  0.0004249  0  0  0  0  0  0  0.0161158  -0.00682264  -0.00715853  -0.0127831  0.0217641  0.00670612  -0.0156299  0.00773974  -0.00680287  0.0427504  -0.104564  0.000168497 
1699890643.710026000  0  0  11.2713  0.0630962  -0.0286682  0.00452625  nan  nan  nan  nan  nan  nan  -0.999992  -7.8e-06  1.00001  0.00489593  -0.0178922  -8.63947e-05  0.0005669  -0.000625  0.0005504  0  0  0  0  0  0  0.0161263  -0.00686485  -0.00718176  -0.0134263  0.0213857  0.00439098  -0.0153938  0.00777649  -0.00670325  0.0154309  -0.0142073  0.0104543 
1699890643.714990000  0  0  11.3261  0.0522946  -0.0164782  0.00551685  nan  nan  nan  nan  nan  nan  -0.999989  -1.14e-05  1.00001  0.00427149  -0.0178927  -7.50249e-05  0.0007105  -0.0008319  0.0006841  0  0  0  0  0  0  0.0161428  -0.00689667  -0.00722882  -0.0133536  0.0207004  -7.1559e-05  -0.0145841  0.00742974  -0.00682518  0.0295846  -0.0353972  -0.000708809 
1699890643.720025000  0  0  11.2461  0.0567434  0.0078908  0.00611482  nan  nan  nan  nan  nan  nan  -0.999985  -1.62e-05  1.00001  0.00541824  -0.0176549  -9.40542e-05  0.000861  -0.00108  0.0008222  0  0  0  0  0  0  0.0160781  -0.006787  -0.00715551  -0.0136658  0.0218515  0.00643892  -0.015558  0.00642281  -0.00690009  0.0296469  -0.0748714  -0.00743436 
1699890643.724975000  0  0  11.2803  0.0728086  -0.0261624  0.00530677  nan  nan  nan  nan  nan  nan  -0.999981  -2.23e-05  1.00002  0.00523444  -0.0170291  -8.74345e-05  0.0010145  -0.0013731  0.000961  0  0  0  0  0  0  0.016077  -0.00681473  -0.00718595  -0.0143806  0.0217035  0.00364393  -0.0156237  0.00619973  -0.0068659  -0.0018795  -0.00471268  0.00232434 
1699890643.729975000  0  0  11.3141  0.0678408  -0.0126306  0.00583652  nan  nan  nan  nan  nan  nan  -0.999975  -3e-05  1.00002  0.00603297  -0.0164337  -9.73407e-05  0.0011672  -0.001715  0.0010968  0  0  0  0  0  0  0.0160054  -0.00670562  -0.00718948  -0.0149059  0.0224846  0.000822472  -0.0162478  0.005374  -0.00692512  0.013798  -0.0241797  -0.00370522 
1699890643.734987000  0  0  11.2144  0.0693532  -0.000315428  0.0068665  nan  nan  nan  nan  nan  nan  -0.999969  -3.96e-05  1.00003  0.00612861  -0.0169725  -0.000102314  0.0013155  -0.0021094  0.0012257  0  0  0  0  0  0  0.0160186  -0.00674295  -0.00714794  -0.0144458  0.0226198  0.009051  -0.0163341  0.00544294  -0.00708997  0.011567  -0.0494442  -0.0149315 
1699890643.740395000  0  0  11.2925  0.084994  -0.039691  0.00562407  nan  nan  nan  nan  nan  nan  -0.999962  -5.12e-05  1.00004  0.00577091  -0.0165583  -9.41533e-05  0.0014556  -0.0025587  0.0013441  0  0  0  0  0  0  0.0160163  -0.00677553  -0.00719299  -0.0148133  0.0222967  0.00263072  -0.0163397  0.00570907  -0.00699537  -0.0196625  0.0268585  -0.000347144 
1699890643.745133000  0  0  11.3024  0.0683227  -0.0107043  0.00641665  nan  nan  nan  nan  nan  nan  -0.999954  -6.52e-05  1.00004  0.00653384  -0.016177  -0.000104795  0.0015837  -0.0030604  0.0014482  0  0  0  0  0  0  0.0159466  -0.00666986  -0.00717919  -0.015119  0.0230263  0.0017717  -0.0167332  0.00483379  -0.00710008  0.0173  -0.0230622  -0.00920728 
1699890643.750055000  0  0  11.2662  0.0812976  -0.0370422  0.00608677  nan  nan  nan  nan  nan  nan  -0.999946  -8.19e-05  1.00005  0.00683542  -0.0163457  -0.000111726  0.0016961  -0.0036108  0.0015342  0  0  0  0  0  0  0.0159498  -0.00669273  -0.0071825  -0.0149797  0.0234283  0.00479133  -0.017189  0.00545518  -0.00708636  -0.00445654  0.0238967  -0.00522097 
1699890643.754994000  0  0  11.3346  0.0998961  -0.0682997  0.00537306  nan  nan  nan  nan  nan  nan  -0.999938  -0.0001014  1.00006  0.00779832  -0.0157881  -0.000124418  0.001789  -0.0042061  0.0015988  0  0  0  0  0  0  0.015876  -0.00657609  -0.00721561  -0.015393  0.024434  -0.000872012  -0.0184967  0.00579106  -0.00699904  -0.029623  0.0833218  0.00282717 
1699890643.760030000  0  0  11.3533  0.0724898  -0.0411952  0.00614993  nan  nan  nan  nan  nan  nan  -0.999928  -0.000124  1.00007  0.0076132  -0.0161876  -0.000126337  0.0018593  -0.0048425  0.0016434  0  0  0  0  0  0  0.0158898  -0.0066031  -0.00725372  -0.0148869  0.0242765  -0.00233302  -0.0178318  0.00589906  -0.00708809  0.0190727  0.0281191  -0.00599327 
1699890643.764981000  0  0  11.2793  0.0784905  -0.0572941  0.0061541  nan  nan  nan  nan  nan  nan  -0.999919  -0.0001499  1.00007  0.00800316  -0.0168785  -0.000140578  0.0019086  -0.0055164  0.0016716  0  0  0  0  0  0  0.015902  -0.00661843  -0.0072198  -0.0141809  0.0247364  0.00376508  -0.0182281  0.00699599  -0.00710668  0.0107174  0.0502251  -0.00585939 
1699890643.770046000  0  0  11.3358  0.0946025  -0.079279  0.00539132  nan  nan  nan  nan  nan  nan  -0.999909  -0.0001792  1.00008  0.00907282  -0.0164577  -0.000158015  0.0019405  -0.0062239  0.0016872  0  0  0  0  0  0  0.0158289  -0.00649272  -0.00725252  -0.0144417  0.0258549  -0.000903326  -0.0195387  0.00738823  -0.00701  -0.00944915  0.0905862  0.00270846 
1699890643.774984000  0  0  11.3597  0.0562446  -0.0555188  0.00574  nan  nan  nan  nan  nan  nan  -0.9999  -0.0002122  1.00009  0.00950736  -0.0166444  -0.000170942  0.0019589  -0.0069612  0.0016939  0  0  0  0  0  0  0.0158367  -0.00647274  -0.00727993  -0.0141797  0.0263827  -0.00282104  -0.0191342  0.00747117  -0.00703415  0.0635454  0.0423028  -0.0014085 
1699890643.780038000  0  0  11.297  0.0820491  -0.0745142  0.00460104  nan  nan  nan  nan  nan  nan  -0.99989  -0.0002489  1.0001  0.0104727  -0.0164877  -0.000190469  0.0019674  -0.0077248  0.0016954  0  0  0  0  0  0  0.0157656  -0.00634111  -0.00723884  -0.0143338  0.0272358  0.00230269  -0.0202193  0.00788756  -0.00688691  0.0219193  0.0764628  0.0113561 
1699890643.785040000  0  0  11.3394  0.0926245  -0.0825489  0.00437036  nan  nan  nan  nan  nan  nan  -0.99988  -0.0002895  1.00011  0.0107373  -0.0167395  -0.000203735  0.0019699  -0.0085107  0.0016955  0  0  0  0  0  0  0.0157772  -0.00633327  -0.00727241  -0.0139639  0.027601  -0.00116893  -0.0206047  0.00870397  -0.0067833  0.00431463  0.0850213  0.0132035 
1699890643.790040000  0  0  11.3403  0.0645434  -0.0629931  0.00589161  nan  nan  nan  nan  nan  nan  -0.99987  -0.000334  1.00012  0.0110439  -0.0172367  -0.000221859  0.0019701  -0.0093153  0.0016955  0  0  0  0  0  0  0.015792  -0.00630753  -0.00728672  -0.0133685  0.0279308  -0.00119642  -0.0202403  0.00913828  -0.00689619  0.0571237  0.0419141  -0.00468325 
1699890643.795063000  0  0  11.2946  0.0900913  -0.0735829  0.00563194  nan  nan  nan  nan  nan  nan  -0.99986  -0.0003826  1.00013  0.0121301  -0.0168771  -0.00024522  0.0019701  -0.0101348  0.0016955  0  0  0  0  0  0  0.0157229  -0.00616714  -0.00725924  -0.0137528  0.0289261  0.00252991  -0.0214967  0.00920799  -0.00687682  0.0175869  0.0624523  -0.00163107 
1699890643.800041000  0  0  11.3149  0.0780879  -0.0648102  0.00661568  nan  nan  nan  nan  nan  nan  -0.99985  -0.0004354  1.00013  0.0120786  -0.0171349  -0.000258065  0.0019701  -0.0109655  0.0016955  0  0  0  0  0  0  0.0157484  -0.00617659  -0.00727077  -0.0134473  0.0289092  0.000873064  -0.0210907  0.00961699  -0.00700122  0.0378588  0.0411441  -0.0126838 
1699890643.805043000  0  0  11.3105  0.0552757  -0.0367922  0.0074993  nan  nan  nan  nan  nan  nan  -0.999841  -0.0004923  1.00014  0.0135957  -0.0167925  -0.00029181  0.0019701  -0.0118035  0.0016955  0  0  0  0  0  0  0.0156817  -0.00602633  -0.00726647  -0.0137369  0.0304759  0.00123939  -0.0217653  0.00884911  -0.00715307  0.0896896  -0.00782735  -0.0222105 
1699890643.810040000  0  0  11.2961  0.0756385  -0.0556034  0.00649735  nan  nan  nan  nan  nan  nan  -0.999831  -0.0005534  1.00015  0.0134608  -0.0173219  -0.000311169  0.0019701  -0.0126452  0.0016955  0  0  0  0  0  0  0.0157229  -0.00602162  -0.00726305  -0.0131904  0.0302739  0.00243088  -0.0217051  0.00974038  -0.00709496  0.0484094  0.0215953  -0.0102673 
1699890643.815068000  0  0  11.3105  0.0677177  -0.0408345  0.00651468  nan  nan  nan  nan  nan  nan  -0.999821  -0.0006188  1.00016  0.0134706  -0.0172239  -0.000326818  0.0019701  -0.0134869  0.0016955  0  0  0  0  0  0  0.0157377  -0.00599934  -0.00725369  -0.0133186  0.0302577  0.00121795  -0.0213804  0.0094909  -0.00711154  0.0612643  -0.00564718  -0.0103181 
1699890643.820039000  0  0  11.3109  0.0518015  -0.0251779  0.00677172  nan  nan  nan  nan  nan  nan  -0.999811  -0.0006883  1.00017  0.015  -0.0168648  -0.000366979  0.0019701  -0.0143246  0.0016955  0  0  0  0  0  0  0.0156719  -0.00584193  -0.0072493  -0.0136219  0.0318304  0.00118095  -0.0220726  0.00877226  -0.00716539  0.099465  -0.030349  -0.0129926 
1699890643.825041000  0  0  11.2974  0.0854455  -0.0393427  0.00526105  nan  nan  nan  nan  nan  nan  -0.999801  -0.000762  1.00018  0.0141955  -0.0174193  -0.00038308  0.0019701  -0.0151548  0.0016955  0  0  0  0  0  0  0.0157092  -0.00585545  -0.00723195  -0.0130339  0.0308272  0.00227289  -0.0216275  0.0094347  -0.00699737  0.0280817  -0.00811385  0.00421058 
1699890643.830372000  0  0  11.2885  0.0707979  -0.0292668  0.00539506  nan  nan  nan  nan  nan  nan  -0.999791  -0.0008398  1.00018  0.0144419  -0.0172714  -0.000410037  0.0019701  -0.0159736  0.0016955  0  0  0  0  0  0  0.0157156  -0.00581675  -0.00720385  -0.0132503  0.0310357  0.0029603  -0.0214324  0.0090348  -0.00697936  0.0555819  -0.0245866  0.00235536 
1699890643.834989000  0  0  11.2817  0.038446  -0.0167546  0.00539307  nan  nan  nan  nan  nan  nan  -0.999781  -0.0009217  1.00019  0.0159216  -0.0170973  -0.000460825  0.0019701  -0.0167773  0.0016955  0  0  0  0  0  0  0.0156558  -0.00566066  -0.00719041  -0.0133474  0.0325321  0.00351443  -0.0217753  0.00847903  -0.00693031  0.12344  -0.044498  0.00188975 
1699890643.840045000  0  0  11.2771  0.0776533  -0.0283939  0.00365761  nan  nan  nan  nan  nan  nan  -0.999772  -0.0010076  1.0002  0.0156082  -0.0173818  -0.000491208  0.0019701  -0.0175622  0.0016955  0  0  0  0  0  0  0.015653  -0.00563392  -0.00717516  -0.012993  0.0320709  0.00387273  -0.0216993  0.00879523  -0.00665049  0.0443274  -0.0241282  0.0207847 
1699890643.844995000  0  0  11.2745  0.0674159  -0.0201607  0.00447736  nan  nan  nan  nan  nan  nan  -0.999762  -0.0010973  1.00021  0.0170751  -0.0163449  -0.000534005  0.0019701  -0.0183245  0.0016955  0  0  0  0  0  0  0.0155806  -0.00546795  -0.00715912  -0.0141346  0.0335355  0.00404447  -0.0226099  0.00757462  -0.0066365  0.0731791  -0.029365  0.0103979 
1699890643.850048000  0  0  11.2669  0.0477989  -0.0190417  0.00533504  nan  nan  nan  nan  nan  nan  -0.999752  -0.0011908  1.00022  0.0167262  -0.0169552  -0.000577409  0.0019701  -0.0190604  0.0016955  0  0  0  0  0  0  0.0156125  -0.00546575  -0.00713285  -0.013455  0.0330776  0.00465063  -0.0214703  0.00792165  -0.00667881  0.101929  -0.0347957  0.000100119 
1699890643.854989000  0  0  11.282  0.0784623  -0.0279017  0.00471387  nan  nan  nan  nan  nan  nan  -0.999742  -0.0012879  1.00023  0.0176366  -0.0167732  -0.000632639  0.0019701  -0.0197662  0.0016955  0  0  0  0  0  0  0.0155482  -0.00530086  -0.00712717  -0.0135096  0.03388  0.00337183  -0.0225057  0.00779137  -0.00654393  0.0501276  -0.0158771  0.00651594 
1699890643.860045000  0  0  11.2615  0.057282  -0.0195046  0.00522619  nan  nan  nan  nan  nan  nan  -0.999732  -0.0013884  1.00024  0.0176401  -0.0165854  -0.000676586  0.0019701  -0.0204382  0.0016955  0  0  0  0  0  0  0.0155469  -0.00528589  -0.00709198  -0.0137796  0.0338097  0.00502748  -0.0217862  0.00736033  -0.00655913  0.0858694  -0.0287058  0.000263998 
1699890643.865518000  0  0  11.2845  0.0493918  -0.0199728  0.00580646  nan  nan  nan  nan  nan  nan  -0.999722  -0.0014922  1.00024  0.0175779  -0.0169661  -0.000733945  0.0019701  -0.0210726  0.0016955  0  0  0  0  0  0  0.0155542  -0.005244  -0.00707482  -0.0132749  0.0336819  0.00308651  -0.0210955  0.00753426  -0.0065847  0.0952947  -0.0293697  -0.00673372 
1699890643.869995000  0  0  11.2896  0.0711192  -0.0281748  0.00547876  nan  nan  nan  nan  nan  nan  -0.999712  -0.001599  1.00025  0.0182562  -0.0167191  -0.000797347  0.0019701  -0.0216656  0.0016955  0  0  0  0  0  0  0.0154943  -0.00508372  -0.00706479  -0.01344  0.0341859  0.00263353  -0.0218264  0.00738697  -0.0065066  0.0585642  -0.0116106  -0.00341852 
1699890643.874988000  0  0  11.2681  0.0611427  -0.0252477  0.00588138  nan  nan  nan  nan  nan  nan  -0.999703  -0.0017087  1.00026  0.0189544  -0.0165447  -0.000866817  0.0019701  -0.0222136  0.0016955  0  0  0  0  0  0  0.0154978  -0.00500377  -0.00701989  -0.013704  0.0348375  0.00434356  -0.0220063  0.00709659  -0.00653664  0.0801723  -0.0147933  -0.00815079 
1699890643.880044000  0  0  11.2838  0.0672957  -0.0365753  0.00630133  nan  nan  nan  nan  nan  nan  -0.999693  -0.0018211  1.00027  0.0197134  -0.0161575  -0.000937947  0.0019701  -0.0227126  0.0016955  0  0  0  0  0  0  0.015429  -0.00482909  -0.00700982  -0.0140052  0.0354333  0.00301393  -0.0223992  0.00691627  -0.00658913  0.0714809  0.00952092  -0.0128753 
1699890643.884983000  0  0  11.2719  0.0905574  -0.0409174  0.00616405  nan  nan  nan  nan  nan  nan  -0.999683  -0.0019358  1.00028  0.0190775  -0.0166413  -0.0010083  0.0019701  -0.0231591  0.0016955  0  0  0  0  0  0  0.0154289  -0.00477613  -0.00697544  -0.0134193  0.034491  0.00393041  -0.0220371  0.00747838  -0.00656552  0.0216266  0.0130336  -0.0113955 
1699890643.889995000  0  0  11.2468  0.0637043  -0.0378442  0.00652989  nan  nan  nan  nan  nan  nan  -0.999673  -0.0020526  1.00029  0.0197876  -0.0164231  -0.0010924  0.0019701  -0.0235507  0.0016955  0  0  0  0  0  0  0.0154205  -0.00470997  -0.00693104  -0.0137173  0.0351766  0.00594848  -0.0219963  0.0072489  -0.00659943  0.0749574  0.00899852  -0.0156293 
1699890643.894988000  0  0  11.2739  0.0688671  -0.0487752  0.00615338  nan  nan  nan  nan  nan  nan  -0.999663  -0.0021712  1.0003  0.0201185  -0.0160179  -0.00117169  0.0019701  -0.0238899  0.0016955  0  0  0  0  0  0  0.0153521  -0.00453846  -0.00692573  -0.0140208  0.0352686  0.00367298  -0.0220443  0.00716669  -0.00655256  0.0650734  0.0316169  -0.0113917 
1699890643.900045000  0  0  11.2659  0.0805918  -0.0487047  0.00557898  nan  nan  nan  nan  nan  nan  -0.999653  -0.0022914  1.0003  0.0194779  -0.0165158  -0.00125872  0.0019701  -0.0241806  0.0016955  0  0  0  0  0  0  0.015361  -0.00449744  -0.00688371  -0.0134304  0.0343548  0.00426018  -0.0214456  0.00777407  -0.00644758  0.0361161  0.0258879  -0.00526151 
1699890643.905424000  0  0  11.2091  0.0546195  -0.049076  0.0050471  nan  nan  nan  nan  nan  nan  -0.999643  -0.0024129  1.00031  0.0195023  -0.016675  -0.00135553  0.0019701  -0.0244265  0.0016955  0  0  0  0  0  0  0.0153691  -0.00445004  -0.00681331  -0.0133524  0.0341546  0.00885804  -0.0207106  0.00802529  -0.00631078  0.0812989  0.0243193  1.90662e-05 
1699890643.909997000  0  0  11.2493  0.0640898  -0.0550574  0.0045316  nan  nan  nan  nan  nan  nan  -0.999634  -0.0025356  1.00032  0.0198569  -0.0162932  -0.00145286  0.0019701  -0.0246313  0.0016955  0  0  0  0  0  0  0.0153081  -0.00428524  -0.0068154  -0.0136165  0.0343174  0.00551225  -0.02091  0.00792535  -0.00615476  0.0641928  0.0372015  0.0049026 
1699890643.914990000  0  0  11.2489  0.08071  -0.0433585  0.00429128  nan  nan  nan  nan  nan  nan  -0.999624  -0.0026592  1.00033  0.0200843  -0.0161058  -0.0015577  0.0019701  -0.0247989  0.0016955  0  0  0  0  0  0  0.0152416  -0.00411688  -0.00679048  -0.0137006  0.0342247  0.00549332  -0.0212039  0.00767793  -0.00600149  0.0336559  0.01608  0.00637388 
1699890643.920045000  0  0  11.1961  0.0551144  -0.0528757  0.00455815  nan  nan  nan  nan  nan  nan  -0.999614  -0.0027835  1.00034  0.0192679  -0.0167876  -0.00166849  0.0019701  -0.0249328  0.0016955  0  0  0  0  0  0  0.0153195  -0.00415611  -0.0067291  -0.0131194  0.0331744  0.00977965  -0.0196299  0.00852762  -0.00592008  0.070366  0.0272972  0.00222398 
1699890643.924996000  0  0  11.2612  0.0536913  -0.0685197  0.00474812  nan  nan  nan  nan  nan  nan  -0.999604  -0.0029085  1.00035  0.0183217  -0.0170075  -0.00177353  0.0019701  -0.025037  0.0016955  0  0  0  0  0  0  0.0153586  -0.00413263  -0.00673718  -0.0128091  0.0320744  0.0043778  -0.0184045  0.00915234  -0.00584634  0.0619392  0.0528379  -0.000888111 
1699890643.930420000  0  0  11.2666  0.0540975  -0.0518476  0.00479219  nan  nan  nan  nan  nan  nan  -0.999594  -0.0030339  1.00035  0.0174991  -0.0176533  -0.00189373  0.0019701  -0.0251151  0.0016955  0  0  0  0  0  0  0.0153735  -0.00408562  -0.00669577  -0.0120229  0.0309467  0.00385155  -0.0173943  0.00957747  -0.00574359  0.0518323  0.0155824  -0.00246646 
1699890643.934990000  0  0  11.2161  0.0434501  -0.0552037  0.00465961  nan  nan  nan  nan  nan  nan  -0.999584  -0.0031596  1.00036  0.0185419  -0.0172682  -0.00203411  0.0019701  -0.0251709  0.0016955  0  0  0  0  0  0  0.0153153  -0.00392646  -0.00664065  -0.012467  0.0317926  0.00794745  -0.0178763  0.00935642  -0.0056156  0.0775621  0.0243284  -0.00208911 
1699890643.940045000  0  0  11.2748  0.0419775  -0.0674991  0.00455382  nan  nan  nan  nan  nan  nan  -0.999575  -0.0032855  1.00037  0.0171735  -0.0176273  -0.00215184  0.0019701  -0.0252082  0.0016955  0  0  0  0  0  0  0.0153676  -0.00393362  -0.00665046  -0.0120217  0.0302109  0.00308278  -0.0162434  0.0100681  -0.00549826  0.0654841  0.0423715  -0.00194022 
1699890643.944996000  0  0  11.2713  0.0441405  -0.0434588  0.00508176  nan  nan  nan  nan  nan  nan  -0.999565  -0.0034116  1.00038  0.0172681  -0.0174674  -0.00229214  0.0019701  -0.0252306  0.0016955  0  0  0  0  0  0  0.0153095  -0.00378557  -0.00662881  -0.0120967  0.0299907  0.00333713  -0.0160868  0.009594  -0.0054529  0.0597175  -0.00134718  -0.00899305 
1699890643.950046000  0  0  11.2173  0.0319452  -0.0510294  0.00590208  nan  nan  nan  nan  nan  nan  -0.999555  -0.0035378  1.00039  0.0165672  -0.0179269  -0.00243521  0.0019701  -0.025242  0.0016955  0  0  0  0  0  0  0.0153589  -0.00381165  -0.00656022  -0.0117377  0.0290671  0.00769978  -0.0148441  0.0101502  -0.00545982  0.0726751  0.00867692  -0.0191778 
1699890643.954989000  0  0  11.2803  0.0416803  -0.0566072  0.00617499  nan  nan  nan  nan  nan  nan  -0.999545  -0.003664  1.0004  0.016679  -0.0173629  -0.00258171  0.0019701  -0.0252461  0.0016955  0  0  0  0  0  0  0.0152988  -0.00366821  -0.00657539  -0.0121821  0.0290025  0.00247997  -0.0148391  0.00982135  -0.00544452  0.0531588  0.0228579  -0.0227422 
1699890643.960045000  0  0  11.2644  0.0360942  -0.0311495  0.00642023  nan  nan  nan  nan  nan  nan  -0.999535  -0.0037903  1.00041  0.0156871  -0.017973  -0.00273425  0.0019701  -0.0252466  0.0016955  0  0  0  0  0  0  0.0153396  -0.00368109  -0.00654179  -0.0115403  0.0277546  0.00374521  -0.0135563  0.0098427  -0.00541473  0.0525292  -0.0282538  -0.0261056 
1699890643.964991000  0  0  11.2021  0.0288037  -0.0404562  0.00590758  nan  nan  nan  nan  nan  nan  -0.999525  -0.0039165  1.00041  0.0146671  -0.0182372  -0.00288619  0.0019701  -0.0252462  0.0016955  0  0  0  0  0  0  0.0153905  -0.00372442  -0.0064639  -0.0114499  0.0264684  0.00877363  -0.0122206  0.0101  -0.00530313  0.0548217  -0.0120075  -0.0208134 
1699890643.970045000  0  0  11.2572  0.0345041  -0.0430698  0.00534752  nan  nan  nan  nan  nan  nan  -0.999515  -0.0040427  1.00042  0.0149392  -0.017548  -0.00305356  0.0019701  -0.0252424  0.0016955  0  0  0  0  0  0  0.0153302  -0.00359153  -0.00647242  -0.0120621  0.0266015  0.00420175  -0.0123553  0.00951231  -0.0051571  0.0446606  -0.00137362  -0.0152729 
1699890643.974989000  0  0  11.2449  0.0336205  -0.0159924  0.00514449  nan  nan  nan  nan  nan  nan  -0.999506  -0.0041689  1.00043  0.0139496  -0.0180582  -0.00322221  0.0019701  -0.0252316  0.0016955  0  0  0  0  0  0  0.0153677  -0.00360452  -0.00643518  -0.0115328  0.0253677  0.00515292  -0.0112264  0.00933136  -0.00501736  0.0360415  -0.0538636  -0.0141325 
1699890643.980049000  0  0  11.1826  0.0447829  -0.0252081  0.00470507  nan  nan  nan  nan  nan  nan  -0.999496  -0.004295  1.00044  0.0144289  -0.0174348  -0.00340707  0.0019701  -0.02521  0.0016955  0  0  0  0  0  0  0.0153055  -0.00347607  -0.00636609  -0.0122893  0.02558  0.0101987  -0.0117302  0.0087167  -0.00485657  0.0183516  -0.0297773  -0.0102477 
1699890643.984997000  0  0  11.2441  0.0406366  -0.0296407  0.00430926  nan  nan  nan  nan  nan  nan  -0.999486  -0.004421  1.00045  0.0138449  -0.0171293  -0.00358406  0.0019701  -0.0251737  0.0016955  0  0  0  0  0  0  0.0153082  -0.00346202  -0.00636914  -0.0125571  0.0249146  0.00508007  -0.0109662  0.00840687  -0.0046472  0.0196154  -0.0180618  -0.00739378 
1699890643.990047000  0  0  11.2213  0.0438919  -0.00813472  0.00357455  nan  nan  nan  nan  nan  nan  -0.999476  -0.0045467  1.00046  0.0130561  -0.0175164  -0.0037733  0.0019701  -0.0251192  0.0016955  0  0  0  0  0  0  0.0153212  -0.00346401  -0.00631887  -0.0121475  0.0238947  0.00687957  -0.010165  0.00814548  -0.00436498  0.00573455  -0.058669  -0.00103212 
1699890643.994990000  0  0  11.1536  0.0607185  -0.00971737  0.00289667  nan  nan  nan  nan  nan  nan  -0.999466  -0.0046722  1.00046  0.0133795  -0.0168905  -0.00397449  0.0019701  -0.0250426  0.0016955  0  0  0  0  0  0  0.0152573  -0.00334463  -0.00622979  -0.0129083  0.0239311  0.0123304  -0.0107918  0.00735183  -0.00409362  -0.0221523  -0.0482021  0.00472782 
1699890644.000045000  0  0  11.2145  0.0588511  -0.0156617  0.00316365  nan  nan  nan  nan  nan  nan  -0.999456  -0.0047971  1.00047  0.0127944  -0.0165634  -0.00417052  0.0019701  -0.0249402  0.0016955  0  0  0  0  0  0  0.0152477  -0.00333816  -0.00623008  -0.0131796  0.0232753  0.00724883  -0.010289  0.00699782  -0.00389441  -0.0230437  -0.0330565  -0.000601551 
1699890644.004996000  0  0  11.1931  0.0657621  0.00417717  0.00372209  nan  nan  nan  nan  nan  nan  -0.999446  -0.0049215  1.00048  0.0130354  -0.0164147  -0.00438897  0.0019701  -0.0248082  0.0016955  0  0  0  0  0  0  0.0151854  -0.00322231  -0.00617966  -0.0132609  0.0232835  0.00893008  -0.0107532  0.00627211  -0.00377719  -0.0325944  -0.0660578  -0.0087542 
1699890644.010045000  0  0  11.1402  0.0775698  -0.0132929  0.0042752  nan  nan  nan  nan  nan  nan  -0.999437  -0.0050451  1.00049  0.0125677  -0.0163426  -0.00460309  0.0019701  -0.0246429  0.0016955  0  0  0  0  0  0  0.0151857  -0.00321263  -0.00611567  -0.0134465  0.022603  0.0131958  -0.0107235  0.00624978  -0.00367646  -0.0564836  -0.0309123  -0.0166754 
1699890644.014990000  0  0  11.2302  0.0643766  -0.0245233  0.00486149  nan  nan  nan  nan  nan  nan  -0.999427  -0.0051679  1.0005  0.0119601  -0.0161386  -0.00481962  0.0019701  -0.0244405  0.0016955  0  0  0  0  0  0  0.0151751  -0.00320788  -0.00613825  -0.0135139  0.0219559  0.00574229  -0.010096  0.00619845  -0.00361404  -0.0358697  -0.00797912  -0.0246282 
1699890644.020042000  0  0  11.1818  0.0762412  -0.0166497  0.00480677  nan  nan  nan  nan  nan  nan  -0.999417  -0.0052895  1.00051  0.0120721  -0.0160703  -0.0050558  0.0019701  -0.0241973  0.0016955  0  0  0  0  0  0  0.0151102  -0.00310057  -0.0060707  -0.0135374  0.0217885  0.0096284  -0.0105966  0.00590191  -0.00351296  -0.0549941  -0.0209981  -0.024955 
1699890644.024995000  0  0  11.1325  0.0875664  -0.0328773  0.00379839  nan  nan  nan  nan  nan  nan  -0.999407  -0.0054098  1.00052  0.0115315  -0.0161901  -0.0052899  0.0019701  -0.0239095  0.0016955  0  0  0  0  0  0  0.0151037  -0.0030821  -0.00600912  -0.0134629  0.0210076  0.0136042  -0.0105519  0.00626827  -0.00324927  -0.0780548  0.00808655  -0.0149872 
1699890644.030048000  0  0  11.243  0.0767602  -0.0450456  0.00370728  nan  nan  nan  nan  nan  nan  -0.999397  -0.0055285  1.00052  0.0116604  -0.0157216  -0.00553422  0.0019701  -0.0235734  0.0016955  0  0  0  0  0  0  0.0150359  -0.00297605  -0.00602601  -0.0136936  0.0210718  0.00442246  -0.0107735  0.00619781  -0.00308009  -0.0544047  0.0330714  -0.01554 
1699890644.034988000  0  0  11.221  0.0773145  -0.0384123  0.00362712  nan  nan  nan  nan  nan  nan  -0.999387  -0.0056454  1.00053  0.0108437  -0.0164563  -0.00578325  0.0019701  -0.0231852  0.0016955  0  0  0  0  0  0  0.0150412  -0.0029631  -0.00599139  -0.0128304  0.0199861  0.00619299  -0.0102485  0.00684558  -0.00289059  -0.0603431  0.0138454  -0.0164331 
1699890644.040046000  0  0  11.1963  0.0873766  -0.0600852  0.0029435  nan  nan  nan  nan  nan  nan  -0.999378  -0.0057603  1.00054  0.0103084  -0.0164333  -0.0060344  0.0019701  -0.0227412  0.0016955  0  0  0  0  0  0  0.0150288  -0.00294754  -0.00593844  -0.012877  0.0192513  0.00812706  -0.0102645  0.00736236  -0.00262206  -0.0803198  0.0524368  -0.0105731 
1699890644.044996000  0  0  11.2843  0.0705299  -0.0731344  0.00343796  nan  nan  nan  nan  nan  nan  -0.999368  -0.0058727  1.00055  0.0104195  -0.0156898  -0.00629488  0.0019701  -0.0222377  0.0016955  0  0  0  0  0  0  0.0149609  -0.00284963  -0.00596365  -0.013493  0.0192733  0.000840219  -0.0103444  0.00723585  -0.00250432  -0.0458909  0.0796991  -0.0179312 
1699890644.050047000  0  0  11.2465  0.0700632  -0.0601906  0.0030261  nan  nan  nan  nan  nan  nan  -0.999358  -0.0059825  1.00056  0.00908785  -0.0166537  -0.00655534  0.0019701  -0.0216708  0.0016955  0  0  0  0  0  0  0.0149867  -0.0028744  -0.00593577  -0.0124194  0.0176079  0.00393388  -0.00933385  0.0081418  -0.00229067  -0.0542551  0.0454767  -0.0149196 
1699890644.054989000  0  0  11.2385  0.0881589  -0.077365  0.00280086  nan  nan  nan  nan  nan  nan  -0.999348  -0.0060893  1.00057  0.00912818  -0.0162009  -0.00683088  0.0019701  -0.0210368  0.0016955  0  0  0  0  0  0  0.0149223  -0.00278472  -0.00590964  -0.012853  0.0174492  0.00453112  -0.0100226  0.00831116  -0.00207551  -0.08411  0.0782674  -0.0142556 
1699890644.060045000  0  0  11.3199  0.0594839  -0.081315  0.0044454  nan  nan  nan  nan  nan  nan  -0.999338  -0.0061928  1.00057  0.00776851  -0.0166915  -0.00709776  0.0019701  -0.0203326  0.0016955  0  0  0  0  0  0  0.014979  -0.00283214  -0.00596683  -0.0122238  0.0159161  -0.00213064  -0.00850802  0.00918421  -0.00214503  -0.040694  0.0781352  -0.0341172 
1699890644.065043000  0  0  11.2658  0.0635264  -0.0602227  0.0046408  nan  nan  nan  nan  nan  nan  -0.999328  -0.0062925  1.00058  0.006323  -0.0176275  -0.00737095  0.0019701  -0.0195595  0.0016955  0  0  0  0  0  0  0.0150024  -0.00287075  -0.00592967  -0.0112154  0.014132  0.0023052  -0.00741752  0.0099298  -0.00206939  -0.0588117  0.0290912  -0.0373161 
1699890644.070039000  0  0  11.2691  0.0653483  -0.0753146  0.00379608  nan  nan  nan  nan  nan  nan  -0.999318  -0.0063883  1.00059  0.00630425  -0.0168335  -0.00766332  0.0019701  -0.0187213  0.0016955  0  0  0  0  0  0  0.0149392  -0.00279714  -0.00592302  -0.0120605  0.0139483  0.00201034  -0.0077184  0.009678  -0.00185747  -0.0596873  0.0615917  -0.0288763 
1699890644.075062000  0  0  11.3304  0.035349  -0.0610479  0.00382098  nan  nan  nan  nan  nan  nan  -0.999309  -0.0064796  1.0006  0.00477292  -0.0172093  -0.00794324  0.0019701  -0.0178216  0.0016955  0  0  0  0  0  0  0.0149698  -0.00285436  -0.00596094  -0.0115536  0.0121799  -0.00301516  -0.00590921  0.0100256  -0.00173088  -0.0163333  0.0298603  -0.0304534 
1699890644.080047000  0  0  11.2749  0.0487359  -0.0466283  0.00341286  nan  nan  nan  nan  nan  nan  -0.999299  -0.0065664  1.00061  0.00424746  -0.0171198  -0.00824401  0.0019701  -0.0168643  0.0016955  0  0  0  0  0  0  0.0149128  -0.00279601  -0.00592962  -0.0116492  0.0113578  0.00154574  -0.0057547  0.00974629  -0.00154436  -0.0445285  0.00359067  -0.0272171 
1699890644.085046000  0  0  11.2753  0.0546885  -0.0654626  0.00319726  nan  nan  nan  nan  nan  nan  -0.999289  -0.0066482  1.00062  0.00293246  -0.0171746  -0.00853806  0.0019701  -0.0158531  0.0016955  0  0  0  0  0  0  0.0149367  -0.00285269  -0.00593235  -0.0116453  0.0098295  0.00151608  -0.00487665  0.0102493  -0.00136017  -0.0645119  0.0366316  -0.0263641 
1699890644.090047000  0  0  11.307  0.0316354  -0.0442887  0.00393257  nan  nan  nan  nan  nan  nan  -0.999279  -0.0067248  1.00063  0.00236201  -0.0166275  -0.00884967  0.0019701  -0.0147918  0.0016955  0  0  0  0  0  0  0.0148759  -0.00280549  -0.00595269  -0.0121425  0.00901707  -0.00108508  -0.00413803  0.00950291  -0.00130416  -0.025201  0.0011506  -0.0361155 
1699890644.095062000  0  0  11.2539  0.0308557  -0.0247643  0.00371941  nan  nan  nan  nan  nan  nan  -0.999269  -0.006796  1.00063  0.000553429  -0.0172892  -0.00914887  0.0019701  -0.0136841  0.0016955  0  0  0  0  0  0  0.0149074  -0.00288724  -0.00590883  -0.0115032  0.00691032  0.00326137  -0.00251118  0.00965853  -0.00116024  -0.0386085  -0.0393298  -0.0348903 
1699890644.100560000  0  0  11.2492  0.0368912  -0.0373997  0.00366925  nan  nan  nan  nan  nan  nan  -0.999259  -0.0068616  1.00064  -0.000524818  -0.0171045  -0.00946552  0.0019701  -0.0125337  0.0016955  0  0  0  0  0  0  0.0149319  -0.00297148  -0.0059044  -0.0118101  0.00574494  0.00364054  -0.00183415  0.00960239  -0.0010216  -0.0569083  -0.0135427  -0.0356497 
1699890644.105040000  0  0  11.2597  0.0201767  -0.0118521  0.00449632  nan  nan  nan  nan  nan  nan  -0.999249  -0.0069213  1.00065  -0.00114433  -0.0165468  -0.00979697  0.0019701  -0.0113444  0.0016955  0  0  0  0  0  0  0.0148756  -0.00294144  -0.0059037  -0.0123709  0.0049021  0.00276878  -0.00114648  0.00852858  -0.000974754  -0.0298057  -0.0547588  -0.0464564 
1699890644.110040000  0  0  11.2203  0.0299576  -0.00234897  0.00355394  nan  nan  nan  nan  nan  nan  -0.99924  -0.006975  1.00066  -0.00283278  -0.0170422  -0.0101152  0.0019701  -0.01012  0.0016955  0  0  0  0  0  0  0.0149225  -0.00305084  -0.00587099  -0.0119517  0.00303317  0.00599193  9.32983e-05  0.00847929  -0.000792474  -0.0607735  -0.0733115  -0.0364995 
1699890644.114986000  0  0  11.2464  0.0428336  -0.0201438  0.0028658  nan  nan  nan  nan  nan  nan  -0.99923  -0.0070225  1.00067  -0.00407789  -0.0167387  -0.0104492  0.0019701  -0.0088642  0.0016955  0  0  0  0  0  0  0.0149505  -0.00316776  -0.00587339  -0.0123615  0.00172529  0.00382246  0.000651542  0.0082362  -0.000552775  -0.0916613  -0.0354853  -0.0302947 
1699890644.120039000  0  0  11.2467  0.0291871  0.00769965  0.00261827  nan  nan  nan  nan  nan  nan  -0.99922  -0.0070636  1.00068  -0.0048495  -0.0162514  -0.0107988  0.0019701  -0.0075807  0.0016955  0  0  0  0  0  0  0.014888  -0.00316379  -0.00585696  -0.0128434  0.00075147  0.00376842  0.00124268  0.00702085  -0.000343637  -0.0698069  -0.0799911  -0.0292919 
1699890644.124996000  0  0  11.1919  0.0347792  0.0122796  0.0023324  nan  nan  nan  nan  nan  nan  -0.99921  -0.0070982  1.00069  -0.00691098  -0.0169385  -0.0110149  0.0019701  -0.0062733  0.0016955  0  0  0  0  0  0  0.0149275  -0.0033046  -0.00579408  -0.0122052  -0.00148221  0.0082213  0.00269792  0.00715371  -0.00023147  -0.0943793  -0.0903734  -0.0268403 
1699890644.130055000  0  0  11.2283  0.0547528  -0.0154885  0.00211631  nan  nan  nan  nan  nan  nan  -0.9992  -0.0071263  1.00069  -0.00712818  -0.0160286  -0.0110177  0.0019701  -0.0049458  0.0016954  0  0  0  0  0  0  0.0148604  -0.00330849  -0.00578244  -0.0131259  -0.00176077  0.00515442  0.00195963  0.00658207  -0.000301376  -0.127534  -0.029578  -0.0234401 
1699890644.135072000  0  0  11.2117  0.0389944  -6.29365e-05  0.003769  nan  nan  nan  nan  nan  nan  -0.99919  -0.0071477  1.0007  -0.00845781  -0.0162216  -0.0109948  0.0019701  -0.0036019  0.0016932  0  0  0  0  0  0  0.0148621  -0.00342453  -0.00574219  -0.0129371  -0.00314783  0.00646959  0.00296805  0.00630076  -0.000636969  -0.105295  -0.0578411  -0.0407428 
1699890644.140046000  0  0  11.1983  0.0562969  -0.00936187  0.00390118  nan  nan  nan  nan  nan  nan  -0.999181  -0.0071623  1.00071  -0.00995678  -0.0168061  -0.0109647  0.0019701  -0.0022454  0.0016853  0  0  0  0  0  0  0.0148905  -0.0035535  -0.00571987  -0.0123173  -0.00472078  0.00755614  0.00349057  0.00673262  -0.000875033  -0.144707  -0.0432164  -0.0400145 
1699890644.145003000  0  0  11.2493  0.0819386  -0.0418216  0.00384633  nan  nan  nan  nan  nan  nan  -0.999171  -0.0071701  1.00072  -0.0101236  -0.0159082  -0.010971  0.0019701  -0.0008799  0.001668  0  0  0  0  0  0  0.0148236  -0.00357406  -0.00572563  -0.0131988  -0.00492878  0.00331505  0.00241692  0.0064534  -0.00103803  -0.186113  0.0242719  -0.0376988 
1699890644.150053000  0  0  11.2302  0.0588691  -0.0218115  0.00505292  nan  nan  nan  nan  nan  nan  -0.999161  -0.0071711  1.00073  -0.0116088  -0.0161617  -0.0109444  0.0019701  0.0004907  0.0016374  0  0  0  0  0  0  0.0148241  -0.00373464  -0.00567034  -0.0129374  -0.00640613  0.00480568  0.0033325  0.00639292  -0.00141643  -0.148397  -0.0151918  -0.0489972 
1699890644.154996000  0  0  11.1741  0.0811374  -0.0283556  0.0046474  nan  nan  nan  nan  nan  nan  -0.999151  -0.0071652  1.00074  -0.0120942  -0.0160881  -0.0109374  0.0019701  0.0018626  0.0015898  0  0  0  0  0  0  0.0147622  -0.00376686  -0.00560591  -0.0129975  -0.00686245  0.00934948  0.00263882  0.00636698  -0.00159007  -0.186552  -0.00186508  -0.0421918 
1699890644.160050000  0  0  11.2405  0.101247  -0.0595386  0.00382078  nan  nan  nan  nan  nan  nan  -0.999141  -0.0071525  1.00074  -0.0132859  -0.0159686  -0.0109198  0.0019701  0.0032323  0.0015215  0  0  0  0  0  0  0.0147616  -0.00392808  -0.00559485  -0.013044  -0.00808099  0.00380484  0.00230478  0.00701317  -0.00168362  -0.223699  0.054556  -0.0309236 
1699890644.165471000  0  0  11.1909  0.0719984  -0.0278368  0.00449103  nan  nan  nan  nan  nan  nan  -0.999131  -0.0071329  1.00075  -0.014181  -0.0165088  -0.0108979  0.0019701  0.0045958  0.0014287  0  0  0  0  0  0  0.0147525  -0.00404573  -0.00554624  -0.0124514  -0.00886518  0.00785033  0.00266754  0.00712482  -0.00193544  -0.168538  -0.00987469  -0.0367835 
1699890644.170052000  0  0  11.1845  0.100939  -0.0575942  0.00361859  nan  nan  nan  nan  nan  nan  -0.999121  -0.0071065  1.00076  -0.0144816  -0.0164262  -0.0108941  0.0019701  0.0059495  0.0013081  0  0  0  0  0  0  0.0146957  -0.00408802  -0.00551341  -0.0124436  -0.00913343  0.00831703  0.00164933  0.00761055  -0.00197132  -0.217051  0.0451714  -0.0255192 
1699890644.174995000  0  0  11.2409  0.114899  -0.0815929  0.00295264  nan  nan  nan  nan  nan  nan  -0.999112  -0.0070734  1.00076  -0.0155568  -0.0163808  -0.0108772  0.0019701  0.0072895  0.0011611  0  0  0  0  0  0  0.0146957  -0.00423722  -0.00552144  -0.0124129  -0.0102355  0.00364763  0.00132146  0.00839816  -0.00202324  -0.241955  0.0859227  -0.0166756 
1699890644.180672000  0  0  11.1797  0.0720275  -0.0467813  0.0054813  nan  nan  nan  nan  nan  nan  -0.999102  -0.0070336  1.00077  -0.0169598  -0.0171103  -0.0108418  0.0019701  0.0086123  0.0009912  0  0  0  0  0  0  0.0147146  -0.00440758  -0.00545866  -0.0116779  -0.0115016  0.00864473  0.00229708  0.00880346  -0.00248606  -0.165188  0.0125708  -0.0436556 
1699890644.185010000  0  0  11.1848  0.087079  -0.0582704  0.00491195  nan  nan  nan  nan  nan  nan  -0.999092  -0.0069873  1.00077  -0.0174255  -0.016978  -0.0108361  0.0019701  0.0099139  0.0008024  0  0  0  0  0  0  0.0146628  -0.0044644  -0.00542797  -0.0117236  -0.0119619  0.00815817  0.00175732  0.00897122  -0.00258086  -0.190325  0.0340056  -0.0355908 
1699890644.190014000  0  0  11.2318  0.0932029  -0.0777579  0.00462423  nan  nan  nan  nan  nan  nan  -0.999082  -0.0069346  1.00078  -0.0185567  -0.0169884  -0.0108167  0.0019701  0.0111906  0.0005983  0  0  0  0  0  0  0.0146748  -0.0046387  -0.0054232  -0.0116647  -0.0130779  0.00424248  0.00176328  0.00975887  -0.00271077  -0.202628  0.0657342  -0.0306952 
1699890644.195081000  0  0  11.1812  0.0545406  -0.0390156  0.0066265  nan  nan  nan  nan  nan  nan  -0.999072  -0.0068755  1.00078  -0.0189312  -0.0170332  -0.0108095  0.0019701  0.0124388  0.0003827  0  0  0  0  0  0  0.0146179  -0.00470431  -0.00535949  -0.0115822  -0.0132921  0.00834349  0.00202749  0.00924425  -0.00312369  -0.127734  -0.00701592  -0.0515943 
1699890644.200061000  0  0  11.2078  0.0762962  -0.0756316  0.00577392  nan  nan  nan  nan  nan  nan  -0.999062  -0.0068102  1.00078  -0.0204898  -0.0179591  -0.010764  0.0019701  0.0136546  0.0001593  0  0  0  0  0  0  0.0147118  -0.00496181  -0.00530033  -0.0106087  -0.0147288  0.00603185  0.00227425  0.0108571  -0.00330141  -0.173515  0.0513781  -0.0391599 
1699890644.205063000  0  0  11.2451  0.0734343  -0.0800423  0.00521211  nan  nan  nan  nan  nan  nan  -0.999052  -0.006739  1.00078  -0.0208921  -0.0171288  -0.0107741  0.0019701  0.0148343  -6.81e-05  0  0  0  0  0  0  0.0146523  -0.00503796  -0.00529573  -0.011446  -0.0151368  0.00291359  0.00186317  0.0105051  -0.00339157  -0.16401  0.0634381  -0.0312357 
1699890644.210061000  0  0  11.2001  0.0445689  -0.049196  0.00689793  nan  nan  nan  nan  nan  nan  -0.999043  -0.0066619  1.00078  -0.0224093  -0.0182399  -0.0107232  0.0019701  0.0159741  -0.0002958  0  0  0  0  0  0  0.0147494  -0.00529057  -0.00521151  -0.0103835  -0.0163718  0.00652247  0.00301344  0.0111128  -0.00384843  -0.116862  -0.00384586  -0.0477399 
1699890644.215003000  0  0  11.247  0.0595081  -0.0690978  0.0059544  nan  nan  nan  nan  nan  nan  -0.999033  -0.0065793  1.00078  -0.0234994  -0.0185142  -0.0106969  0.0019701  0.0170704  -0.00052  0  0  0  0  0  0  0.0147779  -0.0054823  -0.00519487  -0.0100247  -0.0174286  0.0026068  0.00309137  0.0117184  -0.00398105  -0.147457  0.0303861  -0.0346195 
1699890644.220060000  0  0  11.2502  0.0549479  -0.0660696  0.00566931  nan  nan  nan  nan  nan  nan  -0.999023  -0.0064913  1.00077  -0.023603  -0.0177182  -0.0107137  0.0019701  0.0181193  -0.000737  0  0  0  0  0  0  0.0147208  -0.00556826  -0.00517191  -0.0108879  -0.0173651  0.00228392  0.00256362  0.0111352  -0.0040789  -0.133481  0.0296955  -0.0300774 
1699890644.225046000  0  0  11.1869  0.0220712  -0.0284354  0.00678996  nan  nan  nan  nan  nan  nan  -0.999013  -0.0063982  1.00077  -0.0247899  -0.0186167  -0.0106704  0.0019701  0.019117  -0.000943  0  0  0  0  0  0  0.0148153  -0.00581187  -0.00510551  -0.0101194  -0.0181425  0.00745553  0.00369898  0.0112455  -0.00442915  -0.078173  -0.0465875  -0.040583 
1699890644.230049000  0  0  11.2405  0.0582364  -0.0468863  0.00533565  nan  nan  nan  nan  nan  nan  -0.999003  -0.0063002  1.00077  -0.0247984  -0.0182381  -0.0106797  0.0019701  0.02006  -0.0011342  0  0  0  0  0  0  0.0147649  -0.00590341  -0.00512122  -0.0103715  -0.0180933  0.00302645  0.00255401  0.0110972  -0.00439593  -0.13997  -0.00832208  -0.0227364 
1699890644.235077000  0  0  11.208  0.0528482  -0.0461595  0.00513967  nan  nan  nan  nan  nan  nan  -0.998993  -0.0061977  1.00076  -0.0260132  -0.0184316  -0.0106525  0.0019701  0.0209443  -0.001307  0  0  0  0  0  0  0.0148198  -0.00615967  -0.00506918  -0.0103333  -0.0189481  0.00565066  0.0030499  0.0112261  -0.00452328  -0.133756  -0.0109614  -0.0190131 
1699890644.240469000  0  0  11.1896  0.0374876  -0.0159551  0.00520179  nan  nan  nan  nan  nan  nan  -0.998984  -0.0060909  1.00075  -0.0268112  -0.018852  -0.0106265  0.0019701  0.0217663  -0.0014575  0  0  0  0  0  0  0.0148672  -0.00639438  -0.00500899  -0.00996356  -0.0193696  0.00708812  0.00344695  0.0108298  -0.00469889  -0.106687  -0.0677245  -0.0180335 
1699890644.244991000  0  0  11.2471  0.0805755  -0.033175  0.00461005  nan  nan  nan  nan  nan  nan  -0.998974  -0.0059802  1.00074  -0.0264842  -0.0183016  -0.0106472  0.0019703  0.0225221  -0.0015821  0  0  0  0  0  0  0.0148198  -0.00649068  -0.00501741  -0.0104233  -0.0189126  0.00230386  0.001764  0.0104367  -0.00467369  -0.17738  -0.0296678  -0.0108888 
1699890644.250048000  0  0  11.1735  0.0572605  -0.0118844  0.00496367  nan  nan  nan  nan  nan  nan  -0.998964  -0.0058658  1.00074  -0.027244  -0.0183185  -0.0106328  0.0019731  0.0232082  -0.0016769  0  0  0  0  0  0  0.0148387  -0.00671404  -0.00493964  -0.010602  -0.0191405  0.00830338  0.00208445  0.00988948  -0.00478661  -0.133698  -0.0672144  -0.0141798 
1699890644.255072000  0  0  11.1762  0.0432289  0.00715866  0.00649596  nan  nan  nan  nan  nan  nan  -0.998954  -0.0057482  1.00073  -0.0266412  -0.0175675  -0.0106639  0.0019823  0.0238206  -0.0017383  0  0  0  0  0  0  0.0147818  -0.00680576  -0.0049059  -0.0113951  -0.0181872  0.00798888  0.00127683  0.00844851  -0.00506493  -0.0982047  -0.0920436  -0.0305503 
1699890644.260045000  0  0  11.2661  0.0837783  -0.0205937  0.00547086  nan  nan  nan  nan  nan  nan  -0.998944  -0.0056277  1.00072  -0.0271067  -0.0178249  -0.0106487  0.0020015  0.0243556  -0.0017624  0  0  0  0  0  0  0.014818  -0.00703125  -0.0049467  -0.010987  -0.0185395  0.000604369  0.000280057  0.00883745  -0.00510251  -0.170133  -0.0401171  -0.0173606 
1699890644.265001000  0  0  11.1673  0.0764781  0.00156636  0.00644608  nan  nan  nan  nan  nan  nan  -0.998934  -0.0055048  1.00071  -0.026495  -0.0172894  -0.0106738  0.0020346  0.0248096  -0.0017455  0  0  0  0  0  0  0.0147604  -0.00711868  -0.00486145  -0.0117082  -0.0172802  0.00863854  -0.000887094  0.00770101  -0.00530042  -0.144795  -0.073982  -0.0275718 
1699890644.270047000  0  0  11.2081  0.0606438  -0.00411324  0.00678535  nan  nan  nan  nan  nan  nan  -0.998924  -0.0053798  1.0007  -0.0267642  -0.0174119  -0.0106659  0.0020853  0.0251787  -0.0016839  0  0  0  0  0  0  0.0148025  -0.00736044  -0.00486793  -0.0115755  -0.0172004  0.00526292  -0.000959034  0.00745128  -0.00555448  -0.112464  -0.0603253  -0.029272 
1699890644.275065000  0  0  11.3069  0.0980725  -0.0278138  0.00594189  nan  nan  nan  nan  nan  nan  -0.998913  -0.0052531  1.00069  -0.0272065  -0.0176153  -0.0106527  0.0021573  0.0254592  -0.0015738  0  0  0  0  0  0  0.014821  -0.00757624  -0.00490935  -0.0111788  -0.0175748  -0.00287365  -0.00195581  0.0078265  -0.00561047  -0.178152  -0.0163763  -0.018169 
1699890644.280046000  0  0  11.1876  0.0795824  -0.00319117  0.00618183  nan  nan  nan  nan  nan  nan  -0.998902  -0.0051253  1.00069  -0.0260766  -0.0170366  -0.0106877  0.0022544  0.0256473  -0.0014115  0  0  0  0  0  0  0.014761  -0.00765391  -0.00482476  -0.0119798  -0.015628  0.00685617  -0.00338513  0.00668973  -0.00569735  -0.128022  -0.0551632  -0.0202994 
1699890644.285047000  0  0  11.2258  0.0726774  -0.0149501  0.00574973  nan  nan  nan  nan  nan  nan  -0.99889  -0.0049968  1.00068  -0.0258546  -0.0171574  -0.0106883  0.0023803  0.0257393  -0.0011932  0  0  0  0  0  0  0.0147941  -0.00786046  -0.00482702  -0.0118286  -0.0150052  0.00367746  -0.00405889  0.00673051  -0.00575522  -0.108013  -0.0320206  -0.0143195 
1699890644.290517000  0  0  11.3179  0.106246  -0.0395392  0.00543492  nan  nan  nan  nan  nan  nan  -0.998878  -0.0048681  1.00067  -0.0259592  -0.0175527  -0.0106763  0.0025388  0.0257315  -0.0009152  0  0  0  0  0  0  0.0148275  -0.00808516  -0.00487067  -0.0112341  -0.0149093  -0.00390934  -0.00535183  0.00745395  -0.00581872  -0.163256  0.010502  -0.00974934 
1699890644.295065000  0  0  11.1803  0.0924405  -0.0225216  0.00733397  nan  nan  nan  nan  nan  nan  -0.998865  -0.0047397  1.00067  -0.0245944  -0.0174059  -0.0107038  0.0027337  0.0256201  -0.0005737  0  0  0  0  0  0  0.0147757  -0.00815448  -0.00478003  -0.0115472  -0.0126594  0.00732734  -0.00696029  0.00698766  -0.00609311  -0.120846  -0.0192432  -0.0307435 
1699890644.300047000  0  0  11.26  0.0964976  -0.0518065  0.00661831  nan  nan  nan  nan  nan  nan  -0.998851  -0.0046121  1.00067  -0.0241988  -0.0172759  -0.0107139  0.0029687  0.0254013  -0.0001649  0  0  0  0  0  0  0.0148102  -0.00836146  -0.00482764  -0.011629  -0.011923  0.000761636  -0.00795664  0.0073058  -0.00616945  -0.119794  0.0363997  -0.0210344 
1699890644.305046000  0  0  11.3123  0.115293  -0.0534385  0.00579316  nan  nan  nan  nan  nan  nan  -0.998835  -0.0044858  1.00067  -0.0232367  -0.0170411  -0.010736  0.0032475  0.0250714  0.0003148  0  0  0  0  0  0  0.0147547  -0.00842333  -0.00485499  -0.011689  -0.010716  -0.00357719  -0.00978274  0.00731282  -0.00613481  -0.140584  0.039599  -0.0110664 
1699890644.310039000  0  0  11.1779  0.0956324  -0.0394253  0.00696729  nan  nan  nan  nan  nan  nan  -0.998818  -0.0043615  1.00067  -0.0221517  -0.0170735  -0.0107538  0.0035738  0.0246267  0.0008692  0  0  0  0  0  0  0.0147653  -0.00858932  -0.00475021  -0.0119081  -0.00865137  0.00736534  -0.0109559  0.0071643  -0.00634918  -0.0904709  0.012939  -0.0235993 
1699890644.314986000  0  0  11.2645  0.0967702  -0.0701298  0.00672246  nan  nan  nan  nan  nan  nan  -0.998799  -0.0042398  1.00068  -0.0215862  -0.0168793  -0.0107676  0.0039516  0.0240634  0.0015022  0  0  0  0  0  0  0.0148098  -0.00879187  -0.00479348  -0.0120804  -0.00770647  0.000216793  -0.011912  0.0076926  -0.00644197  -0.08395  0.0694878  -0.019611 
1699890644.320040000  0  0  11.3054  0.115186  -0.0590773  0.00674406  nan  nan  nan  nan  nan  nan  -0.998779  -0.0041211  1.00069  -0.0205327  -0.0165859  -0.0107914  0.0043844  0.0233777  0.0022173  0  0  0  0  0  0  0.0147541  -0.00883467  -0.00482312  -0.0122348  -0.0063843  -0.00317723  -0.0137105  0.00756049  -0.00652555  -0.104236  0.0485981  -0.0190453 
1699890644.325040000  0  0  11.2259  0.0959244  -0.0491366  0.00711189  nan  nan  nan  nan  nan  nan  -0.998755  -0.0040062  1.0007  -0.0193009  -0.0165072  -0.0108134  0.004876  0.0225659  0.0030185  0  0  0  0  0  0  0.0147772  -0.00899993  -0.00475854  -0.0125119  -0.00429761  0.00327676  -0.0149094  0.00747553  -0.00666745  -0.054682  0.0294984  -0.0222242 
1699890644.330045000  0  0  11.3249  0.109981  -0.0733723  0.00615462  nan  nan  nan  nan  nan  nan  -0.99873  -0.0038957  1.00072  -0.0173022  -0.0153472  -0.0108664  0.0054303  0.0216242  0.0039094  0  0  0  0  0  0  0.0147107  -0.00901789  -0.00482534  -0.0136169  -0.00194328  -0.00492189  -0.0172225  0.0071447  -0.00661487  -0.0615141  0.0810133  -0.010784 
1699890644.335065000  0  0  11.3628  0.112097  -0.0449655  0.00563151  nan  nan  nan  nan  nan  nan  -0.998701  -0.0037902  1.00074  -0.0174004  -0.0156062  -0.0108604  0.0060509  0.020549  0.0048937  0  0  0  0  0  0  0.0147671  -0.00922686  -0.00485072  -0.0133526  -0.00167981  -0.00802094  -0.0174945  0.0070758  -0.00658059  -0.0632434  0.0248336  -0.00458793 
1699890644.340046000  0  0  11.2796  0.103972  -0.0332786  0.00645194  nan  nan  nan  nan  nan  nan  -0.998669  -0.0036904  1.00077  -0.0156403  -0.0153067  -0.0108926  0.0067415  0.0193364  0.0059753  0  0  0  0  0  0  0.0147741  -0.00934172  -0.00479883  -0.0138615  0.000946648  -0.00125485  -0.0191804  0.00658456  -0.00672778  -0.0314848  0.00597919  -0.0133715 
1699890644.345046000  0  0  11.3746  0.118177  -0.0572055  0.0064031  nan  nan  nan  nan  nan  nan  -0.998633  -0.0035971  1.0008  -0.0133159  -0.0139599  -0.0109461  0.0075047  0.0179827  0.0071579  0  0  0  0  0  0  0.0146997  -0.00933159  -0.00487038  -0.0152058  0.00371181  -0.00911732  -0.0217045  0.00590205  -0.00677288  -0.0366724  0.0601121  -0.0123099 
1699890644.350046000  0  0  11.353  0.110664  -0.0137558  0.00725145  nan  nan  nan  nan  nan  nan  -0.998594  -0.0035108  1.00084  -0.0125526  -0.014312  -0.0109523  0.0083378  0.0164841  0.0084452  0  0  0  0  0  0  0.0147286  -0.00947111  -0.00486455  -0.0148481  0.0050119  -0.00735029  -0.0224275  0.00557191  -0.00691559  -0.014995  -0.02375  -0.0214873 
1699890644.355067000  0  0  11.3107  0.111262  -0.00933537  0.00748461  nan  nan  nan  nan  nan  nan  -0.99855  -0.0034325  1.00088  -0.00933414  -0.0128595  -0.011012  0.009237  0.0148369  0.009841  0  0  0  0  0  0  0.0146462  -0.00942969  -0.00485793  -0.016512  0.00904319  -0.00395261  -0.0253742  0.00400981  -0.00703631  0.0109197  -0.0182195  -0.0231946 
1699890644.360045000  0  0  11.4281  0.122556  -0.0386164  0.00701556  nan  nan  nan  nan  nan  nan  -0.998501  -0.0033627  1.00094  -0.00839855  -0.0121421  -0.01103  0.0101986  0.0130374  0.011349  0  0  0  0  0  0  0.0146647  -0.00956481  -0.00496148  -0.0172844  0.0104176  -0.0135632  -0.0264572  0.00399937  -0.00707786  -0.00170579  0.0404386  -0.016916 
1699890644.365471000  0  0  11.4115  0.112985  -0.001258  0.00711785  nan  nan  nan  nan  nan  nan  -0.998448  -0.0033023  1.001  -0.006866  -0.0119678  -0.0110498  0.0112189  0.0110818  0.012973  0  0  0  0  0  0  0.0146454  -0.00962515  -0.0049797  -0.0174628  0.012513  -0.0121824  -0.0276306  0.00323036  -0.00715821  0.0282318  -0.0272033  -0.0173911 
1699890644.370046000  0  0  11.41  0.114377  -0.0110709  0.00658006  nan  nan  nan  nan  nan  nan  -0.998389  -0.0032522  1.00107  -0.00371106  -0.0102559  -0.0110939  0.012294  0.0089663  0.0147168  0  0  0  0  0  0  0.0145515  -0.00955968  -0.00502668  -0.019382  0.0163927  -0.012064  -0.0303527  0.00173569  -0.00716697  0.0504908  0.00617351  -0.0105811 
1699890644.375066000  0  0  11.4936  0.117822  -0.027383  0.0064047  nan  nan  nan  nan  nan  nan  -0.998325  -0.003213  1.00115  -0.00258771  -0.00958499  -0.0111072  0.0134203  0.0066872  0.016584  0  0  0  0  0  0  0.0145635  -0.00968099  -0.00511865  -0.0201544  0.0180712  -0.0188779  -0.0312097  0.00150851  -0.00718342  0.0514847  0.0408876  -0.00822463 
1699890644.380045000  0  0  11.4213  0.102499  0.0182302  0.00705464  nan  nan  nan  nan  nan  nan  -0.998255  -0.0031856  1.00123  0.000407572  -0.00879371  -0.0111356  0.0145941  0.0042408  0.0185784  0  0  0  0  0  0  0.0144657  -0.00958346  -0.00513442  -0.0209754  0.0216897  -0.0128911  -0.0333036  -7.44978e-05  -0.00728897  0.101395  -0.0357749  -0.0152933 
1699890644.385045000  0  0  11.4542  0.108655  -0.0155082  0.00624149  nan  nan  nan  nan  nan  nan  -0.998179  -0.0031708  1.00133  0.00239361  -0.00790781  -0.0111509  0.0158114  0.0016233  0.0207039  0  0  0  0  0  0  0.014448  -0.00965803  -0.00519812  -0.0220031  0.024398  -0.0155482  -0.0347754  -0.000256213  -0.00725538  0.102624  0.0333736  -0.00546486 
1699890644.390045000  0  0  11.5486  0.103687  -0.0305603  0.00620955  nan  nan  nan  nan  nan  nan  -0.998097  -0.0031696  1.00144  0.00398299  -0.00700275  -0.0111599  0.0170687  -0.0011691  0.022964  0  0  0  0  0  0  0.0144223  -0.00970175  -0.00531016  -0.0230017  0.0265729  -0.0232175  -0.0355635  -0.00049991  -0.00726053  0.119811  0.0657198  -0.0050141 
1699890644.395064000  0  0  11.4866  0.0936319  0.00471236  0.00734237  nan  nan  nan  nan  nan  nan  -0.998008  -0.0031828  1.00156  0.00744646  -0.00624497  -0.0111785  0.0183621  -0.0041401  0.0253627  0  0  0  0  0  0  0.0143107  -0.00955881  -0.00535772  -0.02372  0.0306626  -0.0180168  -0.0378913  -0.00170427  -0.00742204  0.161336  0.00625451  -0.0175592 
1699890644.400041000  0  0  11.5448  0.109313  -0.0405135  0.00681127  nan  nan  nan  nan  nan  nan  -0.997913  -0.0032113  1.00169  0.00979533  -0.00537772  -0.0111847  0.0196879  -0.0072916  0.0279036  0  0  0  0  0  0  0.0142698  -0.00956942  -0.00544866  -0.0246672  0.0337621  -0.0227329  -0.0395847  -0.00155163  -0.00743593  0.145554  0.095302  -0.0107816 
1699890644.405052000  0  0  11.6348  0.106205  -0.038821  0.00737702  nan  nan  nan  nan  nan  nan  -0.997811  -0.003256  1.00184  0.012916  -0.0038906  -0.0111823  0.0210424  -0.0106205  0.0305904  0  0  0  0  0  0  0.0141419  -0.0093959  -0.00561442  -0.0262064  0.0375338  -0.0299499  -0.0416616  -0.00248339  -0.00758169  0.170877  0.100489  -0.0163959 
1699890644.410047000  0  0  11.5829  0.090282  -0.0106578  0.00858622  nan  nan  nan  nan  nan  nan  -0.997703  -0.0033178  1.002  0.0153422  -0.00363991  -0.0111878  0.0224217  -0.0141232  0.033427  0  0  0  0  0  0  0.0141226  -0.0093929  -0.00566795  -0.0264745  0.0405819  -0.0255151  -0.0426966  -0.00298153  -0.00781567  0.212245  0.0487457  -0.0291711 
1699890644.415066000  0  0  11.6156  0.111279  -0.0378419  0.00764768  nan  nan  nan  nan  nan  nan  -0.997587  -0.0033976  1.00217  0.0178566  -0.00288387  -0.0111835  0.0238222  -0.0177958  0.0364171  0  0  0  0  0  0  0.0140563  -0.00936895  -0.00573526  -0.0272533  0.0438443  -0.0281343  -0.0443606  -0.00280256  -0.00780511  0.185559  0.101467  -0.017545 
