ts x y z roll pitch yaw vx vy vz wx wy wz ax ay az dwx dwy dwz jx jy jz ddwx ddwy ddwz
1704450110.257433000  -2.5  -0.3  1  0  0  0  2e-07  2e-07  2e-07  0  0  0  0.000125  0.000125  0.000125  0  0  0  0  0  0  0  0  0 
1704450110.262413000  -2.5  -0.3  1  0  0  0  1.7e-06  1.7e-06  1.7e-06  0  0  0  0.0005  0.0005  0.0005  0  0  0  0  0  0  0  0  0 
1704450110.267417000  -2.5  -0.3  1  0  0  0  5.6e-06  5.6e-06  5.6e-06  0  0  0  0.001125  0.001125  0.001125  0  0  0  0  0  0  0  0  0 
1704450110.272411000  -2.5  -0.3  1  0  0  -1e-07  1.33e-05  1.33e-05  1.33e-05  0  0  0  0.002  0.002  0.002  0  0  0  0  0  0  0  0  0 
1704450110.277427000  -2.5  -0.3  1  0  0  -3e-07  2.6e-05  2.6e-05  2.6e-05  0  0  0  0.003125  0.003125  0.003125  0  0  0  0  0  0  0  0  0 
1704450110.282426000  -2.5  -0.3  1  0  0  -5e-07  4.19e-05  4.19e-05  4.19e-05  0  0  0  0.00325  0.00325  0.00325  0  0  0  0  0  0  0  0  0 
1704450110.287420000  -2.5  -0.299999  1  0  0  -9e-07  5.9e-05  5.9e-05  5.9e-05  0  0  0  0.003625  0.003625  0.003625  0  0  0  0  0  0  0  0  0 
1704450110.292414000  -2.5  -0.299999  1  0  0  -1.5e-06  7.85e-05  7.85e-05  7.85e-05  0  0  0  0.00425  0.00425  0.00425  0  0  0  0  0  0  0  0  0 
1704450110.297413000  -2.5  -0.299999  1  0  0  -2.2e-06  0.0001019  0.0001019  0.0001019  0  0  0  0.005125  0.005125  0.005125  0  0  0  0  0  0  0  0  0 
1704450110.302410000  -2.5  -0.299998  1  0  0  -3.1e-06  0.0001302  0.0001302  0.0001302  0  0  0  0.00625  0.00625  0.00625  0  0  0  0  0  0  0  0  0 
1704450110.307410000  -2.5  -0.299997  1  0  0  -4.3e-06  0.0001648  0.0001648  0.0001648  0  0  0  0.007625  0.007625  0.007625  0  0  0  0  0  0  0  0  0 
1704450110.312411000  -2.5  -0.299996  1  0  0  -5.8e-06  0.0002069  0.0002069  0.0002069  0  0  0  0.00925  0.00925  0.00925  0  0  0  0  0  0  0  0  0 
1704450110.317410000  -2.5  -0.299995  1  0  0  -7.6e-06  0.0002577  0.0002577  0.0002577  0  0  0  0.011125  0.011125  0.011125  0  0  0  0  0  0  0  0  0 
1704450110.322409000  -2.49999  -0.299994  1.00001  0  0  -9.9e-06  0.0003185  0.0003185  0.0003185  0  0  0  0.01325  0.01325  0.01325  0  0  0  0  0  0  0  0  0 
1704450110.327410000  -2.49999  -0.299992  1.00001  0  0  -1.28e-05  0.0003906  0.0003906  0.0003906  0  0  0  0.015625  0.015625  0.015625  0  0  0  0  0  0  0  0  0 
1704450110.332411000  -2.49999  -0.29999  1.00001  0  0  -1.62e-05  0.0004752  0.0004752  0.0004752  0  0  0  0.01825  0.01825  0.01825  0  0  0  0  0  0  0  0  0 
1704450110.337423000  -2.49999  -0.299987  1.00001  0  0  -2.04e-05  0.0005735  0.0005735  0.0005735  0  0  0  0.021125  0.021125  0.021125  0  0  0  0  0  0  0  0  0 
1704450110.342402000  -2.49998  -0.299984  1.00002  0  0  -2.54e-05  0.0006869  0.0006869  0.0006869  0  0  0  0.02425  0.02425  0.02425  0  0  0  0  0  0  0  0  0 
1704450110.347402000  -2.49998  -0.29998  1.00002  0  0  -3.14e-05  0.0008165  0.0008165  0.0008165  0  0  0  0.027625  0.027625  0.027625  0  0  0  0  0  0  0  0  0 
1704450110.352402000  -2.49998  -0.299976  1.00002  0  0  -3.84e-05  0.0009635  0.0009635  0.0009635  0  0  0  0.03125  0.03125  0.03125  0  0  0  0  0  0  0  0  0 
1704450110.357398000  -2.49997  -0.299971  1.00003  0  0  -4.66e-05  0.0011294  0.0011294  0.0011294  0  0  0  0.035125  0.035125  0.035125  0  0  0  0  0  0  0  0  0 
1704450110.362407000  -2.49996  -0.299965  1.00004  0  0  -5.6e-05  0.0013152  0.0013152  0.0013152  0  0  0  0.03925  0.03925  0.03925  0  0  0  0  0  0  0  0  0 
1704450110.367415000  -2.49996  -0.299957  1.00004  0  0  -6.67e-05  0.0015223  0.0015223  0.0015223  0  0  0  0.043625  0.043625  0.043625  0  0  0  0  0  0  0  0  0 
1704450110.372414000  -2.49995  -0.299949  1.00005  0  0  -7.88e-05  0.0017519  0.0017519  0.0017519  0  0  0  0.04825  0.04825  0.04825  0  0  0  0  0  0  0  0  0 
1704450110.377414000  -2.49994  -0.29994  1.00006  0  0  -9.22e-05  0.0020052  0.0020052  0.0020052  0  0  0  0.053125  0.053125  0.053125  0  0  0  0  0  0  0  0  0 
1704450110.382413000  -2.49993  -0.299929  1.00007  0  0  -0.0001071  0.0022835  0.0022835  0.0022835  0  0  0  0.05825  0.05825  0.05825  0  0  0  0  0  0  0  0  0 
1704450110.387414000  -2.49992  -0.299917  1.00008  0  0  -0.0001235  0.0025881  0.0025881  0.0025881  0  0  0  0.063625  0.063625  0.063625  0  0  0  0  0  0  0  0  0 
1704450110.392414000  -2.4999  -0.299903  1.0001  0  0  -0.0001414  0.0029202  0.0029202  0.0029202  0  0  0  0.06925  0.06925  0.06925  0  0  0  0  0  0  0  0  0 
1704450110.397414000  -2.49989  -0.299888  1.00011  0  0  -0.0001608  0.003281  0.003281  0.003281  0  0  0  0.075125  0.075125  0.075125  0  0  0  0  0  0  0  0  0 
1704450110.402417000  -2.49987  -0.29987  1.00013  0  0  -0.0001816  0.0036719  0.0036719  0.0036719  0  0  0  0.08125  0.08125  0.08125  0  0  0  0  0  0  0  0  0 
1704450110.407415000  -2.49985  -0.299851  1.00015  0  0  -0.000204  0.004094  0.004094  0.004094  0  0  0  0.087625  0.087625  0.087625  0  0  0  0  0  0  0  0  0 
1704450110.412417000  -2.49983  -0.299829  1.00017  0  0  -0.0002279  0.0045485  0.0045485  0.0045485  0  0  0  0.09425  0.09425  0.09425  0  0  0  0  0  0  0  0  0 
1704450110.417415000  -2.49981  -0.299805  1.00019  0  0  -0.0002532  0.0050369  0.0050369  0.0050369  0  0  0  0.101125  0.101125  0.101125  0  0  0  0  0  0  0  0  0 
1704450110.422408000  -2.49978  -0.299779  1.00022  0  0  -0.0002799  0.0055602  0.0055602  0.0055599  0  0  0  0.10825  0.10825  0.108029  0  0  0  0  0  0  0  0  0 
1704450110.427420000  -2.49975  -0.29975  1.00025  0  0  -0.0003079  0.0061198  0.0061198  0.0061167  0  0  0  0.115625  0.115625  0.114684  0  0  0  0  0  0  0  0  0 
1704450110.432429000  -2.49972  -0.299718  1.00028  0  0  -0.0003373  0.0067169  0.0067169  0.0067063  0  0  0  0.12325  0.12325  0.121088  0  0  0  0  0  0  0  0  0 
1704450110.437415000  -2.49968  -0.299683  1.00032  0  0  -0.0003678  0.0073527  0.0073527  0.0073272  0  0  0  0.131125  0.131125  0.127243  0  0  0  0  0  0  0  0  0 
1704450110.442423000  -2.49964  -0.299644  1.00036  0  0  -0.0003996  0.0080285  0.0080285  0.0079783  0  0  0  0.13925  0.13925  0.133148  0  0  0  0  0  0  0  0  0 
1704450110.447410000  -2.4996  -0.299602  1.0004  0  0  -0.0004323  0.0087456  0.0087456  0.0086583  0  0  0  0.147625  0.147625  0.138803  0  0  0  0  0  0  0  0  0 
1704450110.452419000  -2.49956  -0.299557  1.00044  0  0  -0.0004661  0.0095052  0.0095052  0.0093659  0  0  0  0.15625  0.15625  0.144207  0  0  0  0  0  0  0  0  0 
1704450110.457414000  -2.49951  -0.299507  1.00049  0  0  -0.0005006  0.0103084  0.0103085  0.0100999  0  0  0  0.16501  0.165125  0.149362  0  0  0  0  0  0  0  0  0 
1704450110.462416000  -2.49945  -0.299453  1.00054  0  0  -0.0005359  0.0111549  0.0111569  0.0108591  0  0  0  0.173547  0.17425  0.154267  0  0  0  0  0  0  0  0  0 
1704450110.467410000  -2.4994  -0.299395  1.0006  0  0  -0.0005719  0.0120435  0.0120515  0.0116422  0  0  0  0.181833  0.183625  0.158922  0  0  0  0  0  0  0  0  0 
1704450110.472415000  -2.49933  -0.299333  1.00066  0  0  -0.0006083  0.0129728  0.0129935  0.0124479  0  0  0  0.18987  0.19325  0.163327  0  0  0  0  0  0  0  0  0 
1704450110.477412000  -2.49927  -0.299265  1.00072  0  0  -0.0006451  0.0139417  0.0139844  0.013275  0  0  0  0.197656  0.203125  0.167481  0  0  0  0  0  0  0  0  0 
1704450110.482411000  -2.49919  -0.299193  1.00079  0  0  -0.0006823  0.014949  0.0150252  0.0141223  0  0  0  0.205192  0.21325  0.171386  0  0  0  0  0  0  0  0  0 
1704450110.487412000  -2.49912  -0.299115  1.00087  0  0  -0.0007197  0.0159933  0.0161173  0.0149885  0  0  0  0.212479  0.223625  0.175041  0  0  0  0  0  0  0  0  0 
1704450110.492421000  -2.49903  -0.299032  1.00094  0  0  -0.0007573  0.0170733  0.0172619  0.0158723  0  0  0  0.219515  0.23425  0.178446  0  0  0  0  0  0  0  0  0 
1704450110.497415000  -2.49895  -0.298942  1.00102  0  0  -0.000795  0.018188  0.0184602  0.0167725  0  0  0  0.226302  0.245125  0.1816  0  0  0  0  0  0  0  0  0 
1704450110.502414000  -2.49885  -0.298847  1.00111  0  0  -0.0008328  0.0193359  0.0197135  0.0176879  0  0  0  0.232838  0.25625  0.184505  0  0  0  0  0  0  0  0  0 
1704450110.507414000  -2.49875  -0.298745  1.0012  0  0  -0.0008707  0.020516  0.0210231  0.0186172  0  0  0  0.239125  0.267625  0.18716  0  0  0  0  0  0  0  0  0 
1704450110.512414000  -2.49865  -0.298637  1.0013  0  0  -0.0009086  0.0217268  0.0223902  0.0195591  0  0  0  0.245161  0.27925  0.189565  0  0  0  0  0  0  0  0  0 
1704450110.517414000  -2.49853  -0.298521  1.0014  0  0  -0.0009464  0.0229671  0.023816  0.0205124  0  0  0  0.250947  0.291125  0.191719  0  0  0  0  0  0  0  0  0 
1704450110.522415000  -2.49842  -0.298398  1.0015  0  0  -0.0009843  0.0242358  0.0253019  0.0214758  0  0  0  0.256484  0.30325  0.193624  0  0  0  0  0  0  0  0  0 
1704450110.527414000  -2.49829  -0.298268  1.00161  0  0  -0.0010222  0.0255316  0.026849  0.0224482  0  0  0  0.26177  0.315625  0.195279  0  0  0  0  0  0  0  0  0 
1704450110.532415000  -2.49816  -0.29813  1.00173  0  0  -0.0010601  0.0268531  0.0284585  0.0234282  0  0  0  0.266807  0.32825  0.196684  0  0  0  0  0  0  0  0  0 
1704450110.537413000  -2.49802  -0.297983  1.00185  0  0  -0.001098  0.0281992  0.0301319  0.0244146  0  0  0  0.271593  0.341125  0.197838  0  0  0  0  0  0  0  0  0 
1704450110.542416000  -2.49788  -0.297828  1.00197  0  0  -0.0011359  0.0295686  0.0318702  0.0254062  0  0  0  0.27613  0.35425  0.198743  0  0  0  0  0  0  0  0  0 
1704450110.547414000  -2.49773  -0.297665  1.0021  0  0  -0.0011737  0.0309601  0.0336748  0.0264016  0  0  0  0.280416  0.367625  0.199398  0  0  0  0  0  0  0  0  0 
1704450110.552414000  -2.49757  -0.297492  1.00223  0  0  -0.0012116  0.0323724  0.0355469  0.0273998  0  0  0  0.284452  0.38125  0.199803  0  0  0  0  0  0  0  0  0 
1704450110.557412000  -2.4974  -0.297309  1.00237  0  0  -0.0012495  0.0338042  0.0374877  0.0283993  0  0  0  0.288239  0.395125  0.199958  0  0  0  0  0  0  0  0  0 
1704450110.562405000  -2.49723  -0.297117  1.00252  0  0  -0.0012874  0.0352543  0.0394985  0.0293989  0  0  0  0.291775  0.40925  0.199862  0  0  0  0  0  0  0  0  0 
1704450110.567424000  -2.49705  -0.296914  1.00267  0  0  -0.0013253  0.0367215  0.0415806  0.0303975  0  0  0  0.295062  0.423625  0.199517  0  0  0  0  0  0  0  0  0 
1704450110.572416000  -2.49686  -0.296701  1.00282  0  0  -0.0013632  0.0382045  0.0437352  0.0313937  0  0  0  0.298098  0.43825  0.198922  0  0  0  0  0  0  0  0  0 
1704450110.577415000  -2.49667  -0.296476  1.00298  0  0  -0.0014011  0.0397021  0.0459635  0.0323863  0  0  0  0.300885  0.453125  0.198077  0  0  0  0  0  0  0  0  0 
1704450110.582414000  -2.49647  -0.296241  1.00315  0  0  -0.0014389  0.041213  0.0482669  0.033374  0  0  0  0.303421  0.46825  0.196981  0  0  0  0  0  0  0  0  0 
1704450110.587414000  -2.49626  -0.295994  1.00332  0  0  -0.0014768  0.0427359  0.0506465  0.0343557  0  0  0  0.305707  0.483625  0.195636  0  0  0  0  0  0  0  0  0 
1704450110.592424000  -2.49604  -0.295734  1.00349  0  0  -0.0015147  0.0442696  0.0531035  0.03533  0  0  0  0.307744  0.49925  0.194041  0  0  0  0  0  0  0  0  0 
1704450110.597407000  -2.49581  -0.295462  1.00367  0  0  -0.0015526  0.0458129  0.0556394  0.0362957  0  0  0  0.30953  0.515125  0.192196  0  0  0  0  0  0  0  0  0 
1704450110.602409000  -2.49558  -0.295178  1.00385  0  0  -0.0015905  0.0473645  0.0582552  0.0372515  0  0  0  0.311067  0.53125  0.1901  0  0  0  0  0  0  0  0  0 
1704450110.607410000  -2.49534  -0.29488  1.00404  0  0  -0.0016283  0.0489232  0.0609523  0.0381962  0  0  0  0.312353  0.547625  0.187755  0  0  0  0  0  0  0  0  0 
1704450110.612428000  -2.49509  -0.294568  1.00423  0  0  -0.0016662  0.0504876  0.0637319  0.0391286  0  0  0  0.31339  0.56425  0.18516  0  0  0  0  0  0  0  0  0 
1704450110.617492000  -2.49484  -0.294242  1.00443  0  0  -0.0017041  0.0520567  0.0665952  0.0400474  0  0  0  0.314176  0.581125  0.182315  0  0  0  0  0  0  0  0  0 
1704450110.622412000  -2.49457  -0.293902  1.00463  0  0  -0.001742  0.053629  0.0695435  0.0409514  0  0  0  0.314712  0.59825  0.179219  0  0  0  0  0  0  0  0  0 
1704450110.627402000  -2.4943  -0.293547  1.00484  0  0  -0.0017799  0.0552034  0.0725781  0.0418392  0  0  0  0.314999  0.615625  0.175874  0  0  0  0  0  0  0  0  0 
1704450110.632402000  -2.49402  -0.293176  1.00505  0  0  -0.0018178  0.0567786  0.0757002  0.0427097  0  0  0  0.315035  0.63325  0.172279  0  0  0  0  0  0  0  0  0 
1704450110.637403000  -2.49373  -0.29279  1.00527  0  0  -0.0018557  0.0583533  0.078911  0.0435616  0  0  0  0.314822  0.651125  0.168434  0  0  0  0  0  0  0  0  0 
1704450110.642407000  -2.49344  -0.292387  1.00549  0  0  -0.0018935  0.0599264  0.0822119  0.0443936  0  0  0  0.314358  0.66925  0.164338  0  0  0  0  0  0  0  0  0 
1704450110.647416000  -2.49313  -0.291967  1.00571  0  0  -0.0019314  0.0614965  0.0856039  0.0452045  0  0  0  0.313645  0.687572  0.159993  0  0  0  0  0  0  0  0  0 
1704450110.652412000  -2.49282  -0.291531  1.00594  0  0  -0.0019693  0.0630624  0.0890872  0.0459931  0  0  0  0.312681  0.705718  0.155398  0  0  0  0  0  0  0  0  0 
1704450110.657405000  -2.4925  -0.291076  1.00617  0  0  -0.0020072  0.0646229  0.0926607  0.0467581  0  0  0  0.311467  0.723613  0.150553  0  0  0  0  0  0  0  0  0 
1704450110.662405000  -2.49218  -0.290604  1.00641  0  0  -0.0020451  0.0661766  0.096323  0.0474982  0  0  0  0.310004  0.741259  0.145458  0  0  0  0  0  0  0  0  0 
1704450110.667409000  -2.49184  -0.290113  1.00665  0  0  -0.002083  0.0677225  0.100073  0.0482123  0  0  0  0.30829  0.758654  0.140112  0  0  0  0  0  0  0  0  0 
1704450110.672408000  -2.4915  -0.289603  1.00689  0  0  -0.0021208  0.0692591  0.103909  0.0488989  0  0  0  0.306327  0.7758  0.134517  0  0  0  0  0  0  0  0  0 
1704450110.677409000  -2.49115  -0.289074  1.00714  0  0  -0.0021587  0.0707853  0.10783  0.049557  0  0  0  0.304113  0.792695  0.128672  0  0  0  0  0  0  0  0  0 
1704450110.682409000  -2.49079  -0.288525  1.00739  0  0  -0.0021966  0.0722998  0.111836  0.0501852  0  0  0  0.30165  0.80934  0.122577  0  0  0  0  0  0  0  0  0 
1704450110.687408000  -2.49042  -0.287955  1.00764  0  0  -0.0022345  0.0738014  0.115923  0.0507824  0  0  0  0.298936  0.825736  0.116231  0  0  0  0  0  0  0  0  0 
1704450110.692408000  -2.49005  -0.287365  1.00789  0  0  -0.0022724  0.0752888  0.120093  0.0513471  0  0  0  0.295972  0.841881  0.109636  0  0  0  0  0  0  0  0  0 
1704450110.697408000  -2.48967  -0.286754  1.00815  0  0  -0.0023103  0.0767607  0.124342  0.0518783  0  0  0  0.292759  0.857777  0.102791  0  0  0  0  0  0  0  0  0 
1704450110.702409000  -2.48928  -0.286122  1.00841  0  0  -0.0023481  0.078216  0.12867  0.0523747  0  0  0  0.289295  0.873422  0.0957855  0  0  0  0  0  0  0  0  0 
1704450110.707409000  -2.48889  -0.285467  1.00868  0  0  -0.002386  0.0796532  0.133076  0.0528366  0  0  0  0.285582  0.888818  0.0889901  0  0  0  0  0  0  0  0  0 
1704450110.712414000  -2.48849  -0.284791  1.00894  0  0  -0.0024239  0.0810713  0.137558  0.053265  0  0  0  0.281618  0.903963  0.0824446  0  0  0  0  0  0  0  0  0 
1704450110.717409000  -2.48808  -0.284092  1.00921  0  0  -0.0024618  0.082469  0.142115  0.0536614  0  0  0  0.277404  0.918859  0.0761491  0  0  0  0  0  0  0  0  0 
1704450110.722410000  -2.48766  -0.283369  1.00948  0  0  -0.0024997  0.083845  0.146746  0.0540269  0  0  0  0.272941  0.933504  0.0701037  0  0  0  0  0  0  0  0  0 
1704450110.727405000  -2.48724  -0.282624  1.00975  0  0  -0.0025376  0.085198  0.151449  0.0543629  0  0  0  0.268227  0.947899  0.0643082  0  0  0  0  0  0  0  0  0 
1704450110.732408000  -2.48681  -0.281855  1.01002  0  0  -0.0025754  0.0865268  0.156224  0.0546704  0  0  0  0.263264  0.962045  0.0587628  0  0  0  0  0  0  0  0  0 
1704450110.737406000  -2.48638  -0.281062  1.01029  0  0  -0.0026133  0.0878302  0.161069  0.0549509  0  0  0  0.25805  0.97594  0.0534673  0  0  0  0  0  0  0  0  0 
1704450110.742417000  -2.48593  -0.280244  1.01057  0  0  -0.0026512  0.0891069  0.165983  0.0552055  0  0  0  0.252587  0.989586  0.0484218  0  0  0  0  0  0  0  0  0 
1704450110.747421000  -2.48548  -0.279402  1.01085  0  0  -0.0026891  0.0903557  0.170965  0.0554356  0  0  0  0.246873  1.00298  0.0436264  0  0  0  0  0  0  0  0  0 
1704450110.752421000  -2.48503  -0.278534  1.01112  0  0  -0.002727  0.0915752  0.176013  0.0556422  0  0  0  0.240909  1.01613  0.0390809  0  0  0  0  0  0  0  0  0 
1704450110.757414000  -2.48457  -0.277641  1.0114  0  0  -0.0027649  0.0927644  0.181126  0.0558268  0  0  0  0.234696  1.02902  0.0347855  0  0  0  0  0  0  0  0  0 
1704450110.762407000  -2.4841  -0.276723  1.01168  0  0  -0.0028028  0.0939218  0.186303  0.0559905  0  0  0  0.228232  1.04167  0.03074  0  0  0  0  0  0  0  0  0 
1704450110.767411000  -2.48363  -0.275778  1.01196  0  0  -0.0028406  0.0950463  0.191542  0.0561346  0  0  0  0.221519  1.05406  0.0269445  0  0  0  0  0  0  0  0  0 
1704450110.772417000  -2.48315  -0.274807  1.01224  0  0  -0.0028785  0.0961365  0.196843  0.0562603  0  0  0  0.214555  1.06621  0.0233991  0  0  0  0  0  0  0  0  0 
1704450110.777407000  -2.48267  -0.27381  1.01253  0  0  -0.0029164  0.0971914  0.202204  0.056369  0  0  0  0.207342  1.0781  0.0201036  0  0  0  0  0  0  0  0  0 
1704450110.782413000  -2.48218  -0.272785  1.01281  0  0  -0.0029543  0.0982095  0.207623  0.0564618  0  0  0  0.199878  1.08975  0.0170582  0  0  0  0  0  0  0  0  0 
1704450110.787417000  -2.48169  -0.271733  1.01309  0  0  -0.0029922  0.0991898  0.213101  0.05654  0  0  0  0.192164  1.10114  0.0142627  0  0  0  0  0  0  0  0  0 
1704450110.792400000  -2.48119  -0.270654  1.01337  0  0  -0.0030301  0.100131  0.218634  0.0566048  0  0  0  0.184201  1.11229  0.0117172  0  0  0  0  0  0  0  0  0 
1704450110.797412000  -2.48069  -0.269547  1.01366  0  0  -0.0030679  0.101031  0.224223  0.0566576  0  0  0  0.175987  1.12319  0.0094218  0  0  0  0  0  0  0  0  0 
1704450110.802402000  -2.48018  -0.268412  1.01394  0  0  -0.0031058  0.10189  0.229866  0.0566995  0  0  0  0.167524  1.13383  0.0073763  0  0  0  0  0  0  0  0  0 
1704450110.807416000  -2.47967  -0.267248  1.01422  0  0  -0.0031437  0.102706  0.235561  0.0567318  0  0  0  0.15881  1.14423  0.0055809  0  0  0  0  0  0  0  0  0 
1704450110.812406000  -2.47915  -0.266056  1.01451  0  0  -0.0031816  0.103478  0.241308  0.0567557  0  0  0  0.150029  1.15437  0.0040354  0  0  0  0  0  0  0  0  0 
1704450110.817417000  -2.47863  -0.264835  1.01479  0  0  -0.0032195  0.104207  0.247104  0.0567725  0  0  0  0.141493  1.16427  0.00274  0  0  0  0  0  0  0  0  0 
1704450110.822417000  -2.47811  -0.263585  1.01507  0  0  -0.0032574  0.104894  0.25295  0.0567835  0  0  0  0.133207  1.17391  0.0016945  0  0  0  0  0  0  0  0  0 
1704450110.827416000  -2.47758  -0.262306  1.01536  0  0  -0.0032953  0.105539  0.258843  0.0567899  0  0  0  0.125171  1.18331  0.000899  0  0  0  0  0  0  0  0  0 
1704450110.832407000  -2.47705  -0.260996  1.01564  0  0  -0.0033331  0.106146  0.264783  0.0567929  0  0  0  0.117385  1.19245  0.0003536  0  0  0  0  0  0  0  0  0 
1704450110.837400000  -2.47652  -0.259658  1.01593  0  0  -0.003371  0.106714  0.270767  0.0567939  0  0  0  0.109849  1.20135  5.81e-05  0  0  0  0  0  0  0  0  0 
1704450110.842401000  -2.47599  -0.258289  1.01621  0  0  -0.0034089  0.107245  0.276796  0.0567939  0  0  0  0.102563  1.20999  -0  0  0  0  0  0  0  0  0  0 
1704450110.847408000  -2.47545  -0.25689  1.01649  0  0  -0.0034468  0.10774  0.282867  0.0567939  0  0  0  0.0955266  1.21839  -0  0  0  0  0  0  0  0  0  0 
1704450110.852407000  -2.47491  -0.25546  1.01678  0  0  -0.0034847  0.1082  0.288979  0.0567939  0  0  0  0.0887405  1.22654  -0  0  0  0  0  0  0  0  0  0 
1704450110.857402000  -2.47437  -0.254  1.01706  0  0  -0.0035226  0.108627  0.295132  0.0567939  0  0  0  0.0822044  1.23443  -0  0  0  0  0  0  0  0  0  0 
1704450110.862406000  -2.47382  -0.252509  1.01735  0  0  -0.0035604  0.109023  0.301323  0.0567939  0  0  0  0.0759183  1.24208  -0  0  0  0  0  0  0  0  0  0 
1704450110.867410000  -2.47328  -0.250986  1.01763  0  0  -0.0035983  0.109387  0.307552  0.0567939  0  0  0  0.0698822  1.24947  -0  0  0  0  0  0  0  0  0  0 
1704450110.872405000  -2.47273  -0.249433  1.01791  0  0  -0.0036362  0.109722  0.313817  0.0567939  0  0  0  0.0640961  1.25662  -0  0  0  0  0  0  0  0  0  0 
1704450110.877403000  -2.47218  -0.247848  1.0182  0  0  -0.0036741  0.110028  0.320118  0.0567939  0  0  0  0.05856  1.26351  -0  0  0  0  0  0  0  0  0  0 
1704450110.882402000  -2.47163  -0.246232  1.01848  0  0  -0.003712  0.110308  0.326452  0.0567939  0  0  0  0.0532739  1.27016  -0  0  0  0  0  0  0  0  0  0 
1704450110.887407000  -2.47108  -0.244584  1.01877  0  0  -0.0037499  0.110562  0.332819  0.0567939  0  0  0  0.0482378  1.27655  -0  0  0  0  0  0  0  0  0  0 
1704450110.892408000  -2.47052  -0.242904  1.01905  0  0  -0.0037877  0.110791  0.339217  0.0567939  0  0  0  0.0434517  1.2827  -0  0  0  0  0  0  0  0  0  0 
1704450110.897400000  -2.46997  -0.241191  1.01933  0  0  -0.0038256  0.110997  0.345646  0.0567939  0  0  0  0.0389156  1.28859  -0  0  0  0  0  0  0  0  0  0 
1704450110.902401000  -2.46941  -0.239447  1.01962  0  0  -0.0038635  0.11118  0.352103  0.0567939  0  0  0  0.0346295  1.29424  -0  0  0  0  0  0  0  0  0  0 
1704450110.907408000  -2.46886  -0.23767  1.0199  0  0  -0.0039014  0.111343  0.358588  0.0567939  0  0  0  0.0305934  1.29964  -0  0  0  0  0  0  0  0  0  0 
1704450110.912402000  -2.4683  -0.235861  1.02019  0  0  -0.0039393  0.111487  0.365099  0.0567939  0  0  0  0.0268073  1.30478  -0  0  0  0  0  0  0  0  0  0 
1704450110.917401000  -2.46774  -0.234019  1.02047  0  0  -0.0039772  0.111612  0.371635  0.0567939  0  0  0  0.0232712  1.30968  -0  0  0  0  0  0  0  0  0  0 
1704450110.922399000  -2.46718  -0.232145  1.02075  0  0  -0.0040151  0.11172  0.378195  0.0567939  0  0  0  0.0199851  1.31432  -0  0  0  0  0  0  0  0  0  0 
1704450110.927409000  -2.46662  -0.230237  1.02104  0  0  -0.0040529  0.111812  0.384778  0.0567939  0  0  0  0.016949  1.31872  -0  0  0  0  0  0  0  0  0  0 
1704450110.932401000  -2.46607  -0.228297  1.02132  0  0  -0.0040908  0.11189  0.391382  0.0567939  0  0  0  0.0141629  1.32286  -0  0  0  0  0  0  0  0  0  0 
1704450110.937400000  -2.46551  -0.226323  1.02161  0  0  -0.0041287  0.111954  0.398006  0.0567939  0  0  0  0.0116268  1.32676  -0  0  0  0  0  0  0  0  0  0 
1704450110.942402000  -2.46495  -0.224317  1.02189  0  0  -0.0041666  0.112006  0.404649  0.0567939  0  0  0  0.0093407  1.3304  -0  0  0  0  0  0  0  0  0  0 
1704450110.947408000  -2.46439  -0.222277  1.02217  0  0  -0.0042045  0.112048  0.41131  0.0567939  0  0  0  0.0073046  1.3338  -0  0  0  0  0  0  0  0  0  0 
1704450110.952401000  -2.46383  -0.220204  1.02246  0  0  -0.0042423  0.11208  0.417987  0.0567939  0  0  0  0.0055185  1.33694  -0  0  0  0  0  0  0  0  0  0 
1704450110.957399000  -2.46327  -0.218097  1.02274  0  0  -0.0042802  0.112104  0.424679  0.0567939  0  0  0  0.0039824  1.33984  -0  0  0  0  0  0  0  0  0  0 
1704450110.962398000  -2.4627  -0.215957  1.02303  0  0  -0.0043181  0.11212  0.431385  0.0567939  0  0  0  0.0026963  1.34249  -0  0  0  0  0  0  0  0  0  0 
1704450110.967410000  -2.46214  -0.213783  1.02331  0  0  -0.004356  0.112131  0.438103  0.0567939  0  0  0  0.0016602  1.34488  -0  0  0  0  0  0  0  0  0  0 
1704450110.972402000  -2.46158  -0.211576  1.02359  0  0  -0.0043939  0.112137  0.444833  0.0567939  0  0  0  0.0008741  1.34703  -0  0  0  0  0  0  0  0  0  0 
1704450110.977400000  -2.46102  -0.209335  1.02388  0  0  -0.0044318  0.11214  0.451573  0.0567939  0  0  0  0.000338  1.34892  -0  0  0  0  0  0  0  0  0  0 
1704450110.982401000  -2.46046  -0.20706  1.02416  0  0  -0.0044697  0.112141  0.458322  0.0567939  0  0  0  5.19e-05  1.35057  -0  0  0  0  0  0  0  0  0  0 
1704450110.987408000  -2.4599  -0.204752  1.02445  0  0  -0.0045075  0.112141  0.465078  0.0567939  0  0  0  0  1.35196  -0  0  0  0  0  0  0  0  0  0 
1704450110.992400000  -2.45934  -0.202409  1.02473  0  0  -0.0045454  0.112141  0.471841  0.0567939  0  0  0  0  1.35311  -0  0  0  0  0  0  0  0  0  0 
1704450110.997400000  -2.45878  -0.200033  1.02501  0  0  -0.0045833  0.112141  0.478609  0.0567939  0  0  0  0  1.354  -0  0  0  0  0  0  0  0  0  0 
1704450111.002401000  -2.45822  -0.197623  1.0253  0  0  -0.0046212  0.112141  0.485381  0.0567939  0  0  0  0  1.35465  -0  0  0  0  0  0  0  0  0  0 
1704450111.007407000  -2.45766  -0.195179  1.02558  0  0  -0.0046591  0.112141  0.492155  0.0567939  0  0  0  0  1.35504  -0  0  0  0  0  0  0  0  0  0 
1704450111.012400000  -2.4571  -0.192702  1.02587  0  0  -0.004697  0.112141  0.498931  0.0567939  0  0  0  0  1.35519  -0  0  0  0  0  0  0  0  0  0 
1704450111.017399000  -2.45654  -0.19019  1.02615  0  0  -0.0047348  0.112141  0.505706  0.0567939  0  0  0  0  1.35509  -0  0  0  0  0  0  0  0  0  0 
1704450111.022400000  -2.45598  -0.187645  1.02643  0  0  -0.0047727  0.112141  0.512481  0.0567939  0  0  0  0  1.35473  -0  0  0  0  0  0  0  0  0  0 
1704450111.027407000  -2.45542  -0.185065  1.02672  0  0  -0.0048106  0.112141  0.519253  0.0567939  0  0  0  0  1.35413  -0  0  0  0  0  0  0  0  0  0 
1704450111.032402000  -2.45485  -0.182452  1.027  0  0  -0.0048485  0.112141  0.526022  0.0567939  0  0  0  0  1.35327  -0  0  0  0  0  0  0  0  0  0 
1704450111.037400000  -2.45429  -0.179805  1.02729  0  0  -0.0048864  0.112141  0.532786  0.0567939  0  0  0  0  1.35217  -0  0  0  0  0  0  0  0  0  0 
1704450111.042400000  -2.45373  -0.177124  1.02757  0  0  -0.0049243  0.112141  0.539543  0.0567939  0  0  0  0  1.35081  -0  0  0  0  0  0  0  0  0  0 
1704450111.047407000  -2.45317  -0.17441  1.02785  0  0  -0.0049622  0.112141  0.546293  0.0567939  0  0  0  0  1.34921  -0  0  0  0  0  0  0  0  0  0 
1704450111.052401000  -2.45261  -0.171661  1.02814  0  0  -0.005  0.112141  0.553035  0.0567939  0  0  0  0  1.34735  -0  0  0  0  0  0  0  0  0  0 
1704450111.057400000  -2.45205  -0.168879  1.02842  0  0  -0.0050379  0.112141  0.559766  0.0567939  0  0  0  0  1.34525  -0  0  0  0  0  0  0  0  0  0 
1704450111.062402000  -2.45149  -0.166064  1.02871  0  0  -0.0050758  0.112141  0.566487  0.0567939  0  0  0  0  1.34289  -0  0  0  0  0  0  0  0  0  0 
1704450111.067408000  -2.45093  -0.163214  1.02899  0  0  -0.0051137  0.112141  0.573195  0.0567939  0  0  0  0  1.34029  -0  0  0  0  0  0  0  0  0  0 
1704450111.072402000  -2.45037  -0.160332  1.02927  0  0  -0.0051516  0.112141  0.579889  0.0567939  0  0  0  0  1.33744  -0  0  0  0  0  0  0  0  0  0 
1704450111.077400000  -2.44981  -0.157416  1.02956  0  0  -0.0051894  0.112141  0.586569  0.0567939  0  0  0  0  1.33433  -0  0  0  0  0  0  0  0  0  0 
1704450111.082401000  -2.44925  -0.154466  1.02984  0  0  -0.0052273  0.112141  0.593232  0.0567939  0  0  0  0  1.33098  -0  0  0  0  0  0  0  0  0  0 
1704450111.087409000  -2.44869  -0.151483  1.03013  0  0  -0.0052652  0.112141  0.599878  0.0567939  0  0  0  0  1.32737  -0  0  0  0  0  0  0  0  0  0 
1704450111.092401000  -2.44813  -0.148467  1.03041  0  0  -0.0053031  0.112141  0.606506  0.0567939  0  0  0  0  1.32352  -0  0  0  0  0  0  0  0  0  0 
1704450111.097401000  -2.44757  -0.145418  1.03069  0  0  -0.005341  0.112141  0.613113  0.0567939  0  0  0  0  1.31941  -0  0  0  0  0  0  0  0  0  0 
1704450111.102401000  -2.44701  -0.142336  1.03098  0  0  -0.0053789  0.112141  0.619699  0.0567939  0  0  0  0  1.31506  -0  0  0  0  0  0  0  0  0  0 
1704450111.107407000  -2.44644  -0.139221  1.03126  0  0  -0.0054167  0.112141  0.626263  0.0567939  0  0  0  0  1.31045  -0  0  0  0  0  0  0  0  0  0 
1704450111.112402000  -2.44588  -0.136074  1.03154  0  0  -0.0054546  0.112141  0.632803  0.0567939  0  0  0  0  1.3056  -0  0  0  0  0  0  0  0  0  0 
1704450111.117400000  -2.44532  -0.132893  1.03183  0  0  -0.0054925  0.112141  0.639319  0.0567939  0  0  0  0  1.30049  -0  0  0  0  0  0  0  0  0  0 
1704450111.122400000  -2.44476  -0.129681  1.03211  0  0  -0.0055304  0.112141  0.645808  0.0567939  0  0  0  0  1.29514  -0  0  0  0  0  0  0  0  0  0 
1704450111.127410000  -2.4442  -0.126435  1.0324  0  0  -0.0055683  0.112141  0.65227  0.0567939  0  0  0  0  1.28954  -0  0  0  0  0  0  0  0  0  0 
1704450111.132402000  -2.44364  -0.123158  1.03268  0  0  -0.0056062  0.112141  0.658703  0.0567939  0  0  0  0  1.28368  -0  0  0  0  0  0  0  0  0  0 
1704450111.137400000  -2.44308  -0.119848  1.03296  0  0  -0.0056441  0.112141  0.665106  0.0567939  0  0  0  0  1.27758  -0  0  0  0  0  0  0  0  0  0 
1704450111.142401000  -2.44252  -0.116507  1.03325  0  0  -0.0056819  0.112141  0.671478  0.0567939  0  0  0  0  1.27122  -0  0  0  0  0  0  0  0  0  0 
1704450111.147410000  -2.44196  -0.113134  1.03353  0  0  -0.0057198  0.112141  0.677818  0.0567939  0  0  0  0  1.26462  -0  0  0  0  0  0  0  0  0  0 
1704450111.152402000  -2.4414  -0.109729  1.03382  0  0  -0.0057577  0.112141  0.684124  0.0567939  0  0  0  0  1.25776  -0  0  0  0  0  0  0  0  0  0 
1704450111.157401000  -2.44084  -0.106292  1.0341  0  0  -0.0057956  0.112141  0.690395  0.0567939  0  0  0  0  1.25066  -0  0  0  0  0  0  0  0  0  0 
1704450111.162401000  -2.44028  -0.102825  1.03438  0  0  -0.0058335  0.112141  0.69663  0.0567939  0  0  0  0  1.2433  -0  0  0  0  0  0  0  0  0  0 
1704450111.167408000  -2.43972  -0.0993262  1.03467  0  0  -0.0058714  0.112141  0.702828  0.0567939  0  0  0  0  1.2357  -0  0  0  0  0  0  0  0  0  0 
1704450111.172401000  -2.43916  -0.0957966  1.03495  0  0  -0.0059092  0.112141  0.708987  0.0567939  0  0  0  0  1.22784  -0  0  0  0  0  0  0  0  0  0 
1704450111.177400000  -2.43859  -0.0922364  1.03524  0  0  -0.0059471  0.112141  0.715106  0.0567939  0  0  0  0  1.21974  -0  0  0  0  0  0  0  0  0  0 
1704450111.182401000  -2.43803  -0.0886456  1.03552  0  0  -0.005985  0.112141  0.721184  0.0567939  0  0  0  0  1.21138  -0  0  0  0  0  0  0  0  0  0 
1704450111.187410000  -2.43747  -0.0850246  1.0358  0  0  -0.0060229  0.112141  0.727219  0.0567939  0  0  0  0  1.20278  -0  0  0  0  0  0  0  0  0  0 
1704450111.192402000  -2.43691  -0.0813735  1.03609  0  0  -0.0060608  0.112141  0.733211  0.0567939  0  0  0  0  1.19393  -0  0  0  0  0  0  0  0  0  0 
1704450111.197401000  -2.43635  -0.0776926  1.03637  0  0  -0.0060987  0.112141  0.739158  0.0567939  0  0  0  0  1.18482  -0  0  0  0  0  0  0  0  0  0 
1704450111.202402000  -2.43579  -0.073982  1.03666  0  0  -0.0061366  0.112141  0.745059  0.0567939  0  0  0  0  1.17547  -0  0  0  0  0  0  0  0  0  0 
1704450111.207409000  -2.43523  -0.0702421  1.03694  0  0  -0.0061744  0.112141  0.750912  0.0567939  0  0  0  0  1.16586  -0  0  0  0  0  0  0  0  0  0 
1704450111.212403000  -2.43467  -0.066473  1.03722  0  0  -0.0062123  0.112141  0.756717  0.0567939  0  0  0  0  1.15601  -0  0  0  0  0  0  0  0  0  0 
1704450111.217405000  -2.43411  -0.062675  1.03751  0  0  -0.0062502  0.112141  0.762472  0.0567939  0  0  0  0  1.1459  -0  0  0  0  0  0  0  0  0  0 
1704450111.222400000  -2.43355  -0.0588483  1.03779  0  0  -0.0062881  0.112141  0.768176  0.0567939  0  0  0  0  1.13555  -0  0  0  0  0  0  0  0  0  0 
1704450111.227408000  -2.43299  -0.0549933  1.03808  0  0  -0.006326  0.112141  0.773827  0.0567939  0  0  0  0  1.12494  -0  0  0  0  0  0  0  0  0  0 
1704450111.232402000  -2.43243  -0.0511102  1.03836  0  0  -0.0063639  0.112141  0.779425  0.0567939  0  0  0  0  1.11409  -0  0  0  0  0  0  0  0  0  0 
1704450111.237401000  -2.43187  -0.0471992  1.03864  0  0  -0.0064017  0.112141  0.784967  0.0567939  0  0  0  0  1.10298  -0  0  0  0  0  0  0  0  0  0 
1704450111.242404000  -2.43131  -0.0432606  1.03893  0  0  -0.0064396  0.112141  0.790454  0.0567939  0  0  0  0  1.09163  -0  0  0  0  0  0  0  0  0  0 
1704450111.247408000  -2.43074  -0.0392947  1.03921  0  0  -0.0064775  0.112141  0.795883  0.0567939  0  0  0  0  1.08003  -0  0  0  0  0  0  0  0  0  0 
1704450111.252402000  -2.43018  -0.0353019  1.0395  0  0  -0.0065154  0.112141  0.801254  0.0567939  0  0  0  0  1.06817  -0  0  0  0  0  0  0  0  0  0 
1704450111.257400000  -2.42962  -0.0312823  1.03978  0  0  -0.0065533  0.112141  0.806565  0.0567939  0  0  0  0  1.05607  -0  0  0  0  0  0  0  0  0  0 
1704450111.262401000  -2.42906  -0.0272363  1.04006  0  0  -0.0065912  0.112141  0.811814  0.0567939  0  0  0  0  1.04371  -0  0  0  0  0  0  0  0  0  0 
1704450111.267407000  -2.4285  -0.0231642  1.04035  0  0  -0.006629  0.112141  0.817001  0.0567939  0  0  0  0  1.03111  -0  0  0  0  0  0  0  0  0  0 
1704450111.272403000  -2.42794  -0.0190664  1.04063  0  0  -0.0066669  0.112141  0.822125  0.0567939  0  0  0  0  1.01825  -0  0  0  0  0  0  0  0  0  0 
1704450111.277399000  -2.42738  -0.0149431  1.04092  0  0  -0.0067048  0.112141  0.827183  0.0567939  0  0  0  0  1.00515  -0  0  0  0  0  0  0  0  0  0 
1704450111.282399000  -2.42682  -0.0107947  1.0412  0  0  -0.0067427  0.112141  0.832176  0.0567939  0  0  0  0  0.991794  -0  0  0  0  0  0  0  0  0  0 
1704450111.287399000  -2.42626  -0.0066215  1.04148  0  0  -0.0067806  0.112141  0.837101  0.0567939  0  0  0  0  0.978189  -0  0  0  0  0  0  0  0  0  0 
1704450111.292402000  -2.4257  -0.0024238  1.04177  0  0  -0.0068185  0.112141  0.841957  0.0567939  0  0  0  0  0.964335  -0  0  0  0  0  0  0  0  0  0 
1704450111.297400000  -2.42514  0.001798  1.04205  0  0  -0.0068563  0.112141  0.846744  0.0567939  0  0  0  0  0.95023  -0  0  0  0  0  0  0  0  0  0 
1704450111.302400000  -2.42458  0.0060435  1.04234  0  0  -0.0068942  0.112141  0.851459  0.0567939  0  0  0  0  0.935876  -0  0  0  0  0  0  0  0  0  0 
1704450111.307408000  -2.42402  0.0103125  1.04262  0  0  -0.0069321  0.112141  0.856102  0.0567939  0  0  0  0  0.921271  -0  0  0  0  0  0  0  0  0  0 
1704450111.312402000  -2.42346  0.0146044  1.0429  0  0  -0.00697  0.112141  0.860672  0.0567939  0  0  0  0  0.906417  -0  0  0  0  0  0  0  0  0  0 
1704450111.317400000  -2.42289  0.0189191  1.04319  0  0  -0.0070079  0.112141  0.865166  0.0567939  0  0  0  0  0.891312  -0  0  0  0  0  0  0  0  0  0 
1704450111.322401000  -2.42233  0.023256  1.04347  0  0  -0.0070458  0.112141  0.869584  0.0567939  0  0  0  0  0.875957  -0  0  0  0  0  0  0  0  0  0 
1704450111.327409000  -2.42177  0.0276148  1.04376  0  0  -0.0070837  0.112141  0.873925  0.0567939  0  0  0  0  0.860353  -0  0  0  0  0  0  0  0  0  0 
1704450111.332402000  -2.42121  0.0319951  1.04404  0  0  -0.0071215  0.112141  0.878187  0.0567939  0  0  0  0  0.844498  -0  0  0  0  0  0  0  0  0  0 
1704450111.337401000  -2.42065  0.0363965  1.04432  0  0  -0.0071594  0.112141  0.88237  0.0567939  0  0  0  0  0.828394  -0  0  0  0  0  0  0  0  0  0 
1704450111.342400000  -2.42009  0.0408187  1.04461  0  0  -0.0071973  0.112141  0.886471  0.0567939  0  0  0  0  0.812039  -0  0  0  0  0  0  0  0  0  0 
1704450111.347407000  -2.41953  0.0452611  1.04489  0  0  -0.0072352  0.112141  0.89049  0.0567939  0  0  0  0  0.795435  -0  0  0  0  0  0  0  0  0  0 
1704450111.352402000  -2.41897  0.0497234  1.04518  0  0  -0.0072731  0.112141  0.894425  0.0567939  0  0  0  0  0.77858  -0  0  0  0  0  0  0  0  0  0 
1704450111.357401000  -2.41841  0.0542052  1.04546  0  0  -0.007311  0.112141  0.898275  0.0567939  0  0  0  0  0.761476  -0  0  0  0  0  0  0  0  0  0 
1704450111.362406000  -2.41785  0.058706  1.04574  0  0  -0.0073488  0.112141  0.902039  0.0567939  0  0  0  0  0.744121  -0  0  0  0  0  0  0  0  0  0 
1704450111.367452000  -2.41729  0.0632254  1.04603  0  0  -0.0073867  0.112141  0.905716  0.0567939  0  0  0  0  0.726516  -0  0  0  0  0  0  0  0  0  0 
1704450111.372402000  -2.41673  0.067763  1.04631  0  0  -0.0074246  0.112141  0.909304  0.0567939  0  0  0  0  0.708662  -0  0  0  0  0  0  0  0  0  0 
1704450111.377402000  -2.41617  0.0723183  1.0466  0  0  -0.0074625  0.112141  0.912802  0.0567939  0  0  0  0  0.690557  -0  0  0  0  0  0  0  0  0  0 
1704450111.382400000  -2.41561  0.0768909  1.04688  0  0  -0.0075004  0.112141  0.916209  0.0567939  0  0  0  0  0.672224  -0  0  0  0  0  0  0  0  0  0 
1704450111.387410000  -2.41504  0.0814803  1.04716  0  0  -0.0075383  0.112141  0.919525  0.0567939  0  0  0  0  0.654016  -0  0  0  0  0  0  0  0  0  0 
1704450111.392401000  -2.41448  0.086086  1.04745  0  0  -0.0075761  0.112141  0.92275  0.0567939  0  0  0  0  0.636057  -0  0  0  0  0  0  0  0  0  0 
1704450111.397401000  -2.41392  0.0907076  1.04773  0  0  -0.007614  0.112141  0.925886  0.0567939  0  0  0  0  0.618349  -0  0  0  0  0  0  0  0  0  0 
1704450111.402401000  -2.41336  0.0953447  1.04802  0  0  -0.0076519  0.112141  0.928934  0.0567939  0  0  0  0  0.600891  -0  0  0  0  0  0  0  0  0  0 
1704450111.407408000  -2.4128  0.0999968  1.0483  0  0  -0.0076898  0.112141  0.931895  0.0567939  0  0  0  0  0.583682  -0  0  0  0  0  0  0  0  0  0 
1704450111.412413000  -2.41224  0.104664  1.04858  0  0  -0.0077277  0.112141  0.934771  0.0567939  0  0  0  0  0.566724  -0  0  0  0  0  0  0  0  0  0 
1704450111.417420000  -2.41168  0.109344  1.04887  0  0  -0.0077656  0.112141  0.937563  0.0567939  0  0  0  0  0.550016  -0  0  0  0  0  0  0  0  0  0 
1704450111.422414000  -2.41112  0.114039  1.04915  0  0  -0.0078034  0.112141  0.940271  0.0567939  0  0  0  0  0.533557  -0  0  0  0  0  0  0  0  0  0 
1704450111.427424000  -2.41056  0.118747  1.04944  0  0  -0.0078413  0.112141  0.942899  0.0567939  0  0  0  0  0.517349  -0  0  0  0  0  0  0  0  0  0 
1704450111.432421000  -2.41  0.123468  1.04972  0  0  -0.0078792  0.112141  0.945445  0.0567939  0  0  0  0  0.501391  -0  0  0  0  0  0  0  0  0  0 
1704450111.437415000  -2.40944  0.128201  1.05  0  0  -0.0079171  0.112141  0.947913  0.0567939  0  0  0  0  0.485682  -0  0  0  0  0  0  0  0  0  0 
1704450111.442415000  -2.40888  0.132947  1.05029  0  0  -0.007955  0.112141  0.950303  0.0567939  0  0  0  0  0.470224  -0  0  0  0  0  0  0  0  0  0 
1704450111.447424000  -2.40832  0.137704  1.05057  0  0  -0.0079929  0.112141  0.952616  0.0567939  0  0  0  0  0.455015  -0  0  0  0  0  0  0  0  0  0 
1704450111.452433000  -2.40776  0.142473  1.05085  0  0  -0.0080307  0.112141  0.954853  0.0567939  0  0  0  0  0.440057  -0  0  0  0  0  0  0  0  0  0 
1704450111.457426000  -2.4072  0.147253  1.05114  0  0  -0.0080686  0.112141  0.957016  0.0567939  0  0  0  0  0.425349  -0  0  0  0  0  0  0  0  0  0 
1704450111.462423000  -2.40663  0.152043  1.05142  0  0  -0.0081065  0.112141  0.959107  0.0567939  0  0  0  0  0.41089  -0  0  0  0  0  0  0  0  0  0 
1704450111.467424000  -2.40607  0.156844  1.05171  0  0  -0.0081444  0.112141  0.961126  0.0567939  0  0  0  0  0.396682  -0  0  0  0  0  0  0  0  0  0 
1704450111.472429000  -2.40551  0.161654  1.05199  0  0  -0.0081823  0.112141  0.963074  0.0567939  0  0  0  0  0.382724  -0  0  0  0  0  0  0  0  0  0 
1704450111.477428000  -2.40495  0.166474  1.05227  0  0  -0.0082202  0.112141  0.964953  0.0567939  0  0  0  0  0.369015  -0  0  0  0  0  0  0  0  0  0 
1704450111.482432000  -2.40439  0.171303  1.05256  0  0  -0.0082581  0.112141  0.966765  0.0567939  0  0  0  0  0.355557  -0  0  0  0  0  0  0  0  0  0 
1704450111.487421000  -2.40383  0.176142  1.05284  0  0  -0.0082959  0.112141  0.968509  0.0567939  0  0  0  0  0.342349  -0  0  0  0  0  0  0  0  0  0 
1704450111.492427000  -2.40327  0.180988  1.05313  0  0  -0.0083338  0.112141  0.970189  0.0567939  0  0  0  0  0.32939  -0  0  0  0  0  0  0  0  0  0 
1704450111.497416000  -2.40271  0.185843  1.05341  0  0  -0.0083717  0.112141  0.971804  0.0567939  0  0  0  0  0.316682  -0  0  0  0  0  0  0  0  0  0 
1704450111.502428000  -2.40215  0.190706  1.05369  0  0  -0.0084096  0.112141  0.973356  0.0567939  0  0  0  0  0.304223  -0  0  0  0  0  0  0  0  0  0 
1704450111.507431000  -2.40159  0.195577  1.05398  0  0  -0.0084475  0.112141  0.974846  0.0567939  0  0  0  0  0.292015  -0  0  0  0  0  0  0  0  0  0 
1704450111.512418000  -2.40103  0.200455  1.05426  0  0  -0.0084854  0.112141  0.976276  0.0567939  0  0  0  0  0.280057  -0  0  0  0  0  0  0  0  0  0 
1704450111.517416000  -2.40047  0.20534  1.05455  0  0  -0.0085232  0.112141  0.977647  0.0567939  0  0  0  0  0.268348  -0  0  0  0  0  0  0  0  0  0 
1704450111.522414000  -2.39991  0.210231  1.05483  0  0  -0.0085611  0.112141  0.97896  0.0567939  0  0  0  0  0.25689  -0  0  0  0  0  0  0  0  0  0 
1704450111.527423000  -2.39935  0.215129  1.05511  0  0  -0.008599  0.112141  0.980217  0.0567939  0  0  0  0  0.245682  -0  0  0  0  0  0  0  0  0  0 
1704450111.532417000  -2.39878  0.220033  1.0554  0  0  -0.0086369  0.112141  0.981418  0.0567939  0  0  0  0  0.234723  -0  0  0  0  0  0  0  0  0  0 
1704450111.537416000  -2.39822  0.224943  1.05568  0  0  -0.0086748  0.112141  0.982564  0.0567939  0  0  0  0  0.224015  -0  0  0  0  0  0  0  0  0  0 
1704450111.542416000  -2.39766  0.229859  1.05597  0  0  -0.0087127  0.112141  0.983658  0.0567939  0  0  0  0  0.213557  -0  0  0  0  0  0  0  0  0  0 
1704450111.547434000  -2.3971  0.23478  1.05625  0  0  -0.0087505  0.112141  0.9847  0.0567939  0  0  0  0  0.203348  -0  0  0  0  0  0  0  0  0  0 
1704450111.552430000  -2.39654  0.239706  1.05653  0  0  -0.0087884  0.112141  0.985692  0.0567939  0  0  0  0  0.19339  -0  0  0  0  0  0  0  0  0  0 
1704450111.557417000  -2.39598  0.244637  1.05682  0  0  -0.0088263  0.112141  0.986635  0.0567939  0  0  0  0  0.183682  -0  0  0  0  0  0  0  0  0  0 
1704450111.562416000  -2.39542  0.249572  1.0571  0  0  -0.0088642  0.112141  0.987529  0.0567939  0  0  0  0  0.174223  -0  0  0  0  0  0  0  0  0  0 
1704450111.567433000  -2.39486  0.254512  1.05739  0  0  -0.0089021  0.112141  0.988377  0.0567939  0  0  0  0  0.165015  -0  0  0  0  0  0  0  0  0  0 
1704450111.572413000  -2.3943  0.259456  1.05767  0  0  -0.00894  0.112141  0.98918  0.0567939  0  0  0  0  0.156056  -0  0  0  0  0  0  0  0  0  0 
1704450111.577415000  -2.39374  0.264403  1.05795  0  0  -0.0089779  0.112141  0.989938  0.0567939  0  0  0  0  0.147348  -0  0  0  0  0  0  0  0  0  0 
1704450111.582414000  -2.39318  0.269355  1.05824  0  0  -0.0090157  0.112141  0.990654  0.0567939  0  0  0  0  0.13889  -0  0  0  0  0  0  0  0  0  0 
1704450111.587413000  -2.39262  0.27431  1.05852  0  0  -0.0090536  0.112141  0.991328  0.0567939  0  0  0  0  0.130681  -0  0  0  0  0  0  0  0  0  0 
1704450111.592413000  -2.39206  0.279268  1.05881  0  0  -0.0090915  0.112141  0.991961  0.0567939  0  0  0  0  0.122723  -0  0  0  0  0  0  0  0  0  0 
1704450111.597413000  -2.3915  0.284229  1.05909  0  0  -0.0091294  0.112141  0.992555  0.0567939  0  0  0  0  0.115015  -0  0  0  0  0  0  0  0  0  0 
1704450111.602414000  -2.39093  0.289194  1.05937  0  0  -0.0091673  0.112141  0.993112  0.0567939  0  0  0  0  0.107556  -0  0  0  0  0  0  0  0  0  0 
1704450111.607414000  -2.39037  0.294161  1.05966  0  0  -0.0092052  0.112141  0.993631  0.0567939  0  0  0  0  0.100348  -0  0  0  0  0  0  0  0  0  0 
1704450111.612415000  -2.38981  0.29913  1.05994  0  0  -0.009243  0.112141  0.994115  0.0567939  0  0  0  0  0.0933896  -0  0  0  0  0  0  0  0  0  0 
1704450111.617414000  -2.38925  0.304102  1.06023  0  0  -0.0092809  0.112141  0.994566  0.0567939  0  0  0  0  0.0866812  -0  0  0  0  0  0  0  0  0  0 
1704450111.622415000  -2.38869  0.309076  1.06051  0  0  -0.0093188  0.112141  0.994983  0.0567939  0  0  0  0  0.0802229  -0  0  0  0  0  0  0  0  0  0 
1704450111.627415000  -2.38813  0.314051  1.06079  0  0  -0.0093567  0.112141  0.995368  0.0567939  0  0  0  0  0.0740145  -0  0  0  0  0  0  0  0  0  0 
1704450111.632414000  -2.38757  0.319029  1.06108  0  0  -0.0093946  0.112141  0.995723  0.0567939  0  0  0  0  0.0680562  -0  0  0  0  0  0  0  0  0  0 
1704450111.637413000  -2.38701  0.324009  1.06136  0  0  -0.0094325  0.112141  0.996049  0.0567939  0  0  0  0  0.0623478  -0  0  0  0  0  0  0  0  0  0 
1704450111.642414000  -2.38645  0.32899  1.06165  0  0  -0.0094703  0.112141  0.996347  0.0567939  0  0  0  0  0.0568894  -0  0  0  0  0  0  0  0  0  0 
1704450111.647416000  -2.38589  0.333972  1.06193  0  0  -0.0095082  0.112141  0.996618  0.0567939  0  0  0  0  0.0516811  -0  0  0  0  0  0  0  0  0  0 
1704450111.652431000  -2.38533  0.338956  1.06221  0  0  -0.0095461  0.112141  0.996864  0.0567939  0  0  0  0  0.0467227  -0  0  0  0  0  0  0  0  0  0 
1704450111.657432000  -2.38477  0.343941  1.0625  0  0  -0.009584  0.112141  0.997086  0.0567939  0  0  0  0  0.0420144  -0  0  0  0  0  0  0  0  0  0 
1704450111.662432000  -2.38421  0.348927  1.06278  0  0  -0.0096219  0.112141  0.997285  0.0567939  0  0  0  0  0.037556  -0  0  0  0  0  0  0  0  0  0 
1704450111.667432000  -2.38365  0.353913  1.06307  0  0  -0.0096598  0.112141  0.997462  0.0567939  0  0  0  0  0.0333476  -0  0  0  0  0  0  0  0  0  0 
1704450111.672436000  -2.38308  0.358901  1.06335  0  0  -0.0096977  0.112141  0.997619  0.0567939  0  0  0  0  0.0293893  -0  0  0  0  0  0  0  0  0  0 
1704450111.677431000  -2.38252  0.36389  1.06363  0  0  -0.0097355  0.112141  0.997756  0.0567939  0  0  0  0  0.0256809  -0  0  0  0  0  0  0  0  0  0 
1704450111.682432000  -2.38196  0.368879  1.06392  0  0  -0.0097734  0.112141  0.997876  0.0567939  0  0  0  0  0.0222226  -0  0  0  0  0  0  0  0  0  0 
1704450111.687431000  -2.3814  0.373868  1.0642  0  0  -0.0098113  0.112141  0.997979  0.0567939  0  0  0  0  0.0190142  -0  0  0  0  0  0  0  0  0  0 
1704450111.692435000  -2.38084  0.378858  1.06449  0  0  -0.0098492  0.112141  0.998067  0.0567939  0  0  0  0  0.0160558  -0  0  0  0  0  0  0  0  0  0 
1704450111.697412000  -2.38028  0.383849  1.06477  0  0  -0.0098871  0.112141  0.99814  0.0567939  0  0  0  0  0.0133475  -0  0  0  0  0  0  0  0  0  0 
1704450111.702414000  -2.37972  0.38884  1.06505  0  0  -0.009925  0.112141  0.998201  0.0567939  0  0  0  0  0.0108891  -0  0  0  0  0  0  0  0  0  0 
1704450111.707414000  -2.37916  0.393831  1.06534  0  0  -0.0099628  0.112141  0.998249  0.0567939  0  0  0  0  0.0086808  -0  0  0  0  0  0  0  0  0  0 
1704450111.712415000  -2.3786  0.398822  1.06562  0  0  -0.0100007  0.112141  0.998288  0.0567939  0  0  0  0  0.0067224  -0  0  0  0  0  0  0  0  0  0 
1704450111.717414000  -2.37804  0.403814  1.06591  0  0  -0.0100386  0.112141  0.998317  0.0567939  0  0  0  0  0.005014  -0  0  0  0  0  0  0  0  0  0 
1704450111.722400000  -2.37748  0.408805  1.06619  0  0  -0.0100765  0.112141  0.998338  0.0567939  0  0  0  0  0.0035557  -0  0  0  0  0  0  0  0  0  0 
1704450111.727414000  -2.37692  0.413797  1.06647  0  0  -0.0101144  0.112141  0.998353  0.0567939  0  0  0  0  0.0023473  -0  0  0  0  0  0  0  0  0  0 
1704450111.732415000  -2.37636  0.418789  1.06676  0  0  -0.0101523  0.112141  0.998362  0.0567939  0  0  0  0  0.001389  -0  0  0  0  0  0  0  0  0  0 
1704450111.737414000  -2.3758  0.423781  1.06704  0  0  -0.0101901  0.112141  0.998367  0.0567939  0  0  0  0  0.0006806  -0  0  0  0  0  0  0  0  0  0 
1704450111.742418000  -2.37523  0.428773  1.06733  0  0  -0.010228  0.112141  0.998369  0.0567939  0  0  0  0  0.0002223  -0  0  0  0  0  0  0  0  0  0 
1704450111.747414000  -2.37467  0.433764  1.06761  0  0  -0.0102659  0.112141  0.99837  0.0567939  0  0  0  0  1.39e-05  -0  0  0  0  0  0  0  0  0  0 
1704450111.752415000  -2.37411  0.438756  1.06789  0  0  -0.0103038  0.112141  0.99837  0.0567939  0  0  0  0  -5.55e-05  -0  0  0  0  0  0  0  0  0  0 
1704450111.757414000  -2.37355  0.443748  1.06818  0  0  -0.0103417  0.112141  0.998369  0.0567939  0  0  0  0  -0.0003472  -0  0  0  0  0  0  0  0  0  0 
1704450111.762415000  -2.37299  0.44874  1.06846  0  0  -0.0103796  0.112141  0.998366  0.0567939  0  0  0  0  -0.0008888  -0  0  0  0  0  0  0  0  0  0 
1704450111.767415000  -2.37243  0.453732  1.06874  0  0  -0.0104174  0.112141  0.99836  0.0567939  0  0  0  0  -0.0016805  -0  0  0  0  0  0  0  0  0  0 
1704450111.772429000  -2.37187  0.458724  1.06903  0  0  -0.0104553  0.112141  0.998349  0.0567939  0  0  0  0  -0.0027221  -0  0  0  0  0  0  0  0  0  0 
1704450111.777417000  -2.37131  0.463715  1.06931  0  0  -0.0104932  0.112141  0.998332  0.0567939  0  0  0  0  -0.0040137  -0  0  0  0  0  0  0  0  0  0 
1704450111.782415000  -2.37075  0.468707  1.0696  0  0  -0.0105311  0.112141  0.998308  0.0567939  0  0  0  0  -0.0055554  -0  0  0  0  0  0  0  0  0  0 
1704450111.787416000  -2.37019  0.473698  1.06988  0  0  -0.010569  0.112141  0.998276  0.0567939  0  0  0  0  -0.007347  -0  0  0  0  0  0  0  0  0  0 
1704450111.792433000  -2.36963  0.47869  1.07016  0  0  -0.0106069  0.112141  0.998234  0.0567939  0  0  0  0  -0.0093887  -0  0  0  0  0  0  0  0  0  0 
1704450111.797410000  -2.36907  0.483681  1.07045  0  0  -0.0106447  0.112141  0.998182  0.0567939  0  0  0  0  -0.0116803  -0  0  0  0  0  0  0  0  0  0 
1704450111.802416000  -2.36851  0.488671  1.07073  0  0  -0.0106826  0.112141  0.998117  0.0567939  0  0  0  0  -0.0142219  -0  0  0  0  0  0  0  0  0  0 
1704450111.807411000  -2.36795  0.493662  1.07102  0  0  -0.0107205  0.112141  0.998039  0.0567939  0  0  0  0  -0.0170136  -0  0  0  0  0  0  0  0  0  0 
1704450111.812418000  -2.36738  0.498652  1.0713  0  0  -0.0107584  0.112141  0.997947  0.0567939  0  0  0  0  -0.0200552  -0  0  0  0  0  0  0  0  0  0 
1704450111.817415000  -2.36682  0.503641  1.07158  0  0  -0.0107963  0.112141  0.997838  0.0567939  0  0  0  0  -0.0233469  -0  0  0  0  0  0  0  0  0  0 
1704450111.822414000  -2.36626  0.50863  1.07187  0  0  -0.0108342  0.112141  0.997713  0.0567939  0  0  0  0  -0.0268885  -0  0  0  0  0  0  0  0  0  0 
1704450111.827420000  -2.3657  0.513618  1.07215  0  0  -0.0108721  0.112141  0.997569  0.0567939  0  0  0  0  -0.0306802  -0  0  0  0  0  0  0  0  0  0 
1704450111.832425000  -2.36514  0.518606  1.07244  0  0  -0.0109099  0.112141  0.997405  0.0567939  0  0  0  0  -0.0347218  -0  0  0  0  0  0  0  0  0  0 
1704450111.837415000  -2.36458  0.523592  1.07272  0  0  -0.0109478  0.112141  0.997221  0.0567939  0  0  0  0  -0.0390134  -0  0  0  0  0  0  0  0  0  0 
1704450111.842424000  -2.36402  0.528578  1.073  0  0  -0.0109857  0.112141  0.997015  0.0567939  0  0  0  0  -0.0435551  -0  0  0  0  0  0  0  0  0  0 
1704450111.847423000  -2.36346  0.533563  1.07329  0  0  -0.0110236  0.112141  0.996785  0.0567939  0  0  0  0  -0.0483467  -0  0  0  0  0  0  0  0  0  0 
1704450111.852425000  -2.3629  0.538546  1.07357  0  0  -0.0110615  0.112141  0.996531  0.0567939  0  0  0  0  -0.0533884  -0  0  0  0  0  0  0  0  0  0 
1704450111.857427000  -2.36234  0.543528  1.07386  0  0  -0.0110994  0.112141  0.996251  0.0567939  0  0  0  0  -0.05868  -0  0  0  0  0  0  0  0  0  0 
1704450111.862431000  -2.36178  0.548508  1.07414  0  0  -0.0111372  0.112141  0.995944  0.0567939  0  0  0  0  -0.0642216  -0  0  0  0  0  0  0  0  0  0 
1704450111.867432000  -2.36122  0.553487  1.07442  0  0  -0.0111751  0.112141  0.995608  0.0567939  0  0  0  0  -0.0700133  -0  0  0  0  0  0  0  0  0  0 
1704450111.872418000  -2.36066  0.558464  1.07471  0  0  -0.011213  0.112141  0.995243  0.0567939  0  0  0  0  -0.0760549  -0  0  0  0  0  0  0  0  0  0 
1704450111.877414000  -2.3601  0.56344  1.07499  0  0  -0.0112509  0.112141  0.994847  0.0567939  0  0  0  0  -0.0823466  -0  0  0  0  0  0  0  0  0  0 
1704450111.882398000  -2.35954  0.568413  1.07528  0  0  -0.0112888  0.112141  0.994419  0.0567939  0  0  0  0  -0.0888882  -0  0  0  0  0  0  0  0  0  0 
1704450111.887402000  -2.35897  0.573384  1.07556  0  0  -0.0113267  0.112141  0.993958  0.0567939  0  0  0  0  -0.0956798  -0  0  0  0  0  0  0  0  0  0 
1704450111.892415000  -2.35841  0.578352  1.07584  0  0  -0.0113645  0.112141  0.993462  0.0567939  0  0  0  0  -0.102721  -0  0  0  0  0  0  0  0  0  0 
1704450111.897408000  -2.35785  0.583318  1.07613  0  0  -0.0114024  0.112141  0.99293  0.0567939  0  0  0  0  -0.110013  -0  0  0  0  0  0  0  0  0  0 
1704450111.902411000  -2.35729  0.588282  1.07641  0  0  -0.0114403  0.112141  0.992362  0.0567939  0  0  0  0  -0.117555  -0  0  0  0  0  0  0  0  0  0 
1704450111.907410000  -2.35673  0.593242  1.0767  0  0  -0.0114782  0.112141  0.991754  0.0567939  0  0  0  0  -0.125346  -0  0  0  0  0  0  0  0  0  0 
1704450111.912412000  -2.35617  0.598199  1.07698  0  0  -0.0115161  0.112141  0.991108  0.0567939  0  0  0  0  -0.133388  -0  0  0  0  0  0  0  0  0  0 
1704450111.917410000  -2.35561  0.603153  1.07726  0  0  -0.011554  0.112141  0.99042  0.0567939  0  0  0  0  -0.14168  -0  0  0  0  0  0  0  0  0  0 
1704450111.922414000  -2.35505  0.608103  1.07755  0  0  -0.0115919  0.112141  0.98969  0.0567939  0  0  0  0  -0.150221  -0  0  0  0  0  0  0  0  0  0 
1704450111.927412000  -2.35449  0.61305  1.07783  0  0  -0.0116297  0.112141  0.988918  0.0567939  0  0  0  0  -0.159013  -0  0  0  0  0  0  0  0  0  0 
1704450111.932413000  -2.35393  0.617992  1.07812  0  0  -0.0116676  0.112141  0.9881  0.0567939  0  0  0  0  -0.168055  -0  0  0  0  0  0  0  0  0  0 
1704450111.937401000  -2.35337  0.622931  1.0784  0  0  -0.0117055  0.112141  0.987237  0.0567939  0  0  0  0  -0.177346  -0  0  0  0  0  0  0  0  0  0 
1704450111.942415000  -2.35281  0.627865  1.07868  0  0  -0.0117434  0.112141  0.986326  0.0567939  0  0  0  0  -0.186888  -0  0  0  0  0  0  0  0  0  0 
1704450111.947407000  -2.35225  0.632794  1.07897  0  0  -0.0117813  0.112141  0.985367  0.0567939  0  0  0  0  -0.19668  -0  0  0  0  0  0  0  0  0  0 
1704450111.952403000  -2.35169  0.637718  1.07925  0  0  -0.0118192  0.112141  0.984359  0.0567939  0  0  0  0  -0.206721  -0  0  0  0  0  0  0  0  0  0 
1704450111.957400000  -2.35112  0.642637  1.07954  0  0  -0.011857  0.112141  0.9833  0.0567939  0  0  0  0  -0.217013  -0  0  0  0  0  0  0  0  0  0 
1704450111.962400000  -2.35056  0.647551  1.07982  0  0  -0.0118949  0.112141  0.982188  0.0567939  0  0  0  0  -0.227554  -0  0  0  0  0  0  0  0  0  0 
1704450111.967411000  -2.35  0.652459  1.0801  0  0  -0.0119328  0.112141  0.981024  0.0567939  0  0  0  0  -0.238346  -0  0  0  0  0  0  0  0  0  0 
1704450111.972402000  -2.34944  0.657361  1.08039  0  0  -0.0119707  0.112141  0.979804  0.0567939  0  0  0  0  -0.249388  -0  0  0  0  0  0  0  0  0  0 
1704450111.977401000  -2.34888  0.662257  1.08067  0  0  -0.0120086  0.112141  0.978529  0.0567939  0  0  0  0  -0.260679  -0  0  0  0  0  0  0  0  0  0 
1704450111.982415000  -2.34832  0.667146  1.08096  0  0  -0.0120465  0.112141  0.977197  0.0567939  0  0  0  0  -0.272221  -0  0  0  0  0  0  0  0  0  0 
1704450111.987412000  -2.34776  0.672029  1.08124  0  0  -0.0120843  0.112141  0.975807  0.0567939  0  0  0  0  -0.284013  -0  0  0  0  0  0  0  0  0  0 
1704450111.992420000  -2.3472  0.676904  1.08152  0  0  -0.0121222  0.112141  0.974357  0.0567939  0  0  0  0  -0.296054  -0  0  0  0  0  0  0  0  0  0 
1704450111.997418000  -2.34664  0.681772  1.08181  0  0  -0.0121601  0.112141  0.972846  0.0567939  0  0  0  0  -0.308346  -0  0  0  0  0  0  0  0  0  0 
1704450112.002418000  -2.34608  0.686633  1.08209  0  0  -0.012198  0.112141  0.971273  0.0567939  0  0  0  0  -0.320888  -0  0  0  0  0  0  0  0  0  0 
1704450112.007418000  -2.34552  0.691485  1.08238  0  0  -0.0122359  0.112141  0.969636  0.0567939  0  0  0  0  -0.333679  -0  0  0  0  0  0  0  0  0  0 
1704450112.012415000  -2.34496  0.696329  1.08266  0  0  -0.0122738  0.112141  0.967936  0.0567939  0  0  0  0  -0.346721  -0  0  0  0  0  0  0  0  0  0 
1704450112.017419000  -2.3444  0.701164  1.08294  0  0  -0.0123116  0.112141  0.966169  0.0567939  0  0  0  0  -0.360013  -0  0  0  0  0  0  0  0  0  0 
1704450112.022415000  -2.34384  0.705991  1.08323  0  0  -0.0123495  0.112141  0.964335  0.0567939  0  0  0  0  -0.373554  -0  0  0  0  0  0  0  0  0  0 
1704450112.027417000  -2.34327  0.710807  1.08351  0  0  -0.0123874  0.112141  0.962433  0.0567939  0  0  0  0  -0.387346  -0  0  0  0  0  0  0  0  0  0 
1704450112.032419000  -2.34271  0.715615  1.0838  0  0  -0.0124253  0.112141  0.960461  0.0567939  0  0  0  0  -0.401387  -0  0  0  0  0  0  0  0  0  0 
1704450112.037420000  -2.34215  0.720412  1.08408  0  0  -0.0124632  0.112141  0.958419  0.0567939  0  0  0  0  -0.415679  -0  0  0  0  0  0  0  0  0  0 
1704450112.042417000  -2.34159  0.725199  1.08436  0  0  -0.0125011  0.112141  0.956304  0.0567939  0  0  0  0  -0.430221  -0  0  0  0  0  0  0  0  0  0 
1704450112.047416000  -2.34103  0.729975  1.08465  0  0  -0.012539  0.112141  0.954116  0.0567939  0  0  0  0  -0.445012  -0  0  0  0  0  0  0  0  0  0 
1704450112.052419000  -2.34047  0.73474  1.08493  0  0  -0.0125768  0.112141  0.951853  0.0567939  0  0  0  0  -0.460054  -0  0  0  0  0  0  0  0  0  0 
1704450112.057418000  -2.33991  0.739493  1.08522  0  0  -0.0126147  0.112141  0.949515  0.0567939  0  0  0  0  -0.475346  -0  0  0  0  0  0  0  0  0  0 
1704450112.062418000  -2.33935  0.744235  1.0855  0  0  -0.0126526  0.112141  0.9471  0.0567939  0  0  0  0  -0.490887  -0  0  0  0  0  0  0  0  0  0 
1704450112.067415000  -2.33879  0.748964  1.08578  0  0  -0.0126905  0.112141  0.944606  0.0567939  0  0  0  0  -0.506679  -0  0  0  0  0  0  0  0  0  0 
1704450112.072404000  -2.33823  0.753681  1.08607  0  0  -0.0127284  0.112141  0.942032  0.0567939  0  0  0  0  -0.522721  -0  0  0  0  0  0  0  0  0  0 
1704450112.077410000  -2.33767  0.758384  1.08635  0  0  -0.0127663  0.112141  0.939378  0.0567939  0  0  0  0  -0.539012  -0  0  0  0  0  0  0  0  0  0 
1704450112.082409000  -2.33711  0.763074  1.08664  0  0  -0.0128041  0.112141  0.936642  0.0567939  0  0  0  0  -0.555554  -0  0  0  0  0  0  0  0  0  0 
1704450112.087411000  -2.33655  0.767751  1.08692  0  0  -0.012842  0.112141  0.933822  0.0567939  0  0  0  0  -0.572345  -0  0  0  0  0  0  0  0  0  0 
1704450112.092412000  -2.33599  0.772412  1.0872  0  0  -0.0128799  0.112141  0.930918  0.0567939  0  0  0  0  -0.589387  -0  0  0  0  0  0  0  0  0  0 
1704450112.097410000  -2.33542  0.77706  1.08749  0  0  -0.0129178  0.112141  0.927928  0.0567939  0  0  0  0  -0.606679  -0  0  0  0  0  0  0  0  0  0 
1704450112.102412000  -2.33486  0.781692  1.08777  0  0  -0.0129557  0.112141  0.924851  0.0567939  0  0  0  0  -0.62422  -0  0  0  0  0  0  0  0  0  0 
1704450112.107410000  -2.3343  0.786308  1.08805  0  0  -0.0129936  0.112141  0.921685  0.0567939  0  0  0  0  -0.642012  -0  0  0  0  0  0  0  0  0  0 
1704450112.112410000  -2.33374  0.790908  1.08834  0  0  -0.0130314  0.112141  0.91843  0.0567939  0  0  0  0  -0.660054  -0  0  0  0  0  0  0  0  0  0 
1704450112.117410000  -2.33318  0.795492  1.08862  0  0  -0.0130693  0.112141  0.915084  0.0567939  0  0  0  0  -0.678345  -0  0  0  0  0  0  0  0  0  0 
1704450112.122397000  -2.33262  0.800059  1.08891  0  0  -0.0131072  0.112141  0.911646  0.0567939  0  0  0  0  -0.696887  -0  0  0  0  0  0  0  0  0  0 
1704450112.127409000  -2.33206  0.804608  1.08919  0  0  -0.0131451  0.112141  0.908115  0.0567939  0  0  0  0  -0.715409  -0  0  0  0  0  0  0  0  0  0 
1704450112.132401000  -2.3315  0.80914  1.08947  0  0  -0.013183  0.112141  0.904493  0.0567939  0  0  0  0  -0.733681  -0  0  0  0  0  0  0  0  0  0 
1704450112.137400000  -2.33094  0.813653  1.08976  0  0  -0.0132209  0.112141  0.900779  0.0567939  0  0  0  0  -0.751704  -0  0  0  0  0  0  0  0  0  0 
1704450112.142462000  -2.33038  0.818148  1.09004  0  0  -0.0132587  0.112141  0.896976  0.0567939  0  0  0  0  -0.769476  -0  0  0  0  0  0  0  0  0  0 
1704450112.147407000  -2.32982  0.822623  1.09033  0  0  -0.0132966  0.112141  0.893085  0.0567939  0  0  0  0  -0.786998  -0  0  0  0  0  0  0  0  0  0 
1704450112.152400000  -2.32926  0.827078  1.09061  0  0  -0.0133345  0.112141  0.889106  0.0567939  0  0  0  0  -0.804271  -0  0  0  0  0  0  0  0  0  0 
1704450112.157400000  -2.3287  0.831514  1.09089  0  0  -0.0133724  0.112141  0.885042  0.0567939  0  0  0  0  -0.821293  -0  0  0  0  0  0  0  0  0  0 
