ts fx fy fz tx ty tz exfx exfy exfz extx exty extz xd yd zd rolld pitchd yawd vxd vyd vzd wxd wyd wzd axd ayd azd e_x e_y e_z e_vx e_vy e_vz e_rx e_ry e_rz e_wx e_wy e_wz
1704450110.164741000  0  0  11.6194  0.0211589  -0.125241  0.0231113  nan  nan  nan  nan  nan  nan  -2.5  -0.3  1  0.00843271  -0.0334237  -0.000281807  0  0  0  0  0  0  0  0  0  0.0177834  0.00065349  -0.0117039  -0.00390408  0.00807097  -0.00661026  -0.0174127  0.0314925  -0.0275213  0.108562  -0.035333  0.00864761 
1704450110.169738000  0  0  11.7173  -0.0076829  -0.148252  0.0250087  nan  nan  nan  nan  nan  nan  -2.5  -0.3  1  0.00848511  -0.0359013  -0.000304568  0  0  0  0  0  0  0  0  0  0.0178335  0.000612719  -0.0118711  -0.000847646  0.00830766  -0.0160843  -0.0162249  0.0340376  -0.0277945  0.151877  -0.0143274  -0.0136575 
1704450110.174740000  0  0  11.7142  0.0698369  -0.14996  0.0206293  nan  nan  nan  nan  nan  nan  -2.5  -0.3  1  0.00903868  -0.0329441  -0.000297725  0  0  0  0  0  0  0  0  0  0.0177931  0.000659537  -0.0119308  -0.00416741  0.00883211  -0.0156127  -0.017685  0.0313638  -0.0271917  0.0207563  0.0115195  0.0381465 
1704450110.179724000  0  0  11.6372  -0.0303474  -0.125019  0.0231171  nan  nan  nan  nan  nan  nan  -2.5  -0.3  1  0.00745796  -0.0331284  -0.000247029  0  0  0  0  0  0  0  0  0  0.0178282  0.000600895  -0.0119579  -0.004292  0.00709642  -0.00756862  -0.0140641  0.0310866  -0.0274089  0.175503  -0.0323011  0.0072667 
1704450110.184741000  0  0  11.7113  -0.0531589  -0.141597  0.0269997  nan  nan  nan  nan  nan  nan  -2.5  -0.3  1  0.00826038  -0.0341769  -0.000282266  0  0  0  0  0  0  0  0  0  0.0178223  0.000646517  -0.0120727  -0.00282959  0.00796462  -0.0147801  -0.0133962  0.0321638  -0.0280118  0.212066  -0.0107501  -0.0378678 
1704450110.189744000  0  0  11.6779  0.0471727  -0.148726  0.0224511  nan  nan  nan  nan  nan  nan  -2.5  -0.3  1  0.00770385  -0.0332262  -0.000255928  0  0  0  0  0  0  0  0  0  0.0178422  0.000557633  -0.0121388  -0.00407989  0.00751041  -0.0111766  -0.0139764  0.0314958  -0.0274726  0.0312491  0.00811603  0.0169463 
1704450110.194718000  0  0  11.606  -0.0355933  -0.133382  0.0245374  nan  nan  nan  nan  nan  nan  -2.5  -0.3  1  0.00685788  -0.0328951  -0.000225554  0  0  0  0  0  0  0  0  0  0.0178615  0.000505152  -0.0121672  -0.0047397  0.00661634  -0.00367719  -0.0112837  0.0309888  -0.0277105  0.161625  -0.0159893  -0.00830403 
1704450110.199717000  0  0  11.6183  -0.00543527  -0.139575  0.0276869  nan  nan  nan  nan  nan  nan  -2.5  -0.3  1  0.00782962  -0.0330058  -0.000258381  0  0  0  0  0  0  0  0  0  0.0178426  0.000547208  -0.0122142  -0.00452824  0.00763316  -0.00479134  -0.0119822  0.0310808  -0.0282433  0.111721  -0.00530364  -0.0444113 
1704450110.204708000  0  0  11.6459  0.0724578  -0.150553  0.0240644  nan  nan  nan  nan  nan  nan  -2.5  -0.3  1  0.0073818  -0.0337338  -0.000248974  0  0  0  0  0  0  0  0  0  0.0178595  0.000488063  -0.0123154  -0.00364494  0.00728234  -0.00731539  -0.0126578  0.0320446  -0.0278721  -0.0267472  0.00684019  -8.26086e-05 
1704450110.209711000  0  0  11.5781  0.0420641  -0.134398  0.0248643  nan  nan  nan  nan  nan  nan  -2.5  -0.3  1  0.00832805  -0.0321479  -0.00026769  0  0  0  0  0  0  0  0  0  0.0178238  0.000530745  -0.01229  -0.00558989  0.00820793  -0.00044601  -0.0129639  0.0302667  -0.0279721  0.0321164  -0.00798185  -0.00966167 
1704450110.213723000  0  0  11.542  0.0644029  -0.125829  0.0265321  nan  nan  nan  nan  nan  nan  -2.5  -0.3  1  0.00897335  -0.0314868  -0.000282503  0  0  0  0  0  0  0  0  0  0.0177975  0.000566283  -0.0122729  -0.00639131  0.00882561  0.00319383  -0.0138585  0.0294336  -0.0282482  -0.00164848  -0.0167772  -0.0288516 
1704450110.218718000  0  0  11.6126  0.0953075  -0.143557  0.0236661  nan  nan  nan  nan  nan  nan  -2.5  -0.3  1  0.00905876  -0.0333933  -0.000302454  0  0  0  0  0  0  0  0  0  0.0178299  0.000533196  -0.012384  -0.00407253  0.00906292  -0.00370359  -0.0145717  0.0315292  -0.0279239  -0.05281  -0.00173655  0.00586387 
1704450110.224730000  0  0  11.568  0.132973  -0.133372  0.022917  nan  nan  nan  nan  nan  nan  -2.5  -0.3  1  0.0100612  -0.0308079  -0.000309927  0  0  0  0  0  0  0  0  0  0.0178123  0.000496539  -0.0123683  -0.00711574  0.0102493  0.0007892  -0.0164681  0.0290153  -0.0277361  -0.106449  0.0007353  0.0137439 
1704450110.229718000  0  0  11.4984  0.128911  -0.126928  0.0244032  nan  nan  nan  nan  nan  nan  -2.5  -0.3  1  0.0100105  -0.0313444  -0.000313732  0  0  0  0  0  0  0  0  0  0.0178346  0.000462634  -0.012333  -0.00677257  0.0102034  0.00779737  -0.0167737  0.0294213  -0.0278841  -0.0963364  -0.0146379  -0.00449081 
1704450110.234720000  0  0  11.6033  0.13997  -0.139392  0.0234671  nan  nan  nan  nan  nan  nan  -2.5  -0.3  1  0.0106641  -0.0328779  -0.000350562  0  0  0  0  0  0  0  0  0  0.0178231  0.000514945  -0.0124116  -0.00467211  0.0109267  -0.00270893  -0.0180141  0.0309574  -0.0277403  -0.106287  -0.00459637  0.00640864 
1704450110.239737000  0  0  11.5738  0.185105  -0.132152  0.0227709  nan  nan  nan  nan  nan  nan  -2.5  -0.3  1  0.0115377  -0.030131  -0.000347605  0  0  0  0  0  0  0  0  0  0.0177902  0.000507809  -0.0124281  -0.007813  0.0119068  0.000316525  -0.0201349  0.0283645  -0.0275878  -0.17185  0.0039984  0.0139862 
1704450110.244706000  0  0  11.4824  0.13287  -0.114126  0.0246423  nan  nan  nan  nan  nan  nan  -2.5  -0.3  1  0.0111426  -0.030651  -0.000341494  0  0  0  0  0  0  0  0  0  0.0178093  0.000485423  -0.0123511  -0.00754291  0.0114104  0.0094624  -0.0194375  0.0285361  -0.0277953  -0.0810654  -0.0308282  -0.0087303 
1704450110.249712000  0  0  11.6056  0.145648  -0.135934  0.0256963  nan  nan  nan  nan  nan  nan  -2.5  -0.3  1  0.0119528  -0.0320066  -0.000382521  0  0  0  0  0  0  0  0  0  0.0177916  0.000547295  -0.012436  -0.00558189  0.0123215  -0.00291545  -0.020753  0.030012  -0.0279857  -0.0935603  -0.00297671  -0.0206738 
1704450110.254717000  0  0  11.5863  0.197962  -0.13485  0.0236474  nan  nan  nan  nan  nan  nan  -2.5  -0.3  1  0.0123733  -0.029973  -0.000370829  0  0  0  0  0  0  0  0  0  0.017785  0.000524526  -0.0124187  -0.00794129  0.0128325  -0.00104578  -0.0225863  0.0281784  -0.0277566  -0.174853  0.0105731  0.00417676 
1704450110.259725000  0  0  11.5205  0.108935  -0.117404  0.024338  nan  nan  nan  nan  nan  nan  -2.5  -0.3  1  0.0121495  -0.0297158  -0.000360996  2e-07  2e-07  2e-07  0  0  0  0.000125  0.000125  0.000125  0.0177444  0.000579658  -0.0123567  -0.00831793  0.0123827  0.00555578  -0.0212737  0.0276159  -0.0278396  -0.0211774  -0.0169515  -0.00413226 
1704450110.264705000  0  0  11.605  0.102344  -0.135259  0.0255978  nan  nan  nan  nan  nan  nan  -2.5  -0.3  1  0.0120478  -0.0309999  -0.000373439  1.7e-06  1.7e-06  1.7e-06  0  0  0  0.0005  0.0005  0.0005  0.0177732  0.00056797  -0.0124206  -0.00663253  0.0124367  -0.00284826  -0.0210589  0.0291118  -0.0280423  -0.0107981  0.00341025  -0.0186954 
1704450110.269701000  0  0  11.6038  0.124477  -0.138934  0.023337  nan  nan  nan  nan  nan  nan  -2.5  -0.3  1  0.0120648  -0.0306395  -0.000369618  5.6e-06  5.6e-06  5.6e-06  0  0  0  0.001125  0.001125  0.001125  0.017788  0.000542402  -0.0124148  -0.00701142  0.0125855  -0.00269817  -0.021565  0.0289423  -0.0277902  -0.0474787  0.0116528  0.008733 
1704450110.274707000  0  0  11.5386  0.0647812  -0.125741  0.0230328  nan  nan  nan  nan  nan  nan  -2.5  -0.3  1  0.011715  -0.0290859  -0.000340808  1.33e-05  1.33e-05  1.33e-05  0  0  0  0.002  0.002  0.002  0.0177377  0.000597671  -0.0123588  -0.00875402  0.0120797  0.00393564  -0.0201503  0.0273229  -0.0277087  0.0510311  0.000966902  0.0118725 
1704450110.279709000  0  0  11.5802  0.0443406  -0.13656  0.0250354  nan  nan  nan  nan  nan  nan  -2.5  -0.3  1  0.0108866  -0.0303252  -0.000330401  2.6e-05  2.6e-05  2.6e-05  0  0  0  0.003125  0.003125  0.003125  0.0177676  0.000572474  -0.0123833  -0.00717057  0.0113707  -9.14054e-05  -0.0186587  0.0287495  -0.0279519  0.0762168  0.00889243  -0.0121926 
1704450110.284731000  0  0  11.6171  0.0538482  -0.150003  0.0233773  nan  nan  nan  nan  nan  nan  -2.5  -0.3  1  0.0116203  -0.0304924  -0.000354791  4.19e-05  4.19e-05  4.19e-05  0  0  0  0.00325  0.00325  0.00325  0.017736  0.00063667  -0.0124159  -0.00677971  0.0121092  -0.00377334  -0.0191789  0.0292075  -0.0277646  0.06303  0.0298935  0.00789476 
1704450110.289710000  0  0  11.5547  0.0419892  -0.139723  0.0221133  nan  nan  nan  nan  nan  nan  -2.5  -0.299999  1  0.0106636  -0.0281419  -0.000300965  5.9e-05  5.9e-05  5.9e-05  0  0  0  0.003625  0.003625  0.003625  0.017731  0.000588685  -0.0123543  -0.00958369  0.011109  0.00248059  -0.017674  0.0270893  -0.0275467  0.0722162  0.0288332  0.022339 
1704450110.293665000  0  0  11.5559  0.000401083  -0.134742  0.0247446  nan  nan  nan  nan  nan  nan  -2.5  -0.299999  1  0.0101744  -0.0286321  -0.000292785  7.85e-05  7.85e-05  7.85e-05  0  0  0  0.00425  0.00425  0.00425  0.0177043  0.000627653  -0.0123505  -0.00889141  0.0105328  0.00244701  -0.0161345  0.0275367  -0.0278583  0.136145  0.015816  -0.00937275 
1704450110.299719000  0  0  11.594  0.0211551  -0.156747  0.0245717  nan  nan  nan  nan  nan  nan  -2.5  -0.299999  1  0.010457  -0.0306012  -0.000322158  0.0001019  0.0001019  0.0001019  0  0  0  0.005125  0.005125  0.005125  0.0177478  0.000600512  -0.0123506  -0.00654492  0.0110539  -0.00135515  -0.0159889  0.02989  -0.0278897  0.0964889  0.0365879  -0.00668906 
1704450110.304706000  0  0  11.54  0.0704593  -0.143567  0.0223527  nan  nan  nan  nan  nan  nan  -2.5  -0.299998  1  0.00921455  -0.0280005  -0.000261085  0.0001302  0.0001302  0.0001302  0  0  0  0.00625  0.00625  0.00625  0.0177431  0.000539555  -0.0122857  -0.00952049  0.00986219  0.00408737  -0.0154046  0.0275106  -0.0275724  0.000256333  0.0323749  0.0194232 
1704450110.309709000  0  0  11.5353  -0.0168676  -0.130897  0.0262906  nan  nan  nan  nan  nan  nan  -2.5  -0.299997  1  0.00907701  -0.0288525  -0.000266166  0.0001648  0.0001648  0.0001648  0  0  0  0.007625  0.007625  0.007625  0.0177122  0.000587638  -0.0122665  -0.00834144  0.00974189  0.00470831  -0.0134356  0.0281511  -0.0280884  0.145216  0.00348547  -0.0274612 
1704450110.314711000  0  0  11.5524  0.0379907  -0.152508  0.026078  nan  nan  nan  nan  nan  nan  -2.5  -0.299996  1  0.00997086  -0.0301206  -0.000306093  0.0002069  0.0002069  0.0002069  0  0  0  0.00925  0.00925  0.00925  0.0177535  0.000550076  -0.0122343  -0.0067673  0.0110414  0.00302358  -0.0146481  0.0297823  -0.0281737  0.0539463  0.0296545  -0.0236198 
1704450110.318714000  0  0  11.522  0.106823  -0.142982  0.0228469  nan  nan  nan  nan  nan  nan  -2.5  -0.299995  1  0.00977676  -0.0281432  -0.000282722  0.0002577  0.0002577  0.0002577  0  0  0  0.011125  0.011125  0.011125  0.0177073  0.000590293  -0.0121934  -0.00877678  0.0109079  0.00619524  -0.0156985  0.0279197  -0.0277801  -0.0645681  0.027821  0.0151961 
1704450110.324704000  0  0  11.5074  0.0120089  -0.122147  0.0267203  nan  nan  nan  nan  nan  nan  -2.49999  -0.299994  1.00001  0.00918996  -0.0285916  -0.000272627  0.0003185  0.0003185  0.0003185  0  0  0  0.01325  0.01325  0.01325  0.017719  0.000547965  -0.0121456  -0.00810111  0.0105686  0.00783579  -0.0133401  0.0280512  -0.0282836  0.0909476  -0.0118649  -0.0309674 
1704450110.329703000  0  0  11.5212  0.0920461  -0.139324  0.0247141  nan  nan  nan  nan  nan  nan  -2.49999  -0.299992  1.00001  0.00979563  -0.0288726  -0.000295595  0.0003906  0.0003906  0.0003906  0  0  0  0.015625  0.015625  0.015625  0.0177428  0.000521002  -0.0121072  -0.00753328  0.011596  0.00654868  -0.0150457  0.0286489  -0.0281096  -0.042751  0.0148641  -0.00605216 
1704450110.334710000  0  0  11.5218  0.153517  -0.133155  0.0210224  nan  nan  nan  nan  nan  nan  -2.49999  -0.29999  1.00001  0.0101266  -0.0277988  -0.00029768  0.0004752  0.0004752  0.0004752  0  0  0  0.01825  0.01825  0.01825  0.0176997  0.000579295  -0.012073  -0.00835012  0.0121277  0.00664293  -0.0169267  0.0276258  -0.0275375  -0.140592  0.0121223  0.0368766 
1704450110.339716000  0  0  11.5043  0.106845  -0.116513  0.0241529  nan  nan  nan  nan  nan  nan  -2.49999  -0.299987  1.00001  0.0102732  -0.0270123  -0.000297879  0.0005735  0.0005735  0.0005735  0  0  0  0.021125  0.021125  0.021125  0.0177132  0.000560436  -0.0120235  -0.00899741  0.0126426  0.00863394  -0.0165852  0.0266573  -0.0278306  -0.057086  -0.0104694  -0.00175146 
1704450110.344717000  0  0  11.4941  0.152942  -0.125737  0.023856  nan  nan  nan  nan  nan  nan  -2.49998  -0.299984  1.00002  0.0101792  -0.0271499  -0.00030174  0.0006869  0.0006869  0.0006869  0  0  0  0.02425  0.02425  0.02425  0.0177164  0.000545688  -0.0119871  -0.00852565  0.0129113  0.00989849  -0.0176428  0.0269722  -0.0277788  -0.133451  0.00393635  0.00163443 
1704450110.349708000  0  0  11.5713  0.167944  -0.125496  0.0222421  nan  nan  nan  nan  nan  nan  -2.49998  -0.29998  1.00002  0.0104656  -0.0269639  -0.000313571  0.0008165  0.0008165  0.0008165  0  0  0  0.027625  0.027625  0.027625  0.0176836  0.000610555  -0.0120095  -0.00807479  0.0135387  0.00243403  -0.0188734  0.026794  -0.0275054  -0.150782  0.00500037  0.0201324 
1704450110.354710000  0  0  11.5261  0.168268  -0.111461  0.0231825  nan  nan  nan  nan  nan  nan  -2.49998  -0.299976  1.00002  0.0111052  -0.0244947  -0.000310403  0.0009635  0.0009635  0.0009635  0  0  0  0.03125  0.03125  0.03125  0.0176814  0.000616597  -0.0119435  -0.0105791  0.0146088  0.00725542  -0.020022  0.0243065  -0.0275361  -0.141638  0.000123375  0.00786288 
1704450110.359712000  0  0  11.5094  0.152752  -0.108385  0.0242442  nan  nan  nan  nan  nan  nan  -2.49997  -0.299971  1.00003  0.0105424  -0.0250673  -0.000310851  0.0011294  0.0011294  0.0011294  0  0  0  0.035125  0.035125  0.035125  0.017639  0.00068104  -0.0118936  -0.00943749  0.0142358  0.00926394  -0.0198721  0.0247524  -0.0276472  -0.114186  -0.00935443  -0.00510148 
1704450110.364705000  0  0  11.6289  0.151079  -0.12608  0.0248592  nan  nan  nan  nan  nan  nan  -2.49996  -0.299965  1.00004  0.0106053  -0.0254208  -0.000325576  0.0013152  0.0013152  0.0013152  0  0  0  0.03925  0.03925  0.03925  0.0176494  0.00068959  -0.0119661  -0.00830111  0.0148731  -0.00228151  -0.0203613  0.0254009  -0.027732  -0.106938  0.0179009  -0.0123762 
1704450110.369731000  0  0  11.5509  0.17041  -0.117361  0.0234715  nan  nan  nan  nan  nan  nan  -2.49996  -0.299957  1.00004  0.0102909  -0.0220835  -0.000293948  0.0015223  0.0015223  0.0015223  0  0  0  0.043625  0.043625  0.043625  0.0176452  0.000687665  -0.0118835  -0.0117838  0.014931  0.00593444  -0.0208882  0.0223224  -0.0275784  -0.138255  0.0278801  0.00447403 
1704450110.374732000  0  0  11.5305  0.0866814  -0.110036  0.0252459  nan  nan  nan  nan  nan  nan  -2.49995  -0.299949  1.00005  0.00906496  -0.0230854  -0.000288055  0.0017519  0.0017519  0.0017519  0  0  0  0.04825  0.04825  0.04825  0.0176052  0.000750459  -0.0118338  -0.0100815  0.0138911  0.0084449  -0.0187117  0.0232006  -0.0278167  -0.0017172  0.00686772  -0.0165853 
1704450110.379725000  0  0  11.671  0.096731  -0.13847  0.0257239  nan  nan  nan  nan  nan  nan  -2.49994  -0.29994  1.00006  0.00895696  -0.0236548  -0.000304061  0.0020052  0.0020052  0.0020052  0  0  0  0.053125  0.053125  0.053125  0.0176064  0.000773291  -0.0119428  -0.00856606  0.0143842  -0.00504575  -0.0187254  0.0243445  -0.0279815  -0.0202054  0.049802  -0.0210912 
1704450110.384735000  0  0  11.5888  0.138749  -0.133752  0.0215774  nan  nan  nan  nan  nan  nan  -2.49993  -0.299929  1.00007  0.00865595  -0.019916  -0.000279485  0.0022835  0.0022835  0.0022835  0  0  0  0.05825  0.05825  0.05825  0.0175267  0.000844301  -0.0118657  -0.0122512  0.0143767  0.00369645  -0.0194005  0.0211221  -0.0274662  -0.0922633  0.0684071  0.0286002 
1704450110.389736000  0  0  11.5629  0.0117922  -0.123959  0.0235639  nan  nan  nan  nan  nan  nan  -2.49992  -0.299917  1.00008  0.00624316  -0.0212853  -0.000256379  0.0025881  0.0025881  0.0025881  0  0  0  0.063625  0.063625  0.063625  0.017573  0.000813489  -0.0118079  -0.0102561  0.0122891  0.00686508  -0.0150023  0.0224739  -0.0276035  0.105451  0.0388086  0.00352387 
1704450110.394731000  0  0  11.7123  0.030028  -0.156117  0.024192  nan  nan  nan  nan  nan  nan  -2.4999  -0.299903  1.0001  0.00565836  -0.0217967  -0.000264725  0.0029202  0.0029202  0.0029202  0  0  0  0.06925  0.06925  0.06925  0.0175653  0.00082159  -0.0119522  -0.00870648  0.0123187  -0.00733942  -0.0142254  0.0238161  -0.0277169  0.0651007  0.0869532  -0.00359362 
1704450110.399726000  0  0  11.633  0.0601691  -0.141436  0.0205819  nan  nan  nan  nan  nan  nan  -2.49989  -0.299888  1.00011  0.00552144  -0.0187923  -0.000264555  0.003281  0.003281  0.003281  0  0  0  0.075125  0.075125  0.075125  0.0174985  0.000889227  -0.011882  -0.0114937  0.012617  0.00124258  -0.0144858  0.021224  -0.0271977  0.0115114  0.0817672  0.0388538 
1704450110.404714000  0  0  11.5728  -0.0499294  -0.12439  0.0233468  nan  nan  nan  nan  nan  nan  -2.49987  -0.29987  1.00013  0.0030536  -0.0188499  -0.000239157  0.0036719  0.0036719  0.0036719  0  0  0  0.08125  0.08125  0.08125  0.0175333  0.000842095  -0.0118095  -0.010937  0.0105772  0.00794147  -0.00988967  0.0213351  -0.0274036  0.176338  0.0492675  0.00412175 
1704450110.408719000  0  0  11.6756  -0.0323391  -0.135731  0.0258332  nan  nan  nan  nan  nan  nan  -2.49985  -0.299851  1.00015  0.00262208  -0.0185815  -0.00025272  0.004094  0.004094  0.004094  0  0  0  0.087625  0.087625  0.087625  0.0174927  0.000887066  -0.0118792  -0.0102444  0.0107208  -0.00162689  -0.00918031  0.0214819  -0.027756  0.137755  0.0690171  -0.0251725 
1704450110.414717000  0  0  11.6402  0.0292415  -0.137289  0.0224724  nan  nan  nan  nan  nan  nan  -2.49983  -0.299829  1.00017  0.00217017  -0.0171012  -0.000265011  0.0045485  0.0045485  0.0045485  0  0  0  0.09425  0.09425  0.09425  0.0174733  0.000884353  -0.0118652  -0.0112135  0.0109438  0.0027191  -0.00935432  0.0206453  -0.0273466  0.02523  0.0790004  0.0152004 
1704450110.419722000  0  0  11.5796  -0.0269337  -0.115386  0.0245241  nan  nan  nan  nan  nan  nan  -2.49981  -0.299805  1.00019  -0.000102946  -0.0154321  -0.000251611  0.0050369  0.0050369  0.0050369  0  0  0  0.101125  0.101125  0.101125  0.017492  0.000835639  -0.0117863  -0.0124886  0.00923193  0.00950658  -0.00596005  0.0191104  -0.0275489  0.100427  0.0514731  -0.00999809 
1704450110.424722000  0  0  11.6533  -0.0119617  -0.124336  0.0278059  nan  nan  nan  nan  nan  nan  -2.49978  -0.299779  1.00022  -0.00022784  -0.0158076  -0.000276299  0.0055602  0.0055602  0.0055599  0  0  0  0.10825  0.10825  0.108029  0.0174448  0.000890571  -0.0118188  -0.0110375  0.009756  0.0028604  -0.00569098  0.0198458  -0.0280831  0.0704273  0.0618028  -0.0478647 
1704450110.429716000  0  0  11.6332  0.0437022  -0.116873  0.0239589  nan  nan  nan  nan  nan  nan  -2.49975  -0.29975  1.00025  -0.000213626  -0.0139746  -0.000304915  0.0061198  0.0061198  0.0061167  0  0  0  0.115625  0.115625  0.114684  0.0173795  0.000948254  -0.0117799  -0.0121824  0.0104627  0.00556972  -0.00651234  0.0183317  -0.0277088  -0.0256523  0.0608336  -0.000558667 
1704450110.434735000  0  0  11.5596  0.0357049  -0.0918884  0.0251459  nan  nan  nan  nan  nan  nan  -2.49972  -0.299718  1.00028  -0.00174926  -0.01126  -0.000317604  0.0067169  0.0067169  0.0067063  0  0  0  0.12325  0.12325  0.121088  0.017348  0.000912574  -0.0117162  -0.0144373  0.00966045  0.013684  -0.00497838  0.0157133  -0.027839  -0.0238616  0.0367952  -0.014985 
1704450110.439726000  0  0  11.6105  0.0241066  -0.0976504  0.0271494  nan  nan  nan  nan  nan  nan  -2.49968  -0.299683  1.00032  -0.0023925  -0.0123946  -0.000338147  0.0073527  0.0073527  0.0073272  0  0  0  0.131125  0.131125  0.127243  0.0173839  0.000877733  -0.0117086  -0.0122902  0.0098822  0.00916253  -0.00426885  0.0170164  -0.0281768  -0.00841009  0.0364067  -0.037966 
1704450110.444720000  0  0  11.6356  0.11176  -0.102835  0.0222152  nan  nan  nan  nan  nan  nan  -2.49964  -0.299644  1.00036  -0.00211887  -0.0102023  -0.000377983  0.0080285  0.0080285  0.0079783  0  0  0  0.13925  0.13925  0.133148  0.0173098  0.000936124  -0.0116877  -0.0136792  0.0109616  0.00720302  -0.00630968  0.0153183  -0.0275925  -0.153365  0.0604105  0.0215018 
1704450110.449715000  0  0  11.5693  0.108162  -0.0817629  0.0229652  nan  nan  nan  nan  nan  nan  -2.4996  -0.299602  1.0004  -0.00365592  -0.0074119  -0.000405203  0.0087456  0.0087456  0.0086583  0  0  0  0.147625  0.147625  0.138803  0.0172662  0.000913868  -0.0116218  -0.0158754  0.0102211  0.0144663  -0.00551186  0.0126989  -0.0275411  -0.153473  0.0436252  0.0108378 
1704450110.454717000  0  0  11.5977  0.07757  -0.0873827  0.0257118  nan  nan  nan  nan  nan  nan  -2.49956  -0.299557  1.00044  -0.00427558  -0.00854074  -0.000429584  0.0095052  0.0095052  0.0093659  0  0  0  0.15625  0.15625  0.144207  0.0172959  0.00090094  -0.0115905  -0.0136735  0.0105013  0.012091  -0.004994  0.0140164  -0.0278577  -0.101232  0.0428505  -0.0223639 
1704450110.459726000  0  0  11.6515  0.182607  -0.0968552  0.0219527  nan  nan  nan  nan  nan  nan  -2.49951  -0.299507  1.00049  -0.00396481  -0.0065914  -0.000474466  0.0103084  0.0103085  0.0100999  0  0  0  0.16501  0.165125  0.149362  0.0172189  0.00096282  -0.0115827  -0.0146952  0.0116829  0.00714117  -0.00785515  0.0126531  -0.0273713  -0.271408  0.0719528  0.0224623 
1704450110.464715000  0  0  11.5898  0.155442  -0.088093  0.0227617  nan  nan  nan  nan  nan  nan  -2.49945  -0.299453  1.00054  -0.00530619  -0.0045559  -0.000511725  0.0111549  0.0111569  0.0108591  0  0  0  0.173547  0.17425  0.154267  0.0171931  0.000946621  -0.0115039  -0.0160354  0.0112419  0.0137964  -0.00733804  0.0110026  -0.0273015  -0.225506  0.0697356  0.0107936 
1704450110.469703000  0  0  11.6202  0.111048  -0.0957999  0.0259014  nan  nan  nan  nan  nan  nan  -2.4994  -0.299395  1.0006  -0.00604387  -0.00456022  -0.000544338  0.0120435  0.0120515  0.0116422  0  0  0  0.181833  0.183625  0.158922  0.0172045  0.000956077  -0.0114913  -0.0151163  0.0114121  0.0111992  -0.00668386  0.0114784  -0.0276817  -0.148871  0.0799657  -0.0269498 
1704450110.474735000  0  0  11.6846  0.187444  -0.112431  0.0232553  nan  nan  nan  nan  nan  nan  -2.49933  -0.299333  1.00066  -0.00625277  -0.00326964  -0.000587855  0.0129728  0.0129935  0.0124479  0  0  0  0.18987  0.19325  0.163327  0.017121  0.00101896  -0.0114907  -0.0154706  0.0120644  0.00510041  -0.00873784  0.0110401  -0.0273885  -0.272873  0.114473  0.00517464 
1704450110.479722000  0  0  11.645  0.137462  -0.111008  0.0233674  nan  nan  nan  nan  nan  nan  -2.49927  -0.299265  1.00072  -0.00791303  -0.00211073  -0.000628397  0.0139417  0.0139844  0.013275  0  0  0  0.197656  0.203125  0.167481  0.017126  0.00101548  -0.0114255  -0.0159496  0.0113056  0.00945986  -0.00750962  0.0104992  -0.0272882  -0.190765  0.116428  0.00250742 
1704450110.483725000  0  0  11.6519  0.102398  -0.113286  0.0261388  nan  nan  nan  nan  nan  nan  -2.49919  -0.299193  1.00079  -0.00902507  -0.000304519  -0.000679552  0.014949  0.0150252  0.0141223  0  0  0  0.205192  0.21325  0.171386  0.0170359  0.00104614  -0.011405  -0.0169588  0.0110912  0.00917309  -0.00640753  0.00933983  -0.0276569  -0.135204  0.130481  -0.0304237 
1704450110.489703000  0  0  11.7095  0.123215  -0.134986  0.0246686  nan  nan  nan  nan  nan  nan  -2.49912  -0.299115  1.00087  -0.0102575  -0.000646561  -0.000713068  0.0159933  0.0161173  0.0149885  0  0  0  0.212479  0.223625  0.175041  0.0170422  0.00108004  -0.0114292  -0.0157637  0.0107049  0.00377918  -0.0064991  0.0108649  -0.0275373  -0.172964  0.157714  -0.0120728 
1704450110.494722000  0  0  11.7298  0.0827081  -0.148043  0.023977  nan  nan  nan  nan  nan  nan  -2.49903  -0.299032  1.00094  -0.011853  0.000105703  -0.000758553  0.0170733  0.0172619  0.0158723  0  0  0  0.219515  0.23425  0.178446  0.0170359  0.00108672  -0.0114474  -0.0158276  0.010022  0.00218282  -0.00497351  0.0112265  -0.0274164  -0.110918  0.178818  -0.00419 
1704450110.499734000  0  0  11.7017  0.0686495  -0.145505  0.0240263  nan  nan  nan  nan  nan  nan  -2.49895  -0.298942  1.00102  -0.0132084  0.00288929  -0.000833165  0.018188  0.0184602  0.0167725  0  0  0  0.226302  0.245125  0.1816  0.0169466  0.00113506  -0.0113956  -0.0180564  0.00960438  0.00531362  -0.0038968  0.00951581  -0.0274101  -0.0940269  0.188634  -0.00492501 
1704450110.504723000  0  0  11.74  0.0217539  -0.156481  0.0247574  nan  nan  nan  nan  nan  nan  -2.49885  -0.298847  1.00111  -0.015546  0.000964305  -0.000847792  0.0193359  0.0197135  0.0176879  0  0  0  0.232838  0.25625  0.184505  0.0169769  0.00111622  -0.0114364  -0.0151902  0.00814881  0.00186494  -0.00129002  0.0123728  -0.0274647  -0.0293273  0.184714  -0.0141054 
1704450110.509724000  0  0  11.7936  0.0342144  -0.174407  0.0235401  nan  nan  nan  nan  nan  nan  -2.49875  -0.298745  1.0012  -0.0163594  0.0029331  -0.000918688  0.020516  0.0210231  0.0186172  0  0  0  0.239125  0.267625  0.18716  0.0168877  0.0011634  -0.0114655  -0.0165618  0.00829027  -0.00319094  -0.000827211  0.011814  -0.0273327  -0.0563215  0.22264  0.000706036 
1704450110.514723000  0  0  11.7241  0.0238243  -0.154065  0.0231365  nan  nan  nan  nan  nan  nan  -2.49865  -0.298637  1.0013  -0.0190282  0.00577751  -0.00101855  0.0217268  0.0223902  0.0195591  0  0  0  0.245161  0.27925  0.189565  0.016884  0.00112655  -0.0114431  -0.0191355  0.00672364  0.00423596  0.00151536  0.0098614  -0.0271575  -0.0569615  0.201549  0.00409439 
1704450110.519721000  0  0  11.7548  -0.06052  -0.153228  0.0264082  nan  nan  nan  nan  nan  nan  -2.49853  -0.298521  1.0014  -0.0210263  0.0032818  -0.00101541  0.0229671  0.023816  0.0205124  0  0  0  0.250947  0.291125  0.191719  0.0168876  0.00111162  -0.0115025  -0.0156353  0.00572186  0.00150153  0.00479758  0.0130278  -0.0275476  0.0713348  0.173135  -0.0353065 
1704450110.524722000  0  0  11.8059  0.0271002  -0.165689  0.0242733  nan  nan  nan  nan  nan  nan  -2.49842  -0.298398  1.0015  -0.0217176  0.00586917  -0.00111178  0.0242358  0.0253019  0.0214758  0  0  0  0.256484  0.30325  0.193624  0.0167954  0.00114942  -0.0115346  -0.0178156  0.00608836  -0.00334988  0.00406341  0.0117361  -0.0273749  -0.084644  0.207163  -0.0086478 
1704450110.529723000  0  0  11.7086  0.0231149  -0.137173  0.0229166  nan  nan  nan  nan  nan  nan  -2.49829  -0.298268  1.00161  -0.0241939  0.00889915  -0.00123754  0.0255316  0.026849  0.0224482  0  0  0  0.26177  0.315625  0.195279  0.0167527  0.00112157  -0.0115052  -0.0205547  0.00490733  0.00683146  0.0059129  0.0093954  -0.0270824  -0.0929577  0.174231  0.00617444 
1704450110.533731000  0  0  11.7021  -0.0758103  -0.119732  0.0269733  nan  nan  nan  nan  nan  nan  -2.49816  -0.29813  1.00173  -0.0263055  0.00783013  -0.00126612  0.0268531  0.0284585  0.0234282  0  0  0  0.266807  0.32825  0.196684  0.0166705  0.00111173  -0.0115103  -0.0185661  0.00393248  0.00768596  0.00950588  0.0106602  -0.0275933  0.0596951  0.131212  -0.0423625 
1704450110.539735000  0  0  11.7691  0.0656636  -0.137863  0.0246244  nan  nan  nan  nan  nan  nan  -2.49802  -0.297983  1.00185  -0.0267209  0.00907168  -0.00134046  0.0281992  0.0301319  0.0244146  0  0  0  0.271593  0.341125  0.197838  0.0166153  0.00114341  -0.0116021  -0.0193881  0.00465008  0.00129318  0.00738948  0.0106694  -0.0274414  -0.184254  0.1647  -0.0125907 
1704450110.544723000  0  0  11.6891  0.0442476  -0.104747  0.0224685  nan  nan  nan  nan  nan  nan  -2.49788  -0.297828  1.00197  -0.0287541  0.0115649  -0.00146852  0.0295686  0.0318702  0.0254062  0  0  0  0.27613  0.35425  0.198743  0.0165677  0.00111747  -0.0115659  -0.0215627  0.00406465  0.00958682  0.00865543  0.00848535  -0.0270573  -0.155348  0.121923  0.0119002 
1704450110.549722000  0  0  11.6914  -0.0275549  -0.0836804  0.0271154  nan  nan  nan  nan  nan  nan  -2.49773  -0.297665  1.0021  -0.0303466  0.0115174  -0.00152331  0.0309601  0.0336748  0.0264016  0  0  0  0.280416  0.367625  0.199398  0.0164751  0.00113832  -0.0115365  -0.0208161  0.00367967  0.00936264  0.0110253  0.00864249  -0.02765  -0.0425287  0.08159  -0.0436141 
1704450110.554722000  0  0  11.7323  0.0980998  -0.101266  0.0244405  nan  nan  nan  nan  nan  nan  -2.49757  -0.297492  1.00223  -0.0314971  0.0123529  -0.0016008  0.0323724  0.0355469  0.0273998  0  0  0  0.284452  0.38125  0.199803  0.0163926  0.00113432  -0.0116126  -0.0211814  0.00377213  0.00553776  0.00935094  0.00864881  -0.0273785  -0.260943  0.114091  -0.0108506 
1704450110.559721000  0  0  11.6834  0.0840598  -0.0792304  0.0219615  nan  nan  nan  nan  nan  nan  -2.4974  -0.297309  1.00237  -0.0325822  0.0146775  -0.00172788  0.0338042  0.0374877  0.0283993  0  0  0  0.288239  0.395125  0.199958  0.0162672  0.00115897  -0.0115411  -0.0230722  0.00418229  0.0104363  0.00933633  0.00661635  -0.0269682  -0.234827  0.0905418  0.017673 
1704450110.564705000  0  0  11.6565  0.0505044  -0.0661517  0.0251324  nan  nan  nan  nan  nan  nan  -2.49723  -0.297117  1.00252  -0.0348442  0.0157763  -0.00183731  0.0352543  0.0394985  0.0293989  0  0  0  0.291775  0.40925  0.199862  0.0161995  0.00113973  -0.0115225  -0.0237418  0.00331202  0.0132098  0.011089  0.00578691  -0.0272593  -0.187578  0.0733669  -0.0215199 
1704450110.569743000  0  0  11.7236  0.119744  -0.0860902  0.0241016  nan  nan  nan  nan  nan  nan  -2.49705  -0.296914  1.00267  -0.0361608  0.0156441  -0.00189123  0.0367215  0.0415806  0.0303975  0  0  0  0.295062  0.423625  0.199517  0.016093  0.00115883  -0.0115306  -0.0230778  0.00313433  0.00639177  0.00996285  0.00668913  -0.0271623  -0.306204  0.102624  -0.00880641 
1704450110.574733000  0  0  11.7094  0.131846  -0.0786352  0.0226368  nan  nan  nan  nan  nan  nan  -2.49686  -0.296701  1.00282  -0.0368782  0.017831  -0.00202104  0.0382045  0.0437352  0.0313937  0  0  0  0.298098  0.43825  0.198922  0.0159922  0.00115692  -0.0115287  -0.0249962  0.00401164  0.00786705  0.00898325  0.00497505  -0.0268805  -0.320296  0.103365  0.00759147 
1704450110.579726000  0  0  11.66  0.11462  -0.0747935  0.0246661  nan  nan  nan  nan  nan  nan  -2.49667  -0.296476  1.00298  -0.0394631  0.0187513  -0.00214142  0.0397021  0.0459635  0.0323863  0  0  0  0.300885  0.453125  0.198077  0.0159213  0.00113336  -0.0114884  -0.0254919  0.00295921  0.0128172  0.0102156  0.00455018  -0.0270206  -0.298863  0.0998577  -0.0180268 
1704450110.584725000  0  0  11.7452  0.118254  -0.0947012  0.0250054  nan  nan  nan  nan  nan  nan  -2.49647  -0.296241  1.00315  -0.0410568  0.0177257  -0.00216703  0.041213  0.0482669  0.033374  0  0  0  0.303421  0.46825  0.196981  0.0158156  0.00114676  -0.0115201  -0.0239376  0.00245315  0.00411404  0.0102264  0.00637194  -0.0271005  -0.305681  0.121256  -0.0216559 
1704450110.589736000  0  0  11.7391  0.14553  -0.0986318  0.0233266  nan  nan  nan  nan  nan  nan  -2.49626  -0.295994  1.00332  -0.0417867  0.0203428  -0.00232729  0.0427359  0.0506465  0.0343557  0  0  0  0.305707  0.483625  0.195636  0.0156953  0.00114949  -0.0115265  -0.0264082  0.00336481  0.00473185  0.00895546  0.00461773  -0.0268706  -0.345393  0.143415  -0.00178305 
1704450110.594727000  0  0  11.6795  0.103413  -0.0955705  0.0246786  nan  nan  nan  nan  nan  nan  -2.49604  -0.295734  1.00349  -0.044935  0.0207194  -0.00244629  0.0442696  0.0531035  0.03533  0  0  0  0.307744  0.49925  0.194041  0.0156123  0.00113731  -0.0115168  -0.0263074  0.00178375  0.0107571  0.0110528  0.00493278  -0.0269223  -0.285219  0.135075  -0.0193335 
1704450110.599728000  0  0  11.7725  0.0901218  -0.116073  0.0251869  nan  nan  nan  nan  nan  nan  -2.49581  -0.295462  1.00367  -0.0467026  0.0197403  -0.00247513  0.0458129  0.0556394  0.0362957  0  0  0  0.30953  0.515125  0.192196  0.015492  0.00114452  -0.0115598  -0.0248877  0.00109095  0.00121222  0.0117065  0.00687699  -0.0270286  -0.266158  0.156535  -0.0249252 
1704450110.604740000  0  0  11.7749  0.126287  -0.131503  0.0226731  nan  nan  nan  nan  nan  nan  -2.49558  -0.295178  1.00385  -0.0481754  0.0221397  -0.00265783  0.0473645  0.0582552  0.0372515  0  0  0  0.311067  0.53125  0.1901  0.015366  0.00115083  -0.011646  -0.0272051  0.00118288  0.00115668  0.0111364  0.00579436  -0.0266508  -0.328272  0.194287  0.00444229 
1704450110.609739000  0  0  11.7014  0.0525905  -0.125  0.0237544  nan  nan  nan  nan  nan  nan  -2.49534  -0.29488  1.00404  -0.0514153  0.0224965  -0.00278589  0.0489232  0.0609523  0.0381962  0  0  0  0.312353  0.547625  0.187755  0.0152358  0.00114682  -0.0115676  -0.0270162  -0.00034201  0.00830664  0.0140745  0.00627551  -0.0266529  -0.216769  0.178166  -0.0100479 
1704450110.614721000  0  0  11.776  0.0362314  -0.148852  0.0251275  nan  nan  nan  nan  nan  nan  -2.49509  -0.294568  1.00423  -0.0535573  0.0211528  -0.00280009  0.0504876  0.0637319  0.0391286  0  0  0  0.31339  0.56425  0.18516  0.0151617  0.00113054  -0.0116683  -0.0253448  -0.00129692  0.000750724  0.0154024  0.00882048  -0.0267939  -0.19775  0.200729  -0.0268474 
1704450110.619727000  0  0  11.7872  0.0717895  -0.160052  0.0221027  nan  nan  nan  nan  nan  nan  -2.49484  -0.294242  1.00443  -0.0557237  0.0224121  -0.00295417  0.0520567  0.0665952  0.0400474  0  0  0  0.314176  0.581125  0.182315  0.0150653  0.00110269  -0.0117491  -0.0265215  -0.00189548  -0.000300495  0.0157269  0.00888541  -0.0263277  -0.266331  0.220912  0.00835677 
1704450110.624734000  0  0  11.7079  0.00373001  -0.148801  0.0227174  nan  nan  nan  nan  nan  nan  -2.49457  -0.293902  1.00463  -0.0590711  0.0231397  -0.00311035  0.053629  0.0695435  0.0409514  0  0  0  0.314712  0.59825  0.179219  0.0149258  0.00108726  -0.0116707  -0.0268094  -0.00334695  0.00737586  0.0189484  0.00905112  -0.0262303  -0.167666  0.198679  -0.00102465 
1704450110.629736000  0  0  11.756  -0.00547361  -0.16244  0.0241867  nan  nan  nan  nan  nan  nan  -2.4943  -0.293547  1.00484  -0.061585  0.0222835  -0.00315385  0.0552034  0.0725781  0.0418392  0  0  0  0.314999  0.615625  0.175874  0.0148433  0.00104965  -0.0117606  -0.0257153  -0.0044933  0.00244071  0.0207074  0.0110716  -0.0263296  -0.165552  0.206785  -0.0195977 
1704450110.634732000  0  0  11.7866  0.0252635  -0.174265  0.0223316  nan  nan  nan  nan  nan  nan  -2.49402  -0.293176  1.00505  -0.0636297  0.0224265  -0.0032466  0.0567786  0.0757002  0.0427097  0  0  0  0.315035  0.63325  0.172279  0.0147144  0.00103026  -0.0117774  -0.0256505  -0.00501857  -0.000919939  0.0211532  0.0121804  -0.0260543  -0.226236  0.219269  0.00211455 
1704450110.639715000  0  0  11.6948  -0.00501198  -0.159662  0.0226012  nan  nan  nan  nan  nan  nan  -2.49373  -0.29279  1.00527  -0.0669207  0.0240804  -0.00346943  0.0583533  0.078911  0.0435616  0  0  0  0.314822  0.651125  0.168434  0.0146181  0.000954303  -0.0117416  -0.0271632  -0.00602707  0.00814765  0.0237264  0.0114222  -0.0258886  -0.19202  0.198668  -0.00342355 
1704450110.644718000  0  0  11.7101  -0.0159845  -0.157846  0.0254542  nan  nan  nan  nan  nan  nan  -2.49344  -0.292387  1.00549  -0.0699192  0.0228641  -0.00349461  0.0599264  0.0822119  0.0443936  0  0  0  0.314358  0.66925  0.164338  0.0145594  0.000873501  -0.0117728  -0.0257281  -0.00735728  0.00631838  0.0257732  0.0134164  -0.0261735  -0.189073  0.178388  -0.0384221 
1704450110.649711000  0  0  11.7471  0.0200266  -0.170392  0.024651  nan  nan  nan  nan  nan  nan  -2.49313  -0.291967  1.00571  -0.0717063  0.0222053  -0.00352627  0.0614965  0.0856039  0.0452045  0  0  0  0.313645  0.687572  0.159993  0.0144317  0.000841554  -0.011783  -0.0248386  -0.00754307  0.00217454  0.0258049  0.0151118  -0.0261428  -0.256007  0.187229  -0.027996 
1704450110.654711000  0  0  11.6568  0.0432838  -0.147525  0.0234088  nan  nan  nan  nan  nan  nan  -2.49282  -0.291531  1.00594  -0.0745848  0.0249957  -0.00383687  0.0630624  0.0890872  0.0459931  0  0  0  0.312681  0.705718  0.155398  0.0143137  0.000770412  -0.0117513  -0.027687  -0.00797405  0.0110939  0.026774  0.0130387  -0.0258692  -0.307284  0.162484  -0.01449 
1704450110.659719000  0  0  11.6527  0.00434293  -0.132028  0.0259302  nan  nan  nan  nan  nan  nan  -2.4925  -0.291076  1.00617  -0.0773075  0.0237459  -0.00384643  0.0646229  0.0926607  0.0467581  0  0  0  0.311467  0.723613  0.150553  0.0141928  0.000726717  -0.0117104  -0.02611  -0.00895556  0.010935  0.028621  0.0146312  -0.026213  -0.250865  0.120285  -0.0443535 
1704450110.664712000  0  0  11.7267  0.0540744  -0.149457  0.0241186  nan  nan  nan  nan  nan  nan  -2.49218  -0.290604  1.00641  -0.0788815  0.0227245  -0.00384122  0.0661766  0.096323  0.0474982  0  0  0  0.310004  0.741259  0.145458  0.014115  0.000650273  -0.0118103  -0.0250946  -0.00917148  0.00321149  0.0279349  0.0164895  -0.0260153  -0.33711  0.136784  -0.0223253 
1704450110.669710000  0  0  11.6324  0.106388  -0.121516  0.0216359  nan  nan  nan  nan  nan  nan  -2.49184  -0.290113  1.00665  -0.081666  0.0256265  -0.00418024  0.0677225  0.100073  0.0482123  0  0  0  0.30829  0.758654  0.140112  0.0139884  0.000580867  -0.0117773  -0.0281157  -0.00947456  0.0125114  0.0277859  0.0139582  -0.0255247  -0.432692  0.106534  0.00531789 
1704450110.674711000  0  0  11.6173  0.0245132  -0.0998801  0.0252082  nan  nan  nan  nan  nan  nan  -2.4915  -0.289603  1.00689  -0.0843893  0.0241147  -0.00416046  0.0692591  0.103909  0.0488989  0  0  0  0.306327  0.7758  0.134517  0.013871  0.00052938  -0.0117193  -0.0263077  -0.0104242  0.0133377  0.0299638  0.0154016  -0.025952  -0.299598  0.0542341  -0.0376867 
1704450110.678714000  0  0  11.6866  0.0744069  -0.119531  0.0242254  nan  nan  nan  nan  nan  nan  -2.49115  -0.289074  1.00714  -0.0864063  0.0233499  -0.00418112  0.0707853  0.10783  0.049557  0  0  0  0.304113  0.792695  0.128672  0.0137038  0.000386349  -0.011793  -0.0254591  -0.0110783  0.00598102  0.0297705  0.0167046  -0.0258675  -0.390324  0.0795593  -0.0254716 
1704450110.684713000  0  0  11.6159  0.161001  -0.101191  0.0204999  nan  nan  nan  nan  nan  nan  -2.49079  -0.288525  1.00739  -0.0880022  0.0258466  -0.00447679  0.0722998  0.111836  0.0501852  0  0  0  0.30165  0.80934  0.122577  0.0135785  0.000429344  -0.011745  -0.0281423  -0.0104993  0.0126983  0.0271084  0.0145548  -0.0252286  -0.528046  0.0638449  0.0171368 
1704450110.689732000  0  0  11.6081  0.0534714  -0.0870467  0.0242679  nan  nan  nan  nan  nan  nan  -2.49042  -0.287955  1.00764  -0.0904511  0.024391  -0.00444651  0.0738014  0.115923  0.0507824  0  0  0  0.298936  0.825736  0.116231  0.0134744  0.000361803  -0.0117825  -0.0265327  -0.0112333  0.0129936  0.0292096  0.0159379  -0.0255779  -0.346808  0.0259262  -0.0293981 
1704450110.694733000  0  0  11.6895  0.135444  -0.114092  0.0232851  nan  nan  nan  nan  nan  nan  -2.49005  -0.287365  1.00789  -0.0918171  0.0239204  -0.00447469  0.0752888  0.120093  0.0513471  0  0  0  0.295972  0.841881  0.109636  0.0133385  0.000294275  -0.0118995  -0.0262083  -0.0115462  0.00447016  0.0272921  0.0170317  -0.0254555  -0.482292  0.0667151  -0.0176233 
1704450110.699718000  0  0  11.6191  0.157779  -0.106392  0.0210448  nan  nan  nan  nan  nan  nan  -2.48967  -0.286754  1.00815  -0.0940344  0.0245873  -0.00462895  0.0767607  0.124342  0.0518783  0  0  0  0.292759  0.857777  0.102791  0.0131986  0.000239389  -0.011812  -0.0268487  -0.011511  0.0108748  0.0264935  0.0166102  -0.0250522  -0.516864  0.0560358  0.0077769 
1704450110.704711000  0  0  11.6069  0.0793408  -0.0998304  0.0248206  nan  nan  nan  nan  nan  nan  -2.48928  -0.286122  1.00841  -0.0966588  0.0241348  -0.004688  0.078216  0.12867  0.0523747  0  0  0  0.289295  0.873422  0.0957855  0.0131017  0.00014953  -0.0118156  -0.0264792  -0.0124192  0.0115271  0.0281556  0.0171424  -0.0254075  -0.385757  0.0393734  -0.0387919 
1704450110.709710000  0  0  11.6552  0.134684  -0.122878  0.024199  nan  nan  nan  nan  nan  nan  -2.48889  -0.285467  1.00868  -0.0986596  0.0233595  -0.00469793  0.0796532  0.133076  0.0528366  0  0  0  0.285582  0.888818  0.0889901  0.0129785  8.35148e-05  -0.0118206  -0.0258429  -0.0132787  0.00604612  0.0270784  0.0185359  -0.0254065  -0.479072  0.0702177  -0.0304593 
1704450110.714711000  0  0  11.6452  0.122877  -0.120353  0.022671  nan  nan  nan  nan  nan  nan  -2.48849  -0.284791  1.00894  -0.100765  0.0228253  -0.00473152  0.0810713  0.137558  0.053265  0  0  0  0.281618  0.903963  0.0824446  0.0128706  -7.86509e-06  -0.0118276  -0.0254106  -0.0136695  0.0065467  0.0269692  0.0192312  -0.0251473  -0.456289  0.0596439  -0.0129502 
1704450110.718710000  0  0  11.5921  0.0770623  -0.11909  0.0233898  nan  nan  nan  nan  nan  nan  -2.48808  -0.284092  1.00921  -0.104355  0.0236969  -0.00494347  0.082469  0.142115  0.0536614  0  0  0  0.277404  0.918859  0.0761491  0.0126778  -0.000204479  -0.011811  -0.0263295  -0.0150752  0.0115502  0.0295328  0.0186932  -0.0251362  -0.393223  0.0618696  -0.0227289 
1704450110.724712000  0  0  11.6653  0.0719062  -0.144055  0.0232424  nan  nan  nan  nan  nan  nan  -2.48766  -0.283369  1.00948  -0.106286  0.021749  -0.00481986  0.083845  0.146746  0.0540269  0  0  0  0.272941  0.933504  0.0701037  0.0126054  -0.000172062  -0.0119177  -0.0246034  -0.01648  0.00386072  0.0292325  0.0214412  -0.0251027  -0.38113  0.0847726  -0.0211371 
1704450110.729733000  0  0  11.6877  0.0576278  -0.151149  0.0224138  nan  nan  nan  nan  nan  nan  -2.48724  -0.282624  1.00975  -0.107783  0.0213291  -0.00484527  0.085198  0.151449  0.0543629  0  0  0  0.268227  0.947899  0.0643082  0.0124674  -0.000251509  -0.0120299  -0.0243825  -0.016626  0.00141308  0.0291795  0.0223811  -0.0249276  -0.354247  0.0899302  -0.012044 
1704450110.734713000  0  0  11.6032  0.0551766  -0.149477  0.0217428  nan  nan  nan  nan  nan  nan  -2.48681  -0.281855  1.01002  -0.111111  0.0219776  -0.00502725  0.0865268  0.156224  0.0546704  0  0  0  0.263264  0.962045  0.0587628  0.0123326  -0.000339957  -0.0119392  -0.0252074  -0.0177076  0.00949388  0.0306564  0.0222317  -0.024708  -0.36224  0.0881026  -0.00558086 
1704450110.739719000  0  0  11.6524  0.00451693  -0.156968  0.0235396  nan  nan  nan  nan  nan  nan  -2.48638  -0.281062  1.01029  -0.114422  0.0195371  -0.00485843  0.0878302  0.161069  0.0549509  0  0  0  0.25805  0.97594  0.0534673  0.0122531  -0.000484058  -0.0120301  -0.0229272  -0.0201493  0.00436271  0.032981  0.0250182  -0.0248367  -0.288178  0.0783314  -0.0282103 
1704450110.743720000  0  0  11.695  0.00330336  -0.162518  0.0242817  nan  nan  nan  nan  nan  nan  -2.48593  -0.280244  1.01057  -0.116683  0.0194975  -0.00493646  0.0891069  0.165983  0.0552055  0  0  0  0.252587  0.989586  0.0484218  0.0120601  -0.000721479  -0.0121089  -0.0231394  -0.0211216  -5.032e-05  0.0340268  0.0254856  -0.0249399  -0.294804  0.0846396  -0.0369767 
1704450110.749719000  0  0  11.5928  0.0445337  -0.154756  0.0230108  nan  nan  nan  nan  nan  nan  -2.48548  -0.279402  1.01085  -0.11858  0.020145  -0.00508897  0.0903557  0.170965  0.0554356  0  0  0  0.246873  1.00298  0.0436264  0.0119743  -0.00070228  -0.0121122  -0.0241342  -0.0206335  0.010113  0.033274  0.0252609  -0.0247296  -0.364745  0.0721754  -0.0223524 
1704450110.754733000  0  0  11.6084  -0.0237047  -0.154734  0.0264757  nan  nan  nan  nan  nan  nan  -2.48503  -0.278534  1.01112  -0.121401  0.0173149  -0.00483932  0.0915752  0.176013  0.0556422  0  0  0  0.240909  1.01613  0.0390809  0.011889  -0.000820139  -0.0120979  -0.0214051  -0.0223007  0.00810704  0.0355197  0.0281995  -0.0252429  -0.257471  0.0472038  -0.0629176 
1704450110.759726000  0  0  11.653  0.0271514  -0.164822  0.0253911  nan  nan  nan  nan  nan  nan  -2.48457  -0.277641  1.0114  -0.12203  0.0167011  -0.00481301  0.0927644  0.181126  0.0558268  0  0  0  0.234696  1.02902  0.0347855  0.0117762  -0.000920535  -0.0121123  -0.0212124  -0.0218654  0.00322094  0.0339172  0.0291801  -0.025322  -0.338023  0.0575603  -0.0474418 
1704450110.764723000  0  0  11.5708  0.0466926  -0.150711  0.0224877  nan  nan  nan  nan  nan  nan  -2.4841  -0.276723  1.01168  -0.124834  0.0166176  -0.00488799  0.0939218  0.186303  0.0559905  0  0  0  0.228232  1.04167  0.03074  0.0116682  -0.0010481  -0.0120302  -0.021468  -0.0223306  0.0112367  0.0344206  0.0292317  -0.0249479  -0.378469  0.0309989  -0.0128002 
1704450110.769717000  0  0  11.5909  0.016404  -0.145697  0.0248367  nan  nan  nan  nan  nan  nan  -2.48363  -0.275778  1.01196  -0.126891  0.0147751  -0.00472549  0.0950463  0.191542  0.0561346  0  0  0  0.221519  1.05406  0.0269445  0.0115792  -0.00118209  -0.0120194  -0.0199458  -0.0232198  0.00889922  0.0351742  0.0309749  -0.0252566  -0.328791  0.00692627  -0.0407565 
1704450110.774726000  0  0  11.593  0.0939509  -0.148449  0.0223488  nan  nan  nan  nan  nan  nan  -2.48315  -0.274807  1.01224  -0.128081  0.0137471  -0.00464888  0.0961365  0.196843  0.0562603  0  0  0  0.214555  1.06621  0.0233991  0.0114782  -0.00129031  -0.0119826  -0.0193206  -0.0229768  0.00835074  0.0332219  0.032021  -0.0250167  -0.455787  0.00314622  -0.0101383 
1704450110.779668000  0  0  11.5485  0.103908  -0.142148  0.0207202  nan  nan  nan  nan  nan  nan  -2.48267  -0.27381  1.01253  -0.130141  0.0138454  -0.00472844  0.0971914  0.202204  0.056369  0  0  0  0.207342  1.0781  0.0201036  0.0113758  -0.00143839  -0.0119357  -0.0199531  -0.0230499  0.012682  0.0327996  0.0318091  -0.0246624  -0.470637  -0.00672018  0.00761898 
1704450110.784728000  0  0  11.5485  0.0629732  -0.122412  0.0249151  nan  nan  nan  nan  nan  nan  -2.48218  -0.272785  1.01281  -0.131863  0.0123841  -0.0045968  0.0982095  0.207623  0.0564618  0  0  0  0.199878  1.08975  0.0170582  0.0112848  -0.00154491  -0.0118784  -0.0189163  -0.0234458  0.0123467  0.0330941  0.0327218  -0.0251899  -0.397356  -0.0509993  -0.0425827 
1704450110.789735000  0  0  11.5751  0.102329  -0.139374  0.0234382  nan  nan  nan  nan  nan  nan  -2.48169  -0.271733  1.01309  -0.132914  0.00962193  -0.00427865  0.0991898  0.213101  0.05654  0  0  0  0.192164  1.10114  0.0142627  0.0112219  -0.00168638  -0.0118729  -0.0165066  -0.0233866  0.00938572  0.0313564  0.0353491  -0.0251018  -0.45547  -0.0418894  -0.023777 
1704450110.793680000  0  0  11.5785  0.124066  -0.139168  0.0218946  nan  nan  nan  nan  nan  nan  -2.48119  -0.270654  1.01337  -0.135462  0.00954892  -0.00433157  0.100131  0.218634  0.0566048  0  0  0  0.184201  1.11229  0.0117172  0.01104  -0.00200434  -0.0118922  -0.0169063  -0.0243052  0.00919958  0.0315758  0.0353114  -0.0248309  -0.497573  -0.0419521  -0.00619489 
1704450110.799719000  0  0  11.5369  0.0814787  -0.114897  0.0252206  nan  nan  nan  nan  nan  nan  -2.48069  -0.269547  1.01366  -0.136504  0.00783759  -0.00414445  0.101031  0.224223  0.0566576  0  0  0  0.175987  1.12319  0.0094218  0.0110495  -0.00195255  -0.0117815  -0.0158599  -0.0238352  0.0129577  0.0305777  0.0361332  -0.0252523  -0.410264  -0.0938561  -0.0459602 
1704450110.804721000  0  0  11.5869  0.108682  -0.133609  0.0244177  nan  nan  nan  nan  nan  nan  -2.48018  -0.268412  1.01394  -0.137403  0.00478538  -0.00376749  0.10189  0.229866  0.0566995  0  0  0  0.167524  1.13383  0.0073763  0.0109884  -0.00210246  -0.0118059  -0.0132057  -0.0239958  0.00778462  0.028998  0.0388414  -0.0252991  -0.447223  -0.082192  -0.0346397 
1704450110.809733000  0  0  11.5817  0.169422  -0.126197  0.020854  nan  nan  nan  nan  nan  nan  -2.47967  -0.267248  1.01422  -0.138195  0.0064578  -0.00404185  0.102706  0.235561  0.0567318  0  0  0  0.15881  1.14423  0.0055809  0.0108883  -0.00221225  -0.0117534  -0.0158731  -0.0233617  0.00824476  0.0264047  0.0368037  -0.024805  -0.537665  -0.0786253  0.00747539 
1704450110.814724000  0  0  11.5521  0.0800072  -0.111743  0.0229782  nan  nan  nan  nan  nan  nan  -2.47915  -0.266056  1.01451  -0.141054  0.00472283  -0.00385222  0.103478  0.241308  0.0567557  0  0  0  0.150029  1.15437  0.0040354  0.0108115  -0.00238384  -0.0117419  -0.0146848  -0.0246573  0.0113905  0.0282938  0.037755  -0.0249701  -0.388163  -0.113455  -0.0191277 
1704450110.819720000  0  0  11.6258  0.0799851  -0.133389  0.0243244  nan  nan  nan  nan  nan  nan  -2.47863  -0.264835  1.01479  -0.141479  0.00195013  -0.00349726  0.104207  0.247104  0.0567725  0  0  0  0.141493  1.16427  0.00274  0.0107474  -0.00253916  -0.0118051  -0.0123348  -0.0247015  0.00395704  0.0269851  0.0401584  -0.0252424  -0.377019  -0.0937724  -0.0340439 
1704450110.824733000  0  0  11.5959  0.149864  -0.127858  0.0203172  nan  nan  nan  nan  nan  nan  -2.47811  -0.263585  1.01507  -0.143135  0.00267569  -0.00364302  0.104894  0.25295  0.0567835  0  0  0  0.133207  1.17391  0.0016945  0.0106651  -0.00265748  -0.0117397  -0.0139094  -0.0247778  0.00705185  0.0252789  0.038998  -0.0246803  -0.491908  -0.0941669  0.0132364 
1704450110.829726000  0  0  11.591  0.0315691  -0.111442  0.0231252  nan  nan  nan  nan  nan  nan  -2.47758  -0.262306  1.01536  -0.14574  0.0010906  -0.00345538  0.105539  0.258843  0.0567899  0  0  0  0.125171  1.18331  0.000899  0.0105951  -0.00283968  -0.0117602  -0.0128345  -0.0261842  0.00785293  0.0277077  0.039713  -0.0249251  -0.293519  -0.130623  -0.0216221 
1704450110.834718000  0  0  11.6216  0.0346009  -0.132622  0.0253243  nan  nan  nan  nan  nan  nan  -2.47705  -0.260996  1.01564  -0.146107  -0.000799806  -0.0032154  0.106146  0.264783  0.0567929  0  0  0  0.117385  1.19245  0.0003536  0.0105362  -0.00296416  -0.0117473  -0.0113971  -0.0257313  0.00466178  0.0267253  0.0412555  -0.0253592  -0.290797  -0.104501  -0.0461136 
1704450110.839716000  0  0  11.6282  0.0862151  -0.143008  0.0215214  nan  nan  nan  nan  nan  nan  -2.47652  -0.259658  1.01593  -0.148398  -0.00156374  -0.00313723  0.106714  0.270767  0.0567939  0  0  0  0.109849  1.20135  5.81e-05  0.0104638  -0.0031553  -0.0117989  -0.0112016  -0.0269709  0.00451586  0.0263204  0.0417064  -0.0248852  -0.382913  -0.0890984  -0.000554621 
1704450110.843721000  0  0  11.6227  -0.00566172  -0.132859  0.0234781  nan  nan  nan  nan  nan  nan  -2.47599  -0.258289  1.01621  -0.1519  -0.00237177  -0.00304583  0.107245  0.276796  0.0567939  0  0  0  0.102563  1.20999  -0  0.0103161  -0.00354228  -0.0118205  -0.0107538  -0.0289857  0.00563176  0.0298628  0.0420027  -0.0250593  -0.242879  -0.110401  -0.0248058 
1704450110.849719000  0  0  11.622  0.0104758  -0.140672  0.0248964  nan  nan  nan  nan  nan  nan  -2.47545  -0.25689  1.01649  -0.151339  -0.00406729  -0.00282652  0.10774  0.282867  0.0567939  0  0  0  0.0955266  1.21839  -0  0.0103538  -0.00348219  -0.0118037  -0.00967637  -0.0275455  0.00557308  0.0278007  0.0430345  -0.0254274  -0.255259  -0.104691  -0.0395796 
1704450110.854718000  0  0  11.6578  0.0271555  -0.154673  0.0221897  nan  nan  nan  nan  nan  nan  -2.47491  -0.25546  1.01678  -0.153678  -0.00642999  -0.00248871  0.1082  0.288979  0.0567939  0  0  0  0.0887405  1.22654  -0  0.0103  -0.00370348  -0.0118916  -0.00756981  -0.0293122  0.0025417  0.0282871  0.045018  -0.0251132  -0.290264  -0.0956  -0.00688513 
1704450110.859721000  0  0  11.6508  -0.00847703  -0.148994  0.0243836  nan  nan  nan  nan  nan  nan  -2.47437  -0.254  1.01706  -0.154678  -0.00630058  -0.0025402  0.108627  0.295132  0.0567939  0  0  0  0.0822044  1.23443  -0  0.0102473  -0.0038428  -0.0118636  -0.00834124  -0.0291227  0.00336744  0.0286312  0.0443863  -0.0253868  -0.227218  -0.100753  -0.0331658 
1704450110.864737000  0  0  11.5769  0.0116744  -0.14511  0.0243965  nan  nan  nan  nan  nan  nan  -2.47382  -0.252509  1.01735  -0.155959  -0.00763255  -0.0023603  0.109023  0.301323  0.0567939  0  0  0  0.0759183  1.24208  -0  0.0101918  -0.00404297  -0.0118712  -0.00743184  -0.0281197  0.011099  0.0283162  0.0450453  -0.0254807  -0.261851  -0.113536  -0.0322511 
1704450110.869720000  0  0  11.6894  0.0133069  -0.156867  0.0224537  nan  nan  nan  nan  nan  nan  -2.47328  -0.250986  1.01763  -0.157425  -0.0104207  -0.00194416  0.109387  0.307552  0.0567939  0  0  0  0.0698822  1.24947  -0  0.0101548  -0.00428023  -0.0120131  -0.004706  -0.0301341  0.000335593  0.028371  0.0472787  -0.0253  -0.265339  -0.110718  -0.00826331 
1704450110.874719000  0  0  11.6399  0.0648215  -0.145504  0.0218909  nan  nan  nan  nan  nan  nan  -2.47273  -0.249433  1.01791  -0.157548  -0.00846987  -0.00229066  0.109722  0.313817  0.0567939  0  0  0  0.0640961  1.25662  -0  0.0100903  -0.0044101  -0.0119538  -0.00752001  -0.0283695  0.00536262  0.0262875  0.0447548  -0.0251555  -0.343029  -0.110342  -0.0023837 
1704450110.879720000  0  0  11.5492  0.0402909  -0.126196  0.0225235  nan  nan  nan  nan  nan  nan  -2.47218  -0.247848  1.0182  -0.159161  -0.00989073  -0.00208648  0.110028  0.320118  0.0567939  0  0  0  0.05856  1.26351  -0  0.0100421  -0.00462666  -0.0119483  -0.00647408  -0.0275017  0.0148138  0.0266041  0.0451392  -0.0251908  -0.300302  -0.149346  -0.0104657 
1704450110.884719000  0  0  11.6754  0.0475615  -0.144764  0.0236511  nan  nan  nan  nan  nan  nan  -2.47163  -0.246232  1.01848  -0.159558  -0.0136612  -0.00151364  0.110308  0.326452  0.0567939  0  0  0  0.0532739  1.27016  -0  0.0100357  -0.00477902  -0.0120063  -0.00255653  -0.0288334  0.00222087  0.0254317  0.0482341  -0.0253916  -0.303815  -0.14123  -0.0232764 
1704450110.889718000  0  0  11.6489  0.143358  -0.130455  0.0214288  nan  nan  nan  nan  nan  nan  -2.47108  -0.244584  1.01877  -0.159687  -0.0110584  -0.00196889  0.110562  0.332819  0.0567939  0  0  0  0.0482378  1.27655  -0  0.00994727  -0.00498146  -0.0120604  -0.00597576  -0.0273298  0.00533345  0.0222725  0.0448627  -0.0250411  -0.454356  -0.139116  0.00249496 
1704450110.894729000  0  0  11.5122  0.0718539  -0.0962558  0.0220944  nan  nan  nan  nan  nan  nan  -2.47052  -0.242904  1.01905  -0.161033  -0.0124132  -0.00177136  0.110791  0.339217  0.0567939  0  0  0  0.0434517  1.2827  -0  0.00991042  -0.00509989  -0.0119049  -0.00502358  -0.0257282  0.0189421  0.022767  0.0447786  -0.0250972  -0.326179  -0.201714  -0.00579056 
1704450110.899720000  0  0  11.6674  0.0969157  -0.118525  0.0242133  nan  nan  nan  nan  nan  nan  -2.46997  -0.241191  1.01933  -0.161195  -0.0149571  -0.00139358  0.110997  0.345646  0.0567939  0  0  0  0.0389156  1.28859  -0  0.0098937  -0.0053391  -0.0120804  -0.00236013  -0.0271397  0.00381528  0.0209847  0.0465265  -0.0253894  -0.357453  -0.175317  -0.0308491 
1704450110.904729000  0  0  11.6587  0.198713  -0.109733  0.0219196  nan  nan  nan  nan  nan  nan  -2.46941  -0.239447  1.01962  -0.161738  -0.0124624  -0.00183015  0.11118  0.352103  0.0567939  0  0  0  0.0346295  1.29424  -0  0.00967884  -0.00570177  -0.0124727  -0.00525246  -0.0260901  0.00624705  0.0179103  0.0431551  -0.0249982  -0.519822  -0.162991  -0.00459097 
1704450110.909730000  0  0  11.5555  0.0956022  -0.0812782  0.0226072  nan  nan  nan  nan  nan  nan  -2.46886  -0.23767  1.0199  -0.16312  -0.0135515  -0.00167115  0.111343  0.358588  0.0567939  0  0  0  0.0305934  1.29964  -0  0.00965848  -0.00582519  -0.012345  -0.00453444  -0.0251072  0.016568  0.0187739  0.0428489  -0.0250687  -0.336265  -0.213069  -0.0130053 
1704450110.914727000  0  0  11.6874  0.108245  -0.103475  0.0261984  nan  nan  nan  nan  nan  nan  -2.4683  -0.235861  1.02019  -0.163237  -0.0158338  -0.00133154  0.111487  0.365099  0.0567939  0  0  0  0.0268073  1.30478  -0  0.0096416  -0.00603291  -0.0124874  -0.00209838  -0.0262845  0.0036977  0.0171398  0.0443424  -0.0256116  -0.345807  -0.184648  -0.0549232 
1704450110.919718000  0  0  11.6758  0.180581  -0.105044  0.0221344  nan  nan  nan  nan  nan  nan  -2.46774  -0.234019  1.02047  -0.163015  -0.015549  -0.00141989  0.111612  0.371635  0.0567939  0  0  0  0.0232712  1.30968  -0  0.00959348  -0.00622209  -0.0125177  -0.00273796  -0.0248351  0.00502977  0.0138286  0.043225  -0.0251893  -0.451625  -0.172263  -0.00526061 
1704450110.924728000  0  0  11.5664  0.0969149  -0.0847688  0.0222596  nan  nan  nan  nan  nan  nan  -2.46718  -0.232145  1.02075  -0.164292  -0.0158726  -0.00138375  0.11172  0.378195  0.0567939  0  0  0  0.0199851  1.31432  -0  0.00957013  -0.00633418  -0.012384  -0.00285002  -0.023731  0.0159611  0.0146068  0.0423357  -0.0251563  -0.303341  -0.202254  -0.00732315 
1704450110.929728000  0  0  11.6777  0.0983185  -0.105018  0.0252664  nan  nan  nan  nan  nan  nan  -2.46662  -0.230237  1.02104  -0.164778  -0.0175938  -0.00112746  0.111812  0.384778  0.0567939  0  0  0  0.016949  1.31872  -0  0.00955684  -0.0065381  -0.0125149  -0.000994734  -0.025098  0.00521685  0.0136496  0.0433557  -0.025581  -0.297819  -0.173421  -0.0427662 
1704450110.934725000  0  0  11.6925  0.143006  -0.115354  0.0219474  nan  nan  nan  nan  nan  nan  -2.46607  -0.228297  1.02132  -0.164145  -0.0185767  -0.00101402  0.11189  0.391382  0.0567939  0  0  0  0.0141629  1.32286  -0  0.00956215  -0.0066527  -0.0124929  -0.000156516  -0.0238795  0.003575  0.0107557  0.0436638  -0.0252578  -0.355994  -0.1569  -0.00195568 
1704450110.938730000  0  0  11.6212  0.101519  -0.105242  0.0204293  nan  nan  nan  nan  nan  nan  -2.46551  -0.226323  1.02161  -0.166935  -0.0177429  -0.00113914  0.111954  0.398006  0.0567939  0  0  0  0.0116268  1.32676  -0  0.0094337  -0.00713717  -0.0124659  -0.00124046  -0.0242894  0.0112661  0.0128104  0.042179  -0.0249796  -0.296622  -0.163024  0.0152004 
1704450110.944726000  0  0  11.6987  0.0560783  -0.112405  0.023945  nan  nan  nan  nan  nan  nan  -2.46495  -0.224317  1.02189  -0.166757  -0.0199306  -0.000812109  0.112006  0.404649  0.0567939  0  0  0  0.0093407  1.3304  -0  0.00952338  -0.00707785  -0.0126176  0.000967313  -0.0250887  0.00388678  0.0119914  0.0433288  -0.0253696  -0.205553  -0.159517  -0.0274776 
1704450110.949735000  0  0  11.7263  0.0869635  -0.132069  0.0210356  nan  nan  nan  nan  nan  nan  -2.46439  -0.222277  1.02217  -0.165648  -0.0210828  -0.000680156  0.112048  0.41131  0.0567939  0  0  0  0.0073046  1.3338  -0  0.00953381  -0.0071848  -0.0126157  0.00210748  -0.0236426  0.000894484  0.00942328  0.0440334  -0.0250568  -0.24094  -0.129091  0.00795563 
1704450110.954732000  0  0  11.6551  0.0808736  -0.132819  0.0197187  nan  nan  nan  nan  nan  nan  -2.46383  -0.220204  1.02246  -0.167147  -0.0204458  -0.000792911  0.11208  0.417987  0.0567939  0  0  0  0.0055185  1.33694  -0  0.00951231  -0.00738272  -0.0126316  0.00106437  -0.0233563  0.00847569  0.00977228  0.042873  -0.0247273  -0.232628  -0.117859  0.0218147 
1704450110.959726000  0  0  11.7253  0.00624518  -0.138826  0.023822  nan  nan  nan  nan  nan  nan  -2.46327  -0.218097  1.02274  -0.167708  -0.0227764  -0.000424532  0.112104  0.424679  0.0567939  0  0  0  0.0039824  1.33984  -0  0.00953693  -0.00751468  -0.012658  0.00369019  -0.0245133  0.00153923  0.0106926  0.044597  -0.0252095  -0.102279  -0.121364  -0.0276803 
1704450110.964731000  0  0  11.7543  0.0663961  -0.154763  0.0215301  nan  nan  nan  nan  nan  nan  -2.4627  -0.215957  1.02303  -0.166694  -0.0232164  -0.000412181  0.11212  0.431385  0.0567939  0  0  0  0.0026963  1.34249  -0  0.00952853  -0.00772232  -0.0127812  0.00413772  -0.0230419  -0.00116886  0.00815678  0.0446956  -0.0249677  -0.19212  -0.0926984  0.000284051 
1704450110.969731000  0  0  11.6962  0.0724285  -0.14533  0.0204479  nan  nan  nan  nan  nan  nan  -2.46214  -0.213783  1.02331  -0.168323  -0.0226609  -0.000505555  0.112131  0.438103  0.0567939  0  0  0  0.0016602  1.34488  -0  0.00951754  -0.00794516  -0.0128206  0.00326059  -0.0231385  0.00519706  0.00856941  0.0435873  -0.0247044  -0.206788  -0.100758  0.0117611 
