ts x y z roll pitch yaw vx vy vz wx wy wz ax ay az dwx dwy dwz jx jy jz ddwx ddwy ddwz
1704802655.948801000  -2.5  -0.3  1  0  0  0  2e-07  -2e-07  2e-07  0  0  0  0.000125  -0.000125  0.000125  0  0  0  0  0  0  0  0  0 
1704802655.953790000  -2.5  -0.3  1  0  0  0  1.7e-06  -1.7e-06  1.7e-06  0  0  0  0.0005  -0.0005  0.0005  0  0  0  0  0  0  0  0  0 
1704802655.958788000  -2.5  -0.3  1  0  0  0  5.6e-06  -5.6e-06  5.6e-06  0  0  0  0.001125  -0.001125  0.001125  0  0  0  0  0  0  0  0  0 
1704802655.963804000  -2.5  -0.3  1  0  0  1e-07  1.33e-05  -1.33e-05  1.33e-05  0  0  0  0.002  -0.002  0.002  0  0  0  0  0  0  0  0  0 
1704802655.968784000  -2.5  -0.3  1  0  0  3e-07  2.6e-05  -2.6e-05  2.6e-05  0  0  0  0.003125  -0.003125  0.003125  0  0  0  0  0  0  0  0  0 
1704802655.973780000  -2.5  -0.3  1  0  0  5e-07  4.5e-05  -4.5e-05  4.5e-05  0  0  0  0.0045  -0.0045  0.0045  0  0  0  0  0  0  0  0  0 
1704802655.978776000  -2.5  -0.300001  1  0  0  1e-06  7.15e-05  -7.15e-05  7.15e-05  0  0  0  0.006125  -0.006125  0.006125  0  0  0  0  0  0  0  0  0 
1704802655.983790000  -2.5  -0.300001  1  0  0  1.7e-06  0.0001067  -0.0001067  0.0001067  0  0  0  0.008  -0.008  0.008  0  0  0  0  0  0  0  0  0 
1704802655.988780000  -2.5  -0.300002  1  0  0  2.7e-06  0.0001519  -0.0001519  0.0001519  0  0  0  0.010125  -0.010125  0.010125  0  0  0  0  0  0  0  0  0 
1704802655.993791000  -2.5  -0.300003  1  0  0  4.2e-06  0.0002083  -0.0002083  0.0002083  0  0  0  0.0125  -0.0125  0.0125  0  0  0  0  0  0  0  0  0 
1704802655.998780000  -2.5  -0.300004  1  0  0  6.1e-06  0.0002773  -0.0002773  0.0002773  0  0  0  0.015125  -0.015125  0.015125  0  0  0  0  0  0  0  0  0 
1704802656.003790000  -2.49999  -0.300005  1.00001  0  0  8.6e-06  0.00036  -0.00036  0.00036  0  0  0  0.018  -0.018  0.018  0  0  0  0  0  0  0  0  0 
1704802656.008779000  -2.49999  -0.300007  1.00001  0  0  1.19e-05  0.0004577  -0.0004577  0.0004577  0  0  0  0.021125  -0.021125  0.021125  0  0  0  0  0  0  0  0  0 
1704802656.013778000  -2.49999  -0.30001  1.00001  0  0  1.6e-05  0.0005717  -0.0005717  0.0005717  0  0  0  0.0245  -0.0245  0.0245  0  0  0  0  0  0  0  0  0 
1704802656.018780000  -2.49999  -0.300013  1.00001  0  0  2.11e-05  0.0007031  -0.0007031  0.0007031  0  0  0  0.028125  -0.028125  0.028125  0  0  0  0  0  0  0  0  0 
1704802656.023778000  -2.49998  -0.300017  1.00002  0  0  2.73e-05  0.0008533  -0.0008533  0.0008533  0  0  0  0.032  -0.032  0.032  0  0  0  0  0  0  0  0  0 
1704802656.028775000  -2.49998  -0.300022  1.00002  0  0  3.48e-05  0.0010235  -0.0010235  0.0010235  0  0  0  0.036125  -0.036125  0.036125  0  0  0  0  0  0  0  0  0 
1704802656.033779000  -2.49997  -0.300027  1.00003  0  0  4.37e-05  0.001215  -0.001215  0.001215  0  0  0  0.0405  -0.0405  0.0405  0  0  0  0  0  0  0  0  0 
1704802656.038785000  -2.49997  -0.300034  1.00003  0  0  5.43e-05  0.001429  -0.001429  0.001429  0  0  0  0.045125  -0.045125  0.045125  0  0  0  0  0  0  0  0  0 
1704802656.043781000  -2.49996  -0.300042  1.00004  0  0  6.67e-05  0.0016667  -0.0016667  0.0016667  0  0  0  0.05  -0.05  0.05  0  0  0  0  0  0  0  0  0 
1704802656.048780000  -2.49995  -0.300051  1.00005  0  0  8.1e-05  0.0019294  -0.0019294  0.0019294  0  0  0  0.055125  -0.055125  0.055125  0  0  0  0  0  0  0  0  0 
1704802656.053787000  -2.49994  -0.300061  1.00006  0  0  9.75e-05  0.0022183  -0.0022183  0.0022183  0  0  0  0.0605  -0.0605  0.0605  0  0  0  0  0  0  0  0  0 
1704802656.058784000  -2.49993  -0.300073  1.00007  0  0  0.0001163  0.0025348  -0.0025348  0.0025348  0  0  0  0.066125  -0.0661225  0.066125  0  0  0  0  0  0  0  0  0 
1704802656.063774000  -2.49991  -0.300086  1.00009  0  0  0.0001376  0.00288  -0.0028794  0.00288  0  0  0  0.072  -0.0716975  0.072  0  0  0  0  0  0  0  0  0 
1704802656.068778000  -2.4999  -0.300102  1.0001  0  0  0.0001614  0.0032552  -0.0032514  0.0032552  0  0  0  0.078125  -0.0770226  0.078125  0  0  0  0  0  0  0  0  0 
1704802656.073780000  -2.49988  -0.300119  1.00012  0  0  0.000188  0.0036617  -0.0036493  0.0036617  0  0  0  0.0845  -0.0820976  0.0845  0  0  0  0  0  0  0  0  0 
1704802656.078788000  -2.49986  -0.300138  1.00014  0  0  0.0002175  0.0041006  -0.0040719  0.0041006  0  0  0  0.091125  -0.0869227  0.0911191  0  0  0  0  0  0  0  0  0 
1704802656.083787000  -2.49984  -0.30016  1.00016  0  0  0.0002498  0.0045733  -0.0045181  0.0045727  0  0  0  0.098  -0.0914977  0.097667  0  0  0  0  0  0  0  0  0 
1704802656.088786000  -2.49982  -0.300183  1.00018  0  0  0.0002853  0.005081  -0.0049865  0.0050769  0  0  0  0.105125  -0.0958228  0.103965  0  0  0  0  0  0  0  0  0 
1704802656.093780000  -2.49979  -0.30021  1.00021  0  0  0.0003238  0.005625  -0.0054759  0.0056119  0  0  0  0.1125  -0.0998978  0.110013  0  0  0  0  0  0  0  0  0 
1704802656.098779000  -2.49976  -0.300238  1.00024  0  0  0.0003656  0.0062065  -0.005985  0.0061766  0  0  0  0.120125  -0.103723  0.115811  0  0  0  0  0  0  0  0  0 
1704802656.103790000  -2.49973  -0.300269  1.00027  0  0  0.0004107  0.0068267  -0.0065127  0.0067696  0  0  0  0.128  -0.107298  0.121359  0  0  0  0  0  0  0  0  0 
1704802656.108792000  -2.49969  -0.300303  1.00031  0  0  0.0004591  0.0074868  -0.0070576  0.0073898  0  0  0  0.136062  -0.110623  0.126657  0  0  0  0  0  0  0  0  0 
1704802656.113800000  -2.49965  -0.30034  1.00035  0  0  0.000511  0.0081869  -0.0076185  0.0080358  0  0  0  0.143936  -0.113698  0.131705  0  0  0  0  0  0  0  0  0 
1704802656.118788000  -2.49961  -0.30038  1.00039  0  0  0.0005662  0.0089258  -0.0081942  0.0087064  0  0  0  0.151561  -0.116523  0.136503  0  0  0  0  0  0  0  0  0 
1704802656.123799000  -2.49956  -0.300422  1.00043  0  0  0.0006249  0.0097021  -0.0087833  0.0094004  0  0  0  0.158935  -0.119098  0.141051  0  0  0  0  0  0  0  0  0 
1704802656.128808000  -2.49951  -0.300467  1.00048  0  0  0.0006871  0.0105147  -0.0093847  0.0101165  0  0  0  0.166059  -0.121423  0.145349  0  0  0  0  0  0  0  0  0 
1704802656.133784000  -2.49946  -0.300516  1.00053  0  0  0.0007528  0.0113623  -0.0099971  0.0108534  0  0  0  0.172933  -0.123498  0.149397  0  0  0  0  0  0  0  0  0 
1704802656.138792000  -2.4994  -0.300567  1.00059  0  0  0.000822  0.0122436  -0.0106193  0.01161  0  0  0  0.179558  -0.125323  0.153195  0  0  0  0  0  0  0  0  0 
1704802656.143792000  -2.49933  -0.300622  1.00065  0  0  0.0008946  0.0131574  -0.0112499  0.012385  0  0  0  0.185932  -0.126898  0.156743  0  0  0  0  0  0  0  0  0 
1704802656.148782000  -2.49927  -0.30068  1.00071  0  0  0.0009708  0.0141025  -0.0118879  0.013177  0  0  0  0.192056  -0.128223  0.16004  0  0  0  0  0  0  0  0  0 
1704802656.153794000  -2.49919  -0.300741  1.00078  0  0  0.0010503  0.0150776  -0.0125318  0.013985  0  0  0  0.19793  -0.129298  0.163088  0  0  0  0  0  0  0  0  0 
1704802656.158784000  -2.49912  -0.300805  1.00085  0  0  0.0011332  0.0160814  -0.0131804  0.0148075  0  0  0  0.203555  -0.130123  0.165886  0  0  0  0  0  0  0  0  0 
1704802656.163793000  -2.49903  -0.300873  1.00093  0  0  0.0012195  0.0171127  -0.0138326  0.0156434  0  0  0  0.208929  -0.130698  0.168434  0  0  0  0  0  0  0  0  0 
1704802656.168790000  -2.49894  -0.300944  1.00101  0  0  0.001309  0.0181703  -0.014487  0.0164914  0  0  0  0.214053  -0.131023  0.170732  0  0  0  0  0  0  0  0  0 
1704802656.173805000  -2.49885  -0.301018  1.0011  0  0  0.0014017  0.0192528  -0.0151424  0.0173503  0  0  0  0.218927  -0.131099  0.17278  0  0  0  0  0  0  0  0  0 
1704802656.178783000  -2.49875  -0.301095  1.00118  0  0  0.0014975  0.0203591  -0.0157976  0.0182188  0  0  0  0.223552  -0.130924  0.174578  0  0  0  0  0  0  0  0  0 
1704802656.183795000  -2.49865  -0.301176  1.00128  0  0  0.0015964  0.0214879  -0.0164512  0.0190957  0  0  0  0.227926  -0.130499  0.176126  0  0  0  0  0  0  0  0  0 
1704802656.188804000  -2.49854  -0.30126  1.00138  0  0  0.0016982  0.022638  -0.0171021  0.0199797  0  0  0  0.23205  -0.129824  0.177424  0  0  0  0  0  0  0  0  0 
1704802656.193787000  -2.49842  -0.301347  1.00148  0  0  0.0018028  0.023808  -0.017749  0.0208695  0  0  0  0.235924  -0.128899  0.178472  0  0  0  0  0  0  0  0  0 
1704802656.198779000  -2.4983  -0.301437  1.00158  0  0  0.0019101  0.0249968  -0.0183907  0.021764  0  0  0  0.239549  -0.127724  0.17927  0  0  0  0  0  0  0  0  0 
1704802656.203790000  -2.49817  -0.301531  1.0017  0  0  0.0020199  0.0262031  -0.0190259  0.0226618  0  0  0  0.242923  -0.126299  0.179818  0  0  0  0  0  0  0  0  0 
1704802656.208791000  -2.49804  -0.301627  1.00181  0  0  0.0021322  0.0274256  -0.0196533  0.0235617  0  0  0  0.246047  -0.124624  0.180116  0  0  0  0  0  0  0  0  0 
1704802656.213784000  -2.4979  -0.301727  1.00193  0  0  0.0022468  0.0286631  -0.0202717  0.0244625  0  0  0  0.248921  -0.122699  0.180164  0  0  0  0  0  0  0  0  0 
1704802656.218787000  -2.49775  -0.30183  1.00206  0  0  0.0023634  0.0299144  -0.0208798  0.025363  0  0  0  0.251546  -0.120524  0.179962  0  0  0  0  0  0  0  0  0 
1704802656.223792000  -2.4976  -0.301936  1.00218  0  0  0.002482  0.0311782  -0.0214765  0.0262617  0  0  0  0.25392  -0.118099  0.17951  0  0  0  0  0  0  0  0  0 
1704802656.228788000  -2.49744  -0.302045  1.00232  0  0  0.0026023  0.0324532  -0.0220604  0.0271576  0  0  0  0.256044  -0.115424  0.178808  0  0  0  0  0  0  0  0  0 
1704802656.233788000  -2.49727  -0.302156  1.00246  0  0  0.0027243  0.0337382  -0.0226303  0.0280494  0  0  0  0.257918  -0.112499  0.177856  0  0  0  0  0  0  0  0  0 
1704802656.238805000  -2.4971  -0.302271  1.0026  0  0  0.0028476  0.035032  -0.023185  0.0289358  0  0  0  0.259543  -0.109324  0.176654  0  0  0  0  0  0  0  0  0 
1704802656.243812000  -2.49692  -0.302388  1.00275  0  0  0.0029721  0.0363332  -0.0237231  0.0298155  0  0  0  0.260917  -0.105899  0.175202  0  0  0  0  0  0  0  0  0 
1704802656.248789000  -2.49674  -0.302508  1.0029  0  0  0.0030978  0.0376407  -0.0242436  0.0306874  0  0  0  0.262041  -0.102224  0.1735  0  0  0  0  0  0  0  0  0 
1704802656.253786000  -2.49655  -0.302631  1.00305  0  0  0.0032244  0.0389532  -0.024745  0.0315501  0  0  0  0.262915  -0.0982992  0.171548  0  0  0  0  0  0  0  0  0 
1704802656.258786000  -2.49635  -0.302756  1.00321  0  0  0.0033518  0.0402695  -0.0252261  0.0324024  0  0  0  0.26354  -0.0941243  0.169346  0  0  0  0  0  0  0  0  0 
1704802656.263814000  -2.49614  -0.302883  1.00338  0  0  0.0034799  0.0415882  -0.0256858  0.0332431  0  0  0  0.263914  -0.0896993  0.166893  0  0  0  0  0  0  0  0  0 
1704802656.268807000  -2.49593  -0.303012  1.00354  0  0  0.0036085  0.0429082  -0.0261227  0.034071  0  0  0  0.264038  -0.0850244  0.164191  0  0  0  0  0  0  0  0  0 
1704802656.273803000  -2.49571  -0.303144  1.00372  0  0  0.0037377  0.0442282  -0.0265356  0.0348846  0  0  0  0.263912  -0.0800994  0.161239  0  0  0  0  0  0  0  0  0 
1704802656.278788000  -2.49549  -0.303278  1.00389  0  0  0.0038672  0.0455469  -0.0269233  0.0356829  0  0  0  0.263537  -0.0749245  0.158037  0  0  0  0  0  0  0  0  0 
1704802656.283801000  -2.49526  -0.303413  1.00407  0  0  0.0039971  0.0468631  -0.0272845  0.0364646  0  0  0  0.262911  -0.0694995  0.154585  0  0  0  0  0  0  0  0  0 
1704802656.288805000  -2.49502  -0.303551  1.00426  0  0  0.0041271  0.0481756  -0.0276179  0.0372284  0  0  0  0.262035  -0.063847  0.150883  0  0  0  0  0  0  0  0  0 
1704802656.293789000  -2.49478  -0.303689  1.00445  0  0  0.0042573  0.049483  -0.0279232  0.037973  0  0  0  0.260909  -0.0583219  0.146931  0  0  0  0  0  0  0  0  0 
1704802656.298793000  -2.49453  -0.30383  1.00464  0  0  0.0043877  0.0507842  -0.0282015  0.0386973  0  0  0  0.259534  -0.0530468  0.142729  0  0  0  0  0  0  0  0  0 
1704802656.303794000  -2.49427  -0.303971  1.00483  0  0  0.0045181  0.052078  -0.0284541  0.0393999  0  0  0  0.257908  -0.0480217  0.138277  0  0  0  0  0  0  0  0  0 
1704802656.308787000  -2.49401  -0.304114  1.00503  0  0  0.0046485  0.0533629  -0.0286821  0.0400796  0  0  0  0.256032  -0.0432466  0.133575  0  0  0  0  0  0  0  0  0 
1704802656.313792000  -2.49374  -0.304258  1.00523  0  0  0.004779  0.0546379  -0.028887  0.0407352  0  0  0  0.253906  -0.0387216  0.128623  0  0  0  0  0  0  0  0  0 
1704802656.318779000  -2.49346  -0.304403  1.00544  0  0  0.0049095  0.0559016  -0.0290698  0.0413654  0  0  0  0.251531  -0.0344465  0.123421  0  0  0  0  0  0  0  0  0 
1704802656.323784000  -2.49318  -0.304549  1.00565  0  0  0.0050399  0.0571527  -0.0292318  0.041969  0  0  0  0.248905  -0.0304214  0.117969  0  0  0  0  0  0  0  0  0 
1704802656.328772000  -2.49289  -0.304695  1.00586  0  0  0.0051704  0.0583902  -0.0293744  0.0425447  0  0  0  0.246029  -0.0266463  0.112267  0  0  0  0  0  0  0  0  0 
1704802656.333790000  -2.49259  -0.304843  1.00607  0  0  0.0053009  0.0596126  -0.0294987  0.0430913  0  0  0  0.242903  -0.0231212  0.106315  0  0  0  0  0  0  0  0  0 
1704802656.338815000  -2.49229  -0.30499  1.00629  0  0  0.0054313  0.0608188  -0.029606  0.0436074  0  0  0  0.239528  -0.0198461  0.100113  0  0  0  0  0  0  0  0  0 
1704802656.343795000  -2.49199  -0.305139  1.00651  0  0  0.0055618  0.0620075  -0.0296976  0.044092  0  0  0  0.235902  -0.016821  0.0936608  0  0  0  0  0  0  0  0  0 
1704802656.348785000  -2.49167  -0.305287  1.00673  0  0  0.0056923  0.0631774  -0.0297747  0.0445437  0  0  0  0.232026  -0.0140459  0.0870122  0  0  0  0  0  0  0  0  0 
1704802656.353781000  -2.49135  -0.305436  1.00695  0  0  0.0058227  0.0643273  -0.0298385  0.0449624  0  0  0  0.2279  -0.0115209  0.0805413  0  0  0  0  0  0  0  0  0 
1704802656.358778000  -2.49103  -0.305586  1.00718  0  0  0.0059532  0.065456  -0.0298903  0.0453495  0  0  0  0.223525  -0.0092458  0.0743203  0  0  0  0  0  0  0  0  0 
1704802656.363808000  -2.4907  -0.305735  1.00741  0  0  0.0060836  0.0665622  -0.0299314  0.0457061  0  0  0  0.218899  -0.0072207  0.0683494  0  0  0  0  0  0  0  0  0 
1704802656.368771000  -2.49036  -0.305885  1.00764  0  0  0.0062141  0.0676446  -0.0299629  0.0460334  0  0  0  0.214023  -0.0054456  0.0626285  0  0  0  0  0  0  0  0  0 
1704802656.373780000  -2.49002  -0.306035  1.00787  0  0  0.0063446  0.068702  -0.0299862  0.0463328  0  0  0  0.208897  -0.0039205  0.0571576  0  0  0  0  0  0  0  0  0 
1704802656.378793000  -2.48968  -0.306185  1.0081  0  0  0.006475  0.0697331  -0.0300025  0.0466054  0  0  0  0.203522  -0.0026454  0.0519367  0  0  0  0  0  0  0  0  0 
1704802656.383797000  -2.48933  -0.306335  1.00833  0  0  0.0066055  0.0707368  -0.0300131  0.0468526  0  0  0  0.197896  -0.0016203  0.0469658  0  0  0  0  0  0  0  0  0 
1704802656.388777000  -2.48897  -0.306485  1.00857  0  0  0.006736  0.0717117  -0.0300192  0.0470755  0  0  0  0.19202  -0.0008452  0.0422449  0  0  0  0  0  0  0  0  0 
1704802656.393798000  -2.48861  -0.306635  1.0088  0  0  0.0068664  0.0726566  -0.030022  0.0472754  0  0  0  0.185894  -0.0003201  0.0377739  0  0  0  0  0  0  0  0  0 
1704802656.398781000  -2.48824  -0.306785  1.00904  0  0  0.0069969  0.0735702  -0.0300228  0.0474536  0  0  0  0.179519  -4.51e-05  0.033553  0  0  0  0  0  0  0  0  0 
1704802656.403772000  -2.48787  -0.306935  1.00928  0  0  0.0071274  0.0744513  -0.0300228  0.0476114  0  0  0  0.172893  2e-05  0.0295821  0  0  0  0  0  0  0  0  0 
1704802656.408773000  -2.4875  -0.307085  1.00952  0  0  0.0072578  0.0752987  -0.0300223  0.0477499  0  0  0  0.166017  0.0002449  0.0258612  0  0  0  0  0  0  0  0  0 
1704802656.413796000  -2.48712  -0.307235  1.00976  0  0  0.0073883  0.0761111  -0.0300199  0.0478704  0  0  0  0.158891  0.0007198  0.0223903  0  0  0  0  0  0  0  0  0 
1704802656.418778000  -2.48674  -0.307386  1.01  0  0  0.0075188  0.0768872  -0.0300146  0.0479742  0  0  0  0.151516  0.0014447  0.0191694  0  0  0  0  0  0  0  0  0 
1704802656.423792000  -2.48635  -0.307536  1.01024  0  0  0.0076492  0.0776258  -0.0300051  0.0480625  0  0  0  0.14389  0.0024196  0.0161985  0  0  0  0  0  0  0  0  0 
1704802656.428782000  -2.48596  -0.307686  1.01048  0  0  0.0077797  0.0783257  -0.02999  0.0481366  0  0  0  0.136014  0.0036445  0.0134775  0  0  0  0  0  0  0  0  0 
1704802656.433785000  -2.48557  -0.307835  1.01072  0  0  0.0079101  0.0789856  -0.0299682  0.0481977  0  0  0  0.127952  0.0051194  0.0110066  0  0  0  0  0  0  0  0  0 
1704802656.438789000  -2.48517  -0.307985  1.01096  0  0  0.0080406  0.0796056  -0.0299384  0.0482471  0  0  0  0.120078  0.0068443  0.0087857  0  0  0  0  0  0  0  0  0 
1704802656.443798000  -2.48477  -0.308135  1.0112  0  0  0.0081711  0.0801868  -0.0298994  0.048286  0  0  0  0.112455  0.0088193  0.0068148  0  0  0  0  0  0  0  0  0 
1704802656.448777000  -2.48437  -0.308284  1.01144  0  0  0.0083015  0.0807305  -0.0298498  0.0483156  0  0  0  0.105081  0.0110442  0.0050939  0  0  0  0  0  0  0  0  0 
1704802656.453780000  -2.48396  -0.308433  1.01168  0  0  0.008432  0.081238  -0.0297885  0.0483373  0  0  0  0.0979579  0.0135191  0.003623  0  0  0  0  0  0  0  0  0 
1704802656.458777000  -2.48356  -0.308582  1.01193  0  0  0.0085625  0.0817105  -0.0297142  0.0483523  0  0  0  0.0910844  0.016244  0.0024021  0  0  0  0  0  0  0  0  0 
1704802656.463784000  -2.48315  -0.30873  1.01217  0  0  0.0086929  0.0821493  -0.0296256  0.0483618  0  0  0  0.0844609  0.0192189  0.0014311  0  0  0  0  0  0  0  0  0 
1704802656.468780000  -2.48274  -0.308878  1.01241  0  0  0.0088234  0.0825555  -0.0295216  0.048367  0  0  0  0.0780874  0.0224438  0.0007102  0  0  0  0  0  0  0  0  0 
1704802656.473790000  -2.48232  -0.309026  1.01265  0  0  0.0089539  0.0829306  -0.0294008  0.0483693  0  0  0  0.0719639  0.0259187  0.0002393  0  0  0  0  0  0  0  0  0 
1704802656.478784000  -2.48191  -0.309172  1.01289  0  0  0.0090843  0.0832756  -0.029262  0.0483698  0  0  0  0.0660904  0.0296436  1.84e-05  0  0  0  0  0  0  0  0  0 
1704802656.483784000  -2.48149  -0.309318  1.01313  0  0  0.0092148  0.0835919  -0.0291039  0.0483698  0  0  0  0.060467  0.0336185  0  0  0  0  0  0  0  0  0  0 
1704802656.488775000  -2.48107  -0.309463  1.01338  0  0  0.0093453  0.0838807  -0.0289254  0.0483698  0  0  0  0.0550935  0.0378435  0  0  0  0  0  0  0  0  0  0 
1704802656.493790000  -2.48065  -0.309607  1.01362  0  0  0.0094757  0.0841432  -0.0287251  0.0483698  0  0  0  0.04997  0.0423184  0  0  0  0  0  0  0  0  0  0 
1704802656.498789000  -2.48023  -0.309751  1.01386  0  0  0.0096062  0.0843808  -0.0285018  0.0483698  0  0  0  0.0450965  0.0470433  0  0  0  0  0  0  0  0  0  0 
1704802656.503777000  -2.47981  -0.309892  1.0141  0  0  0.0097367  0.0845946  -0.0282542  0.0483698  0  0  0  0.040473  0.0520182  0  0  0  0  0  0  0  0  0  0 
1704802656.508781000  -2.47938  -0.310033  1.01434  0  0  0.0098671  0.084786  -0.0279812  0.0483698  0  0  0  0.0360995  0.0572431  0  0  0  0  0  0  0  0  0  0 
1704802656.513804000  -2.47896  -0.310172  1.01459  0  0  0.0099976  0.084956  -0.0276814  0.0483698  0  0  0  0.031976  0.062718  0  0  0  0  0  0  0  0  0  0 
1704802656.518797000  -2.47853  -0.31031  1.01483  0  0  0.0101281  0.0851061  -0.0273536  0.0483698  0  0  0  0.0281025  0.0684429  0  0  0  0  0  0  0  0  0  0 
1704802656.523788000  -2.47811  -0.310446  1.01507  0  0  0.0102585  0.0852375  -0.0269965  0.0483698  0  0  0  0.024479  0.0744178  0  0  0  0  0  0  0  0  0  0 
1704802656.528788000  -2.47768  -0.31058  1.01531  0  0  0.010389  0.0853513  -0.026609  0.0483698  0  0  0  0.0211055  0.0806427  0  0  0  0  0  0  0  0  0  0 
1704802656.533792000  -2.47725  -0.310712  1.01555  0  0  0.0105195  0.085449  -0.0261897  0.0483698  0  0  0  0.017982  0.0871177  0  0  0  0  0  0  0  0  0  0 
1704802656.538840000  -2.47683  -0.310842  1.01579  0  0  0.0106499  0.0855316  -0.0257374  0.0483698  0  0  0  0.0151085  0.0938426  0  0  0  0  0  0  0  0  0  0 
1704802656.543795000  -2.4764  -0.310969  1.01604  0  0  0.0107804  0.0856005  -0.0252509  0.0483698  0  0  0  0.012485  0.100817  0  0  0  0  0  0  0  0  0  0 
1704802656.548789000  -2.47597  -0.311094  1.01628  0  0  0.0109108  0.0856568  -0.0247288  0.0483698  0  0  0  0.0101115  0.108042  0  0  0  0  0  0  0  0  0  0 
1704802656.553780000  -2.47554  -0.311216  1.01652  0  0  0.0110413  0.085702  -0.02417  0.0483698  0  0  0  0.007988  0.115517  0  0  0  0  0  0  0  0  0  0 
1704802656.558787000  -2.47511  -0.311336  1.01676  0  0  0.0111718  0.0857371  -0.0235732  0.0483698  0  0  0  0.0061145  0.123242  0  0  0  0  0  0  0  0  0  0 
1704802656.563804000  -2.47468  -0.311452  1.017  0  0  0.0113022  0.0857635  -0.0229372  0.0483698  0  0  0  0.004491  0.131217  0  0  0  0  0  0  0  0  0  0 
1704802656.568790000  -2.47426  -0.311565  1.01725  0  0  0.0114327  0.0857825  -0.0222606  0.0483698  0  0  0  0.0031175  0.139442  0  0  0  0  0  0  0  0  0  0 
1704802656.573794000  -2.47383  -0.311674  1.01749  0  0  0.0115632  0.0857951  -0.0215423  0.0483698  0  0  0  0.001994  0.147917  0  0  0  0  0  0  0  0  0  0 
1704802656.578788000  -2.4734  -0.31178  1.01773  0  0  0.0116936  0.0858028  -0.020781  0.0483698  0  0  0  0.0011205  0.156642  0  0  0  0  0  0  0  0  0  0 
1704802656.583780000  -2.47297  -0.311882  1.01797  0  0  0.0118241  0.0858068  -0.0199755  0.0483698  0  0  0  0.000497  0.165617  0  0  0  0  0  0  0  0  0  0 
1704802656.588770000  -2.47254  -0.31198  1.01821  0  0  0.0119546  0.0858082  -0.0191245  0.0483698  0  0  0  0.0001235  0.174842  0  0  0  0  0  0  0  0  0  0 
1704802656.593790000  -2.47211  -0.312073  1.01846  0  0  0.012085  0.0858084  -0.0182267  0.0483698  0  0  0  0  0.184317  0  0  0  0  0  0  0  0  0  0 
1704802656.598787000  -2.47168  -0.312162  1.0187  0  0  0.0122155  0.0858084  -0.0172809  0.0483698  0  0  0  0  0.194042  0  0  0  0  0  0  0  0  0  0 
1704802656.603777000  -2.47125  -0.312246  1.01894  0  0  0.012346  0.0858084  -0.0162858  0.0483698  0  0  0  0  0.204016  0  0  0  0  0  0  0  0  0  0 
1704802656.608791000  -2.47082  -0.312325  1.01918  0  0  0.0124764  0.0858084  -0.0152403  0.0483698  0  0  0  0  0.214241  0  0  0  0  0  0  0  0  0  0 
1704802656.613788000  -2.47039  -0.312398  1.01942  0  0  0.0126069  0.0858084  -0.014143  0.0483698  0  0  0  0  0.224716  0  0  0  0  0  0  0  0  0  0 
1704802656.618793000  -2.46997  -0.312466  1.01966  0  0  0.0127374  0.0858084  -0.0129927  0.0483698  0  0  0  0  0.235441  0  0  0  0  0  0  0  0  0  0 
1704802656.623804000  -2.46954  -0.312528  1.01991  0  0  0.0128678  0.0858084  -0.0117882  0.0483698  0  0  0  0  0.246416  0  0  0  0  0  0  0  0  0  0 
1704802656.628779000  -2.46911  -0.312584  1.02015  0  0  0.0129983  0.0858084  -0.0105281  0.0483698  0  0  0  0  0.257641  0  0  0  0  0  0  0  0  0  0 
1704802656.633780000  -2.46868  -0.312633  1.02039  0  0  0.0131288  0.0858084  -0.0092114  0.0483698  0  0  0  0  0.269116  0  0  0  0  0  0  0  0  0  0 
1704802656.638780000  -2.46825  -0.312676  1.02063  0  0  0.0132592  0.0858084  -0.0078366  0.0483698  0  0  0  0  0.280841  0  0  0  0  0  0  0  0  0  0 
1704802656.643794000  -2.46782  -0.312712  1.02087  0  0  0.0133897  0.0858084  -0.0064025  0.0483698  0  0  0  0  0.292816  0  0  0  0  0  0  0  0  0  0 
1704802656.648770000  -2.46739  -0.31274  1.02112  0  0  0.0135201  0.0858084  -0.004908  0.0483698  0  0  0  0  0.305041  0  0  0  0  0  0  0  0  0  0 
1704802656.653787000  -2.46696  -0.312761  1.02136  0  0  0.0136506  0.0858084  -0.0033517  0.0483698  0  0  0  0  0.317516  0  0  0  0  0  0  0  0  0  0 
1704802656.658787000  -2.46653  -0.312773  1.0216  0  0  0.0137811  0.0858084  -0.0017324  0.0483698  0  0  0  0  0.33024  0  0  0  0  0  0  0  0  0  0 
1704802656.663816000  -2.4661  -0.312778  1.02184  0  0  0.0139115  0.0858084  -4.89e-05  0.0483698  0  0  0  0  0.343215  0  0  0  0  0  0  0  0  0  0 
1704802656.668780000  -2.46568  -0.312774  1.02208  0  0  0.014042  0.0858084  0.0017002  0.0483698  0  0  0  0  0.35644  0  0  0  0  0  0  0  0  0  0 
1704802656.673790000  -2.46525  -0.312761  1.02232  0  0  0.0141725  0.0858084  0.0035159  0.0483698  0  0  0  0  0.369915  0  0  0  0  0  0  0  0  0  0 
1704802656.678788000  -2.46482  -0.312739  1.02257  0  0  0.0143029  0.0858084  0.0053997  0.0483698  0  0  0  0  0.38364  0  0  0  0  0  0  0  0  0  0 
1704802656.683779000  -2.46439  -0.312707  1.02281  0  0  0.0144334  0.0858084  0.0073527  0.0483698  0  0  0  0  0.397615  0  0  0  0  0  0  0  0  0  0 
1704802656.688788000  -2.46396  -0.312665  1.02305  0  0  0.0145639  0.0858084  0.0093763  0.0483698  0  0  0  0  0.41184  0  0  0  0  0  0  0  0  0  0 
1704802656.693791000  -2.46353  -0.312613  1.02329  0  0  0.0146943  0.0858084  0.0114716  0.0483698  0  0  0  0  0.426315  0  0  0  0  0  0  0  0  0  0 
1704802656.698779000  -2.4631  -0.31255  1.02353  0  0  0.0148248  0.0858084  0.0136399  0.0483698  0  0  0  0  0.44104  0  0  0  0  0  0  0  0  0  0 
1704802656.703788000  -2.46267  -0.312476  1.02378  0  0  0.0149553  0.0858084  0.0158824  0.0483698  0  0  0  0  0.456015  0  0  0  0  0  0  0  0  0  0 
1704802656.708779000  -2.46224  -0.312391  1.02402  0  0  0.0150857  0.0858084  0.0182004  0.0483698  0  0  0  0  0.47124  0  0  0  0  0  0  0  0  0  0 
1704802656.713783000  -2.46181  -0.312294  1.02426  0  0  0.0152162  0.0858084  0.0205952  0.0483698  0  0  0  0  0.486714  0  0  0  0  0  0  0  0  0  0 
1704802656.718784000  -2.46138  -0.312185  1.0245  0  0  0.0153467  0.0858084  0.023068  0.0483698  0  0  0  0  0.502439  0  0  0  0  0  0  0  0  0  0 
1704802656.723778000  -2.46096  -0.312063  1.02474  0  0  0.0154771  0.0858084  0.02562  0.0483698  0  0  0  0  0.518414  0  0  0  0  0  0  0  0  0  0 
1704802656.728774000  -2.46053  -0.311929  1.02498  0  0  0.0156076  0.0858084  0.0282525  0.0483698  0  0  0  0  0.534639  0  0  0  0  0  0  0  0  0  0 
1704802656.733791000  -2.4601  -0.311781  1.02523  0  0  0.0157381  0.0858084  0.0309668  0.0483698  0  0  0  0  0.551114  0  0  0  0  0  0  0  0  0  0 
1704802656.738797000  -2.45967  -0.311619  1.02547  0  0  0.0158685  0.0858084  0.0337641  0.0483698  0  0  0  0  0.567839  0  0  0  0  0  0  0  0  0  0 
1704802656.743785000  -2.45924  -0.311443  1.02571  0  0  0.015999  0.0858084  0.0366456  0.0483698  0  0  0  0  0.584814  0  0  0  0  0  0  0  0  0  0 
1704802656.748779000  -2.45881  -0.311252  1.02595  0  0  0.0161294  0.0858084  0.0396126  0.0483698  0  0  0  0  0.602039  0  0  0  0  0  0  0  0  0  0 
1704802656.753795000  -2.45838  -0.311047  1.02619  0  0  0.0162599  0.0858084  0.0426664  0.0483698  0  0  0  0  0.619514  0  0  0  0  0  0  0  0  0  0 
1704802656.758797000  -2.45795  -0.310825  1.02644  0  0  0.0163904  0.0858084  0.0458082  0.0483698  0  0  0  0  0.637239  0  0  0  0  0  0  0  0  0  0 
1704802656.763795000  -2.45752  -0.310588  1.02668  0  0  0.0165208  0.0858084  0.0490392  0.0483698  0  0  0  0  0.655214  0  0  0  0  0  0  0  0  0  0 
1704802656.768788000  -2.45709  -0.310335  1.02692  0  0  0.0166513  0.0858084  0.0523608  0.0483698  0  0  0  0  0.673438  0  0  0  0  0  0  0  0  0  0 
1704802656.773798000  -2.45667  -0.310065  1.02716  0  0  0.0167818  0.0858084  0.055774  0.0483698  0  0  0  0  0.691913  0  0  0  0  0  0  0  0  0  0 
1704802656.778787000  -2.45624  -0.309777  1.0274  0  0  0.0169122  0.0858084  0.0592803  0.0483698  0  0  0  0  0.710638  0  0  0  0  0  0  0  0  0  0 
1704802656.783793000  -2.45581  -0.309472  1.02765  0  0  0.0170427  0.0858084  0.0628808  0.0483698  0  0  0  0  0.729613  0  0  0  0  0  0  0  0  0  0 
1704802656.788787000  -2.45538  -0.309148  1.02789  0  0  0.0171732  0.0858084  0.0665769  0.0483698  0  0  0  0  0.748838  0  0  0  0  0  0  0  0  0  0 
1704802656.793800000  -2.45495  -0.308806  1.02813  0  0  0.0173036  0.0858084  0.0703693  0.0483698  0  0  0  0  0.768092  0  0  0  0  0  0  0  0  0  0 
1704802656.798798000  -2.45452  -0.308444  1.02837  0  0  0.0174341  0.0858084  0.0742574  0.0483698  0  0  0  0  0.787097  0  0  0  0  0  0  0  0  0  0 
1704802656.803804000  -2.45409  -0.308063  1.02861  0  0  0.0175646  0.0858084  0.0782398  0.0483698  0  0  0  0  0.805852  0  0  0  0  0  0  0  0  0  0 
1704802656.808791000  -2.45366  -0.307662  1.02885  0  0  0.017695  0.0858084  0.0823155  0.0483698  0  0  0  0  0.824357  0  0  0  0  0  0  0  0  0  0 
1704802656.813809000  -2.45323  -0.30724  1.0291  0  0  0.0178255  0.0858084  0.086483  0.0483698  0  0  0  0  0.842612  0  0  0  0  0  0  0  0  0  0 
1704802656.818798000  -2.4528  -0.306797  1.02934  0  0  0.017956  0.0858084  0.0907412  0.0483698  0  0  0  0  0.860617  0  0  0  0  0  0  0  0  0  0 
1704802656.823794000  -2.45238  -0.306332  1.02958  0  0  0.0180864  0.0858084  0.0950887  0.0483698  0  0  0  0  0.878372  0  0  0  0  0  0  0  0  0  0 
1704802656.828774000  -2.45195  -0.305846  1.02982  0  0  0.0182169  0.0858084  0.0995245  0.0483698  0  0  0  0  0.895877  0  0  0  0  0  0  0  0  0  0 
1704802656.833791000  -2.45152  -0.305337  1.03006  0  0  0.0183474  0.0858084  0.104047  0.0483698  0  0  0  0  0.913132  0  0  0  0  0  0  0  0  0  0 
1704802656.838779000  -2.45109  -0.304805  1.03031  0  0  0.0184778  0.0858084  0.108655  0.0483698  0  0  0  0  0.930136  0  0  0  0  0  0  0  0  0  0 
1704802656.843794000  -2.45066  -0.30425  1.03055  0  0  0.0186083  0.0858084  0.113348  0.0483698  0  0  0  0  0.946891  0  0  0  0  0  0  0  0  0  0 
1704802656.848792000  -2.45023  -0.303671  1.03079  0  0  0.0187387  0.0858084  0.118124  0.0483698  0  0  0  0  0.963396  0  0  0  0  0  0  0  0  0  0 
1704802656.853800000  -2.4498  -0.303069  1.03103  0  0  0.0188692  0.0858084  0.122982  0.0483698  0  0  0  0  0.979651  0  0  0  0  0  0  0  0  0  0 
1704802656.858798000  -2.44937  -0.302441  1.03127  0  0  0.0189997  0.0858084  0.12792  0.0483698  0  0  0  0  0.995656  0  0  0  0  0  0  0  0  0  0 
1704802656.863793000  -2.44894  -0.301789  1.03151  0  0  0.0191301  0.0858084  0.132938  0.0483698  0  0  0  0  1.01141  0  0  0  0  0  0  0  0  0  0 
1704802656.868781000  -2.44851  -0.301112  1.03176  0  0  0.0192606  0.0858084  0.138034  0.0483698  0  0  0  0  1.02692  0  0  0  0  0  0  0  0  0  0 
1704802656.873777000  -2.44808  -0.300409  1.032  0  0  0.0193911  0.0858084  0.143206  0.0483698  0  0  0  0  1.04217  0  0  0  0  0  0  0  0  0  0 
1704802656.878779000  -2.44766  -0.29968  1.03224  0  0  0.0195215  0.0858084  0.148455  0.0483698  0  0  0  0  1.05718  0  0  0  0  0  0  0  0  0  0 
1704802656.883787000  -2.44723  -0.298924  1.03248  0  0  0.019652  0.0858084  0.153778  0.0483698  0  0  0  0  1.07193  0  0  0  0  0  0  0  0  0  0 
1704802656.888786000  -2.4468  -0.298142  1.03272  0  0  0.0197825  0.0858084  0.159174  0.0483698  0  0  0  0  1.08644  0  0  0  0  0  0  0  0  0  0 
1704802656.893780000  -2.44637  -0.297332  1.03297  0  0  0.0199129  0.0858084  0.164642  0.0483698  0  0  0  0  1.10069  0  0  0  0  0  0  0  0  0  0 
1704802656.898785000  -2.44594  -0.296495  1.03321  0  0  0.0200434  0.0858084  0.17018  0.0483698  0  0  0  0  1.1147  0  0  0  0  0  0  0  0  0  0 
1704802656.903789000  -2.44551  -0.29563  1.03345  0  0  0.0201739  0.0858084  0.175788  0.0483698  0  0  0  0  1.12845  0  0  0  0  0  0  0  0  0  0 
1704802656.908773000  -2.44508  -0.294737  1.03369  0  0  0.0203043  0.0858084  0.181464  0.0483698  0  0  0  0  1.14196  0  0  0  0  0  0  0  0  0  0 
1704802656.913792000  -2.44465  -0.293816  1.03393  0  0  0.0204348  0.0858084  0.187207  0.0483698  0  0  0  0  1.15521  0  0  0  0  0  0  0  0  0  0 
1704802656.918798000  -2.44422  -0.292865  1.03418  0  0  0.0205653  0.0858084  0.193016  0.0483698  0  0  0  0  1.16822  0  0  0  0  0  0  0  0  0  0 
1704802656.923794000  -2.44379  -0.291885  1.03442  0  0  0.0206957  0.0858084  0.198889  0.0483698  0  0  0  0  1.18097  0  0  0  0  0  0  0  0  0  0 
1704802656.928790000  -2.44337  -0.290876  1.03466  0  0  0.0208262  0.0858084  0.204825  0.0483698  0  0  0  0  1.19348  0  0  0  0  0  0  0  0  0  0 
1704802656.933788000  -2.44294  -0.289837  1.0349  0  0  0.0209567  0.0858084  0.210823  0.0483698  0  0  0  0  1.20573  0  0  0  0  0  0  0  0  0  0 
1704802656.938781000  -2.44251  -0.288768  1.03514  0  0  0.0210871  0.0858084  0.216882  0.0483698  0  0  0  0  1.21773  0  0  0  0  0  0  0  0  0  0 
1704802656.943779000  -2.44208  -0.287668  1.03538  0  0  0.0212176  0.0858084  0.223  0.0483698  0  0  0  0  1.22949  0  0  0  0  0  0  0  0  0  0 
1704802656.948784000  -2.44165  -0.286538  1.03563  0  0  0.0213481  0.0858084  0.229177  0.0483698  0  0  0  0  1.24099  0  0  0  0  0  0  0  0  0  0 
1704802656.953790000  -2.44122  -0.285376  1.03587  0  0  0.0214785  0.0858084  0.23541  0.0483698  0  0  0  0  1.25225  0  0  0  0  0  0  0  0  0  0 
1704802656.958786000  -2.44079  -0.284184  1.03611  0  0  0.021609  0.0858084  0.241699  0.0483698  0  0  0  0  1.26325  0  0  0  0  0  0  0  0  0  0 
1704802656.963782000  -2.44036  -0.282959  1.03635  0  0  0.0217394  0.0858084  0.248042  0.0483698  0  0  0  0  1.27401  0  0  0  0  0  0  0  0  0  0 
1704802656.968775000  -2.43993  -0.281703  1.03659  0  0  0.0218699  0.0858084  0.254439  0.0483698  0  0  0  0  1.28451  0  0  0  0  0  0  0  0  0  0 
1704802656.973791000  -2.4395  -0.280415  1.03684  0  0  0.0220004  0.0858084  0.260887  0.0483698  0  0  0  0  1.29477  0  0  0  0  0  0  0  0  0  0 
1704802656.978798000  -2.43907  -0.279094  1.03708  0  0  0.0221308  0.0858084  0.267386  0.0483698  0  0  0  0  1.30477  0  0  0  0  0  0  0  0  0  0 
1704802656.983801000  -2.43865  -0.277741  1.03732  0  0  0.0222613  0.0858084  0.273934  0.0483698  0  0  0  0  1.31453  0  0  0  0  0  0  0  0  0  0 
1704802656.988788000  -2.43822  -0.276355  1.03756  0  0  0.0223918  0.0858084  0.280531  0.0483698  0  0  0  0  1.32403  5e-07  0  0  0  0  0  0  0  0  0 
1704802656.993780000  -2.43779  -0.274935  1.0378  0  0  0.0225222  0.0858084  0.287174  0.0483701  0  0  0  0  1.33329  0.0001405  0  0  0  0  0  0  0  0  0 
1704802656.998782000  -2.43736  -0.273483  1.03804  0  0  0.0226527  0.0858084  0.293863  0.0483717  0  0  0  0  1.34229  0.0005305  0  0  0  0  0  0  0  0  0 
1704802657.003787000  -2.43693  -0.271997  1.03829  0  0  0.0227832  0.0858084  0.300597  0.0483758  0  0  0  0  1.35105  0.0011705  0  0  0  0  0  0  0  0  0 
1704802657.008774000  -2.4365  -0.270477  1.03853  0  0  0.0229136  0.0858084  0.307373  0.0483838  0  0  0  0  1.35955  0.0020605  0  0  0  0  0  0  0  0  0 
1704802657.013782000  -2.43607  -0.268923  1.03877  0  0  0.0230441  0.0858084  0.314192  0.0483968  0  0  0  0  1.36781  0.0032005  0  0  0  0  0  0  0  0  0 
1704802657.018780000  -2.43564  -0.267335  1.03901  0  0  0.0231746  0.0858084  0.321051  0.0484162  0  0  0  0  1.37581  0.0045906  0  0  0  0  0  0  0  0  0 
1704802657.023782000  -2.43521  -0.265712  1.03925  0  0  0.023305  0.0858084  0.327949  0.0484432  0  0  0  0  1.38357  0.0062306  0  0  0  0  0  0  0  0  0 
1704802657.028773000  -2.43478  -0.264055  1.0395  0  0  0.0234355  0.0858084  0.334886  0.0484789  0  0  0  0  1.39107  0.0081206  0  0  0  0  0  0  0  0  0 
1704802657.033791000  -2.43436  -0.262363  1.03974  0  0  0.023566  0.0858084  0.34186  0.0485248  0  0  0  0  1.39833  0.0102606  0  0  0  0  0  0  0  0  0 
1704802657.038787000  -2.43393  -0.260637  1.03998  0  0  0.0236964  0.0858084  0.348869  0.0485819  0  0  0  0  1.40533  0.0126507  0  0  0  0  0  0  0  0  0 
1704802657.043786000  -2.4335  -0.258875  1.04023  0  0  0.0238269  0.0858084  0.355913  0.0486517  0  0  0  0  1.41209  0.0152907  0  0  0  0  0  0  0  0  0 
1704802657.048788000  -2.43307  -0.257077  1.04047  0  0  0.0239574  0.0858084  0.362989  0.0487353  0  0  0  0  1.41859  0.0181807  0  0  0  0  0  0  0  0  0 
1704802657.053769000  -2.43264  -0.255245  1.04071  0  0  0.0240878  0.0858084  0.370098  0.0488339  0  0  0  0  1.42485  0.0213207  0  0  0  0  0  0  0  0  0 
1704802657.058782000  -2.43221  -0.253376  1.04096  0  0  0.0242183  0.0858084  0.377238  0.0489489  0  0  0  0  1.43085  0.0247107  0  0  0  0  0  0  0  0  0 
1704802657.063819000  -2.43178  -0.251472  1.0412  0  0  0.0243487  0.0858084  0.384406  0.0490814  0  0  0  0  1.43661  0.0283508  0  0  0  0  0  0  0  0  0 
1704802657.068806000  -2.43135  -0.249532  1.04145  0  0  0.0244792  0.0858084  0.391603  0.0492328  0  0  0  0  1.44211  0.0322408  0  0  0  0  0  0  0  0  0 
1704802657.073807000  -2.43092  -0.247556  1.04169  0  0  0.0246097  0.0858084  0.398827  0.0494043  0  0  0  0  1.44737  0.0363808  0  0  0  0  0  0  0  0  0 
1704802657.078779000  -2.43049  -0.245544  1.04194  0  0  0.0247401  0.0858084  0.406076  0.049597  0  0  0  0  1.45237  0.0407708  0  0  0  0  0  0  0  0  0 
1704802657.083778000  -2.43006  -0.243495  1.04219  0  0  0.0248706  0.0858084  0.41335  0.0498124  0  0  0  0  1.45713  0.0454108  0  0  0  0  0  0  0  0  0 
1704802657.088812000  -2.42964  -0.24141  1.04244  0  0  0.0250011  0.0858084  0.420647  0.0500516  0  0  0  0  1.46163  0.0503009  0  0  0  0  0  0  0  0  0 
1704802657.093781000  -2.42921  -0.239289  1.04269  0  0  0.0251315  0.0858084  0.427966  0.0503158  0  0  0  0  1.46589  0.0554409  0  0  0  0  0  0  0  0  0 
1704802657.098797000  -2.42878  -0.237131  1.04294  0  0  0.025262  0.0858084  0.435306  0.0506064  0  0  0  0  1.46989  0.0608309  0  0  0  0  0  0  0  0  0 
1704802657.103787000  -2.42835  -0.234936  1.0432  0  0  0.0253925  0.0858084  0.442665  0.0509245  0  0  0  0  1.47365  0.0664709  0  0  0  0  0  0  0  0  0 
1704802657.108769000  -2.42792  -0.232704  1.04345  0  0  0.0255229  0.0858084  0.450042  0.0512715  0  0  0  0  1.47715  0.0723609  0  0  0  0  0  0  0  0  0 
1704802657.113799000  -2.42749  -0.230435  1.04371  0  0  0.0256534  0.0858084  0.457436  0.0516486  0  0  0  0  1.48041  0.078501  0  0  0  0  0  0  0  0  0 
1704802657.118790000  -2.42706  -0.22813  1.04397  0  0  0.0257839  0.0858084  0.464845  0.0520569  0  0  0  0  1.48341  0.084891  0  0  0  0  0  0  0  0  0 
1704802657.123798000  -2.42663  -0.225787  1.04423  0  0  0.0259143  0.0858084  0.47227  0.0524979  0  0  0  0  1.48617  0.091531  0  0  0  0  0  0  0  0  0 
1704802657.128778000  -2.4262  -0.223407  1.04449  0  0  0.0260448  0.0858084  0.479707  0.0529727  0  0  0  0  1.48867  0.098421  0  0  0  0  0  0  0  0  0 
1704802657.133786000  -2.42577  -0.22099  1.04476  0  0  0.0261753  0.0858084  0.487156  0.0534825  0  0  0  0  1.49093  0.105561  0  0  0  0  0  0  0  0  0 
1704802657.138792000  -2.42535  -0.218535  1.04503  0  0  0.0263057  0.0858084  0.494616  0.0540287  0  0  0  0  1.49293  0.112951  0  0  0  0  0  0  0  0  0 
1704802657.143804000  -2.42492  -0.216044  1.0453  0  0  0.0264362  0.0858084  0.502085  0.0546125  0  0  0  0  1.49469  0.120591  0  0  0  0  0  0  0  0  0 
1704802657.148793000  -2.42449  -0.213514  1.04558  0  0  0.0265667  0.0858084  0.509562  0.055235  0  0  0  0  1.49619  0.128481  0  0  0  0  0  0  0  0  0 
1704802657.153788000  -2.42406  -0.210948  1.04585  0  0  0.0266971  0.0858084  0.517046  0.0558977  0  0  0  0  1.49745  0.136621  0  0  0  0  0  0  0  0  0 
1704802657.158791000  -2.42363  -0.208344  1.04613  0  0  0.0268276  0.0858084  0.524536  0.0566017  0  0  0  0  1.49845  0.145011  0  0  0  0  0  0  0  0  0 
1704802657.163787000  -2.4232  -0.205703  1.04642  0  0  0.026958  0.0858084  0.53203  0.0573482  0  0  0  0  1.49921  0.153651  0  0  0  0  0  0  0  0  0 
1704802657.168788000  -2.42277  -0.203024  1.04671  0  0  0.0270885  0.0858084  0.539528  0.0581386  0  0  0  0  1.49971  0.162541  0  0  0  0  0  0  0  0  0 
1704802657.173792000  -2.42234  -0.200307  1.047  0  0  0.027219  0.0858084  0.547027  0.058974  0  0  0  0  1.49997  0.171681  0  0  0  0  0  0  0  0  0 
1704802657.178787000  -2.42191  -0.197553  1.0473  0  0  0.0273494  0.0858084  0.554527  0.0598558  0  0  0  0  1.5  0.181071  0  0  0  0  0  0  0  0  0 
1704802657.183775000  -2.42148  -0.194762  1.0476  0  0  0.0274799  0.0858084  0.562027  0.0607852  0  0  0  0  1.49989  0.190711  0  0  0  0  0  0  0  0  0 
1704802657.188787000  -2.42105  -0.191933  1.04791  0  0  0.0276104  0.0858084  0.569526  0.0617633  0  0  0  0  1.49953  0.200601  0  0  0  0  0  0  0  0  0 
1704802657.193790000  -2.42063  -0.189067  1.04822  0  0  0.0277408  0.0858084  0.577022  0.0627916  0  0  0  0  1.49892  0.210741  0  0  0  0  0  0  0  0  0 
1704802657.198778000  -2.4202  -0.186163  1.04853  0  0  0.0278713  0.0858084  0.584514  0.0638712  0  0  0  0  1.49806  0.221131  0  0  0  0  0  0  0  0  0 
1704802657.203786000  -2.41977  -0.183222  1.04886  0  0  0.0280018  0.0858084  0.592002  0.0650033  0  0  0  0  1.49696  0.231771  0  0  0  0  0  0  0  0  0 
1704802657.208800000  -2.41934  -0.180243  1.04918  0  0  0.0281322  0.0858084  0.599483  0.0661893  0  0  0  0  1.4956  0.242661  0  0  0  0  0  0  0  0  0 
1704802657.213782000  -2.41891  -0.177227  1.04952  0  0  0.0282627  0.0858084  0.606958  0.0674304  0  0  0  0  1.49399  0.253801  0  0  0  0  0  0  0  0  0 
1704802657.218782000  -2.41848  -0.174173  1.04986  0  0  0.0283932  0.0858084  0.614423  0.0687277  0  0  0  0  1.49213  0.265191  0  0  0  0  0  0  0  0  0 
1704802657.223777000  -2.41805  -0.171083  1.05021  0  0  0.0285236  0.0858084  0.621878  0.0700827  0  0  0  0  1.49002  0.276831  0  0  0  0  0  0  0  0  0 
1704802657.228774000  -2.41762  -0.167955  1.05056  0  0  0.0286541  0.0858084  0.629323  0.0714965  0  0  0  0  1.48766  0.288721  0  0  0  0  0  0  0  0  0 
1704802657.233789000  -2.41719  -0.164789  1.05092  0  0  0.0287846  0.0858084  0.636755  0.0729703  0  0  0  0  1.48505  0.300861  0  0  0  0  0  0  0  0  0 
1704802657.238787000  -2.41676  -0.161587  1.05129  0  0  0.028915  0.0858084  0.644173  0.0745054  0  0  0  0  1.48219  0.313176  0  0  0  0  0  0  0  0  0 
1704802657.243777000  -2.41634  -0.158348  1.05167  0  0  0.0290455  0.0858084  0.651576  0.0761017  0  0  0  0  1.47909  0.325292  0  0  0  0  0  0  0  0  0 
1704802657.248777000  -2.41591  -0.155071  1.05205  0  0  0.029176  0.0858084  0.658963  0.0777579  0  0  0  0  1.47573  0.337158  0  0  0  0  0  0  0  0  0 
1704802657.253787000  -2.41548  -0.151758  1.05244  0  0  0.0293064  0.0858084  0.666333  0.0794729  0  0  0  0  1.47212  0.348773  0  0  0  0  0  0  0  0  0 
1704802657.258786000  -2.41505  -0.148408  1.05284  0  0  0.0294369  0.0858084  0.673684  0.0812452  0  0  0  0  1.46826  0.360139  0  0  0  0  0  0  0  0  0 
1704802657.263779000  -2.41462  -0.145021  1.05326  0  0  0.0295673  0.0858084  0.681015  0.0830738  0  0  0  0  1.46415  0.371255  0  0  0  0  0  0  0  0  0 
1704802657.268773000  -2.41419  -0.141598  1.05368  0  0  0.0296978  0.0858084  0.688325  0.0849574  0  0  0  0  1.45979  0.382121  0  0  0  0  0  0  0  0  0 
1704802657.273800000  -2.41376  -0.138138  1.05411  0  0  0.0298283  0.0858084  0.695613  0.0868946  0  0  0  0  1.45518  0.392736  0  0  0  0  0  0  0  0  0 
1704802657.278796000  -2.41333  -0.134642  1.05454  0  0  0.0299587  0.0858084  0.702877  0.0888843  0  0  0  0  1.45032  0.403102  0  0  0  0  0  0  0  0  0 
1704802657.283783000  -2.4129  -0.131109  1.05499  0  0  0.0300892  0.0858084  0.710115  0.0909252  0  0  0  0  1.44522  0.413218  0  0  0  0  0  0  0  0  0 
1704802657.288791000  -2.41247  -0.127541  1.05545  0  0  0.0302197  0.0858084  0.717328  0.0930161  0  0  0  0  1.43986  0.423084  0  0  0  0  0  0  0  0  0 
1704802657.293795000  -2.41205  -0.123936  1.05592  0  0  0.0303501  0.0858084  0.724514  0.0951557  0  0  0  0  1.43425  0.432699  0  0  0  0  0  0  0  0  0 
1704802657.298798000  -2.41162  -0.120296  1.05641  0  0  0.0304806  0.0858084  0.73167  0.0973427  0  0  0  0  1.42839  0.442065  0  0  0  0  0  0  0  0  0 
1704802657.303791000  -2.41119  -0.116619  1.0569  0  0  0.0306111  0.0858084  0.738797  0.0995759  0  0  0  0  1.42228  0.451181  0  0  0  0  0  0  0  0  0 
1704802657.308791000  -2.41076  -0.112908  1.0574  0  0  0.0307415  0.0858084  0.745893  0.101854  0  0  0  0  1.41592  0.460047  0  0  0  0  0  0  0  0  0 
1704802657.313803000  -2.41033  -0.109161  1.05792  0  0  0.030872  0.0858084  0.752956  0.104176  0  0  0  0  1.40931  0.468662  0  0  0  0  0  0  0  0  0 
1704802657.318789000  -2.4099  -0.105378  1.05844  0  0  0.0310025  0.0858084  0.759985  0.10654  0  0  0  0  1.40245  0.477028  0  0  0  0  0  0  0  0  0 
1704802657.323788000  -2.40947  -0.101561  1.05898  0  0  0.0311329  0.0858084  0.76698  0.108946  0  0  0  0  1.39535  0.485144  0  0  0  0  0  0  0  0  0 
1704802657.328791000  -2.40904  -0.0977085  1.05953  0  0  0.0312634  0.0858084  0.773938  0.111391  0  0  0  0  1.38799  0.49301  0  0  0  0  0  0  0  0  0 
1704802657.333796000  -2.40861  -0.0938215  1.0601  0  0  0.0313939  0.0858084  0.780859  0.113875  0  0  0  0  1.38038  0.500625  0  0  0  0  0  0  0  0  0 
1704802657.338782000  -2.40818  -0.0899  1.06067  0  0  0.0315243  0.0858084  0.787742  0.116397  0  0  0  0  1.37252  0.507991  0  0  0  0  0  0  0  0  0 
1704802657.343792000  -2.40775  -0.0859441  1.06126  0  0  0.0316548  0.0858084  0.794584  0.118955  0  0  0  0  1.36441  0.515107  0  0  0  0  0  0  0  0  0 
1704802657.348775000  -2.40733  -0.0819542  1.06186  0  0  0.0317853  0.0858084  0.801386  0.121548  0  0  0  0  1.35605  0.521973  0  0  0  0  0  0  0  0  0 
1704802657.353797000  -2.4069  -0.0779303  1.06248  0  0  0.0319157  0.0858084  0.808144  0.124174  0  0  0  0  1.34744  0.528588  0  0  0  0  0  0  0  0  0 
1704802657.358799000  -2.40647  -0.0738728  1.0631  0  0  0.0320462  0.0858084  0.81486  0.126833  0  0  0  0  1.33858  0.534954  0  0  0  0  0  0  0  0  0 
1704802657.363779000  -2.40604  -0.0697818  1.06374  0  0  0.0321766  0.0858084  0.82153  0.129523  0  0  0  0  1.32948  0.54107  0  0  0  0  0  0  0  0  0 
1704802657.368777000  -2.40561  -0.0656576  1.0644  0  0  0.0323071  0.0858084  0.828154  0.132244  0  0  0  0  1.32012  0.546935  0  0  0  0  0  0  0  0  0 
1704802657.373777000  -2.40518  -0.0615004  1.06507  0  0  0.0324376  0.0858084  0.834731  0.134992  0  0  0  0  1.31051  0.552551  0  0  0  0  0  0  0  0  0 
1704802657.378778000  -2.40475  -0.0573104  1.06575  0  0  0.032568  0.0858084  0.841259  0.137769  0  0  0  0  1.30065  0.557917  0  0  0  0  0  0  0  0  0 
1704802657.383778000  -2.40432  -0.0530879  1.06644  0  0  0.0326985  0.0858084  0.847737  0.140571  0  0  0  0  1.29054  0.563033  0  0  0  0  0  0  0  0  0 
1704802657.388786000  -2.40389  -0.0488331  1.06715  0  0  0.032829  0.0858084  0.854164  0.143399  0  0  0  0  1.28018  0.567898  0  0  0  0  0  0  0  0  0 
1704802657.393792000  -2.40346  -0.0445463  1.06788  0  0  0.0329594  0.0858084  0.860538  0.14625  0  0  0  0  1.26957  0.572514  0  0  0  0  0  0  0  0  0 
1704802657.398777000  -2.40304  -0.0402278  1.06862  0  0  0.0330899  0.0858084  0.866859  0.149123  0  0  0  0  1.25871  0.57688  0  0  0  0  0  0  0  0  0 
1704802657.403781000  -2.40261  -0.0358778  1.06937  0  0  0.0332204  0.0858084  0.873125  0.152018  0  0  0  0  1.24761  0.580996  0  0  0  0  0  0  0  0  0 
1704802657.408800000  -2.40218  -0.0314966  1.07014  0  0  0.0333508  0.0858084  0.879334  0.154933  0  0  0  0  1.23625  0.584861  0  0  0  0  0  0  0  0  0 
1704802657.413790000  -2.40175  -0.0270846  1.07092  0  0  0.0334813  0.0858084  0.885487  0.157866  0  0  0  0  1.22464  0.588477  0  0  0  0  0  0  0  0  0 
1704802657.418775000  -2.40132  -0.0226419  1.07172  0  0  0.0336118  0.0858084  0.89158  0.160817  0  0  0  0  1.21278  0.591843  0  0  0  0  0  0  0  0  0 
1704802657.423793000  -2.40089  -0.0181689  1.07253  0  0  0.0337422  0.0858084  0.897614  0.163784  0  0  0  0  1.20067  0.594959  0  0  0  0  0  0  0  0  0 
1704802657.428794000  -2.40046  -0.0136658  1.07335  0  0  0.0338727  0.0858084  0.903587  0.166766  0  0  0  0  1.18831  0.597824  0  0  0  0  0  0  0  0  0 
1704802657.433792000  -2.40003  -0.0091331  1.07419  0  0  0.0340032  0.0858084  0.909497  0.169762  0  0  0  0  1.1757  0.60044  0  0  0  0  0  0  0  0  0 
1704802657.438784000  -2.3996  -0.004571  1.07505  0  0  0.0341336  0.0858084  0.915343  0.17277  0  0  0  0  1.16284  0.602806  0  0  0  0  0  0  0  0  0 
1704802657.443793000  -2.39917  2.02e-05  1.07592  0  0  0.0342641  0.0858084  0.921125  0.17579  0  0  0  0  1.14973  0.604922  0  0  0  0  0  0  0  0  0 
1704802657.448793000  -2.39874  0.0046402  1.07681  0  0  0.0343946  0.0858084  0.92684  0.178819  0  0  0  0  1.13638  0.606787  0  0  0  0  0  0  0  0  0 
1704802657.453799000  -2.39832  0.0092885  1.07771  0  0  0.034525  0.0858084  0.932488  0.181857  0  0  0  0  1.12277  0.608403  0  0  0  0  0  0  0  0  0 
1704802657.458778000  -2.39789  0.0139649  1.07863  0  0  0.0346555  0.0858084  0.938067  0.184903  0  0  0  0  1.10891  0.609769  0  0  0  0  0  0  0  0  0 
1704802657.463778000  -2.39746  0.0186691  1.07956  0  0  0.0347859  0.0858084  0.943577  0.187954  0  0  0  0  1.0948  0.610885  0  0  0  0  0  0  0  0  0 
1704802657.468801000  -2.39703  0.0234006  1.08051  0  0  0.0349164  0.0858084  0.949015  0.191011  0  0  0  0  1.08044  0.61175  0  0  0  0  0  0  0  0  0 
1704802657.473803000  -2.3966  0.0281591  1.08147  0  0  0.0350469  0.0858084  0.954381  0.194072  0  0  0  0  1.06583  0.612366  0  0  0  0  0  0  0  0  0 
1704802657.478779000  -2.39617  0.0329443  1.08245  0  0  0.0351773  0.0858084  0.959673  0.197134  0  0  0  0  1.05097  0.612732  0  0  0  0  0  0  0  0  0 
1704802657.483799000  -2.39574  0.0377557  1.08344  0  0  0.0353078  0.0858084  0.96489  0.200198  0  0  0  0  1.03586  0.612848  0  0  0  0  0  0  0  0  0 
1704802657.488801000  -2.39531  0.042593  1.08445  0  0  0.0354383  0.0858084  0.970031  0.203262  0  0  0  0  1.02051  0.612713  0  0  0  0  0  0  0  0  0 
1704802657.493779000  -2.39488  0.0474559  1.08547  0  0  0.0355687  0.0858084  0.975095  0.206325  0  0  0  0  1.0049  0.612329  0  0  0  0  0  0  0  0  0 
1704802657.498780000  -2.39445  0.0523439  1.08651  0  0  0.0356992  0.0858084  0.98008  0.209385  0  0  0  0  0.989039  0.611695  0  0  0  0  0  0  0  0  0 
1704802657.503781000  -2.39403  0.0572566  1.08757  0  0  0.0358297  0.0858084  0.984985  0.212442  0  0  0  0  0.97293  0.61081  0  0  0  0  0  0  0  0  0 
1704802657.508779000  -2.3936  0.0621936  1.08864  0  0  0.0359601  0.0858084  0.989809  0.215493  0  0  0  0  0.956571  0.609676  0  0  0  0  0  0  0  0  0 
1704802657.513788000  -2.39317  0.0671545  1.08972  0  0  0.0360906  0.0858084  0.99455  0.218538  0  0  0  0  0.939962  0.608292  0  0  0  0  0  0  0  0  0 
1704802657.518778000  -2.39274  0.0721389  1.09082  0  0  0.0362211  0.0858084  0.999208  0.221576  0  0  0  0  0.923104  0.606658  0  0  0  0  0  0  0  0  0 
1704802657.523806000  -2.39231  0.0771464  1.09194  0  0  0.0363515  0.0858084  1.00378  0.224604  0  0  0  0  0.905995  0.604773  0  0  0  0  0  0  0  0  0 
1704802657.528789000  -2.39188  0.0821766  1.09307  0  0  0.036482  0.0858084  1.00827  0.227623  0  0  0  0  0.888636  0.602639  0  0  0  0  0  0  0  0  0 
1704802657.533785000  -2.39145  0.087229  1.09421  0  0  0.0366125  0.0858084  1.01267  0.23063  0  0  0  0  0.871027  0.600255  0  0  0  0  0  0  0  0  0 
1704802657.538775000  -2.39102  0.0923031  1.09538  0  0  0.0367429  0.0858084  1.01698  0.233625  0  0  0  0  0.853168  0.597621  0  0  0  0  0  0  0  0  0 
1704802657.543803000  -2.39059  0.0973986  1.09655  0  0  0.0368734  0.0858084  1.0212  0.236606  0  0  0  0  0.83506  0.594736  0  0  0  0  0  0  0  0  0 
1704802657.548789000  -2.39016  0.102515  1.09774  0  0  0.0370039  0.0858084  1.02533  0.239572  0  0  0  0  0.816701  0.591602  0  0  0  0  0  0  0  0  0 
1704802657.553783000  -2.38973  0.107652  1.09895  0  0  0.0371343  0.0858084  1.02936  0.242522  0  0  0  0  0.798092  0.588218  0  0  0  0  0  0  0  0  0 
1704802657.558806000  -2.38931  0.112808  1.10017  0  0  0.0372648  0.0858084  1.03331  0.245454  0  0  0  0  0.779233  0.584584  0  0  0  0  0  0  0  0  0 
1704802657.563779000  -2.38888  0.117985  1.1014  0  0  0.0373952  0.0858084  1.03716  0.248367  0  0  0  0  0.760125  0.580699  0  0  0  0  0  0  0  0  0 
1704802657.568771000  -2.38845  0.12318  1.10265  0  0  0.0375257  0.0858084  1.04091  0.25126  0  0  0  0  0.740766  0.576565  0  0  0  0  0  0  0  0  0 
1704802657.573780000  -2.38802  0.128394  1.10391  0  0  0.0376562  0.0858084  1.04456  0.254132  0  0  0  0  0.721157  0.572181  0  0  0  0  0  0  0  0  0 
1704802657.578787000  -2.38759  0.133625  1.10519  0  0  0.0377866  0.0858084  1.04812  0.256982  0  0  0  0  0.701298  0.567547  0  0  0  0  0  0  0  0  0 
1704802657.583794000  -2.38716  0.138875  1.10648  0  0  0.0379171  0.0858084  1.05158  0.259807  0  0  0  0  0.68119  0.562662  0  0  0  0  0  0  0  0  0 
1704802657.588769000  -2.38673  0.144141  1.10779  0  0  0.0380476  0.0858084  1.05493  0.262608  0  0  0  0  0.660831  0.557528  0  0  0  0  0  0  0  0  0 
1704802657.593805000  -2.3863  0.149424  1.10911  0  0  0.038178  0.0858084  1.05818  0.265382  0  0  0  0  0.640222  0.552144  0  0  0  0  0  0  0  0  0 
1704802657.598800000  -2.38587  0.154723  1.11044  0  0  0.0383085  0.0858084  1.06133  0.268129  0  0  0  0  0.619363  0.54651  0  0  0  0  0  0  0  0  0 
1704802657.603811000  -2.38544  0.160037  1.11179  0  0  0.038439  0.0858084  1.06438  0.270847  0  0  0  0  0.598255  0.540625  0  0  0  0  0  0  0  0  0 
1704802657.608791000  -2.38502  0.165366  1.11315  0  0  0.0385694  0.0858084  1.06732  0.273535  0  0  0  0  0.576896  0.534491  0  0  0  0  0  0  0  0  0 
1704802657.613780000  -2.38459  0.17071  1.11453  0  0  0.0386999  0.0858084  1.07015  0.276191  0  0  0  0  0.555287  0.528107  0  0  0  0  0  0  0  0  0 
1704802657.618782000  -2.38416  0.176067  1.11591  0  0  0.0388304  0.0858084  1.07287  0.278815  0  0  0  0  0.533428  0.521472  0  0  0  0  0  0  0  0  0 
1704802657.623777000  -2.38373  0.181438  1.11731  0  0  0.0389608  0.0858084  1.07548  0.281406  0  0  0  0  0.511319  0.514588  0  0  0  0  0  0  0  0  0 
1704802657.628790000  -2.3833  0.186822  1.11873  0  0  0.0390913  0.0858084  1.07798  0.283961  0  0  0  0  0.488961  0.507454  0  0  0  0  0  0  0  0  0 
1704802657.633778000  -2.38287  0.192218  1.12015  0  0  0.0392218  0.0858084  1.08037  0.28648  0  0  0  0  0.466352  0.50007  0  0  0  0  0  0  0  0  0 
1704802657.638790000  -2.38244  0.197626  1.12159  0  0  0.0393522  0.0858084  1.08264  0.288961  0  0  0  0  0.443493  0.492435  0  0  0  0  0  0  0  0  0 
1704802657.643776000  -2.38201  0.203044  1.12304  0  0  0.0394827  0.0858084  1.0848  0.291404  0  0  0  0  0.420384  0.484551  0  0  0  0  0  0  0  0  0 
1704802657.648787000  -2.38158  0.208473  1.12451  0  0  0.0396132  0.0858084  1.08685  0.293806  0  0  0  0  0.397026  0.476417  0  0  0  0  0  0  0  0  0 
1704802657.653802000  -2.38115  0.213912  1.12598  0  0  0.0397436  0.0858084  1.08877  0.296167  0  0  0  0  0.373417  0.468033  0  0  0  0  0  0  0  0  0 
1704802657.658784000  -2.38073  0.219361  1.12747  0  0  0.0398741  0.0858084  1.09058  0.298486  0  0  0  0  0.349558  0.459398  0  0  0  0  0  0  0  0  0 
1704802657.663792000  -2.3803  0.224818  1.12897  0  0  0.0400045  0.0858084  1.09227  0.300761  0  0  0  0  0.325449  0.450514  0  0  0  0  0  0  0  0  0 
1704802657.668787000  -2.37987  0.230283  1.13048  0  0  0.040135  0.0858084  1.09383  0.302991  0  0  0  0  0.301091  0.44138  0  0  0  0  0  0  0  0  0 
1704802657.673794000  -2.37944  0.235756  1.132  0  0  0.0402655  0.0858084  1.09528  0.305174  0  0  0  0  0.276482  0.431996  0  0  0  0  0  0  0  0  0 
1704802657.678780000  -2.37901  0.241236  1.13353  0  0  0.0403959  0.0858084  1.0966  0.30731  0  0  0  0  0.251623  0.422361  0  0  0  0  0  0  0  0  0 
1704802657.683778000  -2.37858  0.246722  1.13507  0  0  0.0405264  0.0858084  1.09779  0.309398  0  0  0  0  0.226624  0.412477  0  0  0  0  0  0  0  0  0 
1704802657.688774000  -2.37815  0.252214  1.13662  0  0  0.0406569  0.0858084  1.09887  0.311435  0  0  0  0  0.201624  0.402343  0  0  0  0  0  0  0  0  0 
1704802657.693778000  -2.37772  0.25771  1.13818  0  0  0.0407873  0.0858084  1.09981  0.313421  0  0  0  0  0.176624  0.391959  0  0  0  0  0  0  0  0  0 
1704802657.698782000  -2.37729  0.263212  1.13976  0  0  0.0409178  0.0858084  1.10063  0.315354  0  0  0  0  0.151667  0.381324  0  0  0  0  0  0  0  0  0 
1704802657.703794000  -2.37686  0.268717  1.14134  0  0  0.0410483  0.0858084  1.10133  0.317233  0  0  0  0  0.126939  0.37044  0  0  0  0  0  0  0  0  0 
1704802657.708804000  -2.37643  0.274225  1.14293  0  0  0.0411787  0.0858084  1.1019  0.319058  0  0  0  0  0.102461  0.359306  0  0  0  0  0  0  0  0  0 
1704802657.713814000  -2.37601  0.279735  1.14453  0  0  0.0413092  0.0858084  1.10235  0.320826  0  0  0  0  0.0782332  0.347922  0  0  0  0  0  0  0  0  0 
1704802657.718779000  -2.37558  0.285248  1.14614  0  0  0.0414397  0.0858084  1.10268  0.322537  0  0  0  0  0.0542554  0.336287  0  0  0  0  0  0  0  0  0 
1704802657.723787000  -2.37515  0.290762  1.14775  0  0  0.0415701  0.0858084  1.1029  0.324189  0  0  0  0  0.0305275  0.324403  0  0  0  0  0  0  0  0  0 
1704802657.728780000  -2.37472  0.296277  1.14938  0  0  0.0417006  0.0858084  1.10299  0.32578  0  0  0  0  0.0070496  0.312269  0  0  0  0  0  0  0  0  0 
1704802657.733779000  -2.37429  0.301792  1.15101  0  0  0.0418311  0.0858084  1.10297  0.327311  0  0  0  0  -0.0161783  0.299885  0  0  0  0  0  0  0  0  0 
1704802657.738790000  -2.37386  0.307306  1.15265  0  0  0.0419615  0.0858084  1.10283  0.328779  0  0  0  0  -0.0391562  0.28725  0  0  0  0  0  0  0  0  0 
1704802657.743780000  -2.37343  0.31282  1.1543  0  0  0.042092  0.0858084  1.10258  0.330183  0  0  0  0  -0.0618841  0.274366  0  0  0  0  0  0  0  0  0 
1704802657.748777000  -2.373  0.318332  1.15595  0  0  0.0422225  0.0858084  1.10221  0.331522  0  0  0  0  -0.0843619  0.261232  0  0  0  0  0  0  0  0  0 
1704802657.753770000  -2.37257  0.323842  1.15761  0  0  0.0423529  0.0858084  1.10173  0.332795  0  0  0  0  -0.10659  0.247847  0  0  0  0  0  0  0  0  0 
1704802657.758795000  -2.37214  0.329349  1.15928  0  0  0.0424834  0.0858084  1.10114  0.334  0  0  0  0  -0.128568  0.234213  0  0  0  0  0  0  0  0  0 
1704802657.763829000  -2.37172  0.334853  1.16095  0  0  0.0426139  0.0858084  1.10045  0.335136  0  0  0  0  -0.150296  0.220329  0  0  0  0  0  0  0  0  0 
1704802657.768793000  -2.37129  0.340353  1.16263  0  0  0.0427443  0.0858084  1.09964  0.336203  0  0  0  0  -0.171773  0.206195  0  0  0  0  0  0  0  0  0 
1704802657.773786000  -2.37086  0.345849  1.16431  0  0  0.0428748  0.0858084  1.09873  0.337198  0  0  0  0  -0.193001  0.19181  0  0  0  0  0  0  0  0  0 
1704802657.778793000  -2.37043  0.35134  1.166  0  0  0.0430052  0.0858084  1.09771  0.338121  0  0  0  0  -0.213979  0.177176  0  0  0  0  0  0  0  0  0 
1704802657.783791000  -2.37  0.356826  1.1677  0  0  0.0431357  0.0858084  1.09659  0.338969  0  0  0  0  -0.234707  0.162292  0  0  0  0  0  0  0  0  0 
1704802657.788780000  -2.36957  0.362306  1.16939  0  0  0.0432662  0.0858084  1.09537  0.339743  0  0  0  0  -0.255185  0.147158  0  0  0  0  0  0  0  0  0 
1704802657.793778000  -2.36914  0.36778  1.17109  0  0  0.0433966  0.0858084  1.09404  0.340441  0  0  0  1.93e-05  -0.275413  0.131773  0  0  0  0  0  0  0  0  0 
1704802657.798777000  -2.36871  0.373246  1.1728  0  0  0.0435271  0.085809  1.09261  0.34106  0  0  0  0.0002427  -0.295391  0.116139  0  0  0  0  0  0  0  0  0 
1704802657.803778000  -2.36828  0.378706  1.1745  0  0  0.0436576  0.0858113  1.09109  0.341601  0  0  0  0.000716  -0.315119  0.100255  0  0  0  0  0  0  0  0  0 
1704802657.808777000  -2.36785  0.384157  1.17621  0  0  0.043788  0.0858166  1.08946  0.342063  0  0  0  0.0014394  -0.334597  0.0841206  0  0  0  0  0  0  0  0  0 
1704802657.813784000  -2.36742  0.3896  1.17792  0  0  0.0439185  0.0858261  1.08774  0.342442  0  0  0  0.0024127  -0.353824  0.0677364  0  0  0  0  0  0  0  0  0 
1704802657.818776000  -2.367  0.395034  1.17964  0  0  0.044049  0.0858411  1.08592  0.342739  0  0  0  0.0036361  -0.372802  0.0511021  0  0  0  0  0  0  0  0  0 
