ts fx fy fz tx ty tz exfx exfy exfz extx exty extz xd yd zd rolld pitchd yawd vxd vyd vzd wxd wyd wzd axd ayd azd e_x e_y e_z e_vx e_vy e_vz e_rx e_ry e_rz e_wx e_wy e_wz
1704802655.877888000  0  0  11.3186  0.0601967  -0.12689  0.0217937  nan  nan  nan  nan  nan  nan  -2.5  -0.3  1  0.0132778  -0.0331983  -0.000440746  0  0  0  0  0  0  0  0  0  0.0256279  0.000807937  0.00381385  -0.0151835  0.0148923  -0.0182542  -0.0161795  0.0267912  -0.0272131  0.0284583  0.00730126  -0.000290104 
1704802655.881824000  0  0  11.3063  0.0757583  -0.130108  0.0168414  nan  nan  nan  nan  nan  nan  -2.5  -0.3  1  0.0141916  -0.0315328  -0.000447456  0  0  0  0  0  0  0  0  0  0.0255491  0.000875294  0.00376677  -0.0171463  0.0158733  -0.0171553  -0.0172023  0.0253948  -0.0265277  0.00674489  0.0265837  0.0547594 
1704802655.886849000  0  0  11.1724  0.0485094  -0.0784478  0.0219847  nan  nan  nan  nan  nan  nan  -2.5  -0.3  1  0.0134545  -0.0310489  -0.000417706  0  0  0  0  0  0  0  0  0  0.0255053  0.000906503  0.0038465  -0.0181218  0.014678  -0.00613021  -0.0159796  0.0239632  -0.0268851  0.049994  -0.063566  -0.00595739 
1704802655.890849000  0  0  11.2789  0.0469367  -0.111888  0.0248723  nan  nan  nan  nan  nan  nan  -2.5  -0.3  1  0.0133823  -0.0322522  -0.000431559  0  0  0  0  0  0  0  0  0  0.0254514  0.000966858  0.00373813  -0.0161251  0.0146118  -0.0147744  -0.0157399  0.025485  -0.0273041  0.0509338  -0.0106855  -0.0378625 
1704802655.896828000  0  0  11.228  0.0918751  -0.1267  0.0155184  nan  nan  nan  nan  nan  nan  -2.5  -0.3  1  0.015204  -0.0301119  -0.000457788  0  0  0  0  0  0  0  0  0  0.025525  0.000955588  0.00388074  -0.0191403  0.016835  -0.0108734  -0.0179893  0.0239682  -0.026281  -0.018249  0.0328929  0.0688296 
1704802655.901979000  0  0  11.1817  0.0565671  -0.0884783  0.0210087  nan  nan  nan  nan  nan  nan  -2.5  -0.3  1  0.0139972  -0.0306258  -0.000428638  0  0  0  0  0  0  0  0  0  0.0254929  0.000982148  0.00392126  -0.0185877  0.0151981  -0.00706532  -0.0163211  0.0237303  -0.0266277  0.0370196  -0.0413617  0.00366774 
1704802655.908839000  0  0  11.3797  0.0515484  -0.14329  0.0269612  nan  nan  nan  nan  nan  nan  -2.5  -0.3  1  0.0136222  -0.0341692  -0.000465397  0  0  0  0  0  0  0  0  0  0.0256308  0.000946564  0.00394843  -0.0137355  0.0151088  -0.0236139  -0.0156534  0.0279524  -0.0275683  0.0409147  0.0294174  -0.0613312 
1704802655.913916000  0  0  11.1246  0.0940486  -0.0879922  0.0141741  nan  nan  nan  nan  nan  nan  -2.5  -0.3  1  0.0140337  -0.0306179  -0.000429644  0  0  0  0  0  0  0  0  0  0.0255109  0.00102541  0.004031  -0.0188312  0.0150585  -0.00255011  -0.0167062  0.0237807  -0.0261136  -0.0344004  -0.0427979  0.083959 
1704802655.918861000  0  0  11.1127  0.0567653  -0.0778821  0.0195985  nan  nan  nan  nan  nan  nan  -2.5  -0.3  1  0.0130836  -0.0315439  -0.000412664  0  0  0  0  0  0  0  0  0  0.0254941  0.0010454  0.0040576  -0.0176922  0.0138219  -0.00158206  -0.015176  0.0241526  -0.0265578  0.0260888  -0.0664396  0.020597 
1704802655.922838000  0  0  11.2413  0.0739801  -0.13286  0.0237451  nan  nan  nan  nan  nan  nan  -2.5  -0.3  1  0.014481  -0.0313683  -0.000454201  0  0  0  0  0  0  0  0  0  0.0254294  0.00111868  0.00394378  -0.0173145  0.0155909  -0.0120829  -0.016685  0.0248461  -0.0271011  0.00554148  0.0371357  -0.0258019 
1704802655.928841000  0  0  11.1273  0.0999871  -0.101601  0.0136862  nan  nan  nan  nan  nan  nan  -2.5  -0.3  1  0.014396  -0.0302451  -0.000435372  0  0  0  0  0  0  0  0  0  0.025534  0.00104969  0.00420552  -0.0193342  0.0154567  -0.00314117  -0.017092  0.0234295  -0.0258293  -0.0427276  -0.0123493  0.0872148 
1704802655.932887000  0  0  11.1478  0.0669497  -0.0958788  0.0191053  nan  nan  nan  nan  nan  nan  -2.5  -0.3  1  0.014268  -0.0306783  -0.000437679  0  0  0  0  0  0  0  0  0  0.0254676  0.0011081  0.00417129  -0.0185814  0.0152007  -0.00476263  -0.0164799  0.0235985  -0.0261365  0.0177155  -0.0253485  0.0225478 
1704802655.938898000  0  0  11.2213  0.0710436  -0.110021  0.0234359  nan  nan  nan  nan  nan  nan  -2.5  -0.3  1  0.014718  -0.0299731  -0.00044111  0  0  0  0  0  0  0  0  0  0.0254161  0.00115777  0.00414946  -0.0190956  0.0157682  -0.0108477  -0.0168594  0.0231379  -0.0267835  0.0130189  0.00717327  -0.0251133 
1704802655.943838000  0  0  11.1648  0.0730102  -0.0939193  0.0175803  nan  nan  nan  nan  nan  nan  -2.5  -0.3  1  0.0138362  -0.0312279  -0.000432033  0  0  0  0  0  0  0  0  0  0.0255695  0.0010441  0.0043946  -0.0180686  0.0148338  -0.00662885  -0.0160394  0.0239722  -0.0261356  0.00154178  -0.0327052  0.0416028 
1704802655.947880000  0  0  11.1455  0.0634893  -0.106234  0.0204984  nan  nan  nan  nan  nan  nan  -2.5  -0.3  1  0.0141677  -0.030633  -0.000433962  0  0  0  0  0  0  0  0  0  0.0254937  0.00110445  0.00438244  -0.0187038  0.0150809  -0.00500264  -0.0161223  0.0235566  -0.0263562  0.0213462  -0.00425247  0.00733163 
1704802655.953900000  0  0  11.1574  0.0550482  -0.0889568  0.0236965  nan  nan  nan  nan  nan  nan  -2.5  -0.3  1  0.01379  -0.029328  -0.0004044  2e-07  -2e-07  2e-07  0  0  0  0.000125  -0.000125  0.000125  0.0254322  0.00114498  0.0044025  -0.0201307  0.0145262  -0.00602014  -0.0154539  0.0220283  -0.0268353  0.0320792  -0.0247468  -0.027853 
1704802655.958847000  0  0  11.2299  0.0511799  -0.0923148  0.0211466  nan  nan  nan  nan  nan  nan  -2.5  -0.3  1  0.0140151  -0.0299815  -0.000420158  1.7e-06  -1.7e-06  1.7e-06  0  0  0  0.0005  -0.0005  0.0005  0.0253497  0.00121809  0.00432325  -0.0188473  0.0147076  -0.0118548  -0.0154339  0.0225626  -0.0265951  0.0396323  -0.0229467  0.00161872 
1704802655.963903000  0  0  11.1173  0.0684704  -0.111  0.0203566  nan  nan  nan  nan  nan  nan  -2.5  -0.3  1  0.0148661  -0.0273602  -0.000406718  5.6e-06  -5.6e-06  5.6e-06  0  0  0  0.001125  -0.001125  0.001125  0.0252931  0.00124947  0.00441779  -0.0222562  0.0154362  -0.00264379  -0.0163316  0.0205313  -0.0264967  0.0133098  0.033111  0.0105094 
1704802655.968844000  0  0  11.1022  0.0569047  -0.0802878  0.0218895  nan  nan  nan  nan  nan  nan  -2.5  -0.3  1  0.0139554  -0.0263439  -0.00036752  1.33e-05  -1.33e-05  1.33e-05  0  0  0  0.002  -0.002  0.002  0.0252588  0.00125852  0.00447059  -0.0233708  0.0141574  -0.0014037  -0.0151684  0.0190842  -0.0267082  0.0257404  -0.0149991  -0.00653703 
1704802655.973842000  0  0  11.2844  0.0492637  -0.109443  0.0244644  nan  nan  nan  nan  nan  nan  -2.5  -0.3  1  0.0143791  -0.0287065  -0.000412446  2.6e-05  -2.6e-05  2.6e-05  0  0  0  0.003125  -0.003125  0.003125  0.0251874  0.00133564  0.00431869  -0.0195717  0.0146555  -0.0161434  -0.0152931  0.0217159  -0.0271067  0.042169  0.0191007  -0.0347378 
1704802655.978836000  0  0  11.1699  0.0739213  -0.134016  0.0207755  nan  nan  nan  nan  nan  nan  -2.5  -0.3  1  0.0148566  -0.0281242  -0.000417307  4.5e-05  -4.5e-05  4.5e-05  0  0  0  0.0045  -0.0045  0.0045  0.0253712  0.00119988  0.00462508  -0.020893  0.0151931  -0.0071331  -0.0160161  0.0219099  -0.0268321  -0.000494515  0.0664603  0.00862614 
1704802655.983899000  0  0  11.1936  0.0433836  -0.0776052  0.0219664  nan  nan  nan  nan  nan  nan  -2.5  -0.300001  1  0.0132427  -0.0277161  -0.000366012  7.15e-05  -7.15e-05  7.15e-05  0  0  0  0.006125  -0.006125  0.006125  0.0253384  0.00120461  0.00464348  -0.0210503  0.013009  -0.00897369  -0.0139668  0.0206496  -0.0269299  0.0417278  -0.0347661  -0.00528089 
1704802655.988852000  0  0  11.339  0.0387929  -0.114007  0.0253234  nan  nan  nan  nan  nan  nan  -2.5  -0.300001  1  0.0141127  -0.0293369  -0.000412289  0.0001067  -0.0001067  0.0001067  0  0  0  0.008  -0.008  0.008  0.0252642  0.00128053  0.00450341  -0.0181554  0.0139112  -0.0206152  -0.0145008  0.0227442  -0.0274406  0.0558219  0.0187683  -0.0421366 
1704802655.993900000  0  0  11.1281  0.0908352  -0.122451  0.0168878  nan  nan  nan  nan  nan  nan  -2.5  -0.300002  1  0.0145248  -0.027328  -0.000394212  0.0001519  -0.0001519  0.0001519  0  0  0  0.010125  -0.010125  0.010125  0.0254123  0.00116043  0.00482585  -0.0213873  0.0140892  -0.00354271  -0.0156483  0.021335  -0.0266375  -0.0377057  0.048619  0.0552774 
1704802655.999276000  0  0  11.123  0.0778735  -0.089403  0.0181418  nan  nan  nan  nan  nan  nan  -2.5  -0.300003  1  0.0137528  -0.0262408  -0.000356666  0.0002083  -0.0002083  0.0002083  0  0  0  0.0125  -0.0125  0.0125  0.0253689  0.00117561  0.00485061  -0.0223509  0.0127928  -0.00293948  -0.0148252  0.0198151  -0.0265875  -0.0193551  -0.00349276  0.0391024 
1704802656.003880000  0  0  11.2873  0.0719318  -0.140167  0.0258076  nan  nan  nan  nan  nan  nan  -2.5  -0.300004  1  0.0152028  -0.028043  -0.000420211  0.0002773  -0.0002773  0.0002773  0  0  0  0.015125  -0.015125  0.015125  0.0253051  0.00125116  0.004705  -0.0191332  0.0143604  -0.016085  -0.0160432  0.0223857  -0.0275444  0.00373364  0.0743859  -0.0471501 
1704802656.008841000  0  0  11.2107  0.0999186  -0.147764  0.0215496  nan  nan  nan  nan  nan  nan  -2.49999  -0.300005  1.00001  0.0152764  -0.0278667  -0.00041708  0.00036  -0.00036  0.00036  0  0  0  0.018  -0.018  0.018  0.0254378  0.00113569  0.00489596  -0.0195216  0.0142154  -0.0098455  -0.0166823  0.0227739  -0.0272318  -0.0463605  0.0860073  0.00294764 
1704802656.013897000  0  0  11.2092  0.0784723  -0.100239  0.0234669  nan  nan  nan  nan  nan  nan  -2.49999  -0.300007  1.00001  0.0155003  -0.0266549  -0.000401243  0.0004577  -0.0004577  0.0004577  0  0  0  0.021125  -0.021125  0.021125  0.0253349  0.00120211  0.00485746  -0.020412  0.0139485  -0.00933593  -0.0166886  0.0210337  -0.0273365  -0.00340969  0.00696773  -0.0199721 
1704802656.018834000  0  0  11.2774  0.0756882  -0.120486  0.0285591  nan  nan  nan  nan  nan  nan  -2.49999  -0.30001  1.00001  0.0164289  -0.0271443  -0.000429936  0.0005717  -0.0005717  0.0005717  0  0  0  0.0245  -0.0245  0.0245  0.0253207  0.00123305  0.00481969  -0.0191359  0.0147325  -0.0146214  -0.0174946  0.0219148  -0.0281666  0.00957435  0.039356  -0.0753228 
1704802656.024318000  0  0  11.2214  0.104686  -0.127674  0.0188329  nan  nan  nan  nan  nan  nan  -2.49999  -0.300013  1.00001  0.0169739  -0.0258543  -0.000417741  0.0007031  -0.0007031  0.0007031  0  0  0  0.028125  -0.028125  0.028125  0.0252802  0.00126043  0.0048521  -0.0203634  0.0147908  -0.00971011  -0.0185881  0.0211717  -0.0272918  -0.0383611  0.060568  0.037507 
1704802656.028841000  0  0  11.1814  0.0977159  -0.0998693  0.0189411  nan  nan  nan  nan  nan  nan  -2.49998  -0.300017  1.00002  0.0179504  -0.0237741  -0.00039946  0.0008533  -0.0008533  0.0008533  0  0  0  0.032  -0.032  0.032  0.0251683  0.00132988  0.00483282  -0.0223241  0.0152841  -0.00596699  -0.0194218  0.0189104  -0.0271193  -0.0167508  0.025763  0.0344291 
1704802656.033897000  0  0  11.2228  0.0833462  -0.110307  0.0242561  nan  nan  nan  nan  nan  nan  -2.49998  -0.300022  1.00002  0.0170379  -0.0257185  -0.000403385  0.0010235  -0.0010235  0.0010235  0  0  0  0.036125  -0.036125  0.036125  0.0254225  0.00120227  0.00494874  -0.0198313  0.0139886  -0.00925679  -0.0182812  0.021121  -0.0278139  0.00149459  0.0263003  -0.0250631 
1704802656.038827000  0  0  11.2544  0.0924279  -0.115775  0.020702  nan  nan  nan  nan  nan  nan  -2.49997  -0.300027  1.00003  0.017898  -0.0252372  -0.000407996  0.001215  -0.001215  0.001215  0  0  0  0.0405  -0.0405  0.0405  0.0253255  0.00127302  0.00488265  -0.0195721  0.0144127  -0.0113469  -0.019235  0.0209068  -0.0274419  -0.00789409  0.0392068  0.0156444 
1704802656.043873000  0  0  11.2061  0.096679  -0.0980703  0.0187504  nan  nan  nan  nan  nan  nan  -2.49997  -0.300034  1.00003  0.0193409  -0.0221445  -0.000374013  0.001429  -0.001429  0.001429  0  0  0  0.045125  -0.045125  0.045125  0.0252677  0.00130863  0.00492312  -0.0228452  0.01545  -0.00698444  -0.0206454  0.0179254  -0.0270509  -0.00341979  0.031227  0.0361289 
1704802656.049323000  0  0  11.227  0.0785858  -0.0819392  0.0228399  nan  nan  nan  nan  nan  nan  -2.49996  -0.300042  1.00004  0.019077  -0.021791  -0.000349023  0.0016667  -0.0016667  0.0016667  0  0  0  0.05  -0.05  0.05  0.0252286  0.0013313  0.00491472  -0.0225309  0.0144976  -0.00823929  -0.0200068  0.0173837  -0.0275078  0.0268911  0.00394854  -0.0104201 
1704802656.053876000  0  0  11.3001  0.0801108  -0.111351  0.021529  nan  nan  nan  nan  nan  nan  -2.49995  -0.300051  1.00005  0.0207423  -0.0216099  -0.00036727  0.0019294  -0.0019294  0.0019294  0  0  0  0.055125  -0.055125  0.055125  0.0251379  0.00140974  0.00482804  -0.0217287  0.0159202  -0.0136648  -0.0213962  0.0178252  -0.0274263  0.0366235  0.0587109  0.00514954 
1704802656.058875000  0  0  11.2128  0.0977449  -0.094005  0.0172237  nan  nan  nan  nan  nan  nan  -2.49994  -0.300061  1.00006  0.0211641  -0.0190344  -0.000305382  0.0022183  -0.0022183  0.0022183  0  0  0  0.0605  -0.0605  0.0605  0.025255  0.00130089  0.00498385  -0.0247279  0.0158071  -0.0062224  -0.0219109  0.0154582  -0.0268964  0.00609055  0.0457948  0.0536682 
1704802656.063895000  0  0  11.2598  0.0559588  -0.072612  0.0238204  nan  nan  nan  nan  nan  nan  -2.49993  -0.300073  1.00007  0.0208967  -0.0191225  -0.000283332  0.0025348  -0.0025348  0.0025348  0  0  0  0.066125  -0.0661225  0.066125  0.0251515  0.00136775  0.00492389  -0.0235765  0.0147213  -0.00945374  -0.0207757  0.0152202  -0.0275206  0.0792193  0.00519801  -0.0225498 
1704802656.068844000  0  0  11.3244  0.0594559  -0.101363  0.0257437  nan  nan  nan  nan  nan  nan  -2.49991  -0.300086  1.00009  0.0220749  -0.0193747  -0.000290136  0.00288  -0.0028794  0.00288  0  0  0  0.072  -0.0716975  0.072  0.0251146  0.00140328  0.00487642  -0.0222945  0.0155686  -0.0141761  -0.0215694  0.0160723  -0.0279397  0.0795264  0.0548615  -0.0424 
1704802656.074327000  0  0  11.2581  0.088621  -0.0769851  0.0189266  nan  nan  nan  nan  nan  nan  -2.4999  -0.300102  1.0001  0.0228591  -0.0161266  -0.000207287  0.0032552  -0.0032514  0.0032552  0  0  0  0.078125  -0.0770226  0.078125  0.0250446  0.00143224  0.00491789  -0.0255708  0.0156499  -0.00817461  -0.0225048  0.0129176  -0.0272045  0.0298024  0.0351279  0.0354624 
1704802656.078840000  0  0  11.2774  0.0594023  -0.0636095  0.0226796  nan  nan  nan  nan  nan  nan  -2.49988  -0.300119  1.00012  0.0230626  -0.0151639  -0.000161767  0.0036617  -0.0036493  0.0036617  0  0  0  0.0845  -0.0820976  0.0845  0.0249311  0.00149815  0.00486629  -0.0256838  0.0151645  -0.00905607  -0.0218982  0.0118684  -0.0276114  0.0826588  0.01803  -0.00738085 
1704802656.083878000  0  0  11.315  0.0634491  -0.104126  0.023901  nan  nan  nan  nan  nan  nan  -2.49986  -0.300138  1.00014  0.0242292  -0.0146757  -0.000138138  0.0041006  -0.0040719  0.0041006  0  0  0  0.091125  -0.0869227  0.0911191  0.0248983  0.0015266  0.00484076  -0.0253219  0.0160538  -0.0115054  -0.0226058  0.0123596  -0.0279679  0.0810755  0.0945429  -0.0190831 
1704802656.088833000  0  0  11.3337  0.0847483  -0.0863325  0.0178122  nan  nan  nan  nan  nan  nan  -2.49984  -0.30016  1.00016  0.0251393  -0.0125848  -6.66312e-05  0.0045733  -0.0045181  0.0045727  0  0  0  0.098  -0.0914977  0.097667  0.0247663  0.00160846  0.00478344  -0.0267621  0.0164897  -0.0123238  -0.0234916  0.0105057  -0.0272441  0.0466263  0.0760123  0.0497887 
1704802656.093892000  0  0  11.3144  0.0665868  -0.0916801  0.0236016  nan  nan  nan  nan  nan  nan  -2.49982  -0.300183  1.00018  0.0255615  -0.0117858  -1.60208e-05  0.005081  -0.0049865  0.0050769  0  0  0  0.105125  -0.0958228  0.103965  0.024733  0.00161972  0.00479045  -0.0268181  0.0163937  -0.0101224  -0.0232404  0.0102222  -0.0277643  0.0806379  0.0893161  -0.0173771 
1704802656.099320000  0  0  11.3163  0.0612641  -0.0939073  0.0249866  nan  nan  nan  nan  nan  nan  -2.49979  -0.30021  1.00021  0.0259544  -0.0106364  4.76809e-05  0.005625  -0.0054759  0.0056119  0  0  0  0.1125  -0.0998978  0.110013  0.0246931  0.00163392  0.00477993  -0.0272394  0.0163456  -0.00967669  -0.0230368  0.0096857  -0.0281294  0.0894104  0.0987063  -0.0310387 
1704802656.103899000  0  0  11.4014  0.0713854  -0.102422  0.0213673  nan  nan  nan  nan  nan  nan  -2.49976  -0.300238  1.00024  0.0267202  -0.010088  9.5986e-05  0.0062065  -0.005985  0.0061766  0  0  0  0.120125  -0.103723  0.115811  0.0245775  0.00171271  0.00467414  -0.0266117  0.0169022  -0.0159964  -0.0235648  0.00972838  -0.027791  0.0740253  0.115343  0.0108189 
1704802656.108904000  0  0  11.3456  0.0669844  -0.109355  0.0217421  nan  nan  nan  nan  nan  nan  -2.49973  -0.300269  1.00027  0.0275198  -0.0078605  0.000194328  0.0068267  -0.0065127  0.0067696  0  0  0  0.128  -0.107298  0.121359  0.0245471  0.00172  0.00469423  -0.0284199  0.0172756  -0.0108566  -0.0237981  0.00843854  -0.0278547  0.0849733  0.141075  0.00677052 
1704802656.113849000  0  0  11.321  0.054538  -0.0804414  0.0233993  nan  nan  nan  nan  nan  nan  -2.49969  -0.300303  1.00031  0.0279101  -0.00594213  0.000293212  0.0074868  -0.0070576  0.0073898  0  0  0  0.136062  -0.110623  0.126657  0.0243996  0.00180077  0.00465548  -0.0295082  0.0170898  -0.00820358  -0.0234481  0.00667949  -0.0281206  0.106647  0.0994316  -0.0112855 
1704802656.118838000  0  0  11.4721  0.0583865  -0.110091  0.0234893  nan  nan  nan  nan  nan  nan  -2.49965  -0.30034  1.00035  0.0278162  -0.00754563  0.000301057  0.0081869  -0.0076185  0.0080358  0  0  0  0.143936  -0.113698  0.131705  0.0244087  0.00180457  0.00454483  -0.026387  0.0170413  -0.0200816  -0.0229921  0.00920524  -0.0282495  0.0947544  0.135495  -0.0111212 
1704802656.123905000  0  0  11.3553  0.0895018  -0.112613  0.0178107  nan  nan  nan  nan  nan  nan  -2.49961  -0.30038  1.00039  0.0300009  -0.002588  0.000488534  0.0089258  -0.0081942  0.0087064  0  0  0  0.151561  -0.116523  0.136503  0.024234  0.00190775  0.00455058  -0.0313924  0.0188488  -0.00989694  -0.0251393  0.00546021  -0.0276308  0.0522778  0.174992  0.0536751 
1704802656.128858000  0  0  11.2595  0.0668572  -0.0533789  0.0205059  nan  nan  nan  nan  nan  nan  -2.49956  -0.300422  1.00043  0.0295614  -0.000747319  0.000602802  0.0097021  -0.0087833  0.0094004  0  0  0  0.158935  -0.119098  0.141051  0.0242025  0.0019006  0.00461885  -0.0327215  0.0176663  -0.00159808  -0.0239482  0.00324115  -0.0278566  0.0866094  0.0769392  0.0222425 
1704802656.133898000  0  0  11.5134  0.0684979  -0.140407  0.0240164  nan  nan  nan  nan  nan  nan  -2.49951  -0.300467  1.00048  0.0299986  -0.00356137  0.000580232  0.0105147  -0.0093847  0.0101165  0  0  0  0.166059  -0.121423  0.145349  0.0242266  0.00191277  0.0044558  -0.0282513  0.0187411  -0.0220152  -0.0239809  0.00786272  -0.0283855  0.0836285  0.208477  -0.0163502 
1704802656.138855000  0  0  11.4792  0.0969349  -0.136656  0.0182446  nan  nan  nan  nan  nan  nan  -2.49946  -0.300516  1.00053  0.0319168  0.000790134  0.000778027  0.0113623  -0.0099971  0.0108534  0  0  0  0.172933  -0.123498  0.149397  0.0240466  0.00202372  0.00441186  -0.0325521  0.0205612  -0.0186618  -0.0259148  0.00479101  -0.0277624  0.0445466  0.229235  0.0495664 
1704802656.143846000  0  0  11.3679  0.0638591  -0.0565928  0.0199729  nan  nan  nan  nan  nan  nan  -2.4994  -0.300567  1.00059  0.0309645  0.00210852  0.00088731  0.0122436  -0.0106193  0.01161  0  0  0  0.179558  -0.125323  0.153195  0.0240284  0.0020088  0.00446605  -0.03333  0.0187618  -0.00911454  -0.0241102  0.00280566  -0.0278264  0.0940956  0.0873734  0.028603 
1704802656.148860000  0  0  11.5738  0.0546922  -0.127327  0.0285593  nan  nan  nan  nan  nan  nan  -2.49933  -0.300622  1.00065  0.0312575  -0.000280062  0.000885843  0.0131574  -0.0112499  0.012385  0  0  0  0.185932  -0.126898  0.156743  0.0238962  0.00211318  0.0042664  -0.0292061  0.0194187  -0.0255247  -0.0237991  0.00684677  -0.0290284  0.109567  0.191664  -0.0667068 
1704802656.153903000  0  0  11.4436  0.105724  -0.106774  0.015145  nan  nan  nan  nan  nan  nan  -2.49927  -0.30068  1.00071  0.0331016  0.00507882  0.00113898  0.0141025  -0.0118879  0.013177  0  0  0  0.192056  -0.128223  0.16004  0.0238517  0.00214004  0.00429998  -0.0351598  0.021077  -0.0143987  -0.0260615  0.00273675  -0.0276781  0.0283191  0.18837  0.0874677 
1704802656.158880000  0  0  11.3262  0.0704805  -0.0512118  0.0182308  nan  nan  nan  nan  nan  nan  -2.49919  -0.300741  1.00078  0.032255  0.0056149  0.00123147  0.0150776  -0.0125318  0.013985  0  0  0  0.19793  -0.129298  0.163088  0.0238462  0.00212616  0.00435111  -0.035013  0.0194713  -0.0044166  -0.0244094  0.00181026  -0.0277821  0.0836056  0.0857692  0.0499369 
1704802656.163900000  0  0  11.5511  0.0666995  -0.128257  0.0249808  nan  nan  nan  nan  nan  nan  -2.49912  -0.300805  1.00085  0.0325335  0.0041011  0.00126667  0.0160814  -0.0131804  0.0148075  0  0  0  0.203555  -0.130123  0.165886  0.023706  0.00224277  0.00413284  -0.032189  0.0202734  -0.0224398  -0.0242081  0.00505896  -0.0287873  0.0893157  0.209972  -0.0243872 
1704802656.168844000  0  0  11.5155  0.0942754  -0.126855  0.0174937  nan  nan  nan  nan  nan  nan  -2.49903  -0.300873  1.00093  0.0334435  0.0064381  0.00143489  0.0171127  -0.0138326  0.0156434  0  0  0  0.208929  -0.130698  0.168434  0.0236922  0.0022473  0.00411868  -0.0344589  0.0212216  -0.0191809  -0.0251843  0.00392106  -0.0280182  0.043145  0.217636  0.0615107 
1704802656.174272000  0  0  11.3659  0.0672384  -0.0822886  0.0190241  nan  nan  nan  nan  nan  nan  -2.49894  -0.300944  1.00101  0.0331008  0.0066405  0.00152888  0.0181703  -0.014487  0.0164914  0  0  0  0.214053  -0.131023  0.170732  0.0237137  0.00222944  0.00419842  -0.0340077  0.0202291  -0.00664576  -0.0240437  0.00374986  -0.0279872  0.0867257  0.130078  0.0420698 
1704802656.178881000  0  0  11.5667  0.0593858  -0.137815  0.0276564  nan  nan  nan  nan  nan  nan  -2.49885  -0.301018  1.0011  0.0325211  0.00640257  0.00160999  0.0192528  -0.0151424  0.0173503  0  0  0  0.218927  -0.131099  0.17278  0.0235645  0.00232861  0.00399897  -0.0329041  0.0199916  -0.0227669  -0.02299  0.00564924  -0.0291636  0.0927366  0.223657  -0.0540686 
1704802656.183921000  0  0  11.5127  0.0673962  -0.125855  0.0206127  nan  nan  nan  nan  nan  nan  -2.49875  -0.301095  1.00118  0.032107  0.00556076  0.0016761  0.0203591  -0.0157976  0.0182188  0  0  0  0.223552  -0.130924  0.174578  0.0239878  0.00207519  0.00408577  -0.0321451  0.0198536  -0.0182949  -0.0222689  0.00739161  -0.0285685  0.0700819  0.183706  0.0280261 
1704802656.188838000  0  0  11.3438  0.0674218  -0.104382  0.0206951  nan  nan  nan  nan  nan  nan  -2.49865  -0.301176  1.00128  0.0331189  0.00738587  0.0018411  0.0214879  -0.0164512  0.0190957  0  0  0  0.227926  -0.130499  0.176126  0.023826  0.00217706  0.00411539  -0.0334342  0.0203482  -0.00409314  -0.0228395  0.0060237  -0.0285621  0.0752797  0.153346  0.0269327 
1704802656.193892000  0  0  11.5083  0.0362782  -0.13737  0.0261926  nan  nan  nan  nan  nan  nan  -2.49854  -0.30126  1.00138  0.0300284  0.00431456  0.0018278  0.022638  -0.0171021  0.0199797  0  0  0  0.23205  -0.129824  0.177424  0.0242673  0.00193526  0.00407548  -0.0300947  0.0176312  -0.0176631  -0.0190502  0.0104073  -0.0293048  0.102705  0.178993  -0.0343594 
1704802656.199265000  0  0  11.5324  0.0356822  -0.141389  0.0224384  nan  nan  nan  nan  nan  nan  -2.49842  -0.301347  1.00148  0.0304814  0.00357907  0.00191193  0.023808  -0.017749  0.0208695  0  0  0  0.235924  -0.128899  0.178472  0.0244573  0.00183722  0.00407085  -0.0290995  0.0186288  -0.0195627  -0.0189171  0.0120766  -0.0290417  0.102673  0.171673  0.00993782 
1704802656.203837000  0  0  11.3579  0.058433  -0.137427  0.019637  nan  nan  nan  nan  nan  nan  -2.4983  -0.301437  1.00158  0.0312841  0.00611482  0.00210146  0.0249968  -0.0183907  0.021764  0  0  0  0.239549  -0.127724  0.17927  0.0242996  0.00193126  0.00412132  -0.0314275  0.018983  -0.00501842  -0.0197013  0.0103969  -0.0287216  0.0643858  0.179202  0.0417536 
1704802656.208845000  0  0  11.4927  0.0366819  -0.124418  0.0231372  nan  nan  nan  nan  nan  nan  -2.49817  -0.301531  1.0017  0.0293625  0.00633345  0.00220592  0.0262031  -0.0190259  0.0226618  0  0  0  0.242923  -0.126299  0.179818  0.0241511  0.00200864  0.00397024  -0.0310402  0.0170036  -0.0158923  -0.0172234  0.0107467  -0.0291109  0.0850911  0.149967  0.00189407 
1704802656.213888000  0  0  11.4775  0.0677043  -0.14346  0.0223379  nan  nan  nan  nan  nan  nan  -2.49804  -0.301627  1.00181  0.0313425  0.00532163  0.00229905  0.0274256  -0.0196533  0.0235617  0  0  0  0.246047  -0.124624  0.180116  0.0243662  0.00193305  0.00398982  -0.0298308  0.0198636  -0.0146479  -0.019186  0.0127356  -0.0292032  0.041103  0.169752  0.0128078 
1704802656.218839000  0  0  11.3095  0.0813084  -0.140549  0.019422  nan  nan  nan  nan  nan  nan  -2.4979  -0.301727  1.00193  0.0308203  0.00618805  0.00243758  0.0286631  -0.0202717  0.0244625  0  0  0  0.248921  -0.122699  0.180164  0.0244937  0.00185072  0.00411482  -0.0307414  0.0190459  -0.00091404  -0.0188267  0.0126998  -0.0288562  0.0105886  0.164261  0.0457866 
1704802656.224224000  0  0  11.4667  0.0437813  -0.125531  0.0236997  nan  nan  nan  nan  nan  nan  -2.49775  -0.30183  1.00206  0.0287425  0.00489651  0.00250418  0.0299144  -0.0208798  0.025363  0  0  0  0.251546  -0.120524  0.179962  0.0246089  0.00179943  0.00402894  -0.029125  0.0173295  -0.0138915  -0.0161422  0.0143641  -0.0293082  0.0609452  0.118913  -0.00316372 
1704802656.228845000  0  0  11.5054  0.0550363  -0.136834  0.0258911  nan  nan  nan  nan  nan  nan  -2.4976  -0.301936  1.00218  0.0307029  0.00570123  0.0026571  0.0311782  -0.0214765  0.0262617  0  0  0  0.25392  -0.118099  0.17951  0.024466  0.00191252  0.00394665  -0.0295686  0.0200123  -0.0169567  -0.0178538  0.0143328  -0.0298083  0.0541821  0.141807  -0.0255558 
1704802656.233840000  0  0  11.3337  0.0834874  -0.123903  0.0186979  nan  nan  nan  nan  nan  nan  -2.49744  -0.302045  1.00232  0.0303725  0.0070704  0.00281711  0.0324532  -0.0220604  0.0271576  0  0  0  0.256044  -0.115424  0.178808  0.0243764  0.00195972  0.00401581  -0.0307187  0.0192385  -0.00285288  -0.0179654  0.0134686  -0.0290026  -0.00169276  0.123894  0.0563028 
1704802656.238844000  0  0  11.4685  0.0653179  -0.117143  0.0216367  nan  nan  nan  nan  nan  nan  -2.49727  -0.302156  1.00246  0.0293204  0.00783179  0.00295399  0.0337382  -0.0226303  0.0280494  0  0  0  0.257918  -0.112499  0.177856  0.0242194  0.00204766  0.00387919  -0.0312107  0.0185231  -0.0138903  -0.0166064  0.0131963  -0.0292495  0.0221435  0.112881  0.0220367 
1704802656.243900000  0  0  11.4835  0.0876705  -0.118929  0.0238859  nan  nan  nan  nan  nan  nan  -2.4971  -0.302271  1.0026  0.030635  0.00827888  0.0031013  0.035032  -0.023185  0.0289358  0  0  0  0.259543  -0.109324  0.176654  0.0241432  0.00212034  0.00382219  -0.0314294  0.0204876  -0.0151133  -0.0181234  0.0133312  -0.0297142  -0.00860599  0.115212  -0.00143119 
1704802656.249275000  0  0  11.3967  0.100076  -0.121241  0.0197064  nan  nan  nan  nan  nan  nan  -2.49692  -0.302388  1.00275  0.0301133  0.00825366  0.00322072  0.0363332  -0.0237231  0.0298155  0  0  0  0.260917  -0.105899  0.175202  0.024069  0.00216556  0.00384468  -0.0309803  0.0198646  -0.0080885  -0.0180049  0.0139785  -0.0291881  -0.0345063  0.11388  0.0455515 
1704802656.253894000  0  0  11.4829  0.0895637  -0.115859  0.0213778  nan  nan  nan  nan  nan  nan  -2.49674  -0.302508  1.0029  0.0298298  0.0103145  0.00340557  0.0376407  -0.0242436  0.0306874  0  0  0  0.262041  -0.102224  0.1735  0.0239006  0.00226559  0.00372528  -0.033178  0.0200229  -0.0151478  -0.0176248  0.01253  -0.0292974  -0.0169791  0.116442  0.0257515 
1704802656.258834000  0  0  11.476  0.0848723  -0.0988889  0.0234916  nan  nan  nan  nan  nan  nan  -2.49655  -0.302631  1.00305  0.0295984  0.0104993  0.00353525  0.0389532  -0.024745  0.0315501  0  0  0  0.262915  -0.0982992  0.171548  0.023834  0.00231848  0.00368577  -0.0331506  0.0200824  -0.0146772  -0.017381  0.0125011  -0.0296079  -0.00983904  0.0827678  0.00243476 
1704802656.263907000  0  0  11.4726  0.095139  -0.133393  0.0192586  nan  nan  nan  nan  nan  nan  -2.49635  -0.302756  1.00321  0.0295834  0.00985528  0.00364343  0.0402695  -0.0252261  0.0324024  0  0  0  0.26354  -0.0941243  0.169346  0.0236839  0.00241925  0.00362064  -0.0319176  0.0203601  -0.0145036  -0.0176184  0.0141611  -0.0291713  -0.0281891  0.136504  0.0509802 
1704802656.268907000  0  0  11.4726  0.0971613  -0.124651  0.0187305  nan  nan  nan  nan  nan  nan  -2.49614  -0.302883  1.00338  0.0293479  0.0127007  0.00385274  0.0415882  -0.0256858  0.0332431  0  0  0  0.263914  -0.0896993  0.166893  0.0235793  0.00246929  0.00356525  -0.0352703  0.020492  -0.0145663  -0.0175101  0.0120783  -0.0290054  -0.0332297  0.13818  0.0559228 
1704802656.273883000  0  0  11.4675  0.0674972  -0.094993  0.0244641  nan  nan  nan  nan  nan  nan  -2.49593  -0.303012  1.00354  0.0286046  0.0114778  0.0039369  0.0429082  -0.0261227  0.034071  0  0  0  0.264038  -0.0850244  0.164191  0.0234286  0.00256514  0.00350537  -0.0333543  0.0199126  -0.0143031  -0.016377  0.0130796  -0.0296482  0.0156735  0.0696542  -0.00931948 
1704802656.278889000  0  0  11.5186  0.0799781  -0.160367  0.0241271  nan  nan  nan  nan  nan  nan  -2.49571  -0.303144  1.00372  0.0284392  0.00903058  0.00399459  0.0442282  -0.0265356  0.0348846  0  0  0  0.263912  -0.0800994  0.161239  0.0233996  0.00261417  0.00341048  -0.0302424  0.0203926  -0.0187364  -0.016488  0.0170305  -0.0297861  -0.00826692  0.164053  -0.0037276 
1704802656.283904000  0  0  11.4482  0.0830239  -0.117649  0.0194443  nan  nan  nan  nan  nan  nan  -2.49549  -0.303278  1.00389  0.027742  0.0126506  0.00421823  0.0455469  -0.0269233  0.0356829  0  0  0  0.263537  -0.0749245  0.158037  0.0233112  0.00265104  0.00340599  -0.0346296  0.0198335  -0.0130849  -0.0159508  0.013782  -0.0292465  -0.0193001  0.108504  0.049411 
1704802656.288844000  0  0  11.4374  0.0493348  -0.0928481  0.024687  nan  nan  nan  nan  nan  nan  -2.49526  -0.303413  1.00407  0.0268842  0.0120628  0.00432147  0.0468631  -0.0272845  0.0364646  0  0  0  0.262911  -0.0694995  0.154585  0.0231529  0.00274733  0.00333964  -0.0335939  0.0191851  -0.012388  -0.0145441  0.0141949  -0.0298703  0.0351366  0.055103  -0.0098851 
1704802656.293899000  0  0  11.5025  0.0663576  -0.19354  0.0232128  nan  nan  nan  nan  nan  nan  -2.49502  -0.303551  1.00426  0.0256998  0.00804352  0.00433386  0.0481756  -0.0276179  0.0372284  0  0  0  0.262035  -0.063847  0.150883  0.0235721  0.00257892  0.00331505  -0.0295841  0.018982  -0.0182787  -0.0137771  0.0203931  -0.0299218  -0.00596632  0.199464  0.00905796 
1704802656.299239000  0  0  11.4183  0.0728873  -0.160359  0.0153494  nan  nan  nan  nan  nan  nan  -2.49478  -0.303689  1.00445  0.0252713  0.010606  0.00452538  0.049483  -0.0279232  0.037973  0  0  0  0.260909  -0.0583219  0.146931  0.0234883  0.00262002  0.00331423  -0.0327186  0.0187892  -0.0115811  -0.0135191  0.0183291  -0.0288914  -0.0213985  0.152091  0.0970466 
1704802656.303898000  0  0  11.4157  0.0228877  -0.134485  0.0258518  nan  nan  nan  nan  nan  nan  -2.49453  -0.30383  1.00464  0.0238885  0.00809413  0.00458109  0.0507842  -0.0282015  0.0386973  0  0  0  0.259534  -0.0530468  0.142729  0.0233499  0.00271103  0.00324464  -0.0293908  0.0175089  -0.0116908  -0.0113401  0.020469  -0.0299823  0.0585534  0.0806552  -0.0233243 
1704802656.308886000  0  0  11.5111  0.0377161  -0.20472  0.0251283  nan  nan  nan  nan  nan  nan  -2.49427  -0.303971  1.00483  0.0237635  0.00701662  0.00468487  0.052078  -0.0284541  0.0393999  0  0  0  0.257908  -0.0480217  0.138277  0.0232952  0.00276206  0.00313987  -0.0281871  0.0181328  -0.0199119  -0.0113318  0.0233473  -0.0301795  0.0288202  0.194645  -0.0123083 
1704802656.313904000  0  0  11.3887  0.048652  -0.131304  0.0160817  nan  nan  nan  nan  nan  nan  -2.49401  -0.304114  1.00503  0.0235281  0.00947091  0.00487137  0.0533629  -0.0286821  0.0400796  0  0  0  0.256032  -0.0432466  0.133575  0.0231253  0.00285521  0.00313946  -0.0310597  0.0178918  -0.0100864  -0.0112289  0.0205481  -0.0291303  0.00600215  0.0735653  0.0902811 
1704802656.318835000  0  0  11.3601  0.0209854  -0.12917  0.0224966  nan  nan  nan  nan  nan  nan  -2.49374  -0.304258  1.00523  0.0222643  0.00749769  0.00494596  0.0546379  -0.028887  0.0407352  0  0  0  0.253906  -0.0387216  0.128623  0.0230959  0.00287779  0.00311102  -0.0287377  0.0167576  -0.00818222  -0.00950808  0.0225869  -0.0297429  0.0455036  0.0505393  0.0162217 
1704802656.324236000  0  0  11.419  0.0261548  -0.173711  0.0228718  nan  nan  nan  nan  nan  nan  -2.49346  -0.304403  1.00544  0.021735  0.0067575  0.0050564  0.0559016  -0.0290698  0.0413654  0  0  0  0.251531  -0.0344465  0.123421  0.0230657  0.00290148  0.00303968  -0.0280826  0.0167257  -0.013492  -0.00894457  0.0245594  -0.0298924  0.0299805  0.121476  0.013027 
1704802656.328889000  0  0  11.3255  0.0543505  -0.114691  0.014475  nan  nan  nan  nan  nan  nan  -2.49318  -0.304549  1.00565  0.0220922  0.00918516  0.00524285  0.0571527  -0.0292318  0.041969  0  0  0  0.248905  -0.0304214  0.117969  0.0228902  0.00299659  0.00302665  -0.0310159  0.0172292  -0.00610494  -0.00972323  0.0215609  -0.0287781  -0.0192473  0.0310223  0.106843 
1704802656.333903000  0  0  11.3001  0.037916  -0.121983  0.0239209  nan  nan  nan  nan  nan  nan  -2.49289  -0.304695  1.00586  0.0208841  0.00769777  0.00533118  0.0583902  -0.0293744  0.0425447  0  0  0  0.246029  -0.0266463  0.112267  0.0228749  0.00300634  0.00301842  -0.0294475  0.0161166  -0.00457244  -0.00840561  0.0232064  -0.0296498  0.00149965  0.0304676  -0.00251386 
1704802656.338836000  0  0  11.3199  0.0342341  -0.12577  0.0246766  nan  nan  nan  nan  nan  nan  -2.49259  -0.304843  1.00607  0.0201533  0.00729609  0.00544796  0.0596126  -0.0294987  0.0430913  0  0  0  0.242903  -0.0231212  0.106315  0.0227253  0.0030858  0.0029661  -0.0290217  0.0155154  -0.00670653  -0.00766855  0.0238049  -0.029887  0.00208245  0.0325341  -0.00958689 
1704802656.343903000  0  0  11.3169  0.0687821  -0.109998  0.0196645  nan  nan  nan  nan  nan  nan  -2.49229  -0.30499  1.00629  0.0209387  0.00835723  0.00560631  0.0608188  -0.029606  0.0436074  0  0  0  0.239528  -0.0198461  0.100113  0.0226825  0.00310604  0.00294245  -0.0306956  0.0168573  -0.00696179  -0.00908989  0.0226175  -0.029352  -0.0539372  0.0119154  0.0477139 
1704802656.348838000  0  0  11.2262  0.0678968  -0.0989457  0.0220949  nan  nan  nan  nan  nan  nan  -2.49199  -0.305139  1.00651  0.0205272  0.00895458  0.00574564  0.0620075  -0.0296976  0.044092  0  0  0  0.235902  -0.016821  0.0936608  0.0225313  0.00318662  0.0029628  -0.0314794  0.0163315  -4.20807e-05  -0.00893744  0.0218969  -0.0295847  -0.0535691  -0.00355984  0.0196609 
1704802656.353890000  0  0  11.3194  0.0490815  -0.117283  0.0246294  nan  nan  nan  nan  nan  nan  -2.49167  -0.305287  1.00673  0.0178092  0.0041407  0.00576605  0.0631774  -0.0297747  0.0445437  0  0  0  0.232026  -0.0140459  0.0870122  0.0229828  0.00292677  0.00294399  -0.0269951  0.0140911  -0.00857596  -0.00637175  0.0266934  -0.0300249  -0.0395428  -0.0110138  -0.00761865 
1704802656.358833000  0  0  11.3595  0.0780624  -0.126307  0.02123  nan  nan  nan  nan  nan  nan  -2.49135  -0.305436  1.00695  0.018374  0.00405399  0.0058972  0.0643273  -0.0298385  0.0449624  0  0  0  0.2279  -0.0115209  0.0805413  0.0229194  0.00295895  0.00289548  -0.027294  0.0151322  -0.0124317  -0.00771651  0.0269018  -0.0297109  -0.0851329  0.00511745  0.0317345 
1704802656.363910000  0  0  11.2088  0.0720673  -0.0876856  0.020735  nan  nan  nan  nan  nan  nan  -2.49103  -0.305586  1.00718  0.0174469  0.00498826  0.00604024  0.065456  -0.0298903  0.0453495  0  0  0  0.223525  -0.0092458  0.0743203  0.0227767  0.00302347  0.00295266  -0.0286217  0.0138063  -0.000555951  -0.00713352  0.0252663  -0.0295593  -0.0785063  -0.0570788  0.0364049 
1704802656.368837000  0  0  11.2656  0.0566714  -0.0988902  0.0238218  nan  nan  nan  nan  nan  nan  -2.4907  -0.305735  1.00741  0.0162766  0.00268372  0.00612729  0.0665622  -0.0299314  0.0457061  0  0  0  0.218899  -0.0072207  0.0683494  0.0227477  0.003032  0.00289687  -0.0262839  0.0127068  -0.00581026  -0.00615454  0.0273138  -0.029959  -0.056721  -0.0535065  0.00181792 
1704802656.374233000  0  0  11.3353  0.0921373  -0.125708  0.0204049  nan  nan  nan  nan  nan  nan  -2.49036  -0.305885  1.00764  0.0177167  0.00321477  0.00627106  0.0676446  -0.0299629  0.0460334  0  0  0  0.214023  -0.0054456  0.0626285  0.0226986  0.00305482  0.00283627  -0.0274979  0.014817  -0.0120242  -0.00852742  0.0271697  -0.0296169  -0.105822  0.00145408  0.041108 
1704802656.378887000  0  0  11.1192  0.0980207  -0.0953866  0.018327  nan  nan  nan  nan  nan  nan  -2.49002  -0.306035  1.00787  0.0168754  0.00403391  0.00641268  0.068702  -0.0299862  0.0463328  0  0  0  0.208897  -0.0039205  0.0571576  0.0225355  0.00312419  0.00293066  -0.028714  0.0133836  0.0052957  -0.00836238  0.0257862  -0.0292192  -0.119107  -0.0464594  0.0631042 
1704802656.383894000  0  0  11.2708  0.0716843  -0.121983  0.0249823  nan  nan  nan  nan  nan  nan  -2.48968  -0.306185  1.0081  0.0160089  0.00119597  0.00649415  0.0697331  -0.0300025  0.0466054  0  0  0  0.203522  -0.0026454  0.0519367  0.0225267  0.00313122  0.00281985  -0.0258857  0.0127523  -0.00769648  -0.00757711  0.0286393  -0.0300223  -0.0736593  -0.0195164  -0.0120558 
1704802656.388839000  0  0  11.3261  0.0961475  -0.139751  0.023102  nan  nan  nan  nan  nan  nan  -2.48933  -0.306335  1.00833  0.0173779  0.00141378  0.00663007  0.0707368  -0.0300131  0.0468526  0  0  0  0.197896  -0.0016203  0.0469658  0.0223845  0.0032167  0.0027479  -0.0265792  0.0145124  -0.0126272  -0.00968818  0.0287206  -0.0299612  -0.103164  0.0152725  0.0108362 
1704802656.393891000  0  0  11.2132  0.0982626  -0.125394  0.0184091  nan  nan  nan  nan  nan  nan  -2.48897  -0.306485  1.00857  0.0161466  0.00140523  0.00675869  0.0717117  -0.0300192  0.0470755  0  0  0  0.19202  -0.0008452  0.0422449  0.0223421  0.00320326  0.00278544  -0.0271925  0.0128875  -0.00374618  -0.00914387  0.028525  -0.0293027  -0.112402  -0.0116419  0.0629138 
1704802656.399317000  0  0  11.2804  0.0658345  -0.147182  0.0254547  nan  nan  nan  nan  nan  nan  -2.48861  -0.306635  1.0088  0.0144161  -0.00278111  0.0068263  0.0726566  -0.030022  0.0472754  0  0  0  0.185894  -0.0003201  0.0377739  0.0227201  0.00298395  0.00271228  -0.0235581  0.0114302  -0.00975491  -0.00755512  0.0327717  -0.0301011  -0.0621619  -0.00713693  -0.017173 
1704802656.403885000  0  0  11.3191  0.0929964  -0.15955  0.0209012  nan  nan  nan  nan  nan  nan  -2.48824  -0.306785  1.00904  0.0151615  -0.00293297  0.00695243  0.0735702  -0.0300228  0.0474536  0  0  0  0.179519  -4.51e-05  0.033553  0.022572  0.00305897  0.00261964  -0.0238432  0.0123005  -0.0131998  -0.00904089  0.0331212  -0.029771  -0.102817  0.014385  0.036445 
1704802656.408837000  0  0  11.2673  0.0941293  -0.159013  0.0172687  nan  nan  nan  nan  nan  nan  -2.48787  -0.306935  1.00928  0.0147464  -0.00340681  0.00707716  0.0744513  -0.0300228  0.0476114  0  0  0  0.172893  2e-05  0.0295821  0.0225181  0.00306414  0.00259638  -0.0239849  0.0116949  -0.00923175  -0.00915162  0.0336035  -0.0292061  -0.104064  0.00887363  0.0762032 
1704802656.413893000  0  0  11.2848  0.0641701  -0.151971  0.0237217  nan  nan  nan  nan  nan  nan  -2.4875  -0.307085  1.00952  0.0143602  -0.00385089  0.0072025  0.0752987  -0.0300223  0.0477499  0  0  0  0.166017  0.0002449  0.0258612  0.0224041  0.00311728  0.00253698  -0.0240387  0.0111543  -0.0109312  -0.00863547  0.0338904  -0.0298394  -0.048894  -0.0078493  0.00187244 
1704802656.418833000  0  0  11.3592  0.0661775  -0.162121  0.0233246  nan  nan  nan  nan  nan  nan  -2.48712  -0.307235  1.00976  0.0143339  -0.00586278  0.00730426  0.0761111  -0.0300199  0.0478704  0  0  0  0.158891  0.0007198  0.0223903  0.0223757  0.00312806  0.002422  -0.0223084  0.0112966  -0.0172814  -0.00892391  0.0358787  -0.0299039  -0.0502551  -0.00584332  0.00748138 
1704802656.424227000  0  0  11.3002  0.0798485  -0.173764  0.0185661  nan  nan  nan  nan  nan  nan  -2.48674  -0.307386  1.01  0.0144608  -0.00632972  0.00742726  0.0768872  -0.0300146  0.0479742  0  0  0  0.151516  0.0014447  0.0191694  0.0223605  0.00312336  0.00239882  -0.0226641  0.0114699  -0.0126449  -0.00959383  0.0365593  -0.0292824  -0.0714338  0.0111822  0.0607476 
1704802656.428852000  0  0  11.2432  0.0576563  -0.133792  0.021224  nan  nan  nan  nan  nan  nan  -2.48635  -0.307536  1.01024  0.0137511  -0.00591949  0.0075678  0.0776258  -0.0300051  0.0480625  0  0  0  0.14389  0.0024196  0.0161985  0.0222115  0.00317978  0.00236473  -0.023848  0.0104854  -0.00806755  -0.00875903  0.0353545  -0.0294939  -0.0347296  -0.0576762  0.0296387 
1704802656.433911000  0  0  11.4093  0.0504831  -0.159781  0.0247441  nan  nan  nan  nan  nan  nan  -2.48596  -0.307686  1.01048  0.013661  -0.00974319  0.00764659  0.0783257  -0.02999  0.0481366  0  0  0  0.136014  0.0036445  0.0134775  0.0222261  0.00317969  0.00218483  -0.0199206  0.0108215  -0.0219074  -0.00876885  0.0390295  -0.030034  -0.0202929  -0.0395108  -0.00896157 
1704802656.438854000  0  0  11.3839  0.0805557  -0.173378  0.0184187  nan  nan  nan  nan  nan  nan  -2.48557  -0.307835  1.01072  0.0145775  -0.00943022  0.00777262  0.0789856  -0.0299682  0.0481977  0  0  0  0.127952  0.0051194  0.0110066  0.0221081  0.00324675  0.00211647  -0.021115  0.0119792  -0.0198792  -0.0103485  0.0388804  -0.0292976  -0.065905  -0.0109436  0.0627429 
1704802656.443864000  0  0  11.2895  0.0531325  -0.113275  0.0176477  nan  nan  nan  nan  nan  nan  -2.48517  -0.307985  1.01096  0.0129274  -0.00915832  0.0079222  0.0796056  -0.0299384  0.0482471  0  0  0  0.120078  0.0068443  0.0087857  0.0220757  0.00322299  0.0020876  -0.0224675  0.0100234  -0.0121049  -0.00855242  0.0372728  -0.0289687  -0.0275827  -0.116359  0.0690902 
1704802656.448979000  0  0  11.4842  0.0500605  -0.165378  0.024877  nan  nan  nan  nan  nan  nan  -2.48477  -0.308135  1.0112  0.012166  -0.0153335  0.00798455  0.0801868  -0.0298994  0.048286  0  0  0  0.112455  0.0088193  0.0068148  0.0224314  0.00302106  0.00178356  -0.0161328  0.0100993  -0.0280669  -0.0080125  0.0433584  -0.0298867  -0.0264059  -0.0681417  -0.0120945 
1704802656.454047000  0  0  11.3293  0.0913843  -0.134756  0.0141608  nan  nan  nan  nan  nan  nan  -2.48437  -0.308284  1.01144  0.0122216  -0.0131593  0.00814067  0.0807305  -0.0298498  0.0483156  0  0  0  0.105081  0.0110442  0.0050939  0.0223171  0.00307358  0.00177618  -0.0198199  0.010102  -0.0152181  -0.00897246  0.0405577  -0.0287492  -0.100222  -0.103619  0.110481 
1704802656.458890000  0  0  11.2711  0.0668341  -0.0952584  0.0171406  nan  nan  nan  nan  nan  nan  -2.48396  -0.308433  1.01168  0.01093  -0.0138696  0.0082804  0.081238  -0.0297885  0.0483373  0  0  0  0.0979579  0.0135191  0.003623  0.022278  0.00306566  0.00171051  -0.0198195  0.00874397  -0.0103364  -0.00777557  0.0398894  -0.0287763  -0.062133  -0.176466  0.0735048 
1704802656.463885000  0  0  11.4126  0.0507016  -0.124618  0.0265856  nan  nan  nan  nan  nan  nan  -2.48356  -0.308582  1.01193  0.0113116  -0.0170788  0.00836931  0.0817105  -0.0297142  0.0483523  0  0  0  0.0910844  0.016244  0.0024021  0.0222199  0.00312766  0.00151684  -0.016276  0.00964692  -0.0219085  -0.0081334  0.0425157  -0.0299913  -0.026576  -0.141908  -0.0324067 
1704802656.468842000  0  0  11.3981  0.0873437  -0.145034  0.0194702  nan  nan  nan  nan  nan  nan  -2.48315  -0.30873  1.01217  0.0114367  -0.0168975  0.00849965  0.0821493  -0.0296256  0.0483618  0  0  0  0.0844609  0.0192189  0.0014311  0.0221908  0.00312965  0.00141692  -0.0173115  0.0101605  -0.0205799  -0.00915125  0.0421763  -0.0292963  -0.090496  -0.0979532  0.049586 
1704802656.474230000  0  0  11.3228  0.0715726  -0.0921438  0.0167902  nan  nan  nan  nan  nan  nan  -2.48274  -0.308878  1.01241  0.0100476  -0.0172408  0.00865018  0.0825555  -0.0295216  0.048367  0  0  0  0.0780874  0.0224438  0.0007102  0.0222033  0.00309882  0.00137527  -0.017844  0.00879789  -0.0142276  -0.00801513  0.0407995  -0.0287401  -0.069406  -0.191068  0.0775238 
1704802656.478873000  0  0  11.4454  0.0604509  -0.120376  0.0286051  nan  nan  nan  nan  nan  nan  -2.48232  -0.309026  1.01265  0.010251  -0.0189846  0.00875929  0.0829306  -0.0294008  0.0483693  0  0  0  0.0719639  0.0259187  0.0002393  0.0221018  0.0031613  0.00119631  -0.0159442  0.00952009  -0.024147  -0.00830952  0.0421392  -0.0302083  -0.0444542  -0.146929  -0.0554804 
1704802656.483883000  0  0  11.4256  0.0811334  -0.118745  0.0173735  nan  nan  nan  nan  nan  nan  -2.48191  -0.309172  1.01289  0.00846077  -0.0204519  0.00891127  0.0832756  -0.029262  0.0483698  0  0  0  0.0660904  0.0296436  1.84e-05  0.0223223  0.00292572  0.00103507  -0.0153373  0.00823877  -0.0221886  -0.00726728  0.0428431  -0.0290455  -0.0954079  -0.156666  0.073286 
1704802656.488841000  0  0  11.3504  0.0804583  -0.101188  0.0156178  nan  nan  nan  nan  nan  nan  -2.48149  -0.309318  1.01313  0.0082895  -0.020633  0.00904377  0.0835919  -0.0291039  0.0483698  0  0  0  0.060467  0.0336185  0  0.0222344  0.00296909  0.000984785  -0.0157974  0.0083629  -0.0157754  -0.00751889  0.0419018  -0.0285571  -0.0917429  -0.18312  0.0903483 
1704802656.493887000  0  0  11.4169  0.0770098  -0.111328  0.0251055  nan  nan  nan  nan  nan  nan  -2.48107  -0.309463  1.01338  0.00760139  -0.0208086  0.00918713  0.0838807  -0.0289254  0.0483698  0  0  0  0.0550935  0.0378435  0  0.0221568  0.0030066  0.000840389  -0.0159252  0.0080098  -0.0209992  -0.00727065  0.0414915  -0.0296361  -0.0871296  -0.159067  -0.0174578 
1704802656.498846000  0  0  11.4354  0.068105  -0.11365  0.0209371  nan  nan  nan  nan  nan  nan  -2.48065  -0.309607  1.01362  0.00591518  -0.0234072  0.00933725  0.0841432  -0.0287251  0.0483698  0  0  0  0.04997  0.0423184  0  0.0223316  0.00284026  0.000656243  -0.013596  0.00685386  -0.0221775  -0.00593731  0.0431971  -0.0292967  -0.0815869  -0.170113  0.0312537 
1704802656.503886000  0  0  11.3826  0.0823407  -0.125472  0.0181559  nan  nan  nan  nan  nan  nan  -2.48023  -0.309751  1.01386  0.00586124  -0.0238729  0.00946629  0.0843808  -0.0285018  0.0483698  0  0  0  0.0450965  0.0470433  0  0.0224067  0.00273931  0.00057375  -0.0139289  0.00758231  -0.0175917  -0.00653084  0.0430121  -0.0288562  -0.104598  -0.144766  0.0616137 
1704802656.508885000  0  0  11.363  0.074624  -0.101355  0.0218066  nan  nan  nan  nan  nan  nan  -2.47981  -0.309892  1.0141  0.00425976  -0.0233376  0.0096373  0.0845946  -0.0282542  0.0483698  0  0  0  0.040473  0.0520182  0  0.022375  0.0027255  0.000494645  -0.0151566  0.00620485  -0.0157365  -0.00539958  0.0413739  -0.0292177  -0.0995718  -0.177931  0.0195943 
1704802656.513841000  0  0  11.4491  0.0529897  -0.104359  0.0225277  nan  nan  nan  nan  nan  nan  -2.47938  -0.310033  1.01434  0.00364313  -0.0256607  0.00977362  0.084786  -0.0279812  0.0483698  0  0  0  0.0360995  0.0572431  0  0.0223177  0.0027582  0.000346712  -0.0123954  0.00608565  -0.0226051  -0.004846  0.0427267  -0.0293697  -0.0613961  -0.184368  0.0121012 
1704802656.518843000  0  0  11.3928  0.0846222  -0.127434  0.0180042  nan  nan  nan  nan  nan  nan  -2.47896  -0.310172  1.01459  0.00395678  -0.0257895  0.00989557  0.084956  -0.0276814  0.0483698  0  0  0  0.031976  0.062718  0  0.0224079  0.00265068  0.000257695  -0.0131203  0.00739728  -0.0177246  -0.00609294  0.0424899  -0.0287955  -0.113189  -0.136039  0.0629022 
1704802656.523833000  0  0  11.3669  0.0750907  -0.0891823  0.0184349  nan  nan  nan  nan  nan  nan  -2.47853  -0.31031  1.01483  0.00190263  -0.0249118  0.0100807  0.0851061  -0.0273536  0.0483698  0  0  0  0.0281025  0.0684429  0  0.0223241  0.00266922  0.000188944  -0.0145865  0.00546769  -0.0153497  -0.00455272  0.0402778  -0.0286715  -0.108296  -0.192191  0.0562786 
1704802656.528842000  0  0  11.4896  0.0389782  -0.103353  0.0236883  nan  nan  nan  nan  nan  nan  -2.47811  -0.310446  1.01507  4.17969e-05  -0.0283666  0.0102573  0.0852375  -0.0269965  0.0483698  0  0  0  0.024479  0.0744178  0  0.0224607  0.00254224  2.61872e-06  -0.0105699  0.00421024  -0.0251969  -0.00257802  0.0428228  -0.0293594  -0.0542386  -0.187264  -0.00251004 
1704802656.534280000  0  0  11.4307  0.0726494  -0.130677  0.0196371  nan  nan  nan  nan  nan  nan  -2.47768  -0.31058  1.01531  0.000216845  -0.0285659  0.0103828  0.0853513  -0.026609  0.0483698  0  0  0  0.0211055  0.0806427  0  0.0225379  0.00245776  -5.51639e-05  -0.0111042  0.00541463  -0.0201575  -0.00374564  0.0426582  -0.0289489  -0.110839  -0.131102  0.0440255 
1704802656.538837000  0  0  11.3838  0.0682946  -0.10688  0.0180894  nan  nan  nan  nan  nan  nan  -2.47725  -0.310712  1.01555  -0.00129274  -0.0276949  0.0105553  0.085449  -0.0261897  0.0483698  0  0  0  0.017982  0.0871177  0  0.0224334  0.00248349  -0.000129249  -0.0125016  0.0042593  -0.0160439  -0.00275916  0.0408371  -0.0286407  -0.111205  -0.161942  0.0602896 
1704802656.543901000  0  0  11.4687  0.0405486  -0.117711  0.0253107  nan  nan  nan  nan  nan  nan  -2.47683  -0.310842  1.01579  -0.00224783  -0.0295334  0.0107163  0.0855316  -0.0257374  0.0483698  0  0  0  0.0151085  0.0938426  0  0.0224442  0.00247202  -0.000275773  -0.0102698  0.0039406  -0.0228105  -0.00180355  0.041975  -0.0295609  -0.0645045  -0.150749  -0.0207739 
1704802656.549325000  0  0  11.436  0.0576044  -0.134041  0.021872  nan  nan  nan  nan  nan  nan  -2.4764  -0.310969  1.01604  -0.00260537  -0.0303006  0.0108593  0.0856005  -0.0252509  0.0483698  0  0  0  0.012485  0.100817  0  0.0224593  0.00245348  -0.00034808  -0.00976231  0.00443425  -0.0199255  -0.0022168  0.0423064  -0.0292861  -0.0948143  -0.121138  0.0194608 
1704802656.553892000  0  0  11.4278  0.0538074  -0.122586  0.0184039  nan  nan  nan  nan  nan  nan  -2.47597  -0.311094  1.01628  -0.00361173  -0.0291502  0.0110161  0.0856568  -0.0247288  0.0483698  0  0  0  0.0101115  0.108042  0  0.0223596  0.00248129  -0.000450001  -0.0113191  0.00400184  -0.0189871  -0.00163584  0.0405655  -0.0287751  -0.0925651  -0.128031  0.0577027 
1704802656.558896000  0  0  11.4368  0.0433938  -0.109835  0.0235563  nan  nan  nan  nan  nan  nan  -2.47554  -0.311216  1.01652  -0.00453655  -0.0298043  0.0111765  0.085702  -0.02417  0.0483698  0  0  0  0.007988  0.115517  0  0.0223541  0.0024631  -0.000543709  -0.0107023  0.00382587  -0.0195045  -0.00102342  0.0402954  -0.0293593  -0.0773721  -0.151048  -0.000860883 
1704802656.563910000  0  0  11.4499  0.0634299  -0.129466  0.022074  nan  nan  nan  nan  nan  nan  -2.47511  -0.311336  1.01676  -0.0050664  -0.0313788  0.0113308  0.0857371  -0.0235732  0.0483698  0  0  0  0.0061145  0.123242  0  0.0223178  0.00248652  -0.000646985  -0.00880179  0.00410074  -0.0203799  -0.00137077  0.0414734  -0.0293113  -0.114249  -0.122623  0.0171877 
1704802656.568852000  0  0  11.4351  0.0747396  -0.135476  0.0178507  nan  nan  nan  nan  nan  nan  -2.47468  -0.311452  1.017  -0.0063578  -0.0311404  0.0115002  0.0857635  -0.0229372  0.0483698  0  0  0  0.004491  0.131217  0  0.0224292  0.00234714  -0.000687396  -0.00959126  0.00379069  -0.0190366  -0.000931663  0.0408189  -0.0288008  -0.140908  -0.104582  0.0648748 
1704802656.573897000  0  0  11.3804  0.0593747  -0.0936961  0.0227499  nan  nan  nan  nan  nan  nan  -2.47426  -0.311565  1.01725  -0.00773748  -0.0305577  0.0116691  0.0857825  -0.0222606  0.0483698  0  0  0  0.0031175  0.139442  0  0.0223845  0.00235943  -0.000747989  -0.0105744  0.00309548  -0.0142891  -7.52645e-06  0.0389268  -0.0292895  -0.11868  -0.170735  0.00852149 
1704802656.578884000  0  0  11.4814  0.0645125  -0.133938  0.0239806  nan  nan  nan  nan  nan  nan  -2.47383  -0.311674  1.01749  -0.00854314  -0.0330082  0.0118451  0.0857951  -0.0215423  0.0483698  0  0  0  0.001994  0.147917  0  0.0224168  0.00233646  -0.000886491  -0.0073005  0.00315263  -0.0224239  2.87389e-05  0.0412  -0.0295842  -0.129289  -0.111165  -0.00391566 
1704802656.583871000  0  0  11.427  0.0950973  -0.139107  0.0163888  nan  nan  nan  nan  nan  nan  -2.4734  -0.31178  1.01773  -0.00929529  -0.0314153  0.0119856  0.0858028  -0.020781  0.0483698  0  0  0  0.0011205  0.156642  0  0.022545  0.00217819  -0.000893344  -0.0099096  0.00368657  -0.0178479  -0.000516113  0.0393895  -0.0286733  -0.185446  -0.0841688  0.0818729 
1704802656.588880000  0  0  11.3595  0.0719553  -0.0744837  0.0206524  nan  nan  nan  nan  nan  nan  -2.47297  -0.311882  1.01797  -0.0110868  -0.0310063  0.0121678  0.0858068  -0.0199755  0.0483698  0  0  0  0.000497  0.165617  0  0.0224908  0.00218789  -0.000930217  -0.0105953  0.00260919  -0.0120678  0.000720384  0.037263  -0.0289812  -0.150538  -0.193852  0.0316569 
1704802656.593891000  0  0  11.4876  0.0656191  -0.123088  0.026144  nan  nan  nan  nan  nan  nan  -2.47254  -0.31198  1.01821  -0.0118342  -0.0341333  0.0123585  0.0858082  -0.0191245  0.0483698  0  0  0  0.0001235  0.174842  0  0.0225222  0.00219166  -0.00110593  -0.00625854  0.00271847  -0.0223831  0.00078088  0.0402311  -0.0297901  -0.138422  -0.123949  -0.0288987 
1704802656.599311000  0  0  11.4307  0.102743  -0.129077  0.0173174  nan  nan  nan  nan  nan  nan  -2.47211  -0.312073  1.01846  -0.0124379  -0.0313204  0.0124745  0.0858084  -0.0182267  0.0483698  0  0  0  0  0.184317  0  0.0226276  0.00207557  -0.00113257  -0.0102921  0.00344496  -0.017552  -8.69486e-05  0.037269  -0.0288795  -0.204686  -0.0847214  0.0723276 
1704802656.603884000  0  0  11.3441  0.0696547  -0.0576339  0.0215891  nan  nan  nan  nan  nan  nan  -2.47168  -0.312162  1.0187  -0.0144019  -0.0317688  0.012673  0.0858084  -0.0172809  0.0483698  0  0  0  0  0.194042  0  0.0225484  0.00209203  -0.00116849  -0.00982286  0.00229641  -0.0101671  0.00148397  0.035759  -0.0292513  -0.152962  -0.213715  0.0226494 
1704802656.608891000  0  0  11.4633  0.0709059  -0.132499  0.0258068  nan  nan  nan  nan  nan  nan  -2.47125  -0.312246  1.01894  -0.0159641  -0.0351516  0.0129071  0.0858084  -0.0162858  0.0483698  0  0  0  0  0.204016  0  0.0227628  0.00196405  -0.00126116  -0.00553268  0.00173149  -0.01991  0.00207397  0.039421  -0.029946  -0.160892  -0.0976761  -0.0231252 
1704802656.613843000  0  0  11.4486  0.110205  -0.130028  0.0178854  nan  nan  nan  nan  nan  nan  -2.47082  -0.312325  1.01918  -0.0160847  -0.0319577  0.0129904  0.0858084  -0.0152403  0.0483698  0  0  0  0  0.214241  0  0.0226854  0.0019882  -0.00133748  -0.00948276  0.00279947  -0.0185109  0.000616691  0.0361182  -0.0290082  -0.226083  -0.072232  0.0665145 
1704802656.618833000  0  0  11.3493  0.0800775  -0.070561  0.020517  nan  nan  nan  nan  nan  nan  -2.47039  -0.312398  1.01942  -0.0177362  -0.0323508  0.0131806  0.0858084  -0.014143  0.0483698  0  0  0  0  0.224716  0  0.0226815  0.00196374  -0.0013377  -0.00930529  0.00228658  -0.0101502  0.00171139  0.0347834  -0.0291686  -0.1759  -0.178885  0.035223 
1704802656.623845000  0  0  11.4333  0.0778695  -0.13483  0.0268369  nan  nan  nan  nan  nan  nan  -2.46997  -0.312466  1.01966  -0.0192137  -0.0342562  0.0133955  0.0858084  -0.0129927  0.0483698  0  0  0  0  0.235441  0  0.0226699  0.00197218  -0.00145746  -0.00652263  0.00162747  -0.0168992  0.00222285  0.0371489  -0.0300766  -0.176189  -0.0721098  -0.0346955 
1704802656.628890000  0  0  11.4091  0.10716  -0.105808  0.0148311  nan  nan  nan  nan  nan  nan  -2.46954  -0.312528  1.01991  -0.020356  -0.0314418  0.0135078  0.0858084  -0.0117882  0.0483698  0  0  0  0  0.246416  0  0.0228  0.0018535  -0.00148936  -0.0104555  0.00184413  -0.0147648  0.00189048  0.0337323  -0.0286789  -0.231713  -0.0987201  0.1014 
1704802656.633842000  0  0  11.2907  0.0781778  -0.0724729  0.0176619  nan  nan  nan  nan  nan  nan  -2.46911  -0.312584  1.02015  -0.0217038  -0.0317588  0.0136876  0.0858084  -0.0105281  0.0483698  0  0  0  0  0.257641  0  0.0227939  0.00183217  -0.00145905  -0.0104364  0.00189914  -0.004896  0.00272473  0.0327212  -0.0287435  -0.181423  -0.156089  0.066662 
1704802656.638883000  0  0  11.3841  0.066808  -0.122465  0.0231  nan  nan  nan  nan  nan  nan  -2.46868  -0.312633  1.02039  -0.0235261  -0.0326995  0.0138981  0.0858084  -0.0092114  0.0483698  0  0  0  0  0.269116  0  0.0227623  0.00183327  -0.00156571  -0.00880608  0.000848894  -0.0124317  0.00375551  0.034015  -0.029401  -0.168167  -0.0680074  0.00525971 
1704802656.643852000  0  0  11.4251  0.0698778  -0.108864  0.017434  nan  nan  nan  nan  nan  nan  -2.46825  -0.312676  1.02063  -0.0253985  -0.0325127  0.014085  0.0858084  -0.0078366  0.0483698  0  0  0  0  0.280841  0  0.0229287  0.00167223  -0.0015559  -0.00922617  0.000215882  -0.0158102  0.0046537  0.0332659  -0.0286917  -0.18257  -0.0883185  0.0689917 
1704802656.649270000  0  0  11.3071  0.0586949  -0.0964879  0.0210277  nan  nan  nan  nan  nan  nan  -2.46782  -0.312712  1.02087  -0.0265619  -0.0326198  0.0142562  0.0858084  -0.0064025  0.0483698  0  0  0  0  0.292816  0  0.0229611  0.00164408  -0.00150634  -0.0095704  0.00067131  -0.00603751  0.00503721  0.03266  -0.028924  -0.163732  -0.107496  0.0263945 
1704802656.653894000  0  0  11.3336  0.0403192  -0.0993801  0.023546  nan  nan  nan  nan  nan  nan  -2.46739  -0.31274  1.02112  -0.0290532  -0.0327704  0.0144723  0.0858084  -0.004908  0.0483698  0  0  0  0  0.305041  0  0.0228904  0.00163668  -0.00158919  -0.00907679  -0.000965098  -0.00800576  0.00697949  0.032482  -0.0293451  -0.14485  -0.100074  -0.000873857 
1704802656.659323000  0  0  11.4792  0.047882  -0.0974036  0.0186727  nan  nan  nan  nan  nan  nan  -2.46696  -0.312761  1.02136  -0.0295191  -0.0324722  0.0146093  0.0858084  -0.0033517  0.0483698  0  0  0  0  0.317516  0  0.0229264  0.00160305  -0.00170448  -0.0089882  -0.000364104  -0.0198586  0.00653221  0.0316724  -0.0287705  -0.15586  -0.096579  0.054296 
1704802656.663851000  0  0  11.3225  0.0537858  -0.0937847  0.0190148  nan  nan  nan  nan  nan  nan  -2.46653  -0.312773  1.0216  -0.0304049  -0.0308546  0.0147194  0.0858084  -0.0017324  0.0483698  0  0  0  0  0.33024  0  0.022822  0.00161628  -0.00167283  -0.0113458  0.000587734  -0.00684493  0.00657204  0.0297828  -0.0286978  -0.168034  -0.0864323  0.0492939 
1704802656.668832000  0  0  11.3232  0.0280973  -0.0819191  0.0232654  nan  nan  nan  nan  nan  nan  -2.4661  -0.312778  1.02184  -0.0337297  -0.0315024  0.0149743  0.0858084  -4.89e-05  0.0483698  0  0  0  0  0.343215  0  0.0228399  0.00155444  -0.00168776  -0.0104998  -0.00179322  -0.00676813  0.00933175  0.0297924  -0.029248  -0.142047  -0.110252  0.00166266 
1704802656.674275000  0  0  11.4993  0.0378101  -0.115926  0.0220698  nan  nan  nan  nan  nan  nan  -2.46568  -0.312774  1.02208  -0.0348169  -0.0333855  0.0152046  0.0858084  0.0017002  0.0483698  0  0  0  0  0.35644  0  0.0231169  0.00136188  -0.00173303  -0.00805303  -0.00168513  -0.0213069  0.00938646  0.031722  -0.0292432  -0.161976  -0.0599893  0.0165594 
1704802656.678889000  0  0  11.264  0.0590671  -0.102969  0.0189949  nan  nan  nan  nan  nan  nan  -2.46525  -0.312761  1.02232  -0.0361287  -0.0310298  0.0152939  0.0858084  0.0035159  0.0483698  0  0  0  0  0.369915  0  0.0230121  0.00136877  -0.00165154  -0.0116289  -0.000774087  -0.00183199  0.00944258  0.02913  -0.0288499  -0.205006  -0.0620583  0.0510632 
1704802656.683888000  0  0  11.3023  0.0239828  -0.0818536  0.0231202  nan  nan  nan  nan  nan  nan  -2.46482  -0.312739  1.02257  -0.039893  -0.0320914  0.0155836  0.0858084  0.0053997  0.0483698  0  0  0  0  0.38364  0  0.0230421  0.00129726  -0.00169261  -0.0101464  -0.00372226  -0.00480968  0.0126015  0.0294075  -0.0293578  -0.1639  -0.106841  0.00457548 
