    ts      x      y      z   roll  pitch    yaw     vx     vy     vz     wx     wy     wz     ax     ay     az    dwx    dwy    dwz
 0.0050000  -2.5000000  -0.3000000   1.0000000   0.0000000   0.0000000   0.0000000   0.0000002  -0.0000002   0.0000002   0.0000000   0.0000000   0.0000000   0.0001250  -0.0001250   0.0001250   0.0000000   0.0000000   0.0000000
 0.0100000  -2.5000000  -0.3000000   1.0000000   0.0000000   0.0000000   0.0000000   0.0000017  -0.0000017   0.0000017   0.0000000   0.0000000   0.0000000   0.0005000  -0.0005000   0.0005000   0.0000000   0.0000000   0.0000000
 0.0150000  -2.5000000  -0.3000000   1.0000000   0.0000000   0.0000000   0.0000000   0.0000056  -0.0000056   0.0000056   0.0000000   0.0000000   0.0000000   0.0011250  -0.0011250   0.0011250   0.0000000   0.0000000   0.0000000
 0.0200000  -2.5000000  -0.3000000   1.0000000   0.0000000   0.0000000   0.0000001   0.0000133  -0.0000133   0.0000133   0.0000000   0.0000000   0.0000000   0.0020000  -0.0020000   0.0020000   0.0000000   0.0000000   0.0000000
 0.0250000  -2.5000000  -0.3000000   1.0000000   0.0000000   0.0000000   0.0000003   0.0000260  -0.0000260   0.0000260   0.0000000   0.0000000   0.0000000   0.0031250  -0.0031250   0.0031250   0.0000000   0.0000000   0.0000000
 0.0300000  -2.5000000  -0.3000000   1.0000000   0.0000000   0.0000000   0.0000005   0.0000450  -0.0000450   0.0000450   0.0000000   0.0000000   0.0000000   0.0045000  -0.0045000   0.0045000   0.0000000   0.0000000   0.0000000
 0.0350000  -2.5000000  -0.3000010   1.0000000   0.0000000   0.0000000   0.0000010   0.0000715  -0.0000715   0.0000715   0.0000000   0.0000000   0.0000000   0.0061250  -0.0061250   0.0061250   0.0000000   0.0000000   0.0000000
 0.0400000  -2.5000000  -0.3000010   1.0000000   0.0000000   0.0000000   0.0000017   0.0001067  -0.0001067   0.0001067   0.0000000   0.0000000   0.0000000   0.0080000  -0.0080000   0.0080000   0.0000000   0.0000000   0.0000000
 0.0450000  -2.5000000  -0.3000020   1.0000000   0.0000000   0.0000000   0.0000027   0.0001519  -0.0001519   0.0001519   0.0000000   0.0000000   0.0000000   0.0101250  -0.0101250   0.0101250   0.0000000   0.0000000   0.0000000
 0.0500000  -2.5000000  -0.3000030   1.0000000   0.0000000   0.0000000   0.0000042   0.0002083  -0.0002083   0.0002083   0.0000000   0.0000000   0.0000000   0.0125000  -0.0125000   0.0125000   0.0000000   0.0000000   0.0000000
 0.0550000  -2.5000000  -0.3000040   1.0000000   0.0000000   0.0000000   0.0000061   0.0002773  -0.0002773   0.0002773   0.0000000   0.0000000   0.0000000   0.0151250  -0.0151250   0.0151250   0.0000000   0.0000000   0.0000000
 0.0600000  -2.4999900  -0.3000050   1.0000100   0.0000000   0.0000000   0.0000086   0.0003600  -0.0003600   0.0003600   0.0000000   0.0000000   0.0000000   0.0180000  -0.0180000   0.0180000   0.0000000   0.0000000   0.0000000
 0.0650000  -2.4999900  -0.3000070   1.0000100   0.0000000   0.0000000   0.0000119   0.0004577  -0.0004577   0.0004577   0.0000000   0.0000000   0.0000000   0.0211250  -0.0211250   0.0211250   0.0000000   0.0000000   0.0000000
 0.0700000  -2.4999900  -0.3000100   1.0000100   0.0000000   0.0000000   0.0000160   0.0005717  -0.0005717   0.0005717   0.0000000   0.0000000   0.0000000   0.0245000  -0.0245000   0.0245000   0.0000000   0.0000000   0.0000000
 0.0750000  -2.4999900  -0.3000130   1.0000100   0.0000000   0.0000000   0.0000211   0.0007031  -0.0007031   0.0007031   0.0000000   0.0000000   0.0000000   0.0281250  -0.0281250   0.0281250   0.0000000   0.0000000   0.0000000
 0.0800000  -2.4999800  -0.3000170   1.0000200   0.0000000   0.0000000   0.0000273   0.0008533  -0.0008533   0.0008533   0.0000000   0.0000000   0.0000000   0.0320000  -0.0320000   0.0320000   0.0000000   0.0000000   0.0000000
 0.0850000  -2.4999800  -0.3000220   1.0000200   0.0000000   0.0000000   0.0000348   0.0010235  -0.0010235   0.0010235   0.0000000   0.0000000   0.0000000   0.0361250  -0.0361250   0.0361250   0.0000000   0.0000000   0.0000000
 0.0900000  -2.4999700  -0.3000270   1.0000300   0.0000000   0.0000000   0.0000437   0.0012150  -0.0012150   0.0012150   0.0000000   0.0000000   0.0000000   0.0405000  -0.0405000   0.0405000   0.0000000   0.0000000   0.0000000
 0.0950000  -2.4999700  -0.3000340   1.0000300   0.0000000   0.0000000   0.0000543   0.0014290  -0.0014290   0.0014290   0.0000000   0.0000000   0.0000000   0.0451250  -0.0451250   0.0451250   0.0000000   0.0000000   0.0000000
 0.1000000  -2.4999600  -0.3000420   1.0000400   0.0000000   0.0000000   0.0000667   0.0016667  -0.0016667   0.0016667   0.0000000   0.0000000   0.0000000   0.0500000  -0.0500000   0.0500000   0.0000000   0.0000000   0.0000000
 0.1050000  -2.4999500  -0.3000510   1.0000500   0.0000000   0.0000000   0.0000810   0.0019294  -0.0019294   0.0019294   0.0000000   0.0000000   0.0000000   0.0551250  -0.0551250   0.0551250   0.0000000   0.0000000   0.0000000
 0.1100000  -2.4999400  -0.3000610   1.0000600   0.0000000   0.0000000   0.0000975   0.0022183  -0.0022183   0.0022183   0.0000000   0.0000000   0.0000000   0.0605000  -0.0605000   0.0605000   0.0000000   0.0000000   0.0000000
 0.1150000  -2.4999300  -0.3000730   1.0000700   0.0000000   0.0000000   0.0001163   0.0025348  -0.0025348   0.0025348   0.0000000   0.0000000   0.0000000   0.0661250  -0.0661225   0.0661250   0.0000000   0.0000000   0.0000000
 0.1200000  -2.4999100  -0.3000860   1.0000900   0.0000000   0.0000000   0.0001376   0.0028800  -0.0028794   0.0028800   0.0000000   0.0000000   0.0000000   0.0720000  -0.0716975   0.0720000   0.0000000   0.0000000   0.0000000
 0.1250000  -2.4999000  -0.3001020   1.0001000   0.0000000   0.0000000   0.0001614   0.0032552  -0.0032514   0.0032552   0.0000000   0.0000000   0.0000000   0.0781250  -0.0770226   0.0781250   0.0000000   0.0000000   0.0000000
 0.1300000  -2.4998800  -0.3001190   1.0001200   0.0000000   0.0000000   0.0001880   0.0036617  -0.0036493   0.0036617   0.0000000   0.0000000   0.0000000   0.0845000  -0.0820976   0.0845000   0.0000000   0.0000000   0.0000000
 0.1350000  -2.4998600  -0.3001380   1.0001400   0.0000000   0.0000000   0.0002175   0.0041006  -0.0040719   0.0041006   0.0000000   0.0000000   0.0000000   0.0911250  -0.0869227   0.0911191   0.0000000   0.0000000   0.0000000
 0.1400000  -2.4998400  -0.3001600   1.0001600   0.0000000   0.0000000   0.0002498   0.0045733  -0.0045181   0.0045727   0.0000000   0.0000000   0.0000000   0.0980000  -0.0914977   0.0976670   0.0000000   0.0000000   0.0000000
 0.1450000  -2.4998200  -0.3001830   1.0001800   0.0000000   0.0000000   0.0002853   0.0050810  -0.0049865   0.0050769   0.0000000   0.0000000   0.0000000   0.1051250  -0.0958228   0.1039650   0.0000000   0.0000000   0.0000000
 0.1500000  -2.4997900  -0.3002100   1.0002100   0.0000000   0.0000000   0.0003238   0.0056250  -0.0054759   0.0056119   0.0000000   0.0000000   0.0000000   0.1125000  -0.0998978   0.1100130   0.0000000   0.0000000   0.0000000
 0.1550000  -2.4997600  -0.3002380   1.0002400   0.0000000   0.0000000   0.0003656   0.0062065  -0.0059850   0.0061766   0.0000000   0.0000000   0.0000000   0.1201250  -0.1037230   0.1158110   0.0000000   0.0000000   0.0000000
 0.1600000  -2.4997300  -0.3002690   1.0002700   0.0000000   0.0000000   0.0004107   0.0068267  -0.0065127   0.0067696   0.0000000   0.0000000   0.0000000   0.1280000  -0.1072980   0.1213590   0.0000000   0.0000000   0.0000000
 0.1650000  -2.4996900  -0.3003030   1.0003100   0.0000000   0.0000000   0.0004591   0.0074868  -0.0070576   0.0073898   0.0000000   0.0000000   0.0000000   0.1360620  -0.1106230   0.1266570   0.0000000   0.0000000   0.0000000
 0.1700000  -2.4996500  -0.3003400   1.0003500   0.0000000   0.0000000   0.0005110   0.0081869  -0.0076185   0.0080358   0.0000000   0.0000000   0.0000000   0.1439360  -0.1136980   0.1317050   0.0000000   0.0000000   0.0000000
 0.1750000  -2.4996100  -0.3003800   1.0003900   0.0000000   0.0000000   0.0005662   0.0089258  -0.0081942   0.0087064   0.0000000   0.0000000   0.0000000   0.1515610  -0.1165230   0.1365030   0.0000000   0.0000000   0.0000000
 0.1800000  -2.4995600  -0.3004220   1.0004300   0.0000000   0.0000000   0.0006249   0.0097021  -0.0087833   0.0094004   0.0000000   0.0000000   0.0000000   0.1589350  -0.1190980   0.1410510   0.0000000   0.0000000   0.0000000
 0.1850000  -2.4995100  -0.3004670   1.0004800   0.0000000   0.0000000   0.0006871   0.0105147  -0.0093847   0.0101165   0.0000000   0.0000000   0.0000000   0.1660590  -0.1214230   0.1453490   0.0000000   0.0000000   0.0000000
 0.1900000  -2.4994600  -0.3005160   1.0005300   0.0000000   0.0000000   0.0007528   0.0113623  -0.0099971   0.0108534   0.0000000   0.0000000   0.0000000   0.1729330  -0.1234980   0.1493970   0.0000000   0.0000000   0.0000000
 0.1950000  -2.4994000  -0.3005670   1.0005900   0.0000000   0.0000000   0.0008220   0.0122436  -0.0106193   0.0116100   0.0000000   0.0000000   0.0000000   0.1795580  -0.1253230   0.1531950   0.0000000   0.0000000   0.0000000
 0.2000000  -2.4993300  -0.3006220   1.0006500   0.0000000   0.0000000   0.0008946   0.0131574  -0.0112499   0.0123850   0.0000000   0.0000000   0.0000000   0.1859320  -0.1268980   0.1567430   0.0000000   0.0000000   0.0000000
 0.2050000  -2.4992700  -0.3006800   1.0007100   0.0000000   0.0000000   0.0009708   0.0141025  -0.0118879   0.0131770   0.0000000   0.0000000   0.0000000   0.1920560  -0.1282230   0.1600400   0.0000000   0.0000000   0.0000000
 0.2100000  -2.4991900  -0.3007410   1.0007800   0.0000000   0.0000000   0.0010503   0.0150776  -0.0125318   0.0139850   0.0000000   0.0000000   0.0000000   0.1979300  -0.1292980   0.1630880   0.0000000   0.0000000   0.0000000
 0.2150000  -2.4991200  -0.3008050   1.0008500   0.0000000   0.0000000   0.0011332   0.0160814  -0.0131804   0.0148075   0.0000000   0.0000000   0.0000000   0.2035550  -0.1301230   0.1658860   0.0000000   0.0000000   0.0000000
 0.2200000  -2.4990300  -0.3008730   1.0009300   0.0000000   0.0000000   0.0012195   0.0171127  -0.0138326   0.0156434   0.0000000   0.0000000   0.0000000   0.2089290  -0.1306980   0.1684340   0.0000000   0.0000000   0.0000000
 0.2250000  -2.4989400  -0.3009440   1.0010100   0.0000000   0.0000000   0.0013090   0.0181703  -0.0144870   0.0164914   0.0000000   0.0000000   0.0000000   0.2140530  -0.1310230   0.1707320   0.0000000   0.0000000   0.0000000
 0.2300000  -2.4988500  -0.3010180   1.0011000   0.0000000   0.0000000   0.0014017   0.0192528  -0.0151424   0.0173503   0.0000000   0.0000000   0.0000000   0.2189270  -0.1310990   0.1727800   0.0000000   0.0000000   0.0000000
 0.2350000  -2.4987500  -0.3010950   1.0011800   0.0000000   0.0000000   0.0014975   0.0203591  -0.0157976   0.0182188   0.0000000   0.0000000   0.0000000   0.2235520  -0.1309240   0.1745780   0.0000000   0.0000000   0.0000000
 0.2400000  -2.4986500  -0.3011760   1.0012800   0.0000000   0.0000000   0.0015964   0.0214879  -0.0164512   0.0190957   0.0000000   0.0000000   0.0000000   0.2279260  -0.1304990   0.1761260   0.0000000   0.0000000   0.0000000
 0.2450000  -2.4985400  -0.3012600   1.0013800   0.0000000   0.0000000   0.0016982   0.0226380  -0.0171021   0.0199797   0.0000000   0.0000000   0.0000000   0.2320500  -0.1298240   0.1774240   0.0000000   0.0000000   0.0000000
 0.2500000  -2.4984200  -0.3013470   1.0014800   0.0000000   0.0000000   0.0018028   0.0238080  -0.0177490   0.0208695   0.0000000   0.0000000   0.0000000   0.2359240  -0.1288990   0.1784720   0.0000000   0.0000000   0.0000000
 0.2550000  -2.4983000  -0.3014370   1.0015800   0.0000000   0.0000000   0.0019101   0.0249968  -0.0183907   0.0217640   0.0000000   0.0000000   0.0000000   0.2395490  -0.1277240   0.1792700   0.0000000   0.0000000   0.0000000
 0.2600000  -2.4981700  -0.3015310   1.0017000   0.0000000   0.0000000   0.0020199   0.0262031  -0.0190259   0.0226618   0.0000000   0.0000000   0.0000000   0.2429230  -0.1262990   0.1798180   0.0000000   0.0000000   0.0000000
 0.2650000  -2.4980400  -0.3016270   1.0018100   0.0000000   0.0000000   0.0021322   0.0274256  -0.0196533   0.0235617   0.0000000   0.0000000   0.0000000   0.2460470  -0.1246240   0.1801160   0.0000000   0.0000000   0.0000000
 0.2700000  -2.4979000  -0.3017270   1.0019300   0.0000000   0.0000000   0.0022468   0.0286631  -0.0202717   0.0244625   0.0000000   0.0000000   0.0000000   0.2489210  -0.1226990   0.1801640   0.0000000   0.0000000   0.0000000
 0.2750000  -2.4977500  -0.3018300   1.0020600   0.0000000   0.0000000   0.0023634   0.0299144  -0.0208798   0.0253630   0.0000000   0.0000000   0.0000000   0.2515460  -0.1205240   0.1799620   0.0000000   0.0000000   0.0000000
 0.2800000  -2.4976000  -0.3019360   1.0021800   0.0000000   0.0000000   0.0024820   0.0311782  -0.0214765   0.0262617   0.0000000   0.0000000   0.0000000   0.2539200  -0.1180990   0.1795100   0.0000000   0.0000000   0.0000000
 0.2850000  -2.4974400  -0.3020450   1.0023200   0.0000000   0.0000000   0.0026023   0.0324532  -0.0220604   0.0271576   0.0000000   0.0000000   0.0000000   0.2560440  -0.1154240   0.1788080   0.0000000   0.0000000   0.0000000
 0.2900000  -2.4972700  -0.3021560   1.0024600   0.0000000   0.0000000   0.0027243   0.0337382  -0.0226303   0.0280494   0.0000000   0.0000000   0.0000000   0.2579180  -0.1124990   0.1778560   0.0000000   0.0000000   0.0000000
 0.2950000  -2.4971000  -0.3022710   1.0026000   0.0000000   0.0000000   0.0028476   0.0350320  -0.0231850   0.0289358   0.0000000   0.0000000   0.0000000   0.2595430  -0.1093240   0.1766540   0.0000000   0.0000000   0.0000000
 0.3000000  -2.4969200  -0.3023880   1.0027500   0.0000000   0.0000000   0.0029721   0.0363332  -0.0237231   0.0298155   0.0000000   0.0000000   0.0000000   0.2609170  -0.1058990   0.1752020   0.0000000   0.0000000   0.0000000
 0.3050000  -2.4967400  -0.3025080   1.0029000   0.0000000   0.0000000   0.0030978   0.0376407  -0.0242436   0.0306874   0.0000000   0.0000000   0.0000000   0.2620410  -0.1022240   0.1735000   0.0000000   0.0000000   0.0000000
 0.3100000  -2.4965500  -0.3026310   1.0030500   0.0000000   0.0000000   0.0032244   0.0389532  -0.0247450   0.0315501   0.0000000   0.0000000   0.0000000   0.2629150  -0.0982992   0.1715480   0.0000000   0.0000000   0.0000000
 0.3150000  -2.4963500  -0.3027560   1.0032100   0.0000000   0.0000000   0.0033518   0.0402695  -0.0252261   0.0324024   0.0000000   0.0000000   0.0000000   0.2635400  -0.0941243   0.1693460   0.0000000   0.0000000   0.0000000
 0.3200000  -2.4961400  -0.3028830   1.0033800   0.0000000   0.0000000   0.0034799   0.0415882  -0.0256858   0.0332431   0.0000000   0.0000000   0.0000000   0.2639140  -0.0896993   0.1668930   0.0000000   0.0000000   0.0000000
 0.3250000  -2.4959300  -0.3030120   1.0035400   0.0000000   0.0000000   0.0036085   0.0429082  -0.0261227   0.0340710   0.0000000   0.0000000   0.0000000   0.2640380  -0.0850244   0.1641910   0.0000000   0.0000000   0.0000000
 0.3300000  -2.4957100  -0.3031440   1.0037200   0.0000000   0.0000000   0.0037377   0.0442282  -0.0265356   0.0348846   0.0000000   0.0000000   0.0000000   0.2639120  -0.0800994   0.1612390   0.0000000   0.0000000   0.0000000
 0.3350000  -2.4954900  -0.3032780   1.0038900   0.0000000   0.0000000   0.0038672   0.0455469  -0.0269233   0.0356829   0.0000000   0.0000000   0.0000000   0.2635370  -0.0749245   0.1580370   0.0000000   0.0000000   0.0000000
 0.3400000  -2.4952600  -0.3034130   1.0040700   0.0000000   0.0000000   0.0039971   0.0468631  -0.0272845   0.0364646   0.0000000   0.0000000   0.0000000   0.2629110  -0.0694995   0.1545850   0.0000000   0.0000000   0.0000000
 0.3450000  -2.4950200  -0.3035510   1.0042600   0.0000000   0.0000000   0.0041271   0.0481756  -0.0276179   0.0372284   0.0000000   0.0000000   0.0000000   0.2620350  -0.0638470   0.1508830   0.0000000   0.0000000   0.0000000
 0.3500000  -2.4947800  -0.3036890   1.0044500   0.0000000   0.0000000   0.0042573   0.0494830  -0.0279232   0.0379730   0.0000000   0.0000000   0.0000000   0.2609090  -0.0583219   0.1469310   0.0000000   0.0000000   0.0000000
 0.3550000  -2.4945300  -0.3038300   1.0046400   0.0000000   0.0000000   0.0043877   0.0507842  -0.0282015   0.0386973   0.0000000   0.0000000   0.0000000   0.2595340  -0.0530468   0.1427290   0.0000000   0.0000000   0.0000000
 0.3600000  -2.4942700  -0.3039710   1.0048300   0.0000000   0.0000000   0.0045181   0.0520780  -0.0284541   0.0393999   0.0000000   0.0000000   0.0000000   0.2579080  -0.0480217   0.1382770   0.0000000   0.0000000   0.0000000
 0.3650000  -2.4940100  -0.3041140   1.0050300   0.0000000   0.0000000   0.0046485   0.0533629  -0.0286821   0.0400796   0.0000000   0.0000000   0.0000000   0.2560320  -0.0432466   0.1335750   0.0000000   0.0000000   0.0000000
 0.3700000  -2.4937400  -0.3042580   1.0052300   0.0000000   0.0000000   0.0047790   0.0546379  -0.0288870   0.0407352   0.0000000   0.0000000   0.0000000   0.2539060  -0.0387216   0.1286230   0.0000000   0.0000000   0.0000000
 0.3750000  -2.4934600  -0.3044030   1.0054400   0.0000000   0.0000000   0.0049095   0.0559016  -0.0290698   0.0413654   0.0000000   0.0000000   0.0000000   0.2515310  -0.0344465   0.1234210   0.0000000   0.0000000   0.0000000
 0.3800000  -2.4931800  -0.3045490   1.0056500   0.0000000   0.0000000   0.0050399   0.0571527  -0.0292318   0.0419690   0.0000000   0.0000000   0.0000000   0.2489050  -0.0304214   0.1179690   0.0000000   0.0000000   0.0000000
 0.3850000  -2.4928900  -0.3046950   1.0058600   0.0000000   0.0000000   0.0051704   0.0583902  -0.0293744   0.0425447   0.0000000   0.0000000   0.0000000   0.2460290  -0.0266463   0.1122670   0.0000000   0.0000000   0.0000000
 0.3900000  -2.4925900  -0.3048430   1.0060700   0.0000000   0.0000000   0.0053009   0.0596126  -0.0294987   0.0430913   0.0000000   0.0000000   0.0000000   0.2429030  -0.0231212   0.1063150   0.0000000   0.0000000   0.0000000
 0.3950000  -2.4922900  -0.3049900   1.0062900   0.0000000   0.0000000   0.0054313   0.0608188  -0.0296060   0.0436074   0.0000000   0.0000000   0.0000000   0.2395280  -0.0198461   0.1001130   0.0000000   0.0000000   0.0000000
 0.4000000  -2.4919900  -0.3051390   1.0065100   0.0000000   0.0000000   0.0055618   0.0620075  -0.0296976   0.0440920   0.0000000   0.0000000   0.0000000   0.2359020  -0.0168210   0.0936608   0.0000000   0.0000000   0.0000000
 0.4050000  -2.4916700  -0.3052870   1.0067300   0.0000000   0.0000000   0.0056923   0.0631774  -0.0297747   0.0445437   0.0000000   0.0000000   0.0000000   0.2320260  -0.0140459   0.0870122   0.0000000   0.0000000   0.0000000
 0.4100000  -2.4913500  -0.3054360   1.0069500   0.0000000   0.0000000   0.0058227   0.0643273  -0.0298385   0.0449624   0.0000000   0.0000000   0.0000000   0.2279000  -0.0115209   0.0805413   0.0000000   0.0000000   0.0000000
 0.4150000  -2.4910300  -0.3055860   1.0071800   0.0000000   0.0000000   0.0059532   0.0654560  -0.0298903   0.0453495   0.0000000   0.0000000   0.0000000   0.2235250  -0.0092458   0.0743203   0.0000000   0.0000000   0.0000000
 0.4200000  -2.4907000  -0.3057350   1.0074100   0.0000000   0.0000000   0.0060836   0.0665622  -0.0299314   0.0457061   0.0000000   0.0000000   0.0000000   0.2188990  -0.0072207   0.0683494   0.0000000   0.0000000   0.0000000
 0.4250000  -2.4903600  -0.3058850   1.0076400   0.0000000   0.0000000   0.0062141   0.0676446  -0.0299629   0.0460334   0.0000000   0.0000000   0.0000000   0.2140230  -0.0054456   0.0626285   0.0000000   0.0000000   0.0000000
 0.4300000  -2.4900200  -0.3060350   1.0078700   0.0000000   0.0000000   0.0063446   0.0687020  -0.0299862   0.0463328   0.0000000   0.0000000   0.0000000   0.2088970  -0.0039205   0.0571576   0.0000000   0.0000000   0.0000000
 0.4350000  -2.4896800  -0.3061850   1.0081000   0.0000000   0.0000000   0.0064750   0.0697331  -0.0300025   0.0466054   0.0000000   0.0000000   0.0000000   0.2035220  -0.0026454   0.0519367   0.0000000   0.0000000   0.0000000
 0.4400000  -2.4893300  -0.3063350   1.0083300   0.0000000   0.0000000   0.0066055   0.0707368  -0.0300131   0.0468526   0.0000000   0.0000000   0.0000000   0.1978960  -0.0016203   0.0469658   0.0000000   0.0000000   0.0000000
 0.4450000  -2.4889700  -0.3064850   1.0085700   0.0000000   0.0000000   0.0067360   0.0717117  -0.0300192   0.0470755   0.0000000   0.0000000   0.0000000   0.1920200  -0.0008452   0.0422449   0.0000000   0.0000000   0.0000000
 0.4500000  -2.4886100  -0.3066350   1.0088000   0.0000000   0.0000000   0.0068664   0.0726566  -0.0300220   0.0472754   0.0000000   0.0000000   0.0000000   0.1858940  -0.0003201   0.0377739   0.0000000   0.0000000   0.0000000
 0.4550000  -2.4882400  -0.3067850   1.0090400   0.0000000   0.0000000   0.0069969   0.0735702  -0.0300228   0.0474536   0.0000000   0.0000000   0.0000000   0.1795190  -0.0000451   0.0335530   0.0000000   0.0000000   0.0000000
 0.4600000  -2.4878700  -0.3069350   1.0092800   0.0000000   0.0000000   0.0071274   0.0744513  -0.0300228   0.0476114   0.0000000   0.0000000   0.0000000   0.1728930   0.0000200   0.0295821   0.0000000   0.0000000   0.0000000
 0.4650000  -2.4875000  -0.3070850   1.0095200   0.0000000   0.0000000   0.0072578   0.0752987  -0.0300223   0.0477499   0.0000000   0.0000000   0.0000000   0.1660170   0.0002449   0.0258612   0.0000000   0.0000000   0.0000000
 0.4700000  -2.4871200  -0.3072350   1.0097600   0.0000000   0.0000000   0.0073883   0.0761111  -0.0300199   0.0478704   0.0000000   0.0000000   0.0000000   0.1588910   0.0007198   0.0223903   0.0000000   0.0000000   0.0000000
 0.4750000  -2.4867400  -0.3073860   1.0100000   0.0000000   0.0000000   0.0075188   0.0768872  -0.0300146   0.0479742   0.0000000   0.0000000   0.0000000   0.1515160   0.0014447   0.0191694   0.0000000   0.0000000   0.0000000
 0.4800000  -2.4863500  -0.3075360   1.0102400   0.0000000   0.0000000   0.0076492   0.0776258  -0.0300051   0.0480625   0.0000000   0.0000000   0.0000000   0.1438900   0.0024196   0.0161985   0.0000000   0.0000000   0.0000000
 0.4850000  -2.4859600  -0.3076860   1.0104800   0.0000000   0.0000000   0.0077797   0.0783257  -0.0299900   0.0481366   0.0000000   0.0000000   0.0000000   0.1360140   0.0036445   0.0134775   0.0000000   0.0000000   0.0000000
 0.4900000  -2.4855700  -0.3078350   1.0107200   0.0000000   0.0000000   0.0079101   0.0789856  -0.0299682   0.0481977   0.0000000   0.0000000   0.0000000   0.1279520   0.0051194   0.0110066   0.0000000   0.0000000   0.0000000
 0.4950000  -2.4851700  -0.3079850   1.0109600   0.0000000   0.0000000   0.0080406   0.0796056  -0.0299384   0.0482471   0.0000000   0.0000000   0.0000000   0.1200780   0.0068443   0.0087857   0.0000000   0.0000000   0.0000000
 0.5000000  -2.4847700  -0.3081350   1.0112000   0.0000000   0.0000000   0.0081711   0.0801868  -0.0298994   0.0482860   0.0000000   0.0000000   0.0000000   0.1124550   0.0088193   0.0068148   0.0000000   0.0000000   0.0000000
 0.5050000  -2.4843700  -0.3082840   1.0114400   0.0000000   0.0000000   0.0083015   0.0807305  -0.0298498   0.0483156   0.0000000   0.0000000   0.0000000   0.1050810   0.0110442   0.0050939   0.0000000   0.0000000   0.0000000
 0.5100000  -2.4839600  -0.3084330   1.0116800   0.0000000   0.0000000   0.0084320   0.0812380  -0.0297885   0.0483373   0.0000000   0.0000000   0.0000000   0.0979579   0.0135191   0.0036230   0.0000000   0.0000000   0.0000000
 0.5150000  -2.4835600  -0.3085820   1.0119300   0.0000000   0.0000000   0.0085625   0.0817105  -0.0297142   0.0483523   0.0000000   0.0000000   0.0000000   0.0910844   0.0162440   0.0024021   0.0000000   0.0000000   0.0000000
 0.5200000  -2.4831500  -0.3087300   1.0121700   0.0000000   0.0000000   0.0086929   0.0821493  -0.0296256   0.0483618   0.0000000   0.0000000   0.0000000   0.0844609   0.0192189   0.0014311   0.0000000   0.0000000   0.0000000
 0.5250000  -2.4827400  -0.3088780   1.0124100   0.0000000   0.0000000   0.0088234   0.0825555  -0.0295216   0.0483670   0.0000000   0.0000000   0.0000000   0.0780874   0.0224438   0.0007102   0.0000000   0.0000000   0.0000000
 0.5300000  -2.4823200  -0.3090260   1.0126500   0.0000000   0.0000000   0.0089539   0.0829306  -0.0294008   0.0483693   0.0000000   0.0000000   0.0000000   0.0719639   0.0259187   0.0002393   0.0000000   0.0000000   0.0000000
 0.5350000  -2.4819100  -0.3091720   1.0128900   0.0000000   0.0000000   0.0090843   0.0832756  -0.0292620   0.0483698   0.0000000   0.0000000   0.0000000   0.0660904   0.0296436   0.0000184   0.0000000   0.0000000   0.0000000
 0.5400000  -2.4814900  -0.3093180   1.0131300   0.0000000   0.0000000   0.0092148   0.0835919  -0.0291039   0.0483698   0.0000000   0.0000000   0.0000000   0.0604670   0.0336185   0.0000000   0.0000000   0.0000000   0.0000000
 0.5450000  -2.4810700  -0.3094630   1.0133800   0.0000000   0.0000000   0.0093453   0.0838807  -0.0289254   0.0483698   0.0000000   0.0000000   0.0000000   0.0550935   0.0378435   0.0000000   0.0000000   0.0000000   0.0000000
 0.5500000  -2.4806500  -0.3096070   1.0136200   0.0000000   0.0000000   0.0094757   0.0841432  -0.0287251   0.0483698   0.0000000   0.0000000   0.0000000   0.0499700   0.0423184   0.0000000   0.0000000   0.0000000   0.0000000
 0.5550000  -2.4802300  -0.3097510   1.0138600   0.0000000   0.0000000   0.0096062   0.0843808  -0.0285018   0.0483698   0.0000000   0.0000000   0.0000000   0.0450965   0.0470433   0.0000000   0.0000000   0.0000000   0.0000000
 0.5600000  -2.4798100  -0.3098920   1.0141000   0.0000000   0.0000000   0.0097367   0.0845946  -0.0282542   0.0483698   0.0000000   0.0000000   0.0000000   0.0404730   0.0520182   0.0000000   0.0000000   0.0000000   0.0000000
 0.5650000  -2.4793800  -0.3100330   1.0143400   0.0000000   0.0000000   0.0098671   0.0847860  -0.0279812   0.0483698   0.0000000   0.0000000   0.0000000   0.0360995   0.0572431   0.0000000   0.0000000   0.0000000   0.0000000
 0.5700000  -2.4789600  -0.3101720   1.0145900   0.0000000   0.0000000   0.0099976   0.0849560  -0.0276814   0.0483698   0.0000000   0.0000000   0.0000000   0.0319760   0.0627180   0.0000000   0.0000000   0.0000000   0.0000000
 0.5750000  -2.4785300  -0.3103100   1.0148300   0.0000000   0.0000000   0.0101281   0.0851061  -0.0273536   0.0483698   0.0000000   0.0000000   0.0000000   0.0281025   0.0684429   0.0000000   0.0000000   0.0000000   0.0000000
 0.5800000  -2.4781100  -0.3104460   1.0150700   0.0000000   0.0000000   0.0102585   0.0852375  -0.0269965   0.0483698   0.0000000   0.0000000   0.0000000   0.0244790   0.0744178   0.0000000   0.0000000   0.0000000   0.0000000
 0.5850000  -2.4776800  -0.3105800   1.0153100   0.0000000   0.0000000   0.0103890   0.0853513  -0.0266090   0.0483698   0.0000000   0.0000000   0.0000000   0.0211055   0.0806427   0.0000000   0.0000000   0.0000000   0.0000000
 0.5900000  -2.4772500  -0.3107120   1.0155500   0.0000000   0.0000000   0.0105195   0.0854490  -0.0261897   0.0483698   0.0000000   0.0000000   0.0000000   0.0179820   0.0871177   0.0000000   0.0000000   0.0000000   0.0000000
 0.5950000  -2.4768300  -0.3108420   1.0157900   0.0000000   0.0000000   0.0106499   0.0855316  -0.0257374   0.0483698   0.0000000   0.0000000   0.0000000   0.0151085   0.0938426   0.0000000   0.0000000   0.0000000   0.0000000
 0.6000000  -2.4764000  -0.3109690   1.0160400   0.0000000   0.0000000   0.0107804   0.0856005  -0.0252509   0.0483698   0.0000000   0.0000000   0.0000000   0.0124850   0.1008170   0.0000000   0.0000000   0.0000000   0.0000000
 0.6050000  -2.4759700  -0.3110940   1.0162800   0.0000000   0.0000000   0.0109108   0.0856568  -0.0247288   0.0483698   0.0000000   0.0000000   0.0000000   0.0101115   0.1080420   0.0000000   0.0000000   0.0000000   0.0000000
 0.6100000  -2.4755400  -0.3112160   1.0165200   0.0000000   0.0000000   0.0110413   0.0857020  -0.0241700   0.0483698   0.0000000   0.0000000   0.0000000   0.0079880   0.1155170   0.0000000   0.0000000   0.0000000   0.0000000
 0.6150000  -2.4751100  -0.3113360   1.0167600   0.0000000   0.0000000   0.0111718   0.0857371  -0.0235732   0.0483698   0.0000000   0.0000000   0.0000000   0.0061145   0.1232420   0.0000000   0.0000000   0.0000000   0.0000000
 0.6200000  -2.4746800  -0.3114520   1.0170000   0.0000000   0.0000000   0.0113022   0.0857635  -0.0229372   0.0483698   0.0000000   0.0000000   0.0000000   0.0044910   0.1312170   0.0000000   0.0000000   0.0000000   0.0000000
 0.6250000  -2.4742600  -0.3115650   1.0172500   0.0000000   0.0000000   0.0114327   0.0857825  -0.0222606   0.0483698   0.0000000   0.0000000   0.0000000   0.0031175   0.1394420   0.0000000   0.0000000   0.0000000   0.0000000
 0.6300000  -2.4738300  -0.3116740   1.0174900   0.0000000   0.0000000   0.0115632   0.0857951  -0.0215423   0.0483698   0.0000000   0.0000000   0.0000000   0.0019940   0.1479170   0.0000000   0.0000000   0.0000000   0.0000000
 0.6350000  -2.4734000  -0.3117800   1.0177300   0.0000000   0.0000000   0.0116936   0.0858028  -0.0207810   0.0483698   0.0000000   0.0000000   0.0000000   0.0011205   0.1566420   0.0000000   0.0000000   0.0000000   0.0000000
 0.6400000  -2.4729700  -0.3118820   1.0179700   0.0000000   0.0000000   0.0118241   0.0858068  -0.0199755   0.0483698   0.0000000   0.0000000   0.0000000   0.0004970   0.1656170   0.0000000   0.0000000   0.0000000   0.0000000
 0.6450000  -2.4725400  -0.3119800   1.0182100   0.0000000   0.0000000   0.0119546   0.0858082  -0.0191245   0.0483698   0.0000000   0.0000000   0.0000000   0.0001235   0.1748420   0.0000000   0.0000000   0.0000000   0.0000000
 0.6500000  -2.4721100  -0.3120730   1.0184600   0.0000000   0.0000000   0.0120850   0.0858084  -0.0182267   0.0483698   0.0000000   0.0000000   0.0000000   0.0000000   0.1843170   0.0000000   0.0000000   0.0000000   0.0000000
 0.6550000  -2.4716800  -0.3121620   1.0187000   0.0000000   0.0000000   0.0122155   0.0858084  -0.0172809   0.0483698   0.0000000   0.0000000   0.0000000   0.0000000   0.1940420   0.0000000   0.0000000   0.0000000   0.0000000
 0.6600000  -2.4712500  -0.3122460   1.0189400   0.0000000   0.0000000   0.0123460   0.0858084  -0.0162858   0.0483698   0.0000000   0.0000000   0.0000000   0.0000000   0.2040160   0.0000000   0.0000000   0.0000000   0.0000000
 0.6650000  -2.4708200  -0.3123250   1.0191800   0.0000000   0.0000000   0.0124764   0.0858084  -0.0152403   0.0483698   0.0000000   0.0000000   0.0000000   0.0000000   0.2142410   0.0000000   0.0000000   0.0000000   0.0000000
 0.6700000  -2.4703900  -0.3123980   1.0194200   0.0000000   0.0000000   0.0126069   0.0858084  -0.0141430   0.0483698   0.0000000   0.0000000   0.0000000   0.0000000   0.2247160   0.0000000   0.0000000   0.0000000   0.0000000
 0.6750000  -2.4699700  -0.3124660   1.0196600   0.0000000   0.0000000   0.0127374   0.0858084  -0.0129927   0.0483698   0.0000000   0.0000000   0.0000000   0.0000000   0.2354410   0.0000000   0.0000000   0.0000000   0.0000000
 0.6800000  -2.4695400  -0.3125280   1.0199100   0.0000000   0.0000000   0.0128678   0.0858084  -0.0117882   0.0483698   0.0000000   0.0000000   0.0000000   0.0000000   0.2464160   0.0000000   0.0000000   0.0000000   0.0000000
 0.6850000  -2.4691100  -0.3125840   1.0201500   0.0000000   0.0000000   0.0129983   0.0858084  -0.0105281   0.0483698   0.0000000   0.0000000   0.0000000   0.0000000   0.2576410   0.0000000   0.0000000   0.0000000   0.0000000
 0.6900000  -2.4686800  -0.3126330   1.0203900   0.0000000   0.0000000   0.0131288   0.0858084  -0.0092114   0.0483698   0.0000000   0.0000000   0.0000000   0.0000000   0.2691160   0.0000000   0.0000000   0.0000000   0.0000000
 0.6950000  -2.4682500  -0.3126760   1.0206300   0.0000000   0.0000000   0.0132592   0.0858084  -0.0078366   0.0483698   0.0000000   0.0000000   0.0000000   0.0000000   0.2808410   0.0000000   0.0000000   0.0000000   0.0000000
 0.7000000  -2.4678200  -0.3127120   1.0208700   0.0000000   0.0000000   0.0133897   0.0858084  -0.0064025   0.0483698   0.0000000   0.0000000   0.0000000   0.0000000   0.2928160   0.0000000   0.0000000   0.0000000   0.0000000
 0.7050000  -2.4673900  -0.3127400   1.0211200   0.0000000   0.0000000   0.0135201   0.0858084  -0.0049080   0.0483698   0.0000000   0.0000000   0.0000000   0.0000000   0.3050410   0.0000000   0.0000000   0.0000000   0.0000000
 0.7100000  -2.4669600  -0.3127610   1.0213600   0.0000000   0.0000000   0.0136506   0.0858084  -0.0033517   0.0483698   0.0000000   0.0000000   0.0000000   0.0000000   0.3175160   0.0000000   0.0000000   0.0000000   0.0000000
 0.7150000  -2.4665300  -0.3127730   1.0216000   0.0000000   0.0000000   0.0137811   0.0858084  -0.0017324   0.0483698   0.0000000   0.0000000   0.0000000   0.0000000   0.3302400   0.0000000   0.0000000   0.0000000   0.0000000
 0.7200000  -2.4661000  -0.3127780   1.0218400   0.0000000   0.0000000   0.0139115   0.0858084  -0.0000489   0.0483698   0.0000000   0.0000000   0.0000000   0.0000000   0.3432150   0.0000000   0.0000000   0.0000000   0.0000000
 0.7250000  -2.4656800  -0.3127740   1.0220800   0.0000000   0.0000000   0.0140420   0.0858084   0.0017002   0.0483698   0.0000000   0.0000000   0.0000000   0.0000000   0.3564400   0.0000000   0.0000000   0.0000000   0.0000000
 0.7300000  -2.4652500  -0.3127610   1.0223200   0.0000000   0.0000000   0.0141725   0.0858084   0.0035159   0.0483698   0.0000000   0.0000000   0.0000000   0.0000000   0.3699150   0.0000000   0.0000000   0.0000000   0.0000000
 0.7350000  -2.4648200  -0.3127390   1.0225700   0.0000000   0.0000000   0.0143029   0.0858084   0.0053997   0.0483698   0.0000000   0.0000000   0.0000000   0.0000000   0.3836400   0.0000000   0.0000000   0.0000000   0.0000000
 0.7400000  -2.4643900  -0.3127070   1.0228100   0.0000000   0.0000000   0.0144334   0.0858084   0.0073527   0.0483698   0.0000000   0.0000000   0.0000000   0.0000000   0.3976150   0.0000000   0.0000000   0.0000000   0.0000000
 0.7450000  -2.4639600  -0.3126650   1.0230500   0.0000000   0.0000000   0.0145639   0.0858084   0.0093763   0.0483698   0.0000000   0.0000000   0.0000000   0.0000000   0.4118400   0.0000000   0.0000000   0.0000000   0.0000000
 0.7500000  -2.4635300  -0.3126130   1.0232900   0.0000000   0.0000000   0.0146943   0.0858084   0.0114716   0.0483698   0.0000000   0.0000000   0.0000000   0.0000000   0.4263150   0.0000000   0.0000000   0.0000000   0.0000000
 0.7550000  -2.4631000  -0.3125500   1.0235300   0.0000000   0.0000000   0.0148248   0.0858084   0.0136399   0.0483698   0.0000000   0.0000000   0.0000000   0.0000000   0.4410400   0.0000000   0.0000000   0.0000000   0.0000000
 0.7600000  -2.4626700  -0.3124760   1.0237800   0.0000000   0.0000000   0.0149553   0.0858084   0.0158824   0.0483698   0.0000000   0.0000000   0.0000000   0.0000000   0.4560150   0.0000000   0.0000000   0.0000000   0.0000000
 0.7650000  -2.4622400  -0.3123910   1.0240200   0.0000000   0.0000000   0.0150857   0.0858084   0.0182004   0.0483698   0.0000000   0.0000000   0.0000000   0.0000000   0.4712400   0.0000000   0.0000000   0.0000000   0.0000000
 0.7700000  -2.4618100  -0.3122940   1.0242600   0.0000000   0.0000000   0.0152162   0.0858084   0.0205952   0.0483698   0.0000000   0.0000000   0.0000000   0.0000000   0.4867140   0.0000000   0.0000000   0.0000000   0.0000000
 0.7750000  -2.4613800  -0.3121850   1.0245000   0.0000000   0.0000000   0.0153467   0.0858084   0.0230680   0.0483698   0.0000000   0.0000000   0.0000000   0.0000000   0.5024390   0.0000000   0.0000000   0.0000000   0.0000000
 0.7800000  -2.4609600  -0.3120630   1.0247400   0.0000000   0.0000000   0.0154771   0.0858084   0.0256200   0.0483698   0.0000000   0.0000000   0.0000000   0.0000000   0.5184140   0.0000000   0.0000000   0.0000000   0.0000000
 0.7850000  -2.4605300  -0.3119290   1.0249800   0.0000000   0.0000000   0.0156076   0.0858084   0.0282525   0.0483698   0.0000000   0.0000000   0.0000000   0.0000000   0.5346390   0.0000000   0.0000000   0.0000000   0.0000000
 0.7900000  -2.4601000  -0.3117810   1.0252300   0.0000000   0.0000000   0.0157381   0.0858084   0.0309668   0.0483698   0.0000000   0.0000000   0.0000000   0.0000000   0.5511140   0.0000000   0.0000000   0.0000000   0.0000000
 0.7950000  -2.4596700  -0.3116190   1.0254700   0.0000000   0.0000000   0.0158685   0.0858084   0.0337641   0.0483698   0.0000000   0.0000000   0.0000000   0.0000000   0.5678390   0.0000000   0.0000000   0.0000000   0.0000000
 0.8000000  -2.4592400  -0.3114430   1.0257100   0.0000000   0.0000000   0.0159990   0.0858084   0.0366456   0.0483698   0.0000000   0.0000000   0.0000000   0.0000000   0.5848140   0.0000000   0.0000000   0.0000000   0.0000000
 0.8050000  -2.4588100  -0.3112520   1.0259500   0.0000000   0.0000000   0.0161294   0.0858084   0.0396126   0.0483698   0.0000000   0.0000000   0.0000000   0.0000000   0.6020390   0.0000000   0.0000000   0.0000000   0.0000000
 0.8100000  -2.4583800  -0.3110470   1.0261900   0.0000000   0.0000000   0.0162599   0.0858084   0.0426664   0.0483698   0.0000000   0.0000000   0.0000000   0.0000000   0.6195140   0.0000000   0.0000000   0.0000000   0.0000000
 0.8150000  -2.4579500  -0.3108250   1.0264400   0.0000000   0.0000000   0.0163904   0.0858084   0.0458082   0.0483698   0.0000000   0.0000000   0.0000000   0.0000000   0.6372390   0.0000000   0.0000000   0.0000000   0.0000000
 0.8200000  -2.4575200  -0.3105880   1.0266800   0.0000000   0.0000000   0.0165208   0.0858084   0.0490392   0.0483698   0.0000000   0.0000000   0.0000000   0.0000000   0.6552140   0.0000000   0.0000000   0.0000000   0.0000000
 0.8250000  -2.4570900  -0.3103350   1.0269200   0.0000000   0.0000000   0.0166513   0.0858084   0.0523608   0.0483698   0.0000000   0.0000000   0.0000000   0.0000000   0.6734380   0.0000000   0.0000000   0.0000000   0.0000000
 0.8300000  -2.4566700  -0.3100650   1.0271600   0.0000000   0.0000000   0.0167818   0.0858084   0.0557740   0.0483698   0.0000000   0.0000000   0.0000000   0.0000000   0.6919130   0.0000000   0.0000000   0.0000000   0.0000000
 0.8350000  -2.4562400  -0.3097770   1.0274000   0.0000000   0.0000000   0.0169122   0.0858084   0.0592803   0.0483698   0.0000000   0.0000000   0.0000000   0.0000000   0.7106380   0.0000000   0.0000000   0.0000000   0.0000000
 0.8400000  -2.4558100  -0.3094720   1.0276500   0.0000000   0.0000000   0.0170427   0.0858084   0.0628808   0.0483698   0.0000000   0.0000000   0.0000000   0.0000000   0.7296130   0.0000000   0.0000000   0.0000000   0.0000000
 0.8450000  -2.4553800  -0.3091480   1.0278900   0.0000000   0.0000000   0.0171732   0.0858084   0.0665769   0.0483698   0.0000000   0.0000000   0.0000000   0.0000000   0.7488380   0.0000000   0.0000000   0.0000000   0.0000000
 0.8500000  -2.4549500  -0.3088060   1.0281300   0.0000000   0.0000000   0.0173036   0.0858084   0.0703693   0.0483698   0.0000000   0.0000000   0.0000000   0.0000000   0.7680920   0.0000000   0.0000000   0.0000000   0.0000000
 0.8550000  -2.4545200  -0.3084440   1.0283700   0.0000000   0.0000000   0.0174341   0.0858084   0.0742574   0.0483698   0.0000000   0.0000000   0.0000000   0.0000000   0.7870970   0.0000000   0.0000000   0.0000000   0.0000000
 0.8600000  -2.4540900  -0.3080630   1.0286100   0.0000000   0.0000000   0.0175646   0.0858084   0.0782398   0.0483698   0.0000000   0.0000000   0.0000000   0.0000000   0.8058520   0.0000000   0.0000000   0.0000000   0.0000000
 0.8650000  -2.4536600  -0.3076620   1.0288500   0.0000000   0.0000000   0.0176950   0.0858084   0.0823155   0.0483698   0.0000000   0.0000000   0.0000000   0.0000000   0.8243570   0.0000000   0.0000000   0.0000000   0.0000000
 0.8700000  -2.4532300  -0.3072400   1.0291000   0.0000000   0.0000000   0.0178255   0.0858084   0.0864830   0.0483698   0.0000000   0.0000000   0.0000000   0.0000000   0.8426120   0.0000000   0.0000000   0.0000000   0.0000000
 0.8750000  -2.4528000  -0.3067970   1.0293400   0.0000000   0.0000000   0.0179560   0.0858084   0.0907412   0.0483698   0.0000000   0.0000000   0.0000000   0.0000000   0.8606170   0.0000000   0.0000000   0.0000000   0.0000000
 0.8800000  -2.4523800  -0.3063320   1.0295800   0.0000000   0.0000000   0.0180864   0.0858084   0.0950887   0.0483698   0.0000000   0.0000000   0.0000000   0.0000000   0.8783720   0.0000000   0.0000000   0.0000000   0.0000000
 0.8850000  -2.4519500  -0.3058460   1.0298200   0.0000000   0.0000000   0.0182169   0.0858084   0.0995245   0.0483698   0.0000000   0.0000000   0.0000000   0.0000000   0.8958770   0.0000000   0.0000000   0.0000000   0.0000000
 0.8900000  -2.4515200  -0.3053370   1.0300600   0.0000000   0.0000000   0.0183474   0.0858084   0.1040470   0.0483698   0.0000000   0.0000000   0.0000000   0.0000000   0.9131320   0.0000000   0.0000000   0.0000000   0.0000000
 0.8950000  -2.4510900  -0.3048050   1.0303100   0.0000000   0.0000000   0.0184778   0.0858084   0.1086550   0.0483698   0.0000000   0.0000000   0.0000000   0.0000000   0.9301360   0.0000000   0.0000000   0.0000000   0.0000000
 0.9000000  -2.4506600  -0.3042500   1.0305500   0.0000000   0.0000000   0.0186083   0.0858084   0.1133480   0.0483698   0.0000000   0.0000000   0.0000000   0.0000000   0.9468910   0.0000000   0.0000000   0.0000000   0.0000000
 0.9050000  -2.4502300  -0.3036710   1.0307900   0.0000000   0.0000000   0.0187387   0.0858084   0.1181240   0.0483698   0.0000000   0.0000000   0.0000000   0.0000000   0.9633960   0.0000000   0.0000000   0.0000000   0.0000000
 0.9100000  -2.4498000  -0.3030690   1.0310300   0.0000000   0.0000000   0.0188692   0.0858084   0.1229820   0.0483698   0.0000000   0.0000000   0.0000000   0.0000000   0.9796510   0.0000000   0.0000000   0.0000000   0.0000000
 0.9150000  -2.4493700  -0.3024410   1.0312700   0.0000000   0.0000000   0.0189997   0.0858084   0.1279200   0.0483698   0.0000000   0.0000000   0.0000000   0.0000000   0.9956560   0.0000000   0.0000000   0.0000000   0.0000000
 0.9200000  -2.4489400  -0.3017890   1.0315100   0.0000000   0.0000000   0.0191301   0.0858084   0.1329380   0.0483698   0.0000000   0.0000000   0.0000000   0.0000000   1.0114100   0.0000000   0.0000000   0.0000000   0.0000000
 0.9250000  -2.4485100  -0.3011120   1.0317600   0.0000000   0.0000000   0.0192606   0.0858084   0.1380340   0.0483698   0.0000000   0.0000000   0.0000000   0.0000000   1.0269200   0.0000000   0.0000000   0.0000000   0.0000000
 0.9300000  -2.4480800  -0.3004090   1.0320000   0.0000000   0.0000000   0.0193911   0.0858084   0.1432060   0.0483698   0.0000000   0.0000000   0.0000000   0.0000000   1.0421700   0.0000000   0.0000000   0.0000000   0.0000000
 0.9350000  -2.4476600  -0.2996800   1.0322400   0.0000000   0.0000000   0.0195215   0.0858084   0.1484550   0.0483698   0.0000000   0.0000000   0.0000000   0.0000000   1.0571800   0.0000000   0.0000000   0.0000000   0.0000000
 0.9400000  -2.4472300  -0.2989240   1.0324800   0.0000000   0.0000000   0.0196520   0.0858084   0.1537780   0.0483698   0.0000000   0.0000000   0.0000000   0.0000000   1.0719300   0.0000000   0.0000000   0.0000000   0.0000000
 0.9450000  -2.4468000  -0.2981420   1.0327200   0.0000000   0.0000000   0.0197825   0.0858084   0.1591740   0.0483698   0.0000000   0.0000000   0.0000000   0.0000000   1.0864400   0.0000000   0.0000000   0.0000000   0.0000000
 0.9500000  -2.4463700  -0.2973320   1.0329700   0.0000000   0.0000000   0.0199129   0.0858084   0.1646420   0.0483698   0.0000000   0.0000000   0.0000000   0.0000000   1.1006900   0.0000000   0.0000000   0.0000000   0.0000000
 0.9550000  -2.4459400  -0.2964950   1.0332100   0.0000000   0.0000000   0.0200434   0.0858084   0.1701800   0.0483698   0.0000000   0.0000000   0.0000000   0.0000000   1.1147000   0.0000000   0.0000000   0.0000000   0.0000000
 0.9600000  -2.4455100  -0.2956300   1.0334500   0.0000000   0.0000000   0.0201739   0.0858084   0.1757880   0.0483698   0.0000000   0.0000000   0.0000000   0.0000000   1.1284500   0.0000000   0.0000000   0.0000000   0.0000000
 0.9650000  -2.4450800  -0.2947370   1.0336900   0.0000000   0.0000000   0.0203043   0.0858084   0.1814640   0.0483698   0.0000000   0.0000000   0.0000000   0.0000000   1.1419600   0.0000000   0.0000000   0.0000000   0.0000000
 0.9700000  -2.4446500  -0.2938160   1.0339300   0.0000000   0.0000000   0.0204348   0.0858084   0.1872070   0.0483698   0.0000000   0.0000000   0.0000000   0.0000000   1.1552100   0.0000000   0.0000000   0.0000000   0.0000000
 0.9750000  -2.4442200  -0.2928650   1.0341800   0.0000000   0.0000000   0.0205653   0.0858084   0.1930160   0.0483698   0.0000000   0.0000000   0.0000000   0.0000000   1.1682200   0.0000000   0.0000000   0.0000000   0.0000000
 0.9800000  -2.4437900  -0.2918850   1.0344200   0.0000000   0.0000000   0.0206957   0.0858084   0.1988890   0.0483698   0.0000000   0.0000000   0.0000000   0.0000000   1.1809700   0.0000000   0.0000000   0.0000000   0.0000000
 0.9850000  -2.4433700  -0.2908760   1.0346600   0.0000000   0.0000000   0.0208262   0.0858084   0.2048250   0.0483698   0.0000000   0.0000000   0.0000000   0.0000000   1.1934800   0.0000000   0.0000000   0.0000000   0.0000000
 0.9900000  -2.4429400  -0.2898370   1.0349000   0.0000000   0.0000000   0.0209567   0.0858084   0.2108230   0.0483698   0.0000000   0.0000000   0.0000000   0.0000000   1.2057300   0.0000000   0.0000000   0.0000000   0.0000000
 0.9950000  -2.4425100  -0.2887680   1.0351400   0.0000000   0.0000000   0.0210871   0.0858084   0.2168820   0.0483698   0.0000000   0.0000000   0.0000000   0.0000000   1.2177300   0.0000000   0.0000000   0.0000000   0.0000000
 1.0000000  -2.4420800  -0.2876680   1.0353800   0.0000000   0.0000000   0.0212176   0.0858084   0.2230000   0.0483698   0.0000000   0.0000000   0.0000000   0.0000000   1.2294900   0.0000000   0.0000000   0.0000000   0.0000000
 1.0050000  -2.4416500  -0.2865380   1.0356300   0.0000000   0.0000000   0.0213481   0.0858084   0.2291770   0.0483698   0.0000000   0.0000000   0.0000000   0.0000000   1.2409900   0.0000000   0.0000000   0.0000000   0.0000000
 1.0100000  -2.4412200  -0.2853760   1.0358700   0.0000000   0.0000000   0.0214785   0.0858084   0.2354100   0.0483698   0.0000000   0.0000000   0.0000000   0.0000000   1.2522500   0.0000000   0.0000000   0.0000000   0.0000000
 1.0150000  -2.4407900  -0.2841840   1.0361100   0.0000000   0.0000000   0.0216090   0.0858084   0.2416990   0.0483698   0.0000000   0.0000000   0.0000000   0.0000000   1.2632500   0.0000000   0.0000000   0.0000000   0.0000000
 1.0200000  -2.4403600  -0.2829590   1.0363500   0.0000000   0.0000000   0.0217394   0.0858084   0.2480420   0.0483698   0.0000000   0.0000000   0.0000000   0.0000000   1.2740100   0.0000000   0.0000000   0.0000000   0.0000000
 1.0250000  -2.4399300  -0.2817030   1.0365900   0.0000000   0.0000000   0.0218699   0.0858084   0.2544390   0.0483698   0.0000000   0.0000000   0.0000000   0.0000000   1.2845100   0.0000000   0.0000000   0.0000000   0.0000000
 1.0300000  -2.4395000  -0.2804150   1.0368400   0.0000000   0.0000000   0.0220004   0.0858084   0.2608870   0.0483698   0.0000000   0.0000000   0.0000000   0.0000000   1.2947700   0.0000000   0.0000000   0.0000000   0.0000000
 1.0350000  -2.4390700  -0.2790940   1.0370800   0.0000000   0.0000000   0.0221308   0.0858084   0.2673860   0.0483698   0.0000000   0.0000000   0.0000000   0.0000000   1.3047700   0.0000000   0.0000000   0.0000000   0.0000000
 1.0400000  -2.4386500  -0.2777410   1.0373200   0.0000000   0.0000000   0.0222613   0.0858084   0.2739340   0.0483698   0.0000000   0.0000000   0.0000000   0.0000000   1.3145300   0.0000000   0.0000000   0.0000000   0.0000000
 1.0450000  -2.4382200  -0.2763550   1.0375600   0.0000000   0.0000000   0.0223918   0.0858084   0.2805310   0.0483698   0.0000000   0.0000000   0.0000000   0.0000000   1.3240300   0.0000005   0.0000000   0.0000000   0.0000000
 1.0500000  -2.4377900  -0.2749350   1.0378000   0.0000000   0.0000000   0.0225222   0.0858084   0.2871740   0.0483701   0.0000000   0.0000000   0.0000000   0.0000000   1.3332900   0.0001405   0.0000000   0.0000000   0.0000000
 1.0550000  -2.4373600  -0.2734830   1.0380400   0.0000000   0.0000000   0.0226527   0.0858084   0.2938630   0.0483717   0.0000000   0.0000000   0.0000000   0.0000000   1.3422900   0.0005305   0.0000000   0.0000000   0.0000000
 1.0600000  -2.4369300  -0.2719970   1.0382900   0.0000000   0.0000000   0.0227832   0.0858084   0.3005970   0.0483758   0.0000000   0.0000000   0.0000000   0.0000000   1.3510500   0.0011705   0.0000000   0.0000000   0.0000000
 1.0650000  -2.4365000  -0.2704770   1.0385300   0.0000000   0.0000000   0.0229136   0.0858084   0.3073730   0.0483838   0.0000000   0.0000000   0.0000000   0.0000000   1.3595500   0.0020605   0.0000000   0.0000000   0.0000000
 1.0700000  -2.4360700  -0.2689230   1.0387700   0.0000000   0.0000000   0.0230441   0.0858084   0.3141920   0.0483968   0.0000000   0.0000000   0.0000000   0.0000000   1.3678100   0.0032005   0.0000000   0.0000000   0.0000000
 1.0750000  -2.4356400  -0.2673350   1.0390100   0.0000000   0.0000000   0.0231746   0.0858084   0.3210510   0.0484162   0.0000000   0.0000000   0.0000000   0.0000000   1.3758100   0.0045906   0.0000000   0.0000000   0.0000000
 1.0800000  -2.4352100  -0.2657120   1.0392500   0.0000000   0.0000000   0.0233050   0.0858084   0.3279490   0.0484432   0.0000000   0.0000000   0.0000000   0.0000000   1.3835700   0.0062306   0.0000000   0.0000000   0.0000000
 1.0850000  -2.4347800  -0.2640550   1.0395000   0.0000000   0.0000000   0.0234355   0.0858084   0.3348860   0.0484789   0.0000000   0.0000000   0.0000000   0.0000000   1.3910700   0.0081206   0.0000000   0.0000000   0.0000000
 1.0900000  -2.4343600  -0.2623630   1.0397400   0.0000000   0.0000000   0.0235660   0.0858084   0.3418600   0.0485248   0.0000000   0.0000000   0.0000000   0.0000000   1.3983300   0.0102606   0.0000000   0.0000000   0.0000000
 1.0950000  -2.4339300  -0.2606370   1.0399800   0.0000000   0.0000000   0.0236964   0.0858084   0.3488690   0.0485819   0.0000000   0.0000000   0.0000000   0.0000000   1.4053300   0.0126507   0.0000000   0.0000000   0.0000000
 1.1000000  -2.4335000  -0.2588750   1.0402300   0.0000000   0.0000000   0.0238269   0.0858084   0.3559130   0.0486517   0.0000000   0.0000000   0.0000000   0.0000000   1.4120900   0.0152907   0.0000000   0.0000000   0.0000000
 1.1050000  -2.4330700  -0.2570770   1.0404700   0.0000000   0.0000000   0.0239574   0.0858084   0.3629890   0.0487353   0.0000000   0.0000000   0.0000000   0.0000000   1.4185900   0.0181807   0.0000000   0.0000000   0.0000000
 1.1100000  -2.4326400  -0.2552450   1.0407100   0.0000000   0.0000000   0.0240878   0.0858084   0.3700980   0.0488339   0.0000000   0.0000000   0.0000000   0.0000000   1.4248500   0.0213207   0.0000000   0.0000000   0.0000000
 1.1150000  -2.4322100  -0.2533760   1.0409600   0.0000000   0.0000000   0.0242183   0.0858084   0.3772380   0.0489489   0.0000000   0.0000000   0.0000000   0.0000000   1.4308500   0.0247107   0.0000000   0.0000000   0.0000000
 1.1200000  -2.4317800  -0.2514720   1.0412000   0.0000000   0.0000000   0.0243487   0.0858084   0.3844060   0.0490814   0.0000000   0.0000000   0.0000000   0.0000000   1.4366100   0.0283508   0.0000000   0.0000000   0.0000000
 1.1250000  -2.4313500  -0.2495320   1.0414500   0.0000000   0.0000000   0.0244792   0.0858084   0.3916030   0.0492328   0.0000000   0.0000000   0.0000000   0.0000000   1.4421100   0.0322408   0.0000000   0.0000000   0.0000000
 1.1300000  -2.4309200  -0.2475560   1.0416900   0.0000000   0.0000000   0.0246097   0.0858084   0.3988270   0.0494043   0.0000000   0.0000000   0.0000000   0.0000000   1.4473700   0.0363808   0.0000000   0.0000000   0.0000000
 1.1350000  -2.4304900  -0.2455440   1.0419400   0.0000000   0.0000000   0.0247401   0.0858084   0.4060760   0.0495970   0.0000000   0.0000000   0.0000000   0.0000000   1.4523700   0.0407708   0.0000000   0.0000000   0.0000000
 1.1400000  -2.4300600  -0.2434950   1.0421900   0.0000000   0.0000000   0.0248706   0.0858084   0.4133500   0.0498124   0.0000000   0.0000000   0.0000000   0.0000000   1.4571300   0.0454108   0.0000000   0.0000000   0.0000000
 1.1450000  -2.4296400  -0.2414100   1.0424400   0.0000000   0.0000000   0.0250011   0.0858084   0.4206470   0.0500516   0.0000000   0.0000000   0.0000000   0.0000000   1.4616300   0.0503009   0.0000000   0.0000000   0.0000000
 1.1500000  -2.4292100  -0.2392890   1.0426900   0.0000000   0.0000000   0.0251315   0.0858084   0.4279660   0.0503158   0.0000000   0.0000000   0.0000000   0.0000000   1.4658900   0.0554409   0.0000000   0.0000000   0.0000000
 1.1550000  -2.4287800  -0.2371310   1.0429400   0.0000000   0.0000000   0.0252620   0.0858084   0.4353060   0.0506064   0.0000000   0.0000000   0.0000000   0.0000000   1.4698900   0.0608309   0.0000000   0.0000000   0.0000000
 1.1600000  -2.4283500  -0.2349360   1.0432000   0.0000000   0.0000000   0.0253925   0.0858084   0.4426650   0.0509245   0.0000000   0.0000000   0.0000000   0.0000000   1.4736500   0.0664709   0.0000000   0.0000000   0.0000000
 1.1650000  -2.4279200  -0.2327040   1.0434500   0.0000000   0.0000000   0.0255229   0.0858084   0.4500420   0.0512715   0.0000000   0.0000000   0.0000000   0.0000000   1.4771500   0.0723609   0.0000000   0.0000000   0.0000000
 1.1700000  -2.4274900  -0.2304350   1.0437100   0.0000000   0.0000000   0.0256534   0.0858084   0.4574360   0.0516486   0.0000000   0.0000000   0.0000000   0.0000000   1.4804100   0.0785010   0.0000000   0.0000000   0.0000000
 1.1750000  -2.4270600  -0.2281300   1.0439700   0.0000000   0.0000000   0.0257839   0.0858084   0.4648450   0.0520569   0.0000000   0.0000000   0.0000000   0.0000000   1.4834100   0.0848910   0.0000000   0.0000000   0.0000000
 1.1800000  -2.4266300  -0.2257870   1.0442300   0.0000000   0.0000000   0.0259143   0.0858084   0.4722700   0.0524979   0.0000000   0.0000000   0.0000000   0.0000000   1.4861700   0.0915310   0.0000000   0.0000000   0.0000000
 1.1850000  -2.4262000  -0.2234070   1.0444900   0.0000000   0.0000000   0.0260448   0.0858084   0.4797070   0.0529727   0.0000000   0.0000000   0.0000000   0.0000000   1.4886700   0.0984210   0.0000000   0.0000000   0.0000000
 1.1900000  -2.4257700  -0.2209900   1.0447600   0.0000000   0.0000000   0.0261753   0.0858084   0.4871560   0.0534825   0.0000000   0.0000000   0.0000000   0.0000000   1.4909300   0.1055610   0.0000000   0.0000000   0.0000000
 1.1950000  -2.4253500  -0.2185350   1.0450300   0.0000000   0.0000000   0.0263057   0.0858084   0.4946160   0.0540287   0.0000000   0.0000000   0.0000000   0.0000000   1.4929300   0.1129510   0.0000000   0.0000000   0.0000000
 1.2000000  -2.4249200  -0.2160440   1.0453000   0.0000000   0.0000000   0.0264362   0.0858084   0.5020850   0.0546125   0.0000000   0.0000000   0.0000000   0.0000000   1.4946900   0.1205910   0.0000000   0.0000000   0.0000000
 1.2050000  -2.4244900  -0.2135140   1.0455800   0.0000000   0.0000000   0.0265667   0.0858084   0.5095620   0.0552350   0.0000000   0.0000000   0.0000000   0.0000000   1.4961900   0.1284810   0.0000000   0.0000000   0.0000000
 1.2100000  -2.4240600  -0.2109480   1.0458500   0.0000000   0.0000000   0.0266971   0.0858084   0.5170460   0.0558977   0.0000000   0.0000000   0.0000000   0.0000000   1.4974500   0.1366210   0.0000000   0.0000000   0.0000000
 1.2150000  -2.4236300  -0.2083440   1.0461300   0.0000000   0.0000000   0.0268276   0.0858084   0.5245360   0.0566017   0.0000000   0.0000000   0.0000000   0.0000000   1.4984500   0.1450110   0.0000000   0.0000000   0.0000000
 1.2200000  -2.4232000  -0.2057030   1.0464200   0.0000000   0.0000000   0.0269580   0.0858084   0.5320300   0.0573482   0.0000000   0.0000000   0.0000000   0.0000000   1.4992100   0.1536510   0.0000000   0.0000000   0.0000000
 1.2250000  -2.4227700  -0.2030240   1.0467100   0.0000000   0.0000000   0.0270885   0.0858084   0.5395280   0.0581386   0.0000000   0.0000000   0.0000000   0.0000000   1.4997100   0.1625410   0.0000000   0.0000000   0.0000000
 1.2300000  -2.4223400  -0.2003070   1.0470000   0.0000000   0.0000000   0.0272190   0.0858084   0.5470270   0.0589740   0.0000000   0.0000000   0.0000000   0.0000000   1.4999700   0.1716810   0.0000000   0.0000000   0.0000000
 1.2350000  -2.4219100  -0.1975530   1.0473000   0.0000000   0.0000000   0.0273494   0.0858084   0.5545270   0.0598558   0.0000000   0.0000000   0.0000000   0.0000000   1.5000000   0.1810710   0.0000000   0.0000000   0.0000000
 1.2400000  -2.4214800  -0.1947620   1.0476000   0.0000000   0.0000000   0.0274799   0.0858084   0.5620270   0.0607852   0.0000000   0.0000000   0.0000000   0.0000000   1.4998900   0.1907110   0.0000000   0.0000000   0.0000000
 1.2450000  -2.4210500  -0.1919330   1.0479100   0.0000000   0.0000000   0.0276104   0.0858084   0.5695260   0.0617633   0.0000000   0.0000000   0.0000000   0.0000000   1.4995300   0.2006010   0.0000000   0.0000000   0.0000000
 1.2500000  -2.4206300  -0.1890670   1.0482200   0.0000000   0.0000000   0.0277408   0.0858084   0.5770220   0.0627916   0.0000000   0.0000000   0.0000000   0.0000000   1.4989200   0.2107410   0.0000000   0.0000000   0.0000000
 1.2550000  -2.4202000  -0.1861630   1.0485300   0.0000000   0.0000000   0.0278713   0.0858084   0.5845140   0.0638712   0.0000000   0.0000000   0.0000000   0.0000000   1.4980600   0.2211310   0.0000000   0.0000000   0.0000000
 1.2600000  -2.4197700  -0.1832220   1.0488600   0.0000000   0.0000000   0.0280018   0.0858084   0.5920020   0.0650033   0.0000000   0.0000000   0.0000000   0.0000000   1.4969600   0.2317710   0.0000000   0.0000000   0.0000000
 1.2650000  -2.4193400  -0.1802430   1.0491800   0.0000000   0.0000000   0.0281322   0.0858084   0.5994830   0.0661893   0.0000000   0.0000000   0.0000000   0.0000000   1.4956000   0.2426610   0.0000000   0.0000000   0.0000000
 1.2700000  -2.4189100  -0.1772270   1.0495200   0.0000000   0.0000000   0.0282627   0.0858084   0.6069580   0.0674304   0.0000000   0.0000000   0.0000000   0.0000000   1.4939900   0.2538010   0.0000000   0.0000000   0.0000000
 1.2750000  -2.4184800  -0.1741730   1.0498600   0.0000000   0.0000000   0.0283932   0.0858084   0.6144230   0.0687277   0.0000000   0.0000000   0.0000000   0.0000000   1.4921300   0.2651910   0.0000000   0.0000000   0.0000000
 1.2800000  -2.4180500  -0.1710830   1.0502100   0.0000000   0.0000000   0.0285236   0.0858084   0.6218780   0.0700827   0.0000000   0.0000000   0.0000000   0.0000000   1.4900200   0.2768310   0.0000000   0.0000000   0.0000000
 1.2850000  -2.4176200  -0.1679550   1.0505600   0.0000000   0.0000000   0.0286541   0.0858084   0.6293230   0.0714965   0.0000000   0.0000000   0.0000000   0.0000000   1.4876600   0.2887210   0.0000000   0.0000000   0.0000000
 1.2900000  -2.4171900  -0.1647890   1.0509200   0.0000000   0.0000000   0.0287846   0.0858084   0.6367550   0.0729703   0.0000000   0.0000000   0.0000000   0.0000000   1.4850500   0.3008610   0.0000000   0.0000000   0.0000000
 1.2950000  -2.4167600  -0.1615870   1.0512900   0.0000000   0.0000000   0.0289150   0.0858084   0.6441730   0.0745054   0.0000000   0.0000000   0.0000000   0.0000000   1.4821900   0.3131760   0.0000000   0.0000000   0.0000000
 1.3000000  -2.4163400  -0.1583480   1.0516700   0.0000000   0.0000000   0.0290455   0.0858084   0.6515760   0.0761017   0.0000000   0.0000000   0.0000000   0.0000000   1.4790900   0.3252920   0.0000000   0.0000000   0.0000000
 1.3050000  -2.4159100  -0.1550710   1.0520500   0.0000000   0.0000000   0.0291760   0.0858084   0.6589630   0.0777579   0.0000000   0.0000000   0.0000000   0.0000000   1.4757300   0.3371580   0.0000000   0.0000000   0.0000000
 1.3100000  -2.4154800  -0.1517580   1.0524400   0.0000000   0.0000000   0.0293064   0.0858084   0.6663330   0.0794729   0.0000000   0.0000000   0.0000000   0.0000000   1.4721200   0.3487730   0.0000000   0.0000000   0.0000000
 1.3150000  -2.4150500  -0.1484080   1.0528400   0.0000000   0.0000000   0.0294369   0.0858084   0.6736840   0.0812452   0.0000000   0.0000000   0.0000000   0.0000000   1.4682600   0.3601390   0.0000000   0.0000000   0.0000000
