ts fx fy fz tx ty tz exfx exfy exfz extx exty extz xd yd zd rolld pitchd yawd vxd vyd vzd wxd wyd wzd axd ayd azd e_x e_y e_z e_vx e_vy e_vz e_rx e_ry e_rz e_wx e_wy e_wz
1699971368.417460000  0  0  12.1016  0.252364  -0.244266  0.00294565  nan  nan  nan  nan  nan  nan  -1  0  1  0.0530917  -0.0636428  -0.00337979  0  0  0  0  0  0  0  0  0  0.0429442  0.0222579  -0.0358923  -0.00950489  0.0218431  -0.00493913  -0.0594259  0.0564911  -0.00646815  0.0419913  -0.0311856  0.0278609 
1699971368.421458000  0  0  12.0921  0.251479  -0.221499  0.00435599  nan  nan  nan  nan  nan  nan  -1  0  1  0.0524984  -0.0640349  -0.00336251  0  0  0  0  0  0  0  0  0  0.0429603  0.0222222  -0.035846  -0.00908775  0.0210636  -0.00419177  -0.0587096  0.0562106  -0.00653543  0.0371716  -0.0741384  0.0109044 
1699971368.426468000  0  0  12.0939  0.261502  -0.236715  0.00602991  nan  nan  nan  nan  nan  nan  -1  0  1  0.0535685  -0.0638977  -0.00342384  0  0  0  0  0  0  0  0  0  0.0429156  0.0223365  -0.0358623  -0.00915136  0.0222595  -0.00430753  -0.0597169  0.0560257  -0.00668233  0.0263924  -0.0420055  -0.00855065 
1699971368.431448000  0  0  12.1403  0.277686  -0.278672  0.00707224  nan  nan  nan  nan  nan  nan  -1  0  1  0.0532132  -0.0639578  -0.00340428  0  0  0  0  0  0  0  0  0  0.0429149  0.0223168  -0.0358645  -0.0087359  0.0221032  -0.00822436  -0.0596461  0.0567273  -0.00686474  -0.00662717  0.0354536  -0.0197557 
1699971368.436463000  0  0  12.1313  0.287685  -0.28122  0.00780398  nan  nan  nan  nan  nan  nan  -1  0  1  0.0528373  -0.0642294  -0.00339452  0  0  0  0  0  0  0  0  0  0.0429321  0.0222783  -0.0358388  -0.00847105  0.0216288  -0.00755112  -0.0595456  0.0571869  -0.00705308  -0.0275501  0.0363216  -0.027019 
1699971368.441457000  0  0  12.113  0.301404  -0.285352  0.00729686  nan  nan  nan  nan  nan  nan  -1  0  1  0.0533299  -0.064412  -0.00343596  0  0  0  0  0  0  0  0  0  0.0428923  0.0223852  -0.035857  -0.00825828  0.0219495  -0.00602819  -0.0604143  0.0575765  -0.00709047  -0.0469964  0.0410012  -0.0203061 
1699971368.446408000  0  0  12.106  0.297246  -0.30758  0.00622616  nan  nan  nan  nan  nan  nan  -1  0  1  0.0531164  -0.0643611  -0.00341947  0  0  0  0  0  0  0  0  0  0.0429103  0.0223322  -0.0358212  -0.00841604  0.0217417  -0.00556181  -0.0603532  0.0581791  -0.00705161  -0.0392417  0.0799128  -0.00731096 
1699971368.452415000  0  0  12.0658  0.269048  -0.269048  0.00461125  nan  nan  nan  nan  nan  nan  -1  0  1  0.0523263  -0.0648001  -0.00339146  0  0  0  0  0  0  0  0  0  0.0429283  0.0222928  -0.0357693  -0.00816421  0.0205261  -0.00226312  -0.0592253  0.0581893  -0.00685792  0.00677673  0.00275366  0.0109385 
1699971368.456462000  0  0  12.0494  0.260974  -0.250075  0.00425216  nan  nan  nan  nan  nan  nan  -1  0  1  0.0526692  -0.064641  -0.00340536  0  0  0  0  0  0  0  0  0  0.042894  0.0223756  -0.0357722  -0.00842078  0.0207048  -0.000856602  -0.05933  0.0576359  -0.00676033  0.0238878  -0.0301008  0.0144513 
1699971368.461466000  0  0  12.0661  0.242286  -0.258955  0.00405442  nan  nan  nan  nan  nan  nan  -1  0  1  0.0526978  -0.0642331  -0.00338574  0  0  0  0  0  0  0  0  0  0.0428751  0.022395  -0.0357681  -0.00881054  0.0207982  -0.00223766  -0.0588426  0.0572909  -0.00669004  0.056779  -0.00916628  0.0162202 
1699971368.467432000  0  0  12.0895  0.231491  -0.24771  0.00447879  nan  nan  nan  nan  nan  nan  -1  0  1  0.0530286  -0.0636656  -0.00337697  0  0  0  0  0  0  0  0  0  0.0428206  0.0225186  -0.0358001  -0.00929018  0.0211043  -0.00407476  -0.0585567  0.0565082  -0.00667556  0.0757408  -0.0244558  0.0107707 
1699971368.468925000  0  0  12.09  0.228016  -0.24185  0.0045965  nan  nan  nan  nan  nan  nan  -1  0  1  0.0520876  -0.0640198  -0.00333536  0  0  0  0  0  0  0  0  0  0.042855  0.0224071  -0.0357561  -0.00889474  0.0200868  -0.00418221  -0.0575143  0.0566533  -0.00669047  0.0730993  -0.0375115  0.00944842 
1699971368.476473000  0  0  12.1697  0.255132  -0.292008  0.00592148  nan  nan  nan  nan  nan  nan  -1  0  1  0.0530836  -0.0631134  -0.0033512  0  0  0  0  0  0  0  0  0  0.0427864  0.0225682  -0.0358368  -0.00939248  0.0215456  -0.0107167  -0.0585286  0.0565701  -0.00682983  0.0282  0.0635702  -0.00572015 
1699971368.481457000  0  0  12.1625  0.267403  -0.305269  0.00659934  nan  nan  nan  nan  nan  nan  -1  0  1  0.0523981  -0.0634036  -0.00332304  0  0  0  0  0  0  0  0  0  0.0427686  0.0225299  -0.0358368  -0.00901179  0.0206626  -0.010155  -0.058051  0.0574487  -0.00698315  -0.000736942  0.0820098  -0.0126602 
1699971368.486416000  0  0  12.1305  0.283275  -0.286678  0.00748702  nan  nan  nan  nan  nan  nan  -1  0  1  0.0522483  -0.0640458  -0.00334703  0  0  0  0  0  0  0  0  0  0.0427776  0.0224953  -0.0358234  -0.00838737  0.020349  -0.00752508  -0.0582807  0.0579308  -0.00714693  -0.0303678  0.0403929  -0.0221185 
1699971368.491517000  0  0  12.1448  0.304067  -0.315804  0.00789582  nan  nan  nan  nan  nan  nan  -1  0  1  0.0531172  -0.0637559  -0.00338741  0  0  0  0  0  0  0  0  0  0.0427333  0.0226047  -0.0358706  -0.00856523  0.0213697  -0.00870579  -0.0596727  0.0584657  -0.00729845  -0.0591459  0.0937236  -0.0257133 
1699971368.496469000  0  0  12.103  0.28711  -0.306622  0.00703577  nan  nan  nan  nan  nan  nan  -1  -0  1  0.0526008  -0.0640053  -0.00336752  6e-07  -6e-07  6e-07  0  0  0  0  0  0  0.0427416  0.022555  -0.0358469  -0.0085471  0.0205383  -0.00528142  -0.0591127  0.0589363  -0.00732559  -0.0303833  0.0710303  -0.0146913 
1699971368.501459000  0  0  12.0519  0.274202  -0.255698  0.00606474  nan  nan  nan  nan  nan  nan  -1  -0  1  0.0531289  -0.0638608  -0.00339373  5e-06  -5e-06  5e-06  0  0  0  0  0  0  0.0426959  0.0226557  -0.0358397  -0.00900525  0.0207207  -0.000983526  -0.0594299  0.0579893  -0.00723104  -0.0016495  -0.0221051  -0.00349887 
1699971368.506402000  0  0  12.0657  0.270086  -0.246392  0.0048668  nan  nan  nan  nan  nan  nan  -1  -1e-07  1  0.052746  -0.063816  -0.00336686  1.69e-05  -1.69e-05  1.69e-05  0  0  0  0  0  0  0.0426966  0.0226265  -0.0358314  -0.00897505  0.0203512  -0.00212023  -0.0589714  0.0576333  -0.00708884  0.00236418  -0.0374421  0.0100535 
1699971368.511511000  0  0  12.0343  0.245498  -0.240843  0.00390481  nan  nan  nan  nan  nan  nan  -1  -2e-07  1  0.0523231  -0.0635124  -0.00332386  4e-05  -4e-05  4e-05  0  0  0  0  0  0  0.042691  0.0225751  -0.0357829  -0.00960288  0.0197138  0.000444131  -0.058022  0.0570569  -0.00693612  0.0428062  -0.0432373  0.0205511 
1699971368.516409000  0  0  12.0534  0.245221  -0.218076  0.0041202  nan  nan  nan  nan  nan  nan  -1  -5e-07  1  0.0525932  -0.063186  -0.00332379  7.81e-05  -7.81e-05  7.81e-05  0  0  0  0  0  0  0.0426456  0.0226712  -0.0358017  -0.00980807  0.0199717  -0.0010651  -0.0580534  0.0560619  -0.0068595  0.0436496  -0.0796171  0.0170925 
1699971368.521449000  0  0  12.1253  0.266679  -0.229822  0.00434638  nan  nan  nan  nan  nan  nan  -0.999999  -1e-06  1  0.0522222  -0.0627655  -0.00327817  0.000135  -0.000135  0.000135  0  0  0  0  0  0  0.042624  0.0226543  -0.0358242  -0.00982587  0.0199313  -0.00701903  -0.0579769  0.0555081  -0.0068246  2.99722e-05  -0.0510307  0.0139162 
1699971368.527418000  0  0  12.1285  0.283218  -0.261509  0.00499244  nan  nan  nan  nan  nan  nan  -0.999998  -1.9e-06  1  0.0532771  -0.0624598  -0.00332805  0.0002141  -0.0002144  0.0002134  0  0  0  0  0  0  0.0425659  0.02278  -0.0358528  -0.0100753  0.0210981  -0.00727868  -0.0593095  0.0557149  -0.00682198  -0.0207881  0.010441  0.00581437 
1699971368.531448000  0  0  12.1455  0.296669  -0.264193  0.00626688  nan  nan  nan  nan  nan  nan  -0.999997  -3.2e-06  1  0.0526918  -0.0625243  -0.00329461  0.0003149  -0.00032  0.0003113  0  0  0  0  0  0  0.0425638  0.0227146  -0.0358456  -0.0098678  0.0205549  -0.00873345  -0.0591312  0.0558211  -0.00697442  -0.0493316  0.0148327  -0.00859185 
1699971368.536450000  0  0  12.1715  0.306421  -0.269299  0.00704933  nan  nan  nan  nan  nan  nan  -0.999995  -5.1e-06  1.00001  0.0522908  -0.0627751  -0.00328238  0.0004338  -0.0004556  0.0004249  0  0  0  0  0  0  0.0425416  0.0226688  -0.0358516  -0.00929691  0.0202669  -0.0109176  -0.0592277  0.0561976  -0.00713148  -0.067947  0.02158  -0.0168018 
1699971368.541448000  0  0  12.1369  0.303037  -0.304136  0.00729201  nan  nan  nan  nan  nan  nan  -0.999992  -7.8e-06  1.00001  0.053758  -0.0621574  -0.00334131  0.0005669  -0.000625  0.0005504  0  0  0  0  0  0  0.0424868  0.022779  -0.0358688  -0.0102366  0.0218096  -0.00807234  -0.0607973  0.0564977  -0.00723091  -0.046738  0.0884931  -0.018841 
1699971368.547409000  0  0  12.0876  0.292958  -0.273998  0.00672699  nan  nan  nan  nan  nan  nan  -0.999989  -1.14e-05  1.00001  0.053955  -0.0620096  -0.00334542  0.0007105  -0.0008319  0.0006841  0  0  0  0  0  0  0.0424253  0.022898  -0.035874  -0.0106407  0.0215159  -0.00394419  -0.0609879  0.0561703  -0.00724505  -0.0248274  0.03123  -0.0116369 
1699971368.551515000  0  0  12.1084  0.266066  -0.24626  0.00542638  nan  nan  nan  nan  nan  nan  -0.999985  -1.62e-05  1.00001  0.0531926  -0.0619674  -0.0032956  0.000861  -0.00108  0.0008222  0  0  0  0  0  0  0.0424341  0.0227591  -0.0358301  -0.0105845  0.0209191  -0.00571897  -0.059902  0.0555908  -0.00717312  0.0189664  -0.0189151  0.00390143 
1699971368.556478000  0  0  12.1066  0.247388  -0.258105  0.00393676  nan  nan  nan  nan  nan  nan  -0.999981  -2.23e-05  1.00002  0.0530402  -0.0615168  -0.00326215  0.0010145  -0.0013731  0.000961  0  0  0  0  0  0  0.0424136  0.0227119  -0.0358197  -0.0111646  0.0208087  -0.00557173  -0.0592721  0.0553741  -0.00698815  0.0505282  0.00676817  0.020672 
1699971368.561477000  0  0  12.0611  0.229925  -0.231806  0.00322253  nan  nan  nan  nan  nan  nan  -0.999975  -3e-05  1.00002  0.0525732  -0.0615804  -0.00323661  0.0011672  -0.001715  0.0010968  0  0  0  0  0  0  0.0423926  0.0226725  -0.0357774  -0.0113535  0.0199974  -0.00180484  -0.0582099  0.0548874  -0.00679453  0.0756819  -0.0413516  0.0276637 
1699971368.566477000  0  0  12.1624  0.233139  -0.21703  0.00420685  nan  nan  nan  nan  nan  nan  -0.999969  -3.96e-05  1.00003  0.05308  -0.0609339  -0.0032337  0.0013155  -0.0021094  0.0012257  0  0  0  0  0  0  0.0423383  0.0227777  -0.0358707  -0.0114157  0.0210397  -0.0100057  -0.0583831  0.0537561  -0.00680611  0.0708459  -0.0604965  0.0154755 
1699971368.571497000  0  0  12.1834  0.249307  -0.261904  0.00499954  nan  nan  nan  nan  nan  nan  -0.999962  -5.12e-05  1.00004  0.0523928  -0.0609937  -0.00319517  0.0014556  -0.0025587  0.0013441  0  0  0  0  0  0  0.0423459  0.0226353  -0.0358439  -0.0112115  0.020551  -0.0118456  -0.0578028  0.0543093  -0.00687063  0.0331719  0.0241621  0.006212 
1699971368.576477000  0  0  12.1387  0.2694  -0.276356  0.00635499  nan  nan  nan  nan  nan  nan  -0.999954  -6.52e-05  1.00004  0.0535951  -0.0609779  -0.00326831  0.0015837  -0.0030604  0.0014482  0  0  0  0  0  0  0.0422894  0.0227411  -0.0358493  -0.0113979  0.0216816  -0.00814893  -0.0591859  0.0547363  -0.00700251  0.00570933  0.0491382  -0.00941226 
1699971368.581475000  0  0  12.2212  0.290598  -0.274183  0.00813138  nan  nan  nan  nan  nan  nan  -0.999946  -8.19e-05  1.00005  0.0535007  -0.0607991  -0.00325388  0.0016961  -0.0036108  0.0015342  0  0  0  0  0  0  0.0422621  0.0227471  -0.035935  -0.0110187  0.0220336  -0.0148751  -0.0595052  0.0546911  -0.00728613  -0.0337472  0.0452078  -0.028781 
1699971368.586428000  0  0  12.2382  0.303069  -0.296521  0.00811489  nan  nan  nan  nan  nan  nan  -0.999938  -0.0001014  1.00006  0.0535949  -0.0608765  -0.00326507  0.001789  -0.0042061  0.0015988  0  0  0  0  0  0  0.0422448  0.0227337  -0.0359834  -0.0107524  0.0222973  -0.0162608  -0.060037  0.0554111  -0.00741895  -0.0537976  0.08326  -0.0272467 
1699971368.591498000  0  0  12.1449  0.291412  -0.304227  0.00680068  nan  nan  nan  nan  nan  nan  -0.999928  -0.000124  1.00007  0.0552504  -0.060897  -0.00336902  0.0018593  -0.0048425  0.0016434  0  0  0  0  0  0  0.0421857  0.022852  -0.0359843  -0.0112097  0.0237176  -0.00851011  -0.0615192  0.0560161  -0.00733896  -0.0168477  0.0931064  -0.011619 
1699971368.596475000  0  0  12.1858  0.282051  -0.270116  0.00546732  nan  nan  nan  nan  nan  nan  -0.999919  -0.0001499  1.00007  0.0548607  -0.0607053  -0.00333712  0.0019086  -0.0055164  0.0016716  0  0  0  0  0  0  0.0421564  0.0228429  -0.0360098  -0.0111326  0.0234598  -0.0118493  -0.0610587  0.0555456  -0.00721962  -0.00236106  0.0292124  0.0038547 
1699971368.602425000  0  0  12.1464  0.262423  -0.25974  0.00382382  nan  nan  nan  nan  nan  nan  -0.999909  -0.0001792  1.00008  0.0556347  -0.0605723  -0.00338003  0.0019405  -0.0062239  0.0016872  0  0  0  0  0  0  0.0421098  0.0228831  -0.0360186  -0.011472  0.0241744  -0.00851439  -0.0613417  0.0552826  -0.00695732  0.0394968  0.0108797  0.0217755 
1699971368.606425000  0  0  12.106  0.254865  -0.257345  0.00329286  nan  nan  nan  nan  nan  nan  -0.9999  -0.0002122  1.00009  0.0565991  -0.0603934  -0.00343248  0.0019589  -0.0069612  0.0016939  0  0  0  0  0  0  0.0420604  0.0229863  -0.0360306  -0.0118701  0.0249935  -0.00510391  -0.0618948  0.0551277  -0.00678965  0.0597025  0.00751557  0.0267358 
1699971368.611498000  0  0  12.1772  0.246321  -0.228065  0.00399325  nan  nan  nan  nan  nan  nan  -0.99989  -0.0002489  1.0001  0.056456  -0.0603033  -0.00342383  0.0019674  -0.0077248  0.0016954  0  0  0  0  0  0  0.0420368  0.0229841  -0.0360761  -0.011466  0.0252475  -0.0108845  -0.0613264  0.0544664  -0.00675638  0.071561  -0.0449618  0.0176482 
1699971368.616474000  0  0  12.2178  0.266278  -0.23279  0.00525436  nan  nan  nan  nan  nan  nan  -0.99988  -0.0002895  1.00011  0.0575959  -0.0599867  -0.00348073  0.0019699  -0.0085107  0.0016955  0  0  0  0  0  0  0.0419799  0.0231161  -0.0361532  -0.0114882  0.026759  -0.0141039  -0.0624702  0.0540449  -0.00682251  0.0421704  -0.0316322  0.00254557 
1699971368.621475000  0  0  12.1632  0.294084  -0.278025  0.00734158  nan  nan  nan  nan  nan  nan  -0.99987  -0.000334  1.00012  0.0586493  -0.0602227  -0.00356542  0.0019701  -0.0093153  0.0016955  0  0  0  0  0  0  0.0419441  0.0231438  -0.0361416  -0.0114366  0.0277781  -0.00965175  -0.0638744  0.0550679  -0.00705905  -0.000523233  0.0494256  -0.0211793 
1699971368.627036000  0  0  12.212  0.305482  -0.277307  0.00883799  nan  nan  nan  nan  nan  nan  -0.99986  -0.0003826  1.00013  0.0590137  -0.0604176  -0.00360792  0.0019701  -0.0101348  0.0016955  0  0  0  0  0  0  0.0419135  0.0231913  -0.0361881  -0.0107676  0.0284861  -0.0136492  -0.0644615  0.0554557  -0.00735767  -0.0179186  0.0444219  -0.0368981 
1699971368.632424000  0  0  12.2257  0.336085  -0.303654  0.00807106  nan  nan  nan  nan  nan  nan  -0.99985  -0.0004354  1.00013  0.0603689  -0.0601793  -0.00368627  0.0019701  -0.0109655  0.0016955  0  0  0  0  0  0  0.0418546  0.0233458  -0.0362573  -0.0108483  0.0300847  -0.0147431  -0.0664347  0.0559715  -0.00740468  -0.0609707  0.09237  -0.0268414 
1699971368.636423000  0  0  12.1466  0.331755  -0.31606  0.00728679  nan  nan  nan  nan  nan  nan  -0.999841  -0.0004923  1.00014  0.0605408  -0.0608185  -0.00374772  0.0019701  -0.0118035  0.0016955  0  0  0  0  0  0  0.0418548  0.0232867  -0.0361739  -0.0105059  0.0299168  -0.00835763  -0.0667801  0.0571143  -0.00740053  -0.0491338  0.106669  -0.0170796 
1699971368.641459000  0  0  12.1478  0.313959  -0.291741  0.00620722  nan  nan  nan  nan  nan  nan  -0.999831  -0.0005534  1.00015  0.0617662  -0.0605099  -0.00381793  0.0019701  -0.0126452  0.0016955  0  0  0  0  0  0  0.0417992  0.0234399  -0.0362255  -0.0107811  0.0312411  -0.00833888  -0.0677044  0.0567871  -0.0072979  -0.00503706  0.0610396  -0.00461132 
1699971368.646474000  0  0  12.2022  0.305206  -0.278744  0.0043372  nan  nan  nan  nan  nan  nan  -0.999821  -0.0006188  1.00016  0.0617102  -0.0604422  -0.00382715  0.0019701  -0.0134869  0.0016955  0  0  0  0  0  0  0.0417771  0.0234886  -0.0362705  -0.0104566  0.0314284  -0.0127705  -0.0674936  0.0567188  -0.00705532  0.0105296  0.0356749  0.0163382 
1699971368.651451000  0  0  12.0917  0.28526  -0.273661  0.00327396  nan  nan  nan  nan  nan  nan  -0.999811  -0.0006883  1.00017  0.0633279  -0.0605018  -0.00394823  0.0019701  -0.0143246  0.0016955  0  0  0  0  0  0  0.0417202  0.0236471  -0.0362508  -0.0109797  0.0324924  -0.00356915  -0.0684904  0.0568441  -0.00679238  0.0595908  0.0243561  0.0269993 
1699971368.656476000  0  0  12.104  0.26339  -0.257162  0.00352807  nan  nan  nan  nan  nan  nan  -0.999801  -0.000762  1.00018  0.0635003  -0.0604133  -0.00397487  0.0019701  -0.0151548  0.0016955  0  0  0  0  0  0  0.0416946  0.0237045  -0.0362483  -0.0109615  0.0326768  -0.00453208  -0.0678972  0.0565097  -0.00668618  0.0978746  -0.00556472  0.022761 
1699971368.662432000  0  0  12.22  0.267042  -0.248261  0.00484207  nan  nan  nan  nan  nan  nan  -0.999791  -0.0008398  1.00018  0.0630697  -0.0602694  -0.0039645  0.0019701  -0.0159736  0.0016955  0  0  0  0  0  0  0.0416747  0.0237388  -0.036292  -0.0103375  0.0328275  -0.0140631  -0.0670363  0.0560879  -0.00674244  0.0826506  -0.0194867  0.00689852 
1699971368.666561000  0  0  12.1656  0.281551  -0.27111  0.00605029  nan  nan  nan  nan  nan  nan  -0.999781  -0.0009217  1.00019  0.0646602  -0.0603991  -0.00409707  0.0019701  -0.0167773  0.0016955  0  0  0  0  0  0  0.0416295  0.0238945  -0.0362998  -0.0104057  0.0342538  -0.00953172  -0.0684834  0.0566108  -0.006819  0.0669449  0.0214016  -0.00743863 
1699971368.671503000  0  0  12.1879  0.288438  -0.2839  0.00783757  nan  nan  nan  nan  nan  nan  -0.999772  -0.0010076  1.0002  0.06481  -0.0603825  -0.00413637  0.0019701  -0.0175622  0.0016955  0  0  0  0  0  0  0.0416186  0.0239385  -0.036321  -0.0102483  0.034518  -0.0113574  -0.0684559  0.0569126  -0.00704962  0.052919  0.0442049  -0.0274735 
1699971368.676463000  0  0  12.2904  0.31033  -0.287912  0.0090374  nan  nan  nan  nan  nan  nan  -0.999762  -0.0010973  1.00021  0.0653384  -0.0603649  -0.00420225  0.0019701  -0.0183245  0.0016955  0  0  0  0  0  0  0.0415747  0.0241127  -0.0364483  -0.00947228  0.0355914  -0.0196598  -0.0691825  0.0571603  -0.00729812  0.0158192  0.0499494  -0.0399863 
1699971368.681609000  0  0  12.1923  0.321958  -0.319927  0.00778076  nan  nan  nan  nan  nan  nan  -0.999752  -0.0011908  1.00022  0.0661152  -0.060997  -0.00432999  0.0019701  -0.0190604  0.0016955  0  0  0  0  0  0  0.0415785  0.0241415  -0.0363989  -0.0092624  0.0358686  -0.0116442  -0.070042  0.0585996  -0.00726475  0.000470539  0.100738  -0.024612 
1699971368.686466000  0  0  12.1717  0.312138  -0.316184  0.00661294  nan  nan  nan  nan  nan  nan  -0.999742  -0.0012879  1.00023  0.0662678  -0.0611871  -0.00439493  0.0019701  -0.0197662  0.0016955  0  0  0  0  0  0  0.0415721  0.0241923  -0.0363885  -0.00912312  0.0358077  -0.0099584  -0.0699766  0.0591579  -0.00718841  0.0195086  0.0881146  -0.0107777 
1699971368.691502000  0  0  12.2315  0.297472  -0.288825  0.00524818  nan  nan  nan  nan  nan  nan  -0.999732  -0.0013884  1.00024  0.0666303  -0.0610791  -0.00445719  0.0019701  -0.0204382  0.0016955  0  0  0  0  0  0  0.0415291  0.0243706  -0.0364876  -0.0087614  0.0363386  -0.0146956  -0.0698833  0.0588711  -0.00700985  0.0479835  0.0360367  0.00449633 
1699971368.696409000  0  0  12.1689  0.281334  -0.287652  0.00352522  nan  nan  nan  nan  nan  nan  -0.999722  -0.0014922  1.00024  0.0670116  -0.0612223  -0.00454187  0.0019701  -0.0210726  0.0016955  0  0  0  0  0  0  0.04152  0.0244166  -0.0364374  -0.00896747  0.0362814  -0.00954376  -0.0696657  0.0591469  -0.00671291  0.0782567  0.0311539  0.0230639 
1699971368.701461000  0  0  12.1095  0.25537  -0.268026  0.00287033  nan  nan  nan  nan  nan  nan  -0.999712  -0.001599  1.00025  0.0679741  -0.0611407  -0.00465188  0.0019701  -0.0216656  0.0016955  0  0  0  0  0  0  0.0414714  0.0245982  -0.036448  -0.00936731  0.0367228  -0.00448673  -0.0695994  0.0588235  -0.00645917  0.129574  -0.00512378  0.0287125 
1699971368.706469000  0  0  12.1605  0.244497  -0.245498  0.00302215  nan  nan  nan  nan  nan  nan  -0.999703  -0.0017087  1.00026  0.0673156  -0.0609339  -0.00465864  0.0019701  -0.0222136  0.0016955  0  0  0  0  0  0  0.0414664  0.0246266  -0.0364551  -0.00929742  0.0361422  -0.00864958  -0.0682178  0.0581472  -0.00629798  0.138611  -0.0439594  0.0252029 
1699971368.711502000  0  0  12.1453  0.248213  -0.25479  0.00468033  nan  nan  nan  nan  nan  nan  -0.999693  -0.0018211  1.00027  0.0673394  -0.0613991  -0.00475762  0.0019701  -0.0227126  0.0016955  0  0  0  0  0  0  0.0414618  0.0246733  -0.0364369  -0.00875547  0.0359441  -0.00737136  -0.0676918  0.0585269  -0.00633981  0.126339  -0.0288685  0.00489394 
1699971368.716459000  0  0  12.1189  0.261757  -0.271009  0.00623907  nan  nan  nan  nan  nan  nan  -0.999683  -0.0019358  1.00028  0.068446  -0.0615726  -0.0049091  0.0019701  -0.0231591  0.0016955  0  0  0  0  0  0  0.0414197  0.024857  -0.036457  -0.00858867  0.0368241  -0.00511794  -0.0684326  0.0589115  -0.00645011  0.106066  3.1695e-05  -0.0134873 
1699971368.721459000  0  0  12.196  0.283543  -0.279823  0.00791536  nan  nan  nan  nan  nan  nan  -0.999673  -0.0020526  1.00029  0.0679846  -0.0611236  -0.00492666  0.0019701  -0.0235507  0.0016955  0  0  0  0  0  0  0.0414031  0.0249052  -0.0364766  -0.0086313  0.0366744  -0.0115218  -0.0679981  0.0586854  -0.00669566  0.0584955  0.0197399  -0.0319854 
1699971368.726461000  0  0  12.1651  0.311747  -0.28576  0.00779587  nan  nan  nan  nan  nan  nan  -0.999663  -0.0021712  1.0003  0.0687446  -0.0615281  -0.0050831  0.0019701  -0.0238899  0.0016955  0  0  0  0  0  0  0.041364  0.0250882  -0.036503  -0.00818496  0.0370575  -0.00892044  -0.0690481  0.0592638  -0.00672633  0.0117484  0.0262926  -0.0301851 
1699971368.731493000  0  0  12.0903  0.305463  -0.303058  0.00665512  nan  nan  nan  nan  nan  nan  -0.999653  -0.0022914  1.0003  0.0693008  -0.0618822  -0.00522959  0.0019701  -0.0241806  0.0016955  0  0  0  0  0  0  0.0413484  0.0251397  -0.0364148  -0.00816944  0.0371128  -0.00288206  -0.0693611  0.0600801  -0.00662186  0.0271964  0.0533792  -0.0169704 
1699971368.736484000  0  0  12.1092  0.298708  -0.298428  0.0052163  nan  nan  nan  nan  nan  nan  -0.999643  -0.0024129  1.00031  0.0683998  -0.0617365  -0.00525695  0.0019701  -0.0244265  0.0016955  0  0  0  0  0  0  0.0413432  0.0251598  -0.0363915  -0.00822765  0.0359911  -0.00450537  -0.0682615  0.0601459  -0.00646638  0.0305895  0.0435129  -0.000539907 
1699971368.741486000  0  0  12.0528  0.279307  -0.247984  0.00293826  nan  nan  nan  nan  nan  nan  -0.999634  -0.0025356  1.00032  0.0691412  -0.0618494  -0.00540971  0.0019701  -0.0246313  0.0016955  0  0  0  0  0  0  0.0413024  0.0253393  -0.0363799  -0.00836339  0.0361416  0.000267943  -0.0683634  0.0593659  -0.00603618  0.0703293  -0.0501973  0.0236336 
1699971368.747128000  0  0  11.9912  0.25647  -0.247065  0.002007  nan  nan  nan  nan  nan  nan  -0.999624  -0.0026592  1.00033  0.0689763  -0.0619347  -0.00551025  0.0019701  -0.0247989  0.0016955  0  0  0  0  0  0  0.0412809  0.0253916  -0.0362893  -0.00862616  0.0353164  0.00528664  -0.0673304  0.0591903  -0.00571129  0.1065  -0.0504215  0.0320254 
1699971368.751469000  0  0  12.078  0.234152  -0.224408  0.00268585  nan  nan  nan  nan  nan  nan  -0.999614  -0.0027835  1.00034  0.0686417  -0.0611071  -0.00554346  0.0019701  -0.0249328  0.0016955  0  0  0  0  0  0  0.0412396  0.0255593  -0.0363425  -0.00905395  0.0351468  -0.00174711  -0.0661406  0.0577925  -0.0056081  0.140189  -0.0828753  0.0225078 
1699971368.756423000  0  0  12.066  0.225645  -0.204864  0.00352197  nan  nan  nan  nan  nan  nan  -0.999604  -0.0029085  1.00035  0.0682369  -0.0611154  -0.00563609  0.0019701  -0.025037  0.0016955  0  0  0  0  0  0  0.041225  0.0255857  -0.0362782  -0.00909524  0.0344338  -0.000779594  -0.0649692  0.0570412  -0.00549641  0.146427  -0.115051  0.0109395 
1699971368.762425000  0  0  12.0077  0.252879  -0.230125  0.00548039  nan  nan  nan  nan  nan  nan  -0.999594  -0.0030339  1.00035  0.0683647  -0.0614483  -0.00578959  0.0019701  -0.0251151  0.0016955  0  0  0  0  0  0  0.0411996  0.0256285  -0.0361801  -0.00897835  0.0340545  0.00388857  -0.0649374  0.057233  -0.00558263  0.0916667  -0.0662925  -0.0126786 
1699971368.766561000  0  0  12.1117  0.257916  -0.248678  0.00739637  nan  nan  nan  nan  nan  nan  -0.999584  -0.0031596  1.00036  0.0680339  -0.0609379  -0.00586356  0.0019701  -0.0251709  0.0016955  0  0  0  0  0  0  0.0411625  0.0257896  -0.0362452  -0.00886539  0.034032  -0.00464199  -0.0643893  0.0569089  -0.00579797  0.0765499  -0.026207  -0.0344749 
1699971368.771514000  0  0  12.1228  0.272441  -0.2522  0.00795182  nan  nan  nan  nan  nan  nan  -0.999575  -0.0032855  1.00037  0.0676884  -0.0611072  -0.00598908  0.0019701  -0.0252082  0.0016955  0  0  0  0  0  0  0.0411393  0.0258488  -0.0362309  -0.00850145  0.0335043  -0.00558709  -0.0640508  0.0570238  -0.00590909  0.0443858  -0.0202194  -0.0403068 
1699971368.776461000  0  0  12.0476  0.291976  -0.264014  0.00722781  nan  nan  nan  nan  nan  nan  -0.999565  -0.0034116  1.00038  0.0685226  -0.0610958  -0.00618088  0.0019701  -0.0252306  0.0016955  0  0  0  0  0  0  0.041093  0.0260169  -0.0361903  -0.00890245  0.0336759  0.000574824  -0.0650435  0.0571773  -0.00583804  0.0144486  0.00199659  -0.0319673 
1699971368.781458000  0  0  12.0786  0.283298  -0.280404  0.00488614  nan  nan  nan  nan  nan  nan  -0.999555  -0.0035378  1.00039  0.0678315  -0.0612049  -0.00629358  0.0019701  -0.025242  0.0016955  0  0  0  0  0  0  0.0410795  0.0260452  -0.0361822  -0.00850804  0.0329068  -0.00203805  -0.0641574  0.0576624  -0.0055696  0.0236525  0.0303143  -0.00538079 
1699971368.786434000  0  0  12.1058  0.272742  -0.269863  0.00316495  nan  nan  nan  nan  nan  nan  -0.999545  -0.003664  1.0004  0.0668757  -0.0607832  -0.00636057  0.0019701  -0.0252461  0.0016955  0  0  0  0  0  0  0.0410642  0.02607  -0.0361796  -0.00885976  0.0317575  -0.00429655  -0.0629444  0.057216  -0.00526057  0.0336041  0.0133383  0.0130438 
1699971368.792434000  0  0  11.9527  0.252602  -0.23278  0.000727834  nan  nan  nan  nan  nan  nan  -0.999535  -0.0037903  1.00041  0.0676893  -0.0611275  -0.0065937  0.0019701  -0.0252466  0.0016955  0  0  0  0  0  0  0.0410105  0.0262316  -0.0360866  -0.0093039  0.0313222  0.00835958  -0.0630354  0.0567886  -0.00467838  0.0747216  -0.056895  0.0376859 
1699971368.796619000  0  0  12.0227  0.233839  -0.229294  0.000812159  nan  nan  nan  nan  nan  nan  -0.999525  -0.0039165  1.00041  0.0667702  -0.06062  -0.00666983  0.0019701  -0.0252462  0.0016955  0  0  0  0  0  0  0.0409892  0.0262701  -0.0360807  -0.00946226  0.0305183  0.00255916  -0.0615375  0.0560773  -0.0044371  0.0984677  -0.0573244  0.034219 
1699971368.801467000  0  0  12.1025  0.218673  -0.21601  0.0021375  nan  nan  nan  nan  nan  nan  -0.999515  -0.0040427  1.00042  0.0664006  -0.0600023  -0.00677904  0.0019701  -0.0252424  0.0016955  0  0  0  0  0  0  0.040943  0.0264207  -0.0361252  -0.00964926  0.030262  -0.00393481  -0.0604454  0.055003  -0.00433828  0.118752  -0.0740069  0.0166641 
1699971368.806485000  0  0  12.0258  0.217098  -0.206359  0.00358949  nan  nan  nan  nan  nan  nan  -0.999506  -0.0041689  1.00043  0.0663011  -0.0604717  -0.00698306  0.0019701  -0.0252316  0.0016955  0  0  0  0  0  0  0.0409239  0.0264558  -0.0360522  -0.00948205  0.0294617  0.00237275  -0.0597827  0.0548505  -0.00429493  0.115805  -0.091906  -0.00191928 
1699971368.811457000  0  0  12.0929  0.228116  -0.237779  0.00482075  nan  nan  nan  nan  nan  nan  -0.999496  -0.004295  1.00044  0.0652768  -0.0601173  -0.00708296  0.0019701  -0.02521  0.0016955  0  0  0  0  0  0  0.0409044  0.0264413  -0.0360375  -0.00946182  0.0285969  -0.00325834  -0.0585822  0.0548134  -0.00431297  0.0827244  -0.0287251  -0.0171296 
1699971368.817437000  0  0  12.1967  0.245697  -0.248653  0.00582641  nan  nan  nan  nan  nan  nan  -0.999486  -0.004421  1.00045  0.0650439  -0.0596466  -0.0072297  0.0019701  -0.0251737  0.0016955  0  0  0  0  0  0  0.0408525  0.0265891  -0.0361212  -0.00927521  0.0286925  -0.0117434  -0.0583666  0.0545202  -0.00441223  0.0455784  -0.00427915  -0.0287079 
1699971368.822434000  0  0  12.0874  0.276221  -0.264003  0.00553573  nan  nan  nan  nan  nan  nan  -0.999476  -0.0045467  1.00046  0.0650804  -0.0604552  -0.00748219  0.0019701  -0.0251192  0.0016955  0  0  0  0  0  0  0.0408208  0.0266186  -0.0360564  -0.00882082  0.0278682  -0.00281165  -0.0588219  0.0555754  -0.00429109  -0.0112813  0.0167113  -0.0262856 
1699971368.826424000  0  0  12.1  0.284946  -0.2899  0.00467374  nan  nan  nan  nan  nan  nan  -0.999466  -0.0046722  1.00046  0.0654346  -0.0600331  -0.00767998  0.0019701  -0.0250426  0.0016955  0  0  0  0  0  0  0.0407798  0.026758  -0.0360734  -0.0091885  0.0281183  -0.00387613  -0.0593686  0.055822  -0.00409986  -0.0237011  0.0662377  -0.0174231 
1699971368.831508000  0  0  12.1579  0.264968  -0.280269  0.00370267  nan  nan  nan  nan  nan  nan  -0.999456  -0.0047971  1.00047  0.0642683  -0.0598609  -0.00780875  0.0019701  -0.0249402  0.0016955  0  0  0  0  0  0  0.040767  0.0267513  -0.036096  -0.00900468  0.0269587  -0.0086524  -0.0579847  0.0558131  -0.00390567  0.00352413  0.047057  -0.00722665 
1699971368.836880000  0  0  12.1028  0.259386  -0.257661  0.00226158  nan  nan  nan  nan  nan  nan  -0.999446  -0.0049215  1.00048  0.0631978  -0.0603027  -0.00798875  0.0019701  -0.0248082  0.0016955  0  0  0  0  0  0  0.0407617  0.0266776  -0.0360737  -0.00876371  0.0252658  -0.00409867  -0.0568607  0.0559972  -0.00355439  0.00434611  0.000146925  0.00727421 
1699971368.841617000  0  0  12.0484  0.24547  -0.248562  0.000659779  nan  nan  nan  nan  nan  nan  -0.999437  -0.0050451  1.00049  0.0636663  -0.0598992  -0.00821412  0.0019701  -0.0246429  0.0016955  0  0  0  0  0  0  0.0407141  0.026805  -0.0360561  -0.00954531  0.0252151  0.000420323  -0.0569698  0.0554716  -0.00310064  0.0331817  -0.0132156  0.0227592 
1699971368.846484000  0  0  12.0964  0.223893  -0.232399  0.000903161  nan  nan  nan  nan  nan  nan  -0.999427  -0.0051679  1.0005  0.0621838  -0.0595464  -0.008332  0.0019701  -0.0244405  0.0016955  0  0  0  0  0  0  0.0406949  0.0267542  -0.0360644  -0.00966506  0.023653  -0.00352897  -0.055021  0.054849  -0.00286195  0.0584073  -0.039813  0.01733 
1699971368.851503000  0  0  12.0968  0.224795  -0.208507  0.00173538  nan  nan  nan  nan  nan  nan  -0.999417  -0.0052895  1.00051  0.0620076  -0.0595411  -0.00855634  0.0019701  -0.0241973  0.0016955  0  0  0  0  0  0  0.0406492  0.0268703  -0.0360817  -0.00955557  0.0231374  -0.00347485  -0.0545977  0.0541648  -0.0026722  0.0527085  -0.0813021  0.00502971 
1699971368.856466000  0  0  12.0666  0.228276  -0.219142  0.00220968  nan  nan  nan  nan  nan  nan  -0.999407  -0.0054098  1.00052  0.0613576  -0.0595865  -0.0087617  0.0019701  -0.0239095  0.0016955  0  0  0  0  0  0  0.0406167  0.0268337  -0.0360341  -0.00961528  0.0221188  -0.00104995  -0.0538217  0.05412  -0.00249789  0.0386077  -0.0596207  -0.00264208 
1699971368.861619000  0  0  12.1717  0.242791  -0.241077  0.0042689  nan  nan  nan  nan  nan  nan  -0.999397  -0.0055285  1.00052  0.0600547  -0.059159  -0.00890586  0.0019701  -0.0235734  0.0016955  0  0  0  0  0  0  0.0405925  0.0267846  -0.0360615  -0.0094394  0.0211645  -0.00978821  -0.0528102  0.0539611  -0.00261915  0.000271509  -0.0142878  -0.0271697 
1699971368.866619000  0  0  12.1764  0.265966  -0.244327  0.00438273  nan  nan  nan  nan  nan  nan  -0.999387  -0.0056454  1.00053  0.0598843  -0.0592415  -0.00915459  0.0019701  -0.0231852  0.0016955  0  0  0  0  0  0  0.0405482  0.0268881  -0.0360969  -0.00917718  0.0207156  -0.0101372  -0.0531554  0.0540423  -0.00252058  -0.0429033  -0.00853569  -0.0295784 
1699971368.871504000  0  0  12.1222  0.277713  -0.273859  0.00356871  nan  nan  nan  nan  nan  nan  -0.999378  -0.0057603  1.00054  0.0597037  -0.0596579  -0.0094289  0.0019701  -0.0227412  0.0016955  0  0  0  0  0  0  0.0405266  0.0268808  -0.0360881  -0.00890341  0.0201077  -0.00569152  -0.0533928  0.0550622  -0.00229542  -0.064213  0.0411456  -0.0216546 
1699971368.876433000  0  0  12.1753  0.281336  -0.288872  0.00228396  nan  nan  nan  nan  nan  nan  -0.999368  -0.0058727  1.00055  0.0593967  -0.0589717  -0.0096362  0.0019701  -0.0222377  0.0016955  0  0  0  0  0  0  0.0404783  0.0269807  -0.036158  -0.00935369  0.0198122  -0.0100329  -0.0534686  0.0549882  -0.00200938  -0.0707607  0.0718521  -0.00845571 
1699971368.881476000  0  0  12.1697  0.270412  -0.268293  0.00110427  nan  nan  nan  nan  nan  nan  -0.999358  -0.0059825  1.00056  0.0585197  -0.0594016  -0.00988208  0.0019701  -0.0216708  0.0016955  0  0  0  0  0  0  0.0404705  0.0269964  -0.0361662  -0.00878234  0.0185261  -0.00955369  -0.0527659  0.0553201  -0.0016384  -0.0553775  0.0276409  0.00258061 
1699971368.886429000  0  0  12.1013  0.259861  -0.260379  8.19213e-05  nan  nan  nan  nan  nan  nan  -0.999348  -0.0060893  1.00057  0.0578969  -0.059667  -0.0101393  0.0019701  -0.0210368  0.0016955  0  0  0  0  0  0  0.0404529  0.0269847  -0.0361282  -0.00882954  0.0172466  -0.00394021  -0.0522186  0.0555524  -0.00125314  -0.0393105  0.00967507  0.0115074 
1699971368.892432000  0  0  12.1385  0.236602  -0.249223  -0.000663928  nan  nan  nan  nan  nan  nan  -0.999338  -0.0061928  1.00057  0.0573964  -0.0589241  -0.0103519  0.0019701  -0.0203326  0.0016955  0  0  0  0  0  0  0.0403967  0.0270659  -0.0361778  -0.00945122  0.0166149  -0.00693099  -0.0514572  0.0547583  -0.000859205  0.000202009  -0.00532973  0.0168912 
1699971368.896475000  0  0  12.1354  0.225564  -0.227144  -6.27765e-05  nan  nan  nan  nan  nan  nan  -0.999328  -0.0062925  1.00058  0.0562657  -0.0592298  -0.0105937  0.0019701  -0.0195595  0.0016955  0  0  0  0  0  0  0.040399  0.0270555  -0.0361566  -0.00906398  0.0150621  -0.00668196  -0.0502233  0.0545559  -0.000621863  0.010925  -0.0476265  0.00700333 
1699971368.901476000  0  0  12.0823  0.234019  -0.224472  0.0011368  nan  nan  nan  nan  nan  nan  -0.999318  -0.0063883  1.00059  0.0561793  -0.0591575  -0.0108822  0.0019701  -0.0187213  0.0016955  0  0  0  0  0  0  0.0403516  0.0271307  -0.0361526  -0.00938955  0.0144262  -0.00225903  -0.0502713  0.0541758  -0.000485193  -0.005541  -0.0494739  -0.0093581 
1699971368.906476000  0  0  12.1191  0.230306  -0.246723  0.00231029  nan  nan  nan  nan  nan  nan  -0.999309  -0.0064796  1.0006  0.0553738  -0.0587908  -0.011118  0.0019701  -0.0178216  0.0016955  0  0  0  0  0  0  0.0403329  0.0271081  -0.0361648  -0.00959074  0.0136022  -0.00532876  -0.0495105  0.0541098  -0.000453372  -0.00511477  -0.00436336  -0.0243449 
1699971368.911985000  0  0  12.1596  0.240076  -0.241612  0.00309821  nan  nan  nan  nan  nan  nan  -0.999299  -0.0065664  1.00061  0.0540544  -0.0591964  -0.0113724  0.0019701  -0.0168643  0.0016955  0  0  0  0  0  0  0.0403257  0.0270663  -0.0361754  -0.00875833  0.0121276  -0.00869111  -0.0486078  0.0543231  -0.000415168  -0.0329615  -0.0165486  -0.034576 
1699971368.916607000  0  0  12.1237  0.273794  -0.267757  0.00256896  nan  nan  nan  nan  nan  nan  -0.999289  -0.0066482  1.00062  0.0539188  -0.059216  -0.0116818  0.0019701  -0.0158531  0.0016955  0  0  0  0  0  0  0.0402833  0.027129  -0.0361834  -0.00885071  0.0115713  -0.00575306  -0.0493526  0.0547957  -0.000198878  -0.0935447  0.031394  -0.0301232 
1699971368.921425000  0  0  12.1345  0.272346  -0.286692  0.00133761  nan  nan  nan  nan  nan  nan  -0.999279  -0.0067248  1.00063  0.0528185  -0.0592734  -0.0119422  0.0019701  -0.0147918  0.0016955  0  0  0  0  0  0  0.0402686  0.0270687  -0.0361762  -0.00866208  0.0102628  -0.00673378  -0.0487702  0.0553796  0.000103862  -0.0960056  0.0638929  -0.0177588 
1699971368.926475000  0  0  12.1517  0.270924  -0.280234  1.93896e-05  nan  nan  nan  nan  nan  nan  -0.999269  -0.006796  1.00063  0.0520855  -0.0591269  -0.0122199  0.0019701  -0.0136841  0.0016955  0  0  0  0  0  0  0.0402249  0.0271156  -0.0362122  -0.00863876  0.00924623  -0.00812543  -0.0484837  0.0554372  0.00047551  -0.0957988  0.050445  -0.00499747 
1699971368.932429000  0  0  12.0512  0.271522  -0.260382  -0.000356877  nan  nan  nan  nan  nan  nan  -0.999259  -0.0068616  1.00064  0.0513504  -0.0598385  -0.0125481  0.0019701  -0.0125337  0.0016955  0  0  0  0  0  0  0.0402247  0.0270489  -0.0361335  -0.00833857  0.00779732  6.42453e-05  -0.0484044  0.055884  0.000835943  -0.0977233  0.00663185  -0.00389847 
1699971368.936561000  0  0  12.0522  0.247759  -0.261449  -0.000222336  nan  nan  nan  nan  nan  nan  -0.999249  -0.0069213  1.00065  0.0507162  -0.0591997  -0.0128191  0.0019701  -0.0113444  0.0016955  0  0  0  0  0  0  0.0401824  0.0270895  -0.0361486  -0.00908793  0.00684696  4.10704e-06  -0.0477132  0.0553735  0.00107934  -0.0565564  0.0134616  -0.00801419 
1699971368.941424000  0  0  12.0644  0.23112  -0.237421  6.44965e-05  nan  nan  nan  nan  nan  nan  -0.99924  -0.006975  1.00066  0.0488041  -0.0592834  -0.0130574  0.0019701  -0.01012  0.0016955  0  0  0  0  0  0  0.040178  0.0269885  -0.0361145  -0.00890341  0.00454514  -0.00106564  -0.0459348  0.0549838  0.00129248  -0.0396399  -0.0310097  -0.013731 
1699971368.946565000  0  0  12.0359  0.224358  -0.215718  -0.000472108  nan  nan  nan  nan  nan  nan  -0.99923  -0.0070225  1.00067  0.0476709  -0.0596792  -0.0133629  0.0019701  -0.0088642  0.0016955  0  0  0  0  0  0  0.0401854  0.0269087  -0.0360537  -0.00858194  0.00301712  0.00121332  -0.0449741  0.054627  0.00163152  -0.0349536  -0.0711331  -0.0104139 
1699971368.951504000  0  0  12.0573  0.22411  -0.232079  -0.00112674  nan  nan  nan  nan  nan  nan  -0.99922  -0.0070636  1.00068  0.0471361  -0.0592599  -0.0136713  0.0019701  -0.0075807  0.0016955  0  0  0  0  0  0  0.040141  0.0269249  -0.0360691  -0.00889252  0.00235585  -0.000551191  -0.0446186  0.0542764  0.00197296  -0.0377282  -0.0351853  -0.00564528 
1699971368.956484000  0  0  12.1085  0.220552  -0.233265  -0.00100172  nan  nan  nan  nan  nan  nan  -0.99921  -0.0070982  1.00069  0.0451893  -0.0588419  -0.0137913  0.0019701  -0.0062733  0.0016955  0  0  0  0  0  0  0.040127  0.0267721  -0.036038  -0.00911224  0.000328686  -0.00489357  -0.0429903  0.0537503  0.00211636  -0.0455945  -0.0279728  -0.00864208 
1699971368.961485000  0  0  12.0809  0.235828  -0.225884  0.000302815  nan  nan  nan  nan  nan  nan  -0.9992  -0.0071263  1.00069  0.0436389  -0.0596274  -0.0137342  0.0019701  -0.0049458  0.0016954  0  0  0  0  0  0  0.0401273  0.0266197  -0.0359549  -0.00826934  -0.00156369  -0.00277489  -0.0421523  0.0541239  0.0019056  -0.0838541  -0.0461726  -0.0228411 
1699971368.966433000  0  0  12.084  0.256142  -0.259372  0.000617015  nan  nan  nan  nan  nan  nan  -0.99919  -0.0071477  1.0007  0.0434771  -0.0594054  -0.0137149  0.0019701  -0.0036019  0.0016932  0  0  0  0  0  0  0.0400843  0.0266168  -0.0359695  -0.00845003  -0.00175129  -0.00307821  -0.0428562  0.0544687  0.00176604  -0.118007  0.0176307  -0.0253731 
1699971368.972434000  0  0  12.1022  0.259136  -0.273339  0.00119471  nan  nan  nan  nan  nan  nan  -0.999181  -0.0071623  1.00071  0.0415642  -0.0599667  -0.0136244  0.0019701  -0.0022454  0.0016853  0  0  0  0  0  0  0.0401354  0.0264277  -0.0359477  -0.00772086  -0.00382316  -0.00469531  -0.0419125  0.0553794  0.00156158  -0.132677  0.0371885  -0.0305497 
1699971368.976435000  0  0  12.0747  0.262772  -0.261817  0.00134151  nan  nan  nan  nan  nan  nan  -0.999171  -0.0071701  1.00072  0.040899  -0.0601457  -0.0135918  0.0019701  -0.0008799  0.001668  0  0  0  0  0  0  0.0401032  0.0264119  -0.0359461  -0.00760629  -0.00480737  -0.00242189  -0.0418677  0.055422  0.00143395  -0.14036  0.0137519  -0.0311083 
1699971368.982434000  0  0  12.0473  0.259867  -0.279963  0.00135648  nan  nan  nan  nan  nan  nan  -0.999161  -0.0071711  1.00073  0.0399823  -0.0599499  -0.0135288  0.0019701  0.0004907  0.0016374  0  0  0  0  0  0  0.0401139  0.0262679  -0.0359037  -0.00809326  -0.0058294  -0.000287187  -0.0417787  0.0556787  0.00126243  -0.13537  0.0476821  -0.0295803 
1699971368.986436000  0  0  12.0432  0.235692  -0.269366  0.0015497  nan  nan  nan  nan  nan  nan  -0.999151  -0.0071652  1.00074  0.0384786  -0.059977  -0.0134396  0.0019701  0.0018626  0.0015898  0  0  0  0  0  0  0.0401231  0.0261256  -0.0358489  -0.00813652  -0.00754248  -6.05884e-05  -0.040438  0.0556164  0.0011017  -0.0993539  0.0270609  -0.0303883 
1699971368.991451000  0  0  12.009  0.231578  -0.221162  0.000451846  nan  nan  nan  nan  nan  nan  -0.999141  -0.0071525  1.00074  0.0373982  -0.0602412  -0.0133846  0.0019701  0.0032323  0.0015215  0  0  0  0  0  0  0.0400857  0.0260795  -0.0358196  -0.00795518  -0.00903095  0.00276743  -0.039802  0.0549017  0.00110946  -0.0969767  -0.0627713  -0.0167426 
1699971368.996484000  0  0  12.0071  0.223265  -0.223095  -0.000191131  nan  nan  nan  nan  nan  nan  -0.999131  -0.0071329  1.00075  0.0364789  -0.0598067  -0.0133133  0.0019701  0.0045958  0.0014287  0  0  0  0  0  0  0.0400624  0.0259492  -0.035762  -0.0085174  -0.0099666  0.00280276  -0.0392899  0.0542077  0.00110412  -0.0850637  -0.0525211  -0.0086521 
1699971369.002026000  0  0  12.0542  0.214977  -0.221781  -0.000862159  nan  nan  nan  nan  nan  nan  -0.999121  -0.0071065  1.00076  0.0351046  -0.0595733  -0.0132229  0.0019701  0.0059495  0.0013081  0  0  0  0  0  0  0.0400415  0.0258044  -0.0357389  -0.00849801  -0.0112929  -0.00116517  -0.0383036  0.0537257  0.00114407  -0.0775613  -0.050714  -0.000663684 
1699971369.006570000  0  0  12.0595  0.240424  -0.212491  -0.000195876  nan  nan  nan  nan  nan  nan  -0.999112  -0.0070734  1.00076  0.0344293  -0.0597349  -0.0131882  0.0019701  0.0072895  0.0011611  0  0  0  0  0  0  0.0400071  0.0257486  -0.0357368  -0.0081816  -0.0120553  -0.00162046  -0.0385221  0.0534369  0.00107184  -0.126446  -0.0666369  -0.00826997 
1699971369.011453000  0  0  12.0901  0.254617  -0.24111  0.000850274  nan  nan  nan  nan  nan  nan  -0.999102  -0.0070336  1.00077  0.0335669  -0.0595988  -0.0131321  0.0019701  0.0086123  0.0009912  0  0  0  0  0  0  0.0399964  0.0255915  -0.0357228  -0.00815044  -0.0127444  -0.00424693  -0.0386691  0.0535708  0.000903977  -0.153478  -0.0106312  -0.0196682 
1699971369.016466000  0  0  12.1084  0.264713  -0.259848  0.00179391  nan  nan  nan  nan  nan  nan  -0.999092  -0.0069873  1.00077  0.0332093  -0.0593836  -0.0131036  0.0019701  0.0099139  0.0008024  0  0  0  0  0  0  0.0399553  0.0255282  -0.0357428  -0.00822988  -0.0130111  -0.00579434  -0.0392688  0.0537511  0.000694164  -0.168153  0.0251853  -0.0293655 
1699971369.021408000  0  0  12.0859  0.282433  -0.255611  0.00264631  nan  nan  nan  nan  nan  nan  -0.999082  -0.0069346  1.00078  0.0317816  -0.0601263  -0.0130424  0.0019701  0.0111906  0.0005983  0  0  0  0  0  0  0.039975  0.0253406  -0.0356997  -0.00744835  -0.0146028  -0.00403412  -0.0391256  0.0543986  0.000464842  -0.20491  0.0107556  -0.0377273 
1699971369.027078000  0  0  12.0587  0.289109  -0.273474  0.00193469  nan  nan  nan  nan  nan  nan  -0.999072  -0.0068755  1.00078  0.0313315  -0.0602864  -0.0130203  0.0019701  0.0124388  0.0003827  0  0  0  0  0  0  0.0399724  0.0251653  -0.0356377  -0.00741375  -0.0149097  -0.00196373  -0.0399559  0.0549166  0.000374539  -0.210624  0.0417156  -0.027929 
1699971369.031501000  0  0  12.0576  0.279295  -0.275957  0.000524908  nan  nan  nan  nan  nan  nan  -0.999062  -0.0068102  1.00078  0.0307707  -0.0595398  -0.0129636  0.0019701  0.0136546  0.0001593  0  0  0  0  0  0  0.0399307  0.0250889  -0.0356467  -0.00834085  -0.0154794  -0.00189748  -0.0400902  0.0544794  0.000432854  -0.18976  0.0507049  -0.0108899 
1699971369.036426000  0  0  12.0153  0.258  -0.236474  0.000555368  nan  nan  nan  nan  nan  nan  -0.999052  -0.006739  1.00078  0.0294218  -0.0604357  -0.0129096  0.0019701  0.0148343  -6.81e-05  0  0  0  0  0  0  0.0399485  0.0249044  -0.0355671  -0.00748994  -0.0170265  0.00149004  -0.039273  0.0547035  0.000396938  -0.154689  -0.0303248  -0.0109115 
1699971369.042430000  0  0  12.0093  0.248883  -0.238041  0.000837235  nan  nan  nan  nan  nan  nan  -0.999043  -0.0066619  1.00078  0.0295355  -0.0599823  -0.0129031  0.0019701  0.0159741  -0.0002958  0  0  0  0  0  0  0.039902  0.024822  -0.0355612  -0.00803164  -0.0167025  0.00196562  -0.0399992  0.0540937  0.000309971  -0.129774  -0.0215799  -0.0135652 
1699971369.046423000  0  0  12.0305  0.237625  -0.243036  0.0010334  nan  nan  nan  nan  nan  nan  -0.999033  -0.0065793  1.00078  0.0282516  -0.059848  -0.0128222  0.0019701  0.0170704  -0.00052  0  0  0  0  0  0  0.0399225  0.0246086  -0.0355106  -0.00813973  -0.0178723  8.86098e-05  -0.0390492  0.0539252  0.00020429  -0.115997  -0.0100405  -0.0149604 
1699971369.051501000  0  0  12.0171  0.229085  -0.214942  0.00191629  nan  nan  nan  nan  nan  nan  -0.999023  -0.0064913  1.00077  0.0277407  -0.0601532  -0.0128001  0.0019701  0.0181193  -0.000737  0  0  0  0  0  0  0.0398862  0.024515  -0.035492  -0.00775193  -0.0183932  0.00119639  -0.0389263  0.0535527  2.72088e-05  -0.100049  -0.0628011  -0.0242257 
1699971369.056610000  0  0  12.0582  0.258226  -0.249515  0.00234933  nan  nan  nan  nan  nan  nan  -0.999013  -0.0063982  1.00077  0.0270763  -0.0602206  -0.012762  0.0019701  0.019117  -0.000943  0  0  0  0  0  0  0.0399075  0.0243054  -0.0354539  -0.00744089  -0.0186926  -0.00235719  -0.0393977  0.0538763  -0.000148593  -0.153993  0.00336719  -0.0278806 
1699971369.062423000  0  0  12.0891  0.27177  -0.281629  0.00287216  nan  nan  nan  nan  nan  nan  -0.999003  -0.0063002  1.00077  0.0266852  -0.0602933  -0.0127403  0.0019701  0.02006  -0.0011342  0  0  0  0  0  0  0.0399207  0.0240949  -0.035426  -0.00716515  -0.0186575  -0.00506853  -0.0401509  0.0545975  -0.000362689  -0.174152  0.0609612  -0.0322751 
1699971369.067454000  0  0  12.0512  0.289843  -0.275052  0.00272207  nan  nan  nan  nan  nan  nan  -0.998993  -0.0061977  1.00076  0.0265356  -0.0609277  -0.0127481  0.0019701  0.0209443  -0.001307  0  0  0  0  0  0  0.0398908  0.0239981  -0.0354076  -0.00650058  -0.0187613  -0.00199035  -0.0411852  0.0553056  -0.000460558  -0.200782  0.0412916  -0.0294204 
1699971369.072406000  0  0  12.047  0.30383  -0.293612  0.00175903  nan  nan  nan  nan  nan  nan  -0.998984  -0.0060909  1.00075  0.0258507  -0.0614068  -0.0127188  0.0019701  0.0217663  -0.0014575  0  0  0  0  0  0  0.039929  0.0237763  -0.0353476  -0.00597757  -0.0192022  -0.00183023  -0.04176  0.0562299  -0.000460997  -0.223468  0.0699084  -0.0173779 
1699971369.076410000  0  0  12.0636  0.296265  -0.303314  0.0014318  nan  nan  nan  nan  nan  nan  -0.998974  -0.0059802  1.00074  0.0260775  -0.0611209  -0.0127252  0.0019703  0.0225221  -0.0015821  0  0  0  0  0  0  0.0399003  0.0236811  -0.0353631  -0.00617529  -0.0186336  -0.00324538  -0.0426371  0.056432  -0.000471848  -0.200269  0.0874531  -0.013179 
1699971369.081458000  0  0  12.0069  0.28249  -0.278584  0.00135865  nan  nan  nan  nan  nan  nan  -0.998964  -0.0058658  1.00074  0.0252179  -0.0617816  -0.0126893  0.0019731  0.0232082  -0.0016769  0  0  0  0  0  0  0.0399474  0.0234634  -0.0353059  -0.00579909  -0.0194667  0.00136988  -0.0424571  0.0568412  -0.000516264  -0.174375  0.0342291  -0.0118205 
1699971369.086458000  0  0  11.9691  0.27859  -0.248386  0.00181265  nan  nan  nan  nan  nan  nan  -0.998954  -0.0057482  1.00073  0.0256529  -0.0617992  -0.0127167  0.0019823  0.0238206  -0.0017383  0  0  0  0  0  0  0.0399173  0.023369  -0.035277  -0.00596017  -0.0187816  0.00444485  -0.0435911  0.0563401  -0.000586361  -0.156142  -0.0215581  -0.0167945 
1699971369.092442000  0  0  12.0273  0.25652  -0.248145  0.0021173  nan  nan  nan  nan  nan  nan  -0.998944  -0.0056277  1.00072  0.0255209  -0.0612399  -0.0126943  0.0020015  0.0243556  -0.0017624  0  0  0  0  0  0  0.0399388  0.0231726  -0.0352475  -0.00635876  -0.0183505  -0.000474164  -0.0437881  0.0556776  -0.000723318  -0.11019  -0.0159433  -0.0192331 
1699971369.096407000  0  0  12.0042  0.253077  -0.226622  0.00257418  nan  nan  nan  nan  nan  nan  -0.998934  -0.0055048  1.00071  0.0247631  -0.0613704  -0.0126511  0.0020346  0.0248096  -0.0017455  0  0  0  0  0  0  0.0399578  0.0229592  -0.0351766  -0.00640113  -0.0189528  0.00133315  -0.0434122  0.0552896  -0.00083282  -0.106761  -0.0554199  -0.023849 
1699971369.101442000  0  0  12.0061  0.27148  -0.206027  0.00273643  nan  nan  nan  nan  nan  nan  -0.998924  -0.0053798  1.0007  0.0253233  -0.0614403  -0.0126872  0.0020853  0.0251787  -0.0016839  0  0  0  0  0  0  0.03993  0.0228681  -0.0351687  -0.00622149  -0.0179999  0.00115433  -0.0448041  0.0546111  -0.000910609  -0.130762  -0.0903673  -0.0250993 
1699971369.106423000  0  0  12.0638  0.281714  -0.238953  0.00205972  nan  nan  nan  nan  nan  nan  -0.998913  -0.0052531  1.00069  0.0252561  -0.0613177  -0.01268  0.0021573  0.0254592  -0.0015738  0  0  0  0  0  0  0.03994  0.0226698  -0.0351659  -0.00600927  -0.0174875  -0.00371436  -0.0455298  0.054774  -0.000902371  -0.144555  -0.0260153  -0.0167228 
1699971369.112422000  0  0  12.097  0.296374  -0.265885  0.00190193  nan  nan  nan  nan  nan  nan  -0.998902  -0.0051253  1.00069  0.025216  -0.061009  -0.0126698  0.0022544  0.0256473  -0.0014115  0  0  0  0  0  0  0.0399489  0.0224737  -0.0351732  -0.00621204  -0.0170072  -0.00655254  -0.0465923  0.0550043  -0.000942268  -0.164098  0.0257306  -0.0143514 
1699971369.116472000  0  0  12.0634  0.323387  -0.258986  0.00228001  nan  nan  nan  nan  nan  nan  -0.99889  -0.0049968  1.00068  0.0259348  -0.0615277  -0.0127271  0.0023803  0.0257393  -0.0011932  0  0  0  0  0  0  0.0399277  0.0223832  -0.0351596  -0.00567729  -0.0159419  -0.003834  -0.0484163  0.0553928  -0.000988271  -0.201343  0.00835813  -0.0186174 
1699971369.122424000  0  0  12.123  0.333306  -0.29919  0.00182302  nan  nan  nan  nan  nan  nan  -0.998878  -0.0048681  1.00067  0.0263926  -0.06109  -0.0127437  0.0025388  0.0257315  -0.0009152  0  0  0  0  0  0  0.039944  0.0221984  -0.0351825  -0.00587577  -0.0147359  -0.00889129  -0.0501776  0.0559202  -0.000994299  -0.204977  0.0839136  -0.0128448 
1699971369.126424000  0  0  12.123  0.324098  -0.294645  0.00203689  nan  nan  nan  nan  nan  nan  -0.998865  -0.0047397  1.00067  0.0272193  -0.0607253  -0.0127843  0.0027337  0.0256201  -0.0005737  0  0  0  0  0  0  0.0399162  0.0221163  -0.0352088  -0.00628661  -0.0134322  -0.00889855  -0.0514738  0.0558043  -0.00104457  -0.174638  0.0758909  -0.0150153 
1699971369.132432000  0  0  12.0434  0.317107  -0.240183  0.00173821  nan  nan  nan  nan  nan  nan  -0.998851  -0.0046121  1.00067  0.027602  -0.0613763  -0.0128255  0.0029687  0.0254013  -0.0001649  0  0  0  0  0  0  0.0399449  0.0219703  -0.0351649  -0.00600987  -0.0128422  -0.00233446  -0.052562  0.0554639  -0.00102012  -0.150643  -0.0299015  -0.0115265 
1699971369.136622000  0  0  12.0923  0.296472  -0.252534  0.00127453  nan  nan  nan  nan  nan  nan  -0.998835  -0.0044858  1.00067  0.0280487  -0.0608079  -0.012837  0.0032475  0.0250714  0.0003148  0  0  0  0  0  0  0.0399747  0.0218025  -0.0351823  -0.00649646  -0.0117124  -0.00640731  -0.0531544  0.0550063  -0.0010044  -0.103923  -0.000990997  -0.00588766 
1699971369.142436000  0  0  12.1068  0.268592  -0.239632  0.00200873  nan  nan  nan  nan  nan  nan  -0.998818  -0.0043615  1.00067  0.0290311  -0.0601455  -0.0128775  0.0035738  0.0246267  0.0008692  0  0  0  0  0  0  0.0399373  0.0217553  -0.0352206  -0.00719024  -0.0102305  -0.00754708  -0.0539465  0.0541532  -0.00111881  -0.0408764  -0.0189451  -0.013921 
1699971369.146569000  0  0  12.0907  0.275278  -0.218835  0.00294737  nan  nan  nan  nan  nan  nan  -0.998799  -0.0042398  1.00068  0.0290942  -0.0604623  -0.0128905  0.0039516  0.0240634  0.0015022  0  0  0  0  0  0  0.0399885  0.0215329  -0.0351925  -0.00698493  -0.00970842  -0.00624243  -0.0543079  0.0538929  -0.00125016  -0.0509239  -0.0581451  -0.0243406 
1699971369.152434000  0  0  12.1741  0.282832  -0.241288  0.00392667  nan  nan  nan  nan  nan  nan  -0.998779  -0.0041211  1.00069  0.0295004  -0.0603722  -0.0129124  0.0043844  0.0233777  0.0022173  0  0  0  0  0  0  0.0400415  0.0213255  -0.0352422  -0.00664917  -0.00843225  -0.0131324  -0.0551287  0.053888  -0.00149467  -0.058481  -0.0131937  -0.0341367 
1699971369.156483000  0  0  12.2122  0.28991  -0.262805  0.00443737  nan  nan  nan  nan  nan  nan  -0.998755  -0.0040062  1.0007  0.0307607  -0.0596878  -0.0129675  0.004876  0.0225659  0.0030185  0  0  0  0  0  0  0.0400078  0.0212738  -0.0353052  -0.00721843  -0.00647031  -0.0162611  -0.0566297  0.0536663  -0.00166779  -0.0588269  0.0318804  -0.0387893 
1699971369.161622000  0  0  12.1854  0.311307  -0.264321  0.00436621  nan  nan  nan  nan  nan  nan  -0.99873  -0.0038957  1.00072  0.0313235  -0.060183  -0.0130166  0.0054303  0.0216242  0.0039094  0  0  0  0  0  0  0.0400422  0.0211008  -0.0353059  -0.00678385  -0.00542  -0.0140841  -0.0578799  0.0542801  -0.00178119  -0.0901182  0.0292659  -0.0367657 
1699971369.166485000  0  0  12.2292  0.330617  -0.280165  0.00398856  nan  nan  nan  nan  nan  nan  -0.998701  -0.0037902  1.00074  0.0333039  -0.0596392  -0.0131178  0.0060509  0.020549  0.0048937  0  0  0  0  0  0  0.0400081  0.0210822  -0.0353953  -0.00710551  -0.00252355  -0.0176733  -0.0604747  0.0542324  -0.00185021  -0.104866  0.0613921  -0.0313549 
1699971369.171509000  0  0  12.2637  0.334587  -0.312687  0.00364813  nan  nan  nan  nan  nan  nan  -0.998669  -0.0036904  1.00077  0.0342698  -0.0590198  -0.0131542  0.0067415  0.0193364  0.0059753  0  0  0  0  0  0  0.0400349  0.0209449  -0.0354634  -0.0077545  -0.000761116  -0.020516  -0.0618992  0.0546119  -0.00195057  -0.0997013  0.122944  -0.0260959 
1699971369.176487000  0  0  12.2268  0.328432  -0.286029  0.00428064  nan  nan  nan  nan  nan  nan  -0.998633  -0.0035971  1.0008  0.0359798  -0.0586977  -0.0132436  0.0075047  0.0179827  0.0071579  0  0  0  0  0  0  0.0399955  0.0209421  -0.0355176  -0.00831049  0.00144061  -0.0173927  -0.0637735  0.054356  -0.00210107  -0.0701475  0.0719837  -0.0324973 
1699971369.181435000  0  0  12.2218  0.318397  -0.260776  0.00456951  nan  nan  nan  nan  nan  nan  -0.998594  -0.0035108  1.00084  0.0371234  -0.058707  -0.0133111  0.0083378  0.0164841  0.0084452  0  0  0  0  0  0  0.0400453  0.0207908  -0.0355504  -0.00841655  0.00331148  -0.0169182  -0.0648794  0.0540506  -0.00224547  -0.0399046  0.0242873  -0.0346641 
1699971369.186434000  0  0  12.2598  0.31394  -0.270681  0.00395159  nan  nan  nan  nan  nan  nan  -0.99855  -0.0034325  1.00088  0.0379613  -0.0579841  -0.013333  0.009237  0.0148369  0.009841  0  0  0  0  0  0  0.0401048  0.0206087  -0.0356115  -0.00926742  0.00502792  -0.0200067  -0.065697  0.0536439  -0.00230837  -0.0234666  0.0478389  -0.0263112 
1699971369.191451000  0  0  12.2071  0.296184  -0.224113  0.00367378  nan  nan  nan  nan  nan  nan  -0.998501  -0.0033627  1.00094  0.0398995  -0.0572367  -0.0134157  0.0101986  0.0130374  0.011349  0  0  0  0  0  0  0.0400542  0.0206353  -0.0356701  -0.0104779  0.00739459  -0.0154756  -0.0671468  0.0521937  -0.00233711  0.0253829  -0.0319559  -0.0225511 
1699971369.196567000  0  0  12.265  0.295615  -0.215033  0.00349681  nan  nan  nan  nan  nan  nan  -0.998448  -0.0033023  1.001  0.0406824  -0.0568337  -0.0134442  0.0112189  0.0110818  0.012973  0  0  0  0  0  0  0.0400911  0.0204738  -0.0357266  -0.0107245  0.00908056  -0.0201703  -0.0677035  0.0513556  -0.00238772  0.0316427  -0.0424053  -0.0198329 
1699971369.202433000  0  0  12.3233  0.301668  -0.248338  0.00335897  nan  nan  nan  nan  nan  nan  -0.998389  -0.0032522  1.00107  0.0425792  -0.0557581  -0.0135063  0.012294  0.0089663  0.0147168  0  0  0  0  0  0  0.0400884  0.0203771  -0.0358063  -0.0117805  0.0121794  -0.0249463  -0.0693992  0.0508483  -0.00246086  0.0351371  0.0288729  -0.0173785 
1699971369.206435000  0  0  12.3138  0.323695  -0.237395  0.00379903  nan  nan  nan  nan  nan  nan  -0.998325  -0.003213  1.00115  0.0448747  -0.0550093  -0.0136009  0.0134203  0.0066872  0.016584  0  0  0  0  0  0  0.040029  0.0204216  -0.0358978  -0.0126836  0.0151996  -0.0240311  -0.0717874  0.0500607  -0.00253292  0.0130544  0.0142324  -0.0221587 
1699971369.211503000  0  0  12.3668  0.34536  -0.239386  0.00463734  nan  nan  nan  nan  nan  nan  -0.998255  -0.0031856  1.00123  0.0461315  -0.0545019  -0.0136468  0.0145941  0.0042408  0.0185784  0  0  0  0  0  0  0.0400215  0.0203087  -0.0359566  -0.0130072  0.0174553  -0.0284024  -0.0733335  0.0496484  -0.00270814  -0.0160521  0.0220064  -0.0308853 
1699971369.216619000  0  0  12.4238  0.354901  -0.284457  0.00500443  nan  nan  nan  nan  nan  nan  -0.998179  -0.0031708  1.00133  0.0492531  -0.0533506  -0.0137606  0.0158114  0.0016233  0.0207039  0  0  0  0  0  0  0.0399544  0.0204132  -0.0361241  -0.0140266  0.0218611  -0.0329576  -0.0764614  0.0496469  -0.00289103  -0.0063565  0.112162  -0.0336451 
1699971369.221617000  0  0  12.3727  0.360983  -0.27831  0.00510669  nan  nan  nan  nan  nan  nan  -0.998097  -0.0031696  1.00144  0.0509642  -0.0528431  -0.0138262  0.0170687  -0.0011691  0.022964  0  0  0  0  0  0  0.0399506  0.0203121  -0.0361652  -0.0149838  0.0241823  -0.0286852  -0.0781931  0.0495507  -0.003035  -0.00258974  0.100754  -0.0334836 
1699971369.226567000  0  0  12.4016  0.360505  -0.24651  0.0056558  nan  nan  nan  nan  nan  nan  -0.998008  -0.0031828  1.00156  0.0539449  -0.0518219  -0.013929  0.0183621  -0.0041401  0.0253627  0  0  0  0  0  0  0.039874  0.020441  -0.0363198  -0.0159857  0.0282005  -0.0308318  -0.0809075  0.0483895  -0.00321494  0.0233384  0.0478362  -0.0385481 
1699971369.232433000  0  0  12.4227  0.339521  -0.262511  0.00583988  nan  nan  nan  nan  nan  nan  -0.997913  -0.0032113  1.00169  0.0561908  -0.0508829  -0.0139929  0.0196879  -0.0072916  0.0279036  0  0  0  0  0  0  0.0398467  0.020427  -0.0364104  -0.0170525  0.0314877  -0.0324381  -0.0824078  0.0480955  -0.00344904  0.0791105  0.0825435  -0.0385081 
1699971369.236440000  0  0  12.4175  0.331749  -0.257582  0.00567525  nan  nan  nan  nan  nan  nan  -0.997811  -0.003256  1.00184  0.0592868  -0.0494819  -0.0140679  0.0210424  -0.0106205  0.0305904  0  0  0  0  0  0  0.0397522  0.0205681  -0.0365536  -0.0187446  0.0354592  -0.0317433  -0.0847374  0.0470231  -0.00357185  0.116086  0.0825517  -0.0352222 
1699971369.241483000  0  0  12.4178  0.313293  -0.202398  0.00503726  nan  nan  nan  nan  nan  nan  -0.997703  -0.0033178  1.002  0.0614087  -0.0488147  -0.0141322  0.0224217  -0.0141232  0.033427  0  0  0  0  0  0  0.039713  0.0205663  -0.0366523  -0.0195383  0.0384116  -0.0314865  -0.0857444  0.0455908  -0.00359322  0.162262  -0.0146394  -0.0270336 
1699971369.246570000  0  0  12.4885  0.317504  -0.224254  0.00471349  nan  nan  nan  nan  nan  nan  -0.997587  -0.0033976  1.00217  0.0635292  -0.0476574  -0.0141626  0.0238222  -0.0177958  0.0364171  0  0  0  0  0  0  0.0396608  0.0205847  -0.0367905  -0.0205992  0.0418269  -0.0370939  -0.0869976  0.0448836  -0.00368309  0.16537  0.035578  -0.0220877 
1699971369.251504000  0  0  12.5189  0.315349  -0.250538  0.00477064  nan  nan  nan  nan  nan  nan  -0.997464  -0.0034961  1.00236  0.0668496  -0.0467393  -0.01426  0.0252401  -0.0216346  0.0395644  0  0  0  0  0  0  0.0395588  0.0208012  -0.036977  -0.0214136  0.0462197  -0.0392682  -0.089208  0.0447748  -0.00380274  0.190016  0.0891476  -0.0216055 
1699971369.256487000  0  0  12.5804  0.329965  -0.244654  0.00585041  nan  nan  nan  nan  nan  nan  -0.997335  -0.0036142  1.00257  0.0690294  -0.0459619  -0.0143086  0.0266717  -0.0256359  0.0428717  0  0  0  0  0  0  0.0395072  0.0208247  -0.0371247  -0.022015  0.049699  -0.044087  -0.0906219  0.0443051  -0.00402556  0.173792  0.0817  -0.0328746 
