ts x y z roll pitch yaw vx vy vz wx wy wz ax ay az dwx dwy dwz jx jy jz ddwx ddwy ddwz
1699967375.798609000  -1  -0  1  0  0  0  6e-07  -6e-07  6e-07  0  0  0  0  0  0  0  0  0  0  0  0  0  0  0 
1699967375.802617000  -1  -0  1  0  0  0  5e-06  -5e-06  5e-06  0  0  0  0  0  0  0  0  0  0  0  0  0  0  0 
1699967375.807562000  -1  -1e-07  1  0  0  0  1.69e-05  -1.69e-05  1.69e-05  0  0  0  0  0  0  0  0  0  0  0  0  0  0  0 
1699967375.812564000  -1  -2e-07  1  0  0  1e-07  4e-05  -4e-05  4e-05  0  0  0  0  0  0  0  0  0  0  0  0  0  0  0 
1699967375.817559000  -1  -5e-07  1  0  0  2e-07  7.81e-05  -7.81e-05  7.81e-05  0  0  0  0  0  0  0  0  0  0  0  0  0  0  0 
1699967375.822601000  -0.999999  -1e-06  1  0  0  4e-07  0.000135  -0.000135  0.000135  0  0  0  0  0  0  0  0  0  0  0  0  0  0  0 
1699967375.827575000  -0.999998  -1.9e-06  1  0  0  6e-07  0.0002141  -0.0002144  0.0002134  0  0  0  0  0  0  0  0  0  0  0  0  0  0  0 
1699967375.832576000  -0.999997  -3.2e-06  1  0  0  8e-07  0.0003149  -0.00032  0.0003113  0  0  0  0  0  0  0  0  0  0  0  0  0  0  0 
1699967375.837579000  -0.999995  -5.1e-06  1.00001  0  0  1e-06  0.0004338  -0.0004556  0.0004249  0  0  0  0  0  0  0  0  0  0  0  0  0  0  0 
1699967375.842585000  -0.999992  -7.8e-06  1.00001  0  0  1.2e-06  0.0005669  -0.000625  0.0005504  0  0  0  0  0  0  0  0  0  0  0  0  0  0  0 
1699967375.847575000  -0.999989  -1.14e-05  1.00001  0  0  1.4e-06  0.0007105  -0.0008319  0.0006841  0  0  0  0  0  0  0  0  0  0  0  0  0  0  0 
1699967375.852576000  -0.999985  -1.62e-05  1.00001  0  0  1.6e-06  0.000861  -0.00108  0.0008222  0  0  0  0  0  0  0  0  0  0  0  0  0  0  0 
1699967375.857573000  -0.999981  -2.23e-05  1.00002  0  0  1.7e-06  0.0010145  -0.0013731  0.000961  0  0  0  0  0  0  0  0  0  0  0  0  0  0  0 
1699967375.862588000  -0.999975  -3e-05  1.00002  0  0  1.8e-06  0.0011672  -0.001715  0.0010968  0  0  0  0  0  0  0  0  0  0  0  0  0  0  0 
1699967375.867577000  -0.999969  -3.96e-05  1.00003  0  0  1.7e-06  0.0013155  -0.0021094  0.0012257  0  0  0  0  0  0  0  0  0  0  0  0  0  0  0 
1699967375.872579000  -0.999962  -5.12e-05  1.00004  0  0  1.4e-06  0.0014556  -0.0025587  0.0013441  0  0  0  0  0  0  0  0  0  0  0  0  0  0  0 
1699967375.877574000  -0.999954  -6.52e-05  1.00004  0  0  9e-07  0.0015837  -0.0030604  0.0014482  0  0  0  0  0  0  0  0  0  0  0  0  0  0  0 
1699967375.882589000  -0.999946  -8.19e-05  1.00005  0  0  0  0.0016961  -0.0036108  0.0015342  0  0  0  0  0  0  0  0  0  0  0  0  0  0  0 
1699967375.887581000  -0.999938  -0.0001014  1.00006  0  0  -1.3e-06  0.001789  -0.0042061  0.0015988  0  0  0  0  0  0  0  0  0  0  0  0  0  0  0 
1699967375.892577000  -0.999928  -0.000124  1.00007  0  0  -3.1e-06  0.0018593  -0.0048425  0.0016434  0  0  0  0  0  0  0  0  0  0  0  0  0  0  0 
1699967375.897573000  -0.999919  -0.0001499  1.00007  0  0  -5.5e-06  0.0019086  -0.0055164  0.0016716  0  0  0  0  0  0  0  0  0  0  0  0  0  0  0 
1699967375.902590000  -0.999909  -0.0001792  1.00008  0  0  -8.7e-06  0.0019405  -0.0062239  0.0016872  0  0  0  0  0  0  0  0  0  0  0  0  0  0  0 
1699967375.907578000  -0.9999  -0.0002122  1.00009  0  0  -1.27e-05  0.0019589  -0.0069612  0.0016939  0  0  0  0  0  0  0  0  0  0  0  0  0  0  0 
1699967375.912577000  -0.99989  -0.0002489  1.0001  0  0  -1.78e-05  0.0019674  -0.0077248  0.0016954  0  0  0  0  0  0  0  0  0  0  0  0  0  0  0 
1699967375.917575000  -0.99988  -0.0002895  1.00011  0  0  -2.4e-05  0.0019699  -0.0085107  0.0016955  0  0  0  0  0  0  0  0  0  0  0  0  0  0  0 
1699967375.922592000  -0.99987  -0.000334  1.00012  0  0  -3.15e-05  0.0019701  -0.0093153  0.0016955  0  0  0  0  0  0  0  0  0  0  0  0  0  0  0 
1699967375.927578000  -0.99986  -0.0003826  1.00013  0  0  -4.05e-05  0.0019701  -0.0101348  0.0016955  0  0  0  0  0  0  0  0  0  0  0  0  0  0  0 
1699967375.932576000  -0.99985  -0.0004354  1.00013  0  0  -5.11e-05  0.0019701  -0.0109655  0.0016955  0  0  0  0  0  0  0  0  0  0  0  0  0  0  0 
1699967375.937575000  -0.999841  -0.0004923  1.00014  0  0  -6.35e-05  0.0019701  -0.0118035  0.0016955  0  0  0  0  0  0  0  0  0  0  0  0  0  0  0 
1699967375.942588000  -0.999831  -0.0005534  1.00015  0  0  -7.8e-05  0.0019701  -0.0126452  0.0016955  0  0  0  0  0  0  0  0  0  0  0  0  0  0  0 
1699967375.947578000  -0.999821  -0.0006188  1.00016  0  0  -9.48e-05  0.0019701  -0.0134869  0.0016955  0  0  0  0  0  0  0  0  0  0  0  0  0  0  0 
1699967375.952577000  -0.999811  -0.0006883  1.00017  0  0  -0.000114  0.0019701  -0.0143246  0.0016955  0  0  0  0  0  0  0  0  0  0  0  0  0  0  0 
1699967375.957576000  -0.999801  -0.000762  1.00018  0  0  -0.0001358  0.0019701  -0.0151548  0.0016955  0  0  0  0  0  0  0  0  0  0  0  0  0  0  0 
1699967375.962589000  -0.999791  -0.0008398  1.00018  0  0  -0.0001606  0.0019701  -0.0159736  0.0016955  0  0  0  0  0  0  0  0  0  0  0  0  0  0  0 
1699967375.967575000  -0.999781  -0.0009217  1.00019  0  0  -0.0001886  0.0019701  -0.0167773  0.0016955  0  0  0  0  0  0  0  0  0  0  0  0  0  0  0 
1699967375.972578000  -0.999772  -0.0010076  1.0002  0  0  -0.0002199  0.0019701  -0.0175622  0.0016955  0  0  0  0  0  0  0  0  0  0  0  0  0  0  0 
1699967375.977587000  -0.999762  -0.0010973  1.00021  0  0  -0.0002549  0.0019701  -0.0183245  0.0016955  0  0  0  0  0  0  0  0  0  0  0  0  0  0  0 
1699967375.982589000  -0.999752  -0.0011908  1.00022  0  0  -0.0002938  0.0019701  -0.0190604  0.0016955  0  0  0  0  0  0  0  0  0  0  0  0  0  0  0 
1699967375.987575000  -0.999742  -0.0012879  1.00023  0  0  -0.0003368  0.0019701  -0.0197662  0.0016955  0  0  0  0  0  0  0  0  0  0  0  0  0  0  0 
1699967375.992577000  -0.999732  -0.0013884  1.00024  0  0  -0.000384  0.0019701  -0.0204382  0.0016955  0  0  0  0  0  0  0  0  0  0  0  0  0  0  0 
1699967375.997575000  -0.999722  -0.0014922  1.00024  0  0  -0.0004357  0.0019701  -0.0210726  0.0016955  0  0  0  0  0  0  0  0  0  0  0  0  0  0  0 
1699967376.002589000  -0.999712  -0.001599  1.00025  0  0  -0.0004921  0.0019701  -0.0216656  0.0016955  0  0  0  0  0  0  0  0  0  0  0  0  0  0  0 
1699967376.007578000  -0.999703  -0.0017087  1.00026  0  0  -0.0005532  0.0019701  -0.0222136  0.0016955  0  0  0  0  0  0  0  0  0  0  0  0  0  0  0 
1699967376.012575000  -0.999693  -0.0018211  1.00027  0  0  -0.0006194  0.0019701  -0.0227126  0.0016955  0  0  0  0  0  0  0  0  0  0  0  0  0  0  0 
1699967376.017576000  -0.999683  -0.0019358  1.00028  0  0  -0.0006908  0.0019701  -0.0231591  0.0016955  0  0  0  0  0  0  0  0  0  0  0  0  0  0  0 
1699967376.022591000  -0.999673  -0.0020526  1.00029  0  0  -0.0007674  0.0019701  -0.0235507  0.0016955  0  0  0  0  0  0  0  0  0  0  0  0  0  0  0 
1699967376.027575000  -0.999663  -0.0021712  1.0003  0  0  -0.0008494  0.0019701  -0.0238899  0.0016955  0  0  0  0  0  0  0  0  0  0  0  0  0  0  0 
1699967376.032578000  -0.999653  -0.0022914  1.0003  0  0  -0.000937  0.0019701  -0.0241806  0.0016955  0  0  0  0  0  0  0  0  0  0  0  0  0  0  0 
1699967376.037576000  -0.999643  -0.0024129  1.00031  0  0  -0.0010303  0.0019701  -0.0244265  0.0016955  0  0  0  0  0  0  0  0  0  0  0  0  0  0  0 
1699967376.042586000  -0.999634  -0.0025356  1.00032  0  0  -0.0011293  0.0019701  -0.0246313  0.0016955  0  0  0  0  0  0  0  0  0  0  0  0  0  0  0 
1699967376.047577000  -0.999624  -0.0026592  1.00033  0  0  -0.0012342  0.0019701  -0.0247989  0.0016955  0  0  0  0  0  0  0  0  0  0  0  0  0  0  0 
1699967376.052577000  -0.999614  -0.0027835  1.00034  0  0  -0.001345  0.0019701  -0.0249328  0.0016955  0  0  0  0  0  0  0  0  0  0  0  0  0  0  0 
1699967376.057575000  -0.999604  -0.0029085  1.00035  0  0  -0.0014619  0.0019701  -0.025037  0.0016955  0  0  0  0  0  0  0  0  0  0  0  0  0  0  0 
1699967376.062595000  -0.999594  -0.0030339  1.00035  0  0  -0.0015848  0.0019701  -0.0251151  0.0016955  0  0  0  0  0  0  0  0  0  0  0  0  0  0  0 
1699967376.067575000  -0.999584  -0.0031596  1.00036  0  0  -0.0017139  0.0019701  -0.0251709  0.0016955  0  0  0  0  0  0  0  0  0  0  0  0  0  0  0 
1699967376.072578000  -0.999575  -0.0032855  1.00037  0  0  -0.0018491  0.0019701  -0.0252082  0.0016955  0  0  0  0  0  0  0  0  0  0  0  0  0  0  0 
1699967376.077574000  -0.999565  -0.0034116  1.00038  0  0  -0.0019905  0.0019701  -0.0252306  0.0016955  0  0  0  0  0  0  0  0  0  0  0  0  0  0  0 
1699967376.082585000  -0.999555  -0.0035378  1.00039  0  0  -0.0021382  0.0019701  -0.025242  0.0016955  0  0  0  0  0  0  0  0  0  0  0  0  0  0  0 
1699967376.087579000  -0.999545  -0.003664  1.0004  0  0  -0.0022921  0.0019701  -0.0252461  0.0016955  0  0  0  0  0  0  0  0  0  0  0  0  0  0  0 
1699967376.092579000  -0.999535  -0.0037903  1.00041  0  0  -0.0024523  0.0019701  -0.0252466  0.0016955  0  0  0  0  0  0  0  0  0  0  0  0  0  0  0 
1699967376.097581000  -0.999525  -0.0039165  1.00041  0  0  -0.0026187  0.0019701  -0.0252462  0.0016955  0  0  0  0  0  0  0  0  0  0  0  0  0  0  0 
1699967376.102615000  -0.999515  -0.0040427  1.00042  0  0  -0.0027914  0.0019701  -0.0252424  0.0016955  0  0  0  0  0  0  0  0  0  0  0  0  0  0  0 
1699967376.107564000  -0.999506  -0.0041689  1.00043  0  0  -0.0029703  0.0019701  -0.0252316  0.0016955  0  0  0  0  0  0  0  0  0  0  0  0  0  0  0 
1699967376.112563000  -0.999496  -0.004295  1.00044  0  0  -0.0031555  0.0019701  -0.02521  0.0016955  0  0  0  0  0  0  0  0  0  0  0  0  0  0  0 
1699967376.117562000  -0.999486  -0.004421  1.00045  0  0  -0.0033469  0.0019701  -0.0251737  0.0016955  0  0  0  0  0  0  0  0  0  0  0  0  0  0  0 
1699967376.122581000  -0.999476  -0.0045467  1.00046  0  0  -0.0035446  0.0019701  -0.0251192  0.0016955  0  0  0  0  0  0  0  0  0  0  0  0  0  0  0 
1699967376.127562000  -0.999466  -0.0046722  1.00046  0  0  -0.0037485  0.0019701  -0.0250426  0.0016955  0  0  0  0  0  0  0  0  0  0  0  0  0  0  0 
1699967376.132561000  -0.999456  -0.0047971  1.00047  0  0  -0.0039586  0.0019701  -0.0249402  0.0016955  0  0  0  0  0  0  0  0  0  0  0  0  0  0  0 
1699967376.137561000  -0.999446  -0.0049215  1.00048  0  0  -0.004175  0.0019701  -0.0248082  0.0016955  0  0  0  0  0  0  0  0  0  0  0  0  0  0  0 
1699967376.142594000  -0.999437  -0.0050451  1.00049  0  0  -0.0043977  0.0019701  -0.0246429  0.0016955  0  0  0  0  0  0  0  0  0  0  0  0  0  0  0 
1699967376.147559000  -0.999427  -0.0051679  1.0005  0  0  -0.0046266  0.0019701  -0.0244405  0.0016955  0  0  0  0  0  0  0  0  0  0  0  0  0  0  0 
1699967376.152561000  -0.999417  -0.0052895  1.00051  0  0  -0.0048618  0.0019701  -0.0241973  0.0016955  0  0  0  0  0  0  0  0  0  0  0  0  0  0  0 
1699967376.157560000  -0.999407  -0.0054098  1.00052  0  0  -0.0051032  0.0019701  -0.0239095  0.0016955  0  0  0  0  0  0  0  0  0  0  0  0  0  0  0 
1699967376.162599000  -0.999397  -0.0055285  1.00052  0  0  -0.0053509  0.0019701  -0.0235734  0.0016955  0  0  0  0  0  0  0  0  0  0  0  0  0  0  0 
1699967376.167561000  -0.999387  -0.0056454  1.00053  0  0  -0.0056048  0.0019701  -0.0231852  0.0016955  0  0  0  0  0  0  0  0  0  0  0  0  0  0  0 
1699967376.172561000  -0.999378  -0.0057603  1.00054  0  0  -0.005865  0.0019701  -0.0227412  0.0016955  0  0  0  0  0  0  0  0  0  0  0  0  0  0  0 
1699967376.177561000  -0.999368  -0.0058727  1.00055  0  0  -0.0061314  0.0019701  -0.0222377  0.0016955  0  0  0  0  0  0  0  0  0  0  0  0  0  0  0 
1699967376.182600000  -0.999358  -0.0059825  1.00056  0  0  -0.006404  0.0019701  -0.0216708  0.0016955  0  0  0  0  0  0  0  0  0  0  0  0  0  0  0 
1699967376.187562000  -0.999348  -0.0060893  1.00057  0  0  -0.006683  0.0019701  -0.0210368  0.0016955  0  0  0  0  0  0  0  0  0  0  0  0  0  0  0 
1699967376.192561000  -0.999338  -0.0061928  1.00057  0  0  -0.0069681  0.0019701  -0.0203326  0.0016955  0  0  0  0  0  0  0  0  0  0  0  0  0  0  0 
1699967376.197561000  -0.999328  -0.0062925  1.00058  0  0  -0.0072595  0.0019701  -0.0195595  0.0016955  0  0  0  0  0  0  0  0  0  0  0  0  0  0  0 
1699967376.202599000  -0.999318  -0.0063883  1.00059  0  0  -0.0075572  0.0019701  -0.0187213  0.0016955  0  0  0  0  0  0  0  0  0  0  0  0  0  0  0 
1699967376.207559000  -0.999309  -0.0064796  1.0006  0  0  -0.0078611  0.0019701  -0.0178216  0.0016955  0  0  0  0  0  0  0  0  0  0  0  0  0  0  0 
1699967376.212560000  -0.999299  -0.0065664  1.00061  0  0  -0.0081713  0.0019701  -0.0168643  0.0016955  0  0  0  0  0  0  0  0  0  0  0  0  0  0  0 
1699967376.217562000  -0.999289  -0.0066482  1.00062  0  0  -0.0084877  0.0019701  -0.0158531  0.0016955  0  0  0  0  0  0  0  0  0  0  0  0  0  0  0 
1699967376.222598000  -0.999279  -0.0067248  1.00063  0  0  -0.0088104  0.0019701  -0.0147918  0.0016955  0  0  0  0  0  0  0  0  0  0  0  0  0  0  0 
1699967376.227560000  -0.999269  -0.006796  1.00063  0  0  -0.0091393  0.0019701  -0.0136841  0.0016955  0  0  0  0  0  0  0  0  0  0  0  0  0  0  0 
1699967376.232561000  -0.999259  -0.0068616  1.00064  0  0  -0.0094745  0.0019701  -0.0125337  0.0016955  0  0  0  0  0  0  0  0  0  0  0  0  0  0  0 
1699967376.237559000  -0.999249  -0.0069213  1.00065  0  0  -0.0098159  0.0019701  -0.0113444  0.0016955  0  0  0  0  0  0  0  0  0  0  0  0  0  0  0 
1699967376.242597000  -0.99924  -0.006975  1.00066  0  0  -0.0101635  0.0019701  -0.01012  0.0016955  0  0  0  0  0  0  0  0  0  0  0  0  0  0  0 
1699967376.247560000  -0.99923  -0.0070225  1.00067  0  0  -0.0105175  0.0019701  -0.0088642  0.0016955  0  0  0  0  0  0  0  0  0  0  0  0  0  0  0 
1699967376.252560000  -0.99922  -0.0070636  1.00068  0  0  -0.0108776  0.0019701  -0.0075807  0.0016955  0  0  0  0  0  0  0  0  0  0  0  0  0  0  0 
1699967376.257560000  -0.99921  -0.0070982  1.00069  0  0  -0.011132  0.0019701  -0.0062733  0.0016955  0  0  0  0  0  0  0  0  0  0  0  0  0  0  0 
1699967376.262601000  -0.9992  -0.0071263  1.00069  0  0  -0.011132  0.0019701  -0.0049458  0.0016954  0  0  0  0  0  0  0  0  0  0  0  0  0  0  0 
1699967376.267560000  -0.99919  -0.0071477  1.0007  0  0  -0.011132  0.0019701  -0.0036019  0.0016932  0  0  0  0  0  0  0  0  0  0  0  0  0  0  0 
1699967376.272560000  -0.999181  -0.0071623  1.00071  0  0  -0.011132  0.0019701  -0.0022454  0.0016853  0  0  0  0  0  0  0  0  0  0  0  0  0  0  0 
1699967376.277560000  -0.999171  -0.0071701  1.00072  0  0  -0.011132  0.0019701  -0.0008799  0.001668  0  0  0  0  0  0  0  0  0  0  0  0  0  0  0 
1699967376.282604000  -0.999161  -0.0071711  1.00073  0  0  -0.011132  0.0019701  0.0004907  0.0016374  0  0  0  0  0  0  0  0  0  0  0  0  0  0  0 
1699967376.287561000  -0.999151  -0.0071652  1.00074  0  0  -0.011132  0.0019701  0.0018626  0.0015898  0  0  0  0  0  0  0  0  0  0  0  0  0  0  0 
1699967376.292560000  -0.999141  -0.0071525  1.00074  0  0  -0.011132  0.0019701  0.0032323  0.0015215  0  0  0  0  0  0  0  0  0  0  0  0  0  0  0 
1699967376.297559000  -0.999131  -0.0071329  1.00075  0  0  -0.011132  0.0019701  0.0045958  0.0014287  0  0  0  0  0  0  0  0  0  0  0  0  0  0  0 
1699967376.302593000  -0.999121  -0.0071065  1.00076  0  0  -0.011132  0.0019701  0.0059495  0.0013081  0  0  0  0  0  0  0  0  0  0  0  0  0  0  0 
1699967376.307558000  -0.999112  -0.0070734  1.00076  0  0  -0.011132  0.0019701  0.0072895  0.0011611  0  0  0  0  0  0  0  0  0  0  0  0  0  0  0 
1699967376.312561000  -0.999102  -0.0070336  1.00077  0  0  -0.011132  0.0019701  0.0086123  0.0009912  0  0  0  0  0  0  0  0  0  0  0  0  0  0  0 
1699967376.317559000  -0.999092  -0.0069873  1.00077  0  0  -0.011132  0.0019701  0.0099139  0.0008024  0  0  0  0  0  0  0  0  0  0  0  0  0  0  0 
1699967376.322600000  -0.999082  -0.0069346  1.00078  0  0  -0.011132  0.0019701  0.0111906  0.0005983  0  0  0  0  0  0  0  0  0  0  0  0  0  0  0 
1699967376.327561000  -0.999072  -0.0068755  1.00078  0  0  -0.011132  0.0019701  0.0124388  0.0003827  0  0  0  0  0  0  0  0  0  0  0  0  0  0  0 
1699967376.332560000  -0.999062  -0.0068102  1.00078  0  0  -0.011132  0.0019701  0.0136546  0.0001593  0  0  0  0  0  0  0  0  0  0  0  0  0  0  0 
1699967376.337561000  -0.999052  -0.006739  1.00078  0  0  -0.011132  0.0019701  0.0148343  -6.81e-05  0  0  0  0  0  0  0  0  0  0  0  0  0  0  0 
1699967376.342599000  -0.999043  -0.0066619  1.00078  0  0  -0.011132  0.0019701  0.0159741  -0.0002958  0  0  0  0  0  0  0  0  0  0  0  0  0  0  0 
1699967376.347560000  -0.999033  -0.0065793  1.00078  0  0  -0.011132  0.0019701  0.0170704  -0.00052  0  0  0  0  0  0  0  0  0  0  0  0  0  0  0 
1699967376.352561000  -0.999023  -0.0064913  1.00077  0  0  -0.011132  0.0019701  0.0181193  -0.000737  0  0  0  0  0  0  0  0  0  0  0  0  0  0  0 
1699967376.357561000  -0.999013  -0.0063982  1.00077  0  0  -0.011132  0.0019701  0.019117  -0.000943  0  0  0  0  0  0  0  0  0  0  0  0  0  0  0 
1699967376.362594000  -0.999003  -0.0063002  1.00077  0  0  -0.011132  0.0019701  0.02006  -0.0011342  0  0  0  0  0  0  0  0  0  0  0  0  0  0  0 
1699967376.367558000  -0.998993  -0.0061977  1.00076  0  0  -0.011132  0.0019701  0.0209443  -0.001307  0  0  0  0  0  0  0  0  0  0  0  0  0  0  0 
1699967376.372561000  -0.998984  -0.0060909  1.00075  0  0  -0.011132  0.0019701  0.0217663  -0.0014575  0  0  0  0  0  0  0  0  0  0  0  0  0  0  0 
1699967376.377560000  -0.998974  -0.0059802  1.00074  0  0  -0.011132  0.0019703  0.0225221  -0.0015821  0  0  0  0  0  0  0  0  0  0  0  0  0  0  0 
1699967376.382598000  -0.998964  -0.0058658  1.00074  0  0  -0.011132  0.0019731  0.0232082  -0.0016769  0  0  0  0  0  0  0  0  0  0  0  0  0  0  0 
1699967376.387559000  -0.998954  -0.0057482  1.00073  0  0  -0.011132  0.0019823  0.0238206  -0.0017383  0  0  0  0  0  0  0  0  0  0  0  0  0  0  0 
1699967376.392560000  -0.998944  -0.0056277  1.00072  0  0  -0.011132  0.0020015  0.0243556  -0.0017624  0  0  0  0  0  0  0  0  0  0  0  0  0  0  0 
1699967376.397561000  -0.998934  -0.0055048  1.00071  0  0  -0.011132  0.0020346  0.0248096  -0.0017455  0  0  0  0  0  0  0  0  0  0  0  0  0  0  0 
1699967376.402600000  -0.998924  -0.0053798  1.0007  0  0  -0.011132  0.0020853  0.0251787  -0.0016839  0  0  0  0  0  0  0  0  0  0  0  0  0  0  0 
1699967376.407564000  -0.998913  -0.0052531  1.00069  0  0  -0.011132  0.0021573  0.0254592  -0.0015738  0  0  0  0  0  0  0  0  0  0  0  0  0  0  0 
1699967376.412564000  -0.998902  -0.0051253  1.00069  0  0  -0.011132  0.0022544  0.0256473  -0.0014115  0  0  0  0  0  0  0  0  0  0  0  0  0  0  0 
1699967376.417564000  -0.99889  -0.0049968  1.00068  0  0  -0.011132  0.0023803  0.0257393  -0.0011932  0  0  0  0  0  0  0  0  0  0  0  0  0  0  0 
1699967376.422605000  -0.998878  -0.0048681  1.00067  0  0  -0.011132  0.0025388  0.0257315  -0.0009152  0  0  0  0  0  0  0  0  0  0  0  0  0  0  0 
1699967376.427563000  -0.998865  -0.0047397  1.00067  0  0  -0.011132  0.0027337  0.0256201  -0.0005737  0  0  0  0  0  0  0  0  0  0  0  0  0  0  0 
1699967376.432563000  -0.998851  -0.0046121  1.00067  0  0  -0.011132  0.0029687  0.0254013  -0.0001649  0  0  0  0  0  0  0  0  0  0  0  0  0  0  0 
1699967376.437562000  -0.998835  -0.0044858  1.00067  0  0  -0.011132  0.0032475  0.0250714  0.0003148  0  0  0  0  0  0  0  0  0  0  0  0  0  0  0 
1699967376.442599000  -0.998818  -0.0043615  1.00067  0  0  -0.011132  0.0035738  0.0246267  0.0008692  0  0  0  0  0  0  0  0  0  0  0  0  0  0  0 
1699967376.447563000  -0.998799  -0.0042398  1.00068  0  0  -0.011132  0.0039516  0.0240634  0.0015022  0  0  0  0  0  0  0  0  0  0  0  0  0  0  0 
1699967376.452569000  -0.998779  -0.0041211  1.00069  0  0  -0.011132  0.0043844  0.0233777  0.0022173  0  0  0  0  0  0  0  0  0  0  0  0  0  0  0 
1699967376.457570000  -0.998755  -0.0040062  1.0007  0  0  -0.011132  0.004876  0.0225659  0.0030185  0  0  0  0  0  0  0  0  0  0  0  0  0  0  0 
1699967376.462578000  -0.99873  -0.0038957  1.00072  0  0  -0.011132  0.0054303  0.0216242  0.0039094  0  0  0  0  0  0  0  0  0  0  0  0  0  0  0 
1699967376.467562000  -0.998701  -0.0037902  1.00074  0  0  -0.011132  0.0060509  0.020549  0.0048937  0  0  0  0  0  0  0  0  0  0  0  0  0  0  0 
1699967376.472563000  -0.998669  -0.0036904  1.00077  0  0  -0.011132  0.0067415  0.0193364  0.0059753  0  0  0  0  0  0  0  0  0  0  0  0  0  0  0 
1699967376.477563000  -0.998633  -0.0035971  1.0008  0  0  -0.011132  0.0075047  0.0179827  0.0071579  0  0  0  0  0  0  0  0  0  0  0  0  0  0  0 
1699967376.482595000  -0.998594  -0.0035108  1.00084  0  0  -0.011132  0.0083378  0.0164841  0.0084452  0  0  0  0  0  0  0  0  0  0  0  0  0  0  0 
1699967376.487562000  -0.99855  -0.0034325  1.00088  0  0  -0.011132  0.009237  0.0148369  0.009841  0  0  0  0  0  0  0  0  0  0  0  0  0  0  0 
1699967376.492564000  -0.998501  -0.0033627  1.00094  0  0  -0.011132  0.0101986  0.0130374  0.011349  0  0  0  0  0  0  0  0  0  0  0  0  0  0  0 
1699967376.497562000  -0.998448  -0.0033023  1.001  0  0  -0.011132  0.0112189  0.0110818  0.012973  0  0  0  0  0  0  0  0  0  0  0  0  0  0  0 
1699967376.502599000  -0.998389  -0.0032522  1.00107  0  0  -0.011132  0.012294  0.0089663  0.0147168  0  0  0  0  0  0  0  0  0  0  0  0  0  0  0 
1699967376.507563000  -0.998325  -0.003213  1.00115  0  0  -0.011132  0.0134203  0.0066872  0.016584  0  0  0  0  0  0  0  0  0  0  0  0  0  0  0 
1699967376.512563000  -0.998255  -0.0031856  1.00123  0  0  -0.011132  0.0145941  0.0042408  0.0185784  0  0  0  0  0  0  0  0  0  0  0  0  0  0  0 
1699967376.517562000  -0.998179  -0.0031708  1.00133  0  0  -0.011132  0.0158114  0.0016233  0.0207039  0  0  0  0  0  0  0  0  0  0  0  0  0  0  0 
1699967376.522597000  -0.998097  -0.0031696  1.00144  0  0  -0.011132  0.0170687  -0.0011691  0.022964  0  0  0  0  0  0  0  0  0  0  0  0  0  0  0 
1699967376.527561000  -0.998008  -0.0031828  1.00156  0  0  -0.011132  0.0183621  -0.0041401  0.0253627  0  0  0  0  0  0  0  0  0  0  0  0  0  0  0 
1699967376.532561000  -0.997913  -0.0032113  1.00169  0  0  -0.011132  0.0196879  -0.0072916  0.0279036  0  0  0  0  0  0  0  0  0  0  0  0  0  0  0 
1699967376.537561000  -0.997811  -0.003256  1.00184  0  0  -0.011132  0.0210424  -0.0106205  0.0305904  0  0  0  0  0  0  0  0  0  0  0  0  0  0  0 
1699967376.542592000  -0.997703  -0.0033178  1.002  0  0  -0.011132  0.0224217  -0.0141232  0.033427  0  0  0  0  0  0  0  0  0  0  0  0  0  0  0 
1699967376.547560000  -0.997587  -0.0033976  1.00217  0  0  -0.011132  0.0238222  -0.0177958  0.0364171  0  0  0  0  0  0  0  0  0  0  0  0  0  0  0 
1699967376.552562000  -0.997464  -0.0034961  1.00236  0  0  -0.011132  0.0252401  -0.0216346  0.0395644  0  0  0  0  0  0  0  0  0  0  0  0  0  0  0 
1699967376.557562000  -0.997335  -0.0036142  1.00257  0  0  -0.011132  0.0266717  -0.0256359  0.0428717  0  0  0  0  0  0  0  0  0  0  0  0  0  0  0 
1699967376.562592000  -0.997198  -0.0037527  1.00279  0  0  -0.011132  0.0281131  -0.029796  0.0463367  0  0  0  0  0  0  0  0  0  0  0  0  0  0  0 
1699967376.567564000  -0.997053  -0.0039124  1.00303  0  0  -0.011132  0.0295607  -0.034111  0.0499558  0  0  0  0  0  0  0  0  0  0  0  0  0  0  0 
1699967376.572564000  -0.996902  -0.0040941  1.00329  0  0  -0.011132  0.0310107  -0.0385773  0.0537252  0  0  0  0  0  0  0  0  0  0  0  0  0  0  0 
1699967376.577562000  -0.996743  -0.0042984  1.00357  0  0  -0.011132  0.0324594  -0.043191  0.0576411  0  0  0  0  0  0  0  0  0  0  0  0  0  0  0 
1699967376.582599000  -0.996577  -0.0045262  1.00387  0  0  -0.011132  0.0339029  -0.0479484  0.0616998  0  0  0  0  0  0  0  0  0  0  0  0  0  0  0 
1699967376.587562000  -0.996404  -0.0047781  1.00419  0  0  -0.011132  0.0353376  -0.0528458  0.0658975  0  0  0  0  0  0  0  0  0  0  0  0  0  0  0 
1699967376.592562000  -0.996224  -0.0050549  1.00453  0  0  -0.011132  0.0367597  -0.0578795  0.0702305  0  0  0  0  0  0  0  0  0  0  0  0  0  0  0 
1699967376.597562000  -0.996037  -0.0053571  1.00489  0  0  -0.011132  0.0381655  -0.0630456  0.074695  0  0  0  0  0  0  0  0  0  0  0  0  0  0  0 
1699967376.602597000  -0.995842  -0.0056856  1.00528  0  0  -0.011132  0.0395511  -0.0683404  0.0792873  0  0  0  0  0  0  0  0  0  0  0  0  0  0  0 
1699967376.607560000  -0.995641  -0.0060408  1.00568  0  0  -0.011132  0.0409129  -0.0737602  0.0840037  0  0  0  0  0  0  0  0  0  0  0  0  0  0  0 
1699967376.612563000  -0.995433  -0.0064234  1.00612  0  0  -0.011132  0.0422471  -0.0793013  0.0888403  0  0  0  0  0  0  0  0  0  0  0  0  0  0  0 
1699967376.617561000  -0.995219  -0.006834  1.00657  0  0  -0.011132  0.04355  -0.0849598  0.0937934  0  0  0  0  0  0  0  0  0  0  0  0  0  0  0 
1699967376.622602000  -0.994998  -0.0072731  1.00705  0  0  -0.011132  0.0448177  -0.090732  0.0988593  0  0  0  0  0  0  0  0  0  0  0  0  0  0  0 
1699967376.627563000  -0.994771  -0.0077415  1.00756  0  0  -0.011132  0.0460466  -0.0966142  0.104034  0  0  0  0  0  0  0  0  0  0  0  0  0  0  0 
1699967376.632567000  -0.994537  -0.0082395  1.0081  0  0  -0.011132  0.0472329  -0.102603  0.109314  0  0  0  0  0  0  0  0  0  0  0  0  0  0  0 
1699967376.637562000  -0.994298  -0.0087677  1.00866  0  0  -0.011132  0.0483729  -0.108694  0.114696  0  0  0  0  0  0  0  0  0  0  0  0  0  0  0 
1699967376.642592000  -0.994054  -0.0093266  1.00924  0  0  -0.011132  0.0494627  -0.114883  0.120176  0  0  0  0  0  0  0  0  0  0  0  0  0  0  0 
1699967376.647560000  -0.993804  -0.0099167  1.00986  0  0  -0.011132  0.0504987  -0.121168  0.125749  0  0  0  0  0  0  0  0  0  0  0  0  0  0  0 
1699967376.652562000  -0.993549  -0.0105384  1.0105  0  0  -0.011132  0.0514771  -0.127544  0.131413  0  0  0  0  0  0  0  0  0  0  0  0  0  0  0 
1699967376.657560000  -0.993289  -0.0111922  1.01117  0  0  -0.011132  0.0523941  -0.134007  0.137163  0  0  0  0  0  0  0  0  0  0  0  0  0  0  0 
1699967376.662597000  -0.993025  -0.0118786  1.01187  0  0  -0.011132  0.0532461  -0.140554  0.142997  0  0  0  0  0  0  0  0  0  0  0  0  0  0  0 
1699967376.667561000  -0.992757  -0.0125979  1.0126  0  0  -0.011132  0.0540291  -0.147181  0.148909  0  0  0  0  0  0  0  0  0  0  0  0  0  0  0 
1699967376.672561000  -0.992485  -0.0133505  1.01336  0  0  -0.011132  0.0547401  -0.153884  0.154896  0  0  0  0  0  0  0  0  0  0  0  0  0  0  0 
1699967376.677561000  -0.99221  -0.0141369  1.01415  0  0  -0.011132  0.0553799  -0.16066  0.160955  0  0  0  0  0  0  0  0  0  0  0  0  0  0  0 
1699967376.682594000  -0.991931  -0.0149573  1.01497  0  0  -0.011132  0.0559523  -0.167504  0.167082  0  0  0  0  0  0  0  0  0  0  0  0  0  0  0 
1699967376.687560000  -0.99165  -0.015812  1.01582  0  0  -0.011132  0.0564611  -0.174414  0.173273  0  0  0  0  0  0  0  0  0  0  0  0  0  0  0 
1699967376.692563000  -0.991367  -0.0167015  1.0167  0  0  -0.011132  0.0569099  -0.181384  0.179524  0  0  0  0  0  0  0  0  0  0  0  0  0  0  0 
1699967376.697561000  -0.991081  -0.017626  1.01762  0  0  -0.011132  0.0573027  -0.188412  0.185831  0  0  0  0  0  0  0  0  0  0  0  0  0  0  0 
1699967376.702593000  -0.990794  -0.0185857  1.01856  0  0  -0.011132  0.0576431  -0.195494  0.192192  0  0  0  0  0  0  0  0  0  0  0  0  0  0  0 
1699967376.707560000  -0.990505  -0.019581  1.01954  0  0  -0.011132  0.0579348  -0.202626  0.198601  0  0  0  0  0  0  0  0  0  0  0  0  0  0  0 
1699967376.712560000  -0.990215  -0.020612  1.02055  0  0  -0.011132  0.0581816  -0.209804  0.205056  0  0  0  0  0  0  0  0  0  0  0  0  0  0  0 
1699967376.717564000  -0.989923  -0.0216791  1.02159  0  0  -0.011132  0.0583873  -0.217024  0.211552  0  0  0  0  0  0  0  0  0  0  0  0  0  0  0 
1699967376.722599000  -0.989631  -0.0227823  1.02266  0  0  -0.011132  0.0585556  -0.224284  0.218086  0  0  0  0  0  0  0  0  0  0  0  0  0  0  0 
1699967376.727561000  -0.989338  -0.023922  1.02377  0  0  -0.011132  0.0586903  -0.231578  0.224654  0  0  0  0  0  0  0  0  0  0  0  0  0  0  0 
1699967376.732561000  -0.989044  -0.0250982  1.02491  0  0  -0.011132  0.0587951  -0.238903  0.231252  0  0  0  0  0  0  0  0  0  0  0  0  0  0  0 
1699967376.737561000  -0.98875  -0.0263111  1.02608  0  0  -0.011132  0.0588738  -0.246256  0.237877  0  0  0  0  0  0  0  0  0  0  0  0  0  0  0 
1699967376.742593000  -0.988455  -0.0275608  1.02729  0  0  -0.011132  0.05893  -0.253633  0.244525  0  0  0  0  0  0  0  0  0  0  0  0  0  0  0 
1699967376.747559000  -0.98816  -0.0288474  1.02853  0  0  -0.011132  0.0589676  -0.261029  0.251191  0  0  0  0  0  0  0  0  0  0  0  0  0  0  0 
1699967376.752561000  -0.987866  -0.0301711  1.0298  0  0  -0.011132  0.0589904  -0.268442  0.257873  0  0  0  0  0  0  0  0  0  0  0  0  0  0  0 
1699967376.757562000  -0.987571  -0.0315319  1.03111  0  0  -0.011132  0.059002  -0.275867  0.264567  0  0  0  0  0  0  0  0  0  0  0  0  0  0  0 
1699967376.762604000  -0.987276  -0.0329298  1.03245  0  0  -0.011132  0.0590062  -0.283301  0.271268  0  0  0  0  0  0  0  0  0  0  0  0  0  0  0 
1699967376.767566000  -0.987013  -0.0343649  1.03382  0  0  -0.011132  0.0589921  -0.29074  0.277973  0  0  0  0  0  0  0  0  0  0  0  0  0  0  0 
1699967376.772561000  -0.987013  -0.034891  1.0339  0  0  -0.011132  0.0589921  -0.293242  0.27844  0  0  0  0  0  0  0  0  0  0  0  0  0  0  0 
1699967376.777560000  -0.986718  -0.0363758  1.03531  0  0  -0.0115027  0.0589927  -0.300682  0.285145  0  0  0  0  0  0  0  0  0  0  0  0  0  0  0 
1699967376.782594000  -0.986423  -0.0378978  1.03675  0  0  -0.0118796  0.0589971  -0.308118  0.291847  0  0  0  0  0  0  0  0  0  0  0  0  0  0  0 
1699967376.787560000  -0.986128  -0.039457  1.03822  0  0  -0.0122627  0.059009  -0.315547  0.298541  0  0  0  0  0  0  0  0  0  0  0  0  0  0  0 
1699967376.792560000  -0.985833  -0.0410532  1.03973  0  0  -0.012652  0.0590321  -0.322964  0.305224  0  0  0  0  0  0  0  0  0  0  0  0  0  0  0 
1699967376.797563000  -0.985537  -0.0426866  1.04128  0  0  -0.0130475  0.0590702  -0.330366  0.311892  0  0  0  0  0  0  0  0  0  0  0  0  0  0  0 
1699967376.802598000  -0.985242  -0.0443569  1.04285  0  0  -0.0134492  0.0591271  -0.33775  0.318541  0  0  0  0  0  0  0  0  0  0  0  0  0  0  0 
1699967376.807560000  -0.984946  -0.046064  1.04446  0  0  -0.0138569  0.0592065  -0.345111  0.325168  0  0  0  0  0  0  0  0  0  0  0  0  0  0  0 
1699967376.812560000  -0.98465  -0.0478079  1.0461  0  0  -0.0142706  0.0593121  -0.352445  0.331768  0  0  0  0  0  0  0  0  0  0  0  0  0  0  0 
1699967376.817561000  -0.984353  -0.0495884  1.04778  0  0  -0.0146902  0.0594477  -0.35975  0.338339  0  0  0  0  0  0  0  0  0  0  0  0  0  0  0 
1699967376.822602000  -0.984055  -0.0514054  1.04949  0  0  -0.0151157  0.0596171  -0.367021  0.344875  0  0  0  0  0  0  0  0  0  0  0  0  0  0  0 
1699967376.827561000  -0.983757  -0.0532586  1.05123  0  0  -0.0155469  0.059824  -0.374255  0.351374  0  0  0  0  0  0  0  0  0  0  0  0  0  0  0 
1699967376.832561000  -0.983457  -0.0551479  1.053  0  0  -0.0159838  0.0600721  -0.381447  0.357832  0  0  0  0  0  0  0  0  0  0  0  0  0  0  0 
1699967376.837563000  -0.983156  -0.057073  1.05481  0  0  -0.0164262  0.0603652  -0.388594  0.364245  0  0  0  0  0  0  0  0  0  0  0  0  0  0  0 
1699967376.842598000  -0.982853  -0.0590337  1.05664  0  0  -0.016874  0.0607071  -0.395693  0.370609  0  0  0  0  0  0  0  0  0  0  0  0  0  0  0 
1699967376.847560000  -0.982549  -0.0610298  1.05851  0  0  -0.017327  0.0611015  -0.402739  0.376921  0  0  0  0  0  0  0  0  0  0  0  0  0  0  0 
1699967376.852561000  -0.982242  -0.063061  1.06041  0  0  -0.0177852  0.0615521  -0.409729  0.383176  0  0  0  0  0  0  0  0  0  0  0  0  0  0  0 
1699967376.857561000  -0.981933  -0.065127  1.06234  0  0  -0.0182484  0.0620627  -0.416659  0.389372  0  0  0  0  0  0  0  0  0  0  0  0  0  0  0 
1699967376.862598000  -0.981621  -0.0672275  1.06431  0  0  -0.0187164  0.0626371  -0.423525  0.395503  0  0  0  0  0  0  0  0  0  0  0  0  0  0  0 
1699967376.867559000  -0.981307  -0.0693621  1.0663  0  0  -0.019189  0.063279  -0.430323  0.401567  0  0  0  0  0  0  0  0  0  0  0  0  0  0  0 
1699967376.872563000  -0.980988  -0.0715306  1.06832  0  0  -0.019666  0.0639921  -0.43705  0.40756  0  0  0  0  0  0  0  0  0  0  0  0  0  0  0 
1699967376.877560000  -0.980667  -0.0737325  1.07037  0  0  -0.0201473  0.0647802  -0.443703  0.413478  0  0  0  0  0  0  0  0  0  0  0  0  0  0  0 
1699967376.882589000  -0.980341  -0.0759675  1.07246  0  0  -0.0206326  0.0656471  -0.450276  0.419317  0  0  0  0  0  0  0  0  0  0  0  0  0  0  0 
1699967376.887561000  -0.98001  -0.0782351  1.07457  0  0  -0.0211218  0.0665965  -0.456767  0.425074  0  0  0  0  0  0  0  0  0  0  0  0  0  0  0 
1699967376.892561000  -0.979674  -0.080535  1.07671  0  0  -0.0216146  0.0676321  -0.463172  0.430744  0  0  0  0  0  0  0  0  0  0  0  0  0  0  0 
1699967376.897560000  -0.979334  -0.0828667  1.07887  0  0  -0.0221107  0.0687577  -0.469487  0.436325  0  0  0  0  0  0  0  0  0  0  0  0  0  0  0 
1699967376.902593000  -0.978987  -0.0852297  1.08107  0  0  -0.02261  0.0699771  -0.475708  0.441812  0  0  0  0  0  0  0  0  0  0  0  0  0  0  0 
1699967376.907561000  -0.978634  -0.0876236  1.08329  0  0  -0.0231121  0.071294  -0.481831  0.447201  0  0  0  0  0  0  0  0  0  0  0  0  0  0  0 
1699967376.912560000  -0.978274  -0.0900479  1.08554  0  0  -0.0236168  0.0727121  -0.487854  0.452489  0  0  0  0  0  0  0  0  0  0  0  0  0  0  0 
1699967376.917562000  -0.977906  -0.092502  1.08782  0  0  -0.0241239  0.0742352  -0.493771  0.457671  0  0  0  0  0  0  0  0  0  0  0  0  0  0  0 
1699967376.922602000  -0.977531  -0.0949854  1.09012  0  0  -0.024633  0.0758669  -0.49958  0.462746  0  0  0  0  0  0  0  0  0  0  0  0  0  0  0 
1699967376.927562000  -0.977147  -0.0974976  1.09244  0  0  -0.0251439  0.0776072  -0.505276  0.467707  0  0  0  0  0  0  0  0  0  0  0  0  0  0  0 
1699967376.932561000  -0.976755  -0.100038  1.09479  0  0  -0.0256562  0.0794525  -0.510855  0.472553  0  0  0  0  0  0  0  0  0  0  0  0  0  0  0 
1699967376.937561000  -0.976353  -0.102606  1.09717  0  0  -0.0261696  0.081399  -0.516315  0.477278  0  0  0  0  0  0  0  0  0  0  0  0  0  0  0 
1699967376.942598000  -0.975941  -0.105201  1.09957  0  0  -0.0266838  0.083443  -0.521651  0.48188  0  0  0  0  0  0  0  0  0  0  0  0  0  0  0 
1699967376.947562000  -0.975518  -0.107822  1.10199  0  0  -0.0271985  0.0855808  -0.52686  0.486354  0  0  0  0  0  0  0  0  0  0  0  0  0  0  0 
1699967376.952562000  -0.975085  -0.110469  1.10443  0  0  -0.0277134  0.0878085  -0.531937  0.490697  0  0  0  0  0  0  0  0  0  0  0  0  0  0  0 
1699967376.957560000  -0.97464  -0.113141  1.10689  0  0  -0.028228  0.0901224  -0.536879  0.494905  0  0  0  0  0  0  0  0  0  0  0  0  0  0  0 
1699967376.962594000  -0.974183  -0.115838  1.10938  0  0  -0.028742  0.0925188  -0.541683  0.498974  0  0  0  0  0  0  0  0  0  0  0  0  0  0  0 
1699967376.967559000  -0.973715  -0.118558  1.11188  0  0  -0.0292551  0.094994  -0.546344  0.5029  0  0  0  0  0  0  0  0  0  0  0  0  0  0  0 
1699967376.972561000  -0.973233  -0.121301  1.11441  0  0  -0.0297671  0.0975441  -0.550859  0.506681  0  0  0  0  0  0  0  0  0  0  0  0  0  0  0 
1699967376.977562000  -0.972739  -0.124066  1.11695  0  0  -0.0302774  0.100166  -0.555223  0.510311  0  0  0  0  0  0  0  0  0  0  0  0  0  0  0 
1699967376.982606000  -0.972232  -0.126853  1.11951  0  0  -0.030786  0.102854  -0.559434  0.513788  0  0  0  0  0  0  0  0  0  0  0  0  0  0  0 
1699967376.987563000  -0.97171  -0.12966  1.12209  0  0  -0.0312924  0.105607  -0.563488  0.517107  0  0  0  0  0  0  0  0  0  0  0  0  0  0  0 
1699967376.992560000  -0.971175  -0.132488  1.12468  0  0  -0.0317964  0.10842  -0.56738  0.520265  0  0  0  0  0  0  0  0  0  0  0  0  0  0  0 
1699967376.997562000  -0.970626  -0.135334  1.12729  0  0  -0.0322978  0.111288  -0.571108  0.523258  0  0  0  0  0  0  0  0  0  0  0  0  0  0  0 
1699967377.002593000  -0.970062  -0.138198  1.12991  0  0  -0.0327961  0.11421  -0.574666  0.526082  0  0  0  0  0  0  0  0  0  0  0  0  0  0  0 
1699967377.007559000  -0.969484  -0.14108  1.13255  0  0  -0.0332913  0.11718  -0.578052  0.528734  0  0  0  0  0  0  0  0  0  0  0  0  0  0  0 
1699967377.012560000  -0.968891  -0.143979  1.1352  0  0  -0.0337831  0.120195  -0.581262  0.531209  0  0  0  0  0  0  0  0  0  0  0  0  0  0  0 
1699967377.017562000  -0.968282  -0.146893  1.13786  0  0  -0.0342712  0.123251  -0.584292  0.533504  0  0  0  0  0  0  0  0  0  0  0  0  0  0  0 
1699967377.022606000  -0.967658  -0.149821  1.14054  0  0  -0.0347553  0.126345  -0.587138  0.535616  0  0  0  0  0  0  0  0  0  0  0  0  0  0  0 
1699967377.027561000  -0.967018  -0.152764  1.14322  0  0  -0.0352354  0.129472  -0.589796  0.53754  0  0  0  0  0  0  0  0  0  0  0  0  0  0  0 
1699967377.032561000  -0.966363  -0.155719  1.14591  0  0  -0.0357112  0.13263  -0.592264  0.539273  0  0  0  0  0  0  0  0  0  0  0  0  0  0  0 
1699967377.037563000  -0.965692  -0.158686  1.14861  0  0  -0.0361825  0.135813  -0.594536  0.540811  0  0  0  0  0  0  0  0  0  0  0  0  0  0  0 
1699967377.042601000  -0.965005  -0.161664  1.15132  0  0  -0.0366491  0.139019  -0.596609  0.54215  0  0  0  0  0  0  0  0  0  0  0  0  0  0  0 
1699967377.047561000  -0.964302  -0.164652  1.15403  0  0  -0.0371108  0.142244  -0.598481  0.543287  0  0  0  0  0  0  0  0  0  0  0  0  0  0  0 
1699967377.052561000  -0.963583  -0.167648  1.15675  0  0  -0.0375675  0.145484  -0.60015  0.544217  0  0  0  0  0  0  0  0  0  0  0  0  0  0  0 
1699967377.057561000  -0.962847  -0.170653  1.15947  0  0  -0.0380191  0.148735  -0.601621  0.544937  0  0  0  0  0  0  0  0  0  0  0  0  0  0  0 
1699967377.062597000  -0.962095  -0.173664  1.1622  0  0  -0.0384654  0.151994  -0.602897  0.545444  0  0  0  0  0  0  0  0  0  0  0  0  0  0  0 
1699967377.067560000  -0.961327  -0.176682  1.16493  0  0  -0.0389062  0.155256  -0.603982  0.545733  0  0  0  0  0  0  0  0  0  0  0  0  0  0  0 
1699967377.072560000  -0.960543  -0.179704  1.16766  0  0  -0.0393414  0.158518  -0.604881  0.545802  0  0  0  0  0  0  0  0  0  0  0  0  0  0  0 
1699967377.077569000  -0.959742  -0.18273  1.17039  0  0  -0.039771  0.161777  -0.605596  0.54565  0  0  0  0  0  0  0  0  0  0  0  0  0  0  0 
1699967377.082579000  -0.958925  -0.185759  1.17311  0  0  -0.0401948  0.165028  -0.606131  0.545282  0  0  0  0  0  0  0  0  0  0  0  0  0  0  0 
1699967377.087570000  -0.958092  -0.188791  1.17584  0  0  -0.0406127  0.168268  -0.60649  0.544701  0  0  0  0  0  0  0  0  0  0  0  0  0  0  0 
1699967377.092569000  -0.957242  -0.191824  1.17856  0  0  -0.0410247  0.171493  -0.606677  0.543911  0  0  0  0  0  0  0  0  0  0  0  0  0  0  0 
1699967377.097567000  -0.956377  -0.194858  1.18128  0  0  -0.0414306  0.174698  -0.606696  0.542917  0  0  0  0  0  0  0  0  0  0  0  0  0  0  0 
1699967377.102580000  -0.955495  -0.197891  1.18399  0  0  -0.0418305  0.177882  -0.606551  0.54172  0  0  0  0  0  0  0  0  0  0  0  0  0  0  0 
1699967377.107568000  -0.954598  -0.200923  1.18669  0  0  -0.0422242  0.181039  -0.606244  0.540327  0  0  0  0  0  0  0  0  0  0  0  0  0  0  0 
1699967377.112571000  -0.953685  -0.203953  1.18939  0  0  -0.0426118  0.184166  -0.60578  0.538739  0  0  0  0  0  0  0  0  0  0  0  0  0  0  0 
1699967377.117568000  -0.952756  -0.20698  1.19208  0  0  -0.0429931  0.18726  -0.605163  0.536962  0  0  0  0  0  0  0  0  0  0  0  0  0  0  0 
1699967377.122580000  -0.951812  -0.210004  1.19476  0  0  -0.0433682  0.190316  -0.604396  0.534998  0  0  0  0  0  0  0  0  0  0  0  0  0  0  0 
1699967377.127568000  -0.950853  -0.213024  1.19743  0  0  -0.043737  0.19333  -0.603484  0.532851  0  0  0  0  0  0  0  0  0  0  0  0  0  0  0 
1699967377.132567000  -0.949879  -0.216039  1.20009  0  0  -0.0440996  0.1963  -0.602429  0.530526  0  0  0  0  0  0  0  0  0  0  0  0  0  0  0 
1699967377.137567000  -0.94889  -0.219048  1.20274  0  0  -0.044456  0.199221  -0.601236  0.528025  0  0  0  0  0  0  0  0  0  0  0  0  0  0  0 
1699967377.142582000  -0.947887  -0.222051  1.20537  0  0  -0.0448061  0.202089  -0.599908  0.525354  0  0  0  0  0  0  0  0  0  0  0  0  0  0  0 
1699967377.147569000  -0.94687  -0.225047  1.20799  0  0  -0.0451499  0.204901  -0.59845  0.522514  0  0  0  0  0  0  0  0  0  0  0  0  0  0  0 
1699967377.152568000  -0.945838  -0.228035  1.21059  0  0  -0.0454875  0.207653  -0.596864  0.519511  0  0  0  0  0  0  0  0  0  0  0  0  0  0  0 
1699967377.157566000  -0.944793  -0.231015  1.21318  0  0  -0.0458189  0.210341  -0.595155  0.516348  0  0  0  0  0  0  0  0  0  0  0  0  0  0  0 
1699967377.162578000  -0.943735  -0.233987  1.21576  0  0  -0.046144  0.212962  -0.593326  0.513028  0  0  0  0  0  0  0  0  0  0  0  0  0  0  0 
1699967377.167568000  -0.942664  -0.236949  1.21831  0  0  -0.0464628  0.215512  -0.591382  0.509556  0  0  0  0  0  0  0  0  0  0  0  0  0  0  0 
1699967377.172568000  -0.94158  -0.2399  1.22085  0  0  -0.0467754  0.217986  -0.589325  0.505934  0  0  0  0  0  0  0  0  0  0  0  0  0  0  0 
1699967377.177568000  -0.940484  -0.242842  1.22337  0  0  -0.0470818  0.220382  -0.58716  0.502168  0  0  0  0  0  0  0  0  0  0  0  0  0  0  0 
1699967377.182579000  -0.939376  -0.245772  1.22587  0  0  -0.0473819  0.222695  -0.58489  0.498261  0  0  0  0  0  0  0  0  0  0  0  0  0  0  0 
1699967377.187570000  -0.938257  -0.24869  1.22836  0  0  -0.0476757  0.224922  -0.58252  0.494215  0  0  0  0  0  0  0  0  0  0  0  0  0  0  0 
1699967377.192569000  -0.937127  -0.251597  1.23082  0  0  -0.0479633  0.227059  -0.580052  0.490036  0  0  0  0  0  0  0  0  0  0  0  0  0  0  0 
1699967377.197569000  -0.935987  -0.254491  1.23326  0  0  -0.0482447  0.229102  -0.577491  0.485727  0  0  0  0  0  0  0  0  0  0  0  0  0  0  0 
1699967377.202577000  -0.934836  -0.257372  1.23567  0  0  -0.0485198  0.231047  -0.57484  0.481292  0  0  0  0  0  0  0  0  0  0  0  0  0  0  0 
1699967377.207568000  -0.933676  -0.260239  1.23807  0  0  -0.0487887  0.232892  -0.572104  0.476734  0  0  0  0  0  0  0  0  0  0  0  0  0  0  0 
1699967377.212567000  -0.932507  -0.263092  1.24044  0  0  -0.0490513  0.234631  -0.569285  0.472057  0  0  0  0  0  0  0  0  0  0  0  0  0  0  0 
1699967377.217567000  -0.93133  -0.265932  1.24279  0  0  -0.0493078  0.236262  -0.566388  0.467265  0  0  0  0  0  0  0  0  0  0  0  0  0  0  0 
1699967377.222575000  -0.930145  -0.268756  1.24511  0  0  -0.0495582  0.237784  -0.563416  0.462361  0  0  0  0  0  0  0  0  0  0  0  0  0  0  0 
1699967377.227569000  -0.928953  -0.271566  1.24741  0  0  -0.0498025  0.239201  -0.560374  0.45735  0  0  0  0  0  0  0  0  0  0  0  0  0  0  0 
1699967377.232567000  -0.927753  -0.27436  1.24969  0  0  -0.0500408  0.240517  -0.557264  0.452235  0  0  0  0  0  0  0  0  0  0  0  0  0  0  0 
1699967377.237568000  -0.926548  -0.277138  1.25193  0  0  -0.0502731  0.241736  -0.554091  0.447021  0  0  0  0  0  0  0  0  0  0  0  0  0  0  0 
1699967377.242583000  -0.925336  -0.279901  1.25416  0  0  -0.0504996  0.242861  -0.550859  0.441709  0  0  0  0  0  0  0  0  0  0  0  0  0  0  0 
1699967377.247569000  -0.924119  -0.282647  1.25635  0  0  -0.0507203  0.243895  -0.54757  0.436305  0  0  0  0  0  0  0  0  0  0  0  0  0  0  0 
1699967377.252568000  -0.922897  -0.285376  1.25852  0  0  -0.0509354  0.244844  -0.544229  0.430813  0  0  0  0  0  0  0  0  0  0  0  0  0  0  0 
1699967377.257577000  -0.921671  -0.288089  1.26066  0  0  -0.0511449  0.24571  -0.54084  0.425235  0  0  0  0  0  0  0  0  0  0  0  0  0  0  0 
1699967377.262589000  -0.92044  -0.290785  1.26277  0  0  -0.051349  0.246498  -0.537407  0.419576  0  0  0  0  0  0  0  0  0  0  0  0  0  0  0 
1699967377.267575000  -0.919206  -0.293463  1.26485  0  0  -0.0515478  0.24721  -0.533932  0.413839  0  0  0  0  0  0  0  0  0  0  0  0  0  0  0 
1699967377.272574000  -0.917968  -0.296124  1.26691  0  0  -0.0517415  0.247851  -0.530421  0.408028  0  0  0  0  0  0  0  0  0  0  0  0  0  0  0 
1699967377.277573000  -0.916728  -0.298767  1.26894  0  0  -0.0519302  0.248425  -0.526876  0.402148  0  0  0  0  0  0  0  0  0  0  0  0  0  0  0 
1699967377.282585000  -0.915484  -0.301393  1.27093  0  0  -0.0521141  0.248935  -0.523301  0.396201  0  0  0  0  0  0  0  0  0  0  0  0  0  0  0 
1699967377.287573000  -0.914238  -0.304  1.2729  0  0  -0.0522933  0.249385  -0.5197  0.390191  0  0  0  0  0  0  0  0  0  0  0  0  0  0  0 
1699967377.292574000  -0.91299  -0.30659  1.27483  0  0  -0.052468  0.249779  -0.516078  0.384123  0  0  0  0  0  0  0  0  0  0  0  0  0  0  0 
1699967377.297577000  -0.911741  -0.309161  1.27674  0  0  -0.0526385  0.250121  -0.512437  0.377999  0  0  0  0  0  0  0  0  0  0  0  0  0  0  0 
1699967377.302594000  -0.910489  -0.311714  1.27861  0  0  -0.052805  0.250413  -0.508781  0.371824  0  0  0  0  0  0  0  0  0  0  0  0  0  0  0 
1699967377.307562000  -0.909236  -0.314249  1.28046  0  0  -0.0529675  0.250661  -0.505115  0.365601  0  0  0  0  0  0  0  0  0  0  0  0  0  0  0 
1699967377.312576000  -0.907983  -0.316765  1.28227  0  0  -0.0531264  0.250868  -0.501441  0.359335  0  0  0  0  0  0  0  0  0  0  0  0  0  0  0 
1699967377.317576000  -0.906728  -0.319263  1.28405  0  0  -0.053282  0.251037  -0.497764  0.353029  0  0  0  0  0  0  0  0  0  0  0  0  0  0  0 
1699967377.322588000  -0.905472  -0.321743  1.2858  0  0  -0.0534344  0.251172  -0.494088  0.346686  0  0  0  0  0  0  0  0  0  0  0  0  0  0  0 
1699967377.327576000  -0.904216  -0.324204  1.28752  0  0  -0.0535839  0.251277  -0.490415  0.34031  0  0  0  0  0  0  0  0  0  0  0  0  0  0  0 
1699967377.332578000  -0.90296  -0.326647  1.2892  0  0  -0.0537307  0.251356  -0.48675  0.333906  0  0  0  0  0  0  0  0  0  0  0  0  0  0  0 
1699967377.337575000  -0.901703  -0.329071  1.29086  0  0  -0.053875  0.251413  -0.483097  0.327477  0  0  0  0  0  0  0  0  0  0  0  0  0  0  0 
1699967377.342586000  -0.900446  -0.331478  1.29248  0  0  -0.0540172  0.251451  -0.47946  0.321026  0  0  0  0  0  0  0  0  0  0  0  0  0  0  0 
1699967377.347574000  -0.899188  -0.333866  1.29407  0  0  -0.0541573  0.251474  -0.475841  0.314558  0  0  0  0  0  0  0  0  0  0  0  0  0  0  0 
1699967377.352576000  -0.897931  -0.336236  1.29562  0  0  -0.0542955  0.251486  -0.472246  0.308075  0  0  0  0  0  0  0  0  0  0  0  0  0  0  0 
1699967377.357557000  -0.896673  -0.338589  1.29715  0  0  -0.0544322  0.25149  -0.468677  0.301583  0  0  0  0  0  0  0  0  0  0  0  0  0  0  0 
1699967377.362583000  -0.895416  -0.340923  1.29864  0  0  -0.0545674  0.251491  -0.465138  0.295085  0  0  0  0  0  0  0  0  0  0  0  0  0  0  0 
1699967377.367572000  -0.894158  -0.34324  1.3001  0  0  -0.0547012  0.251491  -0.461634  0.288583  0  0  0  0  0  0  0  0  0  0  0  0  0  0  0 
1699967377.372577000  -0.892901  -0.345539  1.30152  0  0  -0.054834  0.251491  -0.458167  0.282083  0  0  0  0  0  0  0  0  0  0  0  0  0  0  0 
1699967377.377574000  -0.891644  -0.347822  1.30292  0  0  -0.0549657  0.251491  -0.454742  0.275588  0  0  0  0  0  0  0  0  0  0  0  0  0  0  0 
1699967377.382589000  -0.890386  -0.350087  1.30428  0  0  -0.0550966  0.251491  -0.451363  0.269102  0  0  0  0  0  0  0  0  0  0  0  0  0  0  0 
1699967377.387576000  -0.889129  -0.352335  1.30561  0  0  -0.0552267  0.251491  -0.448032  0.262628  0  0  0  0  0  0  0  0  0  0  0  0  0  0  0 
1699967377.392575000  -0.887871  -0.354567  1.30691  0  0  -0.0553563  0.251491  -0.444755  0.25617  0  0  0  0  0  0  0  0  0  0  0  0  0  0  0 
1699967377.397578000  -0.886614  -0.356783  1.30817  0  0  -0.0554853  0.251491  -0.441534  0.249732  0  0  0  0  0  0  0  0  0  0  0  0  0  0  0 
1699967377.402587000  -0.885356  -0.358983  1.3094  0  0  -0.0556139  0.251491  -0.438373  0.243317  0  0  0  0  0  0  0  0  0  0  0  0  0  0  0 
1699967377.407560000  -0.884099  -0.361167  1.3106  0  0  -0.0557421  0.251491  -0.435277  0.23693  0  0  0  0  0  0  0  0  0  0  0  0  0  0  0 
1699967377.412579000  -0.882841  -0.363336  1.31177  0  0  -0.0558702  0.251491  -0.432248  0.230574  0  0  0  0  0  0  0  0  0  0  0  0  0  0  0 
1699967377.417574000  -0.881584  -0.36549  1.31291  0  0  -0.055998  0.251491  -0.429291  0.224253  0  0  0  0  0  0  0  0  0  0  0  0  0  0  0 
1699967377.422589000  -0.880326  -0.367629  1.31402  0  0  -0.0561257  0.251492  -0.42641  0.217971  0  0  0  0  0  0  0  0  0  0  0  0  0  0  0 
1699967377.427575000  -0.879069  -0.369754  1.31509  0  0  -0.0562533  0.251496  -0.423607  0.211731  0  0  0  0  0  0  0  0  0  0  0  0  0  0  0 
1699967377.432575000  -0.877811  -0.371865  1.31613  0  0  -0.0563808  0.251509  -0.420888  0.205538  0  0  0  0  0  0  0  0  0  0  0  0  0  0  0 
1699967377.437575000  -0.876554  -0.373963  1.31715  0  0  -0.0565084  0.251533  -0.418255  0.199394  0  0  0  0  0  0  0  0  0  0  0  0  0  0  0 
1699967377.442587000  -0.875296  -0.376048  1.31813  0  0  -0.0566359  0.251573  -0.415712  0.193304  0  0  0  0  0  0  0  0  0  0  0  0  0  0  0 
1699967377.447577000  -0.874038  -0.37812  1.31908  0  0  -0.0567634  0.251631  -0.413264  0.187271  0  0  0  0  0  0  0  0  0  0  0  0  0  0  0 
1699967377.452575000  -0.87278  -0.38018  1.32  0  0  -0.056891  0.251713  -0.410913  0.181299  0  0  0  0  0  0  0  0  0  0  0  0  0  0  0 
1699967377.457575000  -0.871521  -0.382229  1.32089  0  0  -0.0570185  0.25182  -0.408665  0.175393  0  0  0  0  0  0  0  0  0  0  0  0  0  0  0 
1699967377.462605000  -0.870262  -0.384267  1.32175  0  0  -0.057146  0.251959  -0.406521  0.169554  0  0  0  0  0  0  0  0  0  0  0  0  0  0  0 
1699967377.467579000  -0.869001  -0.386295  1.32259  0  0  -0.0572736  0.252131  -0.404487  0.163789  0  0  0  0  0  0  0  0  0  0  0  0  0  0  0 
1699967377.472568000  -0.86774  -0.388312  1.32339  0  0  -0.0574011  0.252341  -0.402565  0.158099  0  0  0  0  0  0  0  0  0  0  0  0  0  0  0 
1699967377.477568000  -0.866478  -0.390321  1.32417  0  0  -0.0575286  0.252592  -0.40076  0.15249  0  0  0  0  0  0  0  0  0  0  0  0  0  0  0 
1699967377.482578000  -0.865214  -0.39232  1.32492  0  0  -0.0576561  0.252889  -0.399069  0.146964  0  0  0  0  0  0  0  0  0  0  0  0  0  0  0 
1699967377.487570000  -0.863949  -0.394311  1.32564  0  0  -0.0577837  0.253235  -0.397488  0.141525  0  0  0  0  0  0  0  0  0  0  0  0  0  0  0 
1699967377.492567000  -0.862682  -0.396295  1.32633  0  0  -0.0579112  0.253634  -0.396015  0.136178  0  0  0  0  0  0  0  0  0  0  0  0  0  0  0 
1699967377.497571000  -0.861412  -0.398272  1.327  0  0  -0.0580387  0.254089  -0.394645  0.130925  0  0  0  0  0  0  0  0  0  0  0  0  0  0  0 
1699967377.502576000  -0.860141  -0.400242  1.32764  0  0  -0.0581663  0.254605  -0.393374  0.125771  0  0  0  0  0  0  0  0  0  0  0  0  0  0  0 
1699967377.507568000  -0.858866  -0.402206  1.32826  0  0  -0.0582938  0.255184  -0.3922  0.12072  0  0  0  0  0  0  0  0  0  0  0  0  0  0  0 
1699967377.512569000  -0.857589  -0.404164  1.32885  0  0  -0.0584213  0.255832  -0.391117  0.115775  0  0  0  0  0  0  0  0  0  0  0  0  0  0  0 
1699967377.517567000  -0.856308  -0.406117  1.32942  0  0  -0.0585489  0.25655  -0.390122  0.110939  0  0  0  0  0  0  0  0  0  0  0  0  0  0  0 
1699967377.522580000  -0.855023  -0.408065  1.32996  0  0  -0.0586764  0.257345  -0.389212  0.106218  0  0  0  0  0  0  0  0  0  0  0  0  0  0  0 
1699967377.527569000  -0.853734  -0.410009  1.33048  0  0  -0.0588039  0.258218  -0.388383  0.101613  0  0  0  0  0  0  0  0  0  0  0  0  0  0  0 
1699967377.532567000  -0.852441  -0.411949  1.33097  0  0  -0.0589314  0.259174  -0.38763  0.0971301  0  0  0  0  0  0  0  0  0  0  0  0  0  0  0 
1699967377.537567000  -0.851142  -0.413886  1.33145  0  0  -0.059059  0.260217  -0.386951  0.0927719  0  0  0  0  0  0  0  0  0  0  0  0  0  0  0 
1699967377.542579000  -0.849838  -0.415819  1.3319  0  0  -0.0591865  0.26135  -0.386341  0.0885423  0  0  0  0  0  0  0  0  0  0  0  0  0  0  0 
1699967377.547571000  -0.848529  -0.417749  1.33234  0  0  -0.059314  0.262577  -0.385797  0.084445  0  0  0  0  0  0  0  0  0  0  0  0  0  0  0 
1699967377.552566000  -0.847213  -0.419677  1.33275  0  0  -0.0594416  0.263901  -0.385316  0.080484  0  0  0  0  0  0  0  0  0  0  0  0  0  0  0 
1699967377.557569000  -0.84589  -0.421602  1.33314  0  0  -0.0595691  0.265328  -0.384892  0.0766628  0  0  0  0  0  0  0  0  0  0  0  0  0  0  0 
1699967377.562580000  -0.844559  -0.423526  1.33351  0  0  -0.0596966  0.266859  -0.384523  0.0729853  0  0  0  0  0  0  0  0  0  0  0  0  0  0  0 
1699967377.567569000  -0.843221  -0.425448  1.33387  0  0  -0.0598242  0.2685  -0.384204  0.0694552  0  0  0  0  0  0  0  0  0  0  0  0  0  0  0 
1699967377.572568000  -0.841874  -0.427368  1.33421  0  0  -0.0599517  0.270253  -0.383933  0.0660762  0  0  0  0  0  0  0  0  0  0  0  0  0  0  0 
1699967377.577567000  -0.840518  -0.429287  1.33453  0  0  -0.0600792  0.272123  -0.383704  0.0628518  0  0  0  0  0  0  0  0  0  0  0  0  0  0  0 
1699967377.582611000  -0.839152  -0.431205  1.33484  0  0  -0.0602067  0.274114  -0.383516  0.059781  0  0  0  0  0  0  0  0  0  0  0  0  0  0  0 
1699967377.587571000  -0.837777  -0.433122  1.33513  0  0  -0.0603343  0.276228  -0.383362  0.05686  0  0  0  0  0  0  0  0  0  0  0  0  0  0  0 
1699967377.592567000  -0.83639  -0.435039  1.33541  0  0  -0.0604618  0.27847  -0.383241  0.0540852  0  0  0  0  0  0  0  0  0  0  0  0  0  0  0 
1699967377.597569000  -0.834992  -0.436955  1.33567  0  0  -0.0605893  0.280844  -0.383149  0.0514528  0  0  0  0  0  0  0  0  0  0  0  0  0  0  0 
1699967377.602582000  -0.833581  -0.43887  1.33592  0  0  -0.0607169  0.283353  -0.38308  0.0489589  0  0  0  0  0  0  0  0  0  0  0  0  0  0  0 
1699967377.607569000  -0.832158  -0.440786  1.33616  0  0  -0.0608444  0.286001  -0.383033  0.0466  0  0  0  0  0  0  0  0  0  0  0  0  0  0  0 
1699967377.612570000  -0.830721  -0.442701  1.33639  0  0  -0.0609719  0.288792  -0.383002  0.0443722  0  0  0  0  0  0  0  0  0  0  0  0  0  0  0 
1699967377.617568000  -0.82927  -0.444616  1.3366  0  0  -0.0610995  0.291729  -0.382985  0.0422718  0  0  0  0  0  0  0  0  0  0  0  0  0  0  0 
1699967377.622587000  -0.827804  -0.446531  1.33681  0  0  -0.061227  0.294817  -0.382977  0.040295  0  0  0  0  0  0  0  0  0  0  0  0  0  0  0 
1699967377.627570000  -0.826321  -0.448446  1.33701  0  0  -0.0613545  0.298058  -0.382975  0.0384381  0  0  0  0  0  0  0  0  0  0  0  0  0  0  0 
1699967377.632571000  -0.824823  -0.45036  1.3372  0  0  -0.061482  0.301458  -0.382975  0.0366973  0  0  0  0  0  0  0  0  0  0  0  0  0  0  0 
1699967377.637568000  -0.823307  -0.452275  1.33737  0  0  -0.0616096  0.305019  -0.382975  0.035069  0  0  0  0  0  0  0  0  0  0  0  0  0  0  0 
1699967377.642580000  -0.821772  -0.45419  1.33755  0  0  -0.0617371  0.308745  -0.382975  0.0335492  0  0  0  0  0  0  0  0  0  0  0  0  0  0  0 
1699967377.647568000  -0.820219  -0.456105  1.33771  0  0  -0.0618646  0.312637  -0.382975  0.0321343  0  0  0  0  0  0  0  0  0  0  0  0  0  0  0 
1699967377.652569000  -0.818646  -0.45802  1.33787  0  0  -0.0619922  0.316692  -0.382975  0.0308206  0  0  0  0  0  0  0  0  0  0  0  0  0  0  0 
1699967377.657568000  -0.817052  -0.459935  1.33802  0  0  -0.0621197  0.320906  -0.382975  0.0296042  0  0  0  0  0  0  0  0  0  0  0  0  0  0  0 
1699967377.662579000  -0.815436  -0.46185  1.33816  0  0  -0.0622472  0.325275  -0.382975  0.0284815  0  0  0  0  0  0  0  0  0  0  0  0  0  0  0 
1699967377.667569000  -0.813799  -0.463765  1.3383  0  0  -0.0623747  0.329795  -0.382975  0.0274486  0  0  0  0  0  0  0  0  0  0  0  0  0  0  0 
1699967377.672568000  -0.812138  -0.465679  1.33844  0  0  -0.0625023  0.334463  -0.382975  0.0265019  0  0  0  0  0  0  0  0  0  0  0  0  0  0  0 
1699967377.677567000  -0.810454  -0.467594  1.33857  0  0  -0.0626298  0.339275  -0.382975  0.0256376  0  0  0  0  0  0  0  0  0  0  0  0  0  0  0 
1699967377.682582000  -0.808745  -0.469509  1.33869  0  0  -0.0627573  0.344227  -0.382975  0.0248519  0  0  0  0  0  0  0  0  0  0  0  0  0  0  0 
1699967377.687568000  -0.807011  -0.471424  1.33882  0  0  -0.0628849  0.349315  -0.382975  0.0241411  0  0  0  0  0  0  0  0  0  0  0  0  0  0  0 
1699967377.692569000  -0.805252  -0.473339  1.33894  0  0  -0.0630124  0.354536  -0.382975  0.0235014  0  0  0  0  0  0  0  0  0  0  0  0  0  0  0 
1699967377.697570000  -0.803466  -0.475254  1.33905  0  0  -0.0631399  0.359886  -0.382975  0.0229291  0  0  0  0  0  0  0  0  0  0  0  0  0  0  0 
1699967377.702578000  -0.801653  -0.477169  1.33917  0  0  -0.0632675  0.365361  -0.382975  0.0224204  0  0  0  0  0  0  0  0  0  0  0  0  0  0  0 
1699967377.707573000  -0.799812  -0.479084  1.33928  0  0  -0.063395  0.370957  -0.382975  0.0219716  0  0  0  0  0  0  0  0  0  0  0  0  0  0  0 
1699967377.712568000  -0.797943  -0.480998  1.33939  0  0  -0.0635225  0.376671  -0.382975  0.0215789  0  0  0  0  0  0  0  0  0  0  0  0  0  0  0 
1699967377.717568000  -0.796045  -0.482913  1.33949  0  0  -0.06365  0.382498  -0.382975  0.0212386  0  0  0  0  0  0  0  0  0  0  0  0  0  0  0 
1699967377.722579000  -0.794118  -0.484828  1.3396  0  0  -0.0637776  0.388436  -0.382975  0.020947  0  0  0  0  0  0  0  0  0  0  0  0  0  0  0 
1699967377.727568000  -0.79216  -0.486743  1.3397  0  0  -0.0639051  0.39448  -0.382975  0.0207002  0  0  0  0  0  0  0  0  0  0  0  0  0  0  0 
1699967377.732569000  -0.790173  -0.488658  1.33981  0  0  -0.0640326  0.400627  -0.382975  0.0204946  0  0  0  0  0  0  0  0  0  0  0  0  0  0  0 
1699967377.737568000  -0.788154  -0.490573  1.33991  0  0  -0.0641602  0.406872  -0.382975  0.0203263  0  0  0  0  0  0  0  0  0  0  0  0  0  0  0 
1699967377.742581000  -0.786104  -0.492488  1.34001  0  0  -0.0642877  0.413213  -0.382975  0.0201917  0  0  0  0  0  0  0  0  0  0  0  0  0  0  0 
1699967377.747570000  -0.784022  -0.494402  1.34011  0  0  -0.0644152  0.419645  -0.382975  0.020087  0  0  0  0  0  0  0  0  0  0  0  0  0  0  0 
1699967377.752570000  -0.781907  -0.496317  1.34021  0  0  -0.0645428  0.426165  -0.382975  0.0200084  0  0  0  0  0  0  0  0  0  0  0  0  0  0  0 
1699967377.757568000  -0.77976  -0.498232  1.34031  0  0  -0.0646703  0.432769  -0.382975  0.0199521  0  0  0  0  0  0  0  0  0  0  0  0  0  0  0 
1699967377.762580000  -0.777579  -0.500147  1.34041  0  0  -0.0647978  0.439452  -0.382975  0.0199145  0  0  0  0  0  0  0  0  0  0  0  0  0  0  0 
1699967377.767566000  -0.775365  -0.502062  1.34051  0  0  -0.0649253  0.446212  -0.382975  0.0198918  0  0  0  0  0  0  0  0  0  0  0  0  0  0  0 
1699967377.772566000  -0.773117  -0.503977  1.34061  0  0  -0.0650529  0.453045  -0.382975  0.0198803  0  0  0  0  0  0  0  0  0  0  0  0  0  0  0 
1699967377.777567000  -0.770835  -0.505892  1.34071  0  0  -0.0651804  0.459946  -0.382975  0.0198761  0  0  0  0  0  0  0  0  0  0  0  0  0  0  0 
1699967377.782585000  -0.768518  -0.507807  1.34081  0  0  -0.0653079  0.466913  -0.382975  0.0198755  0  0  0  0  0  0  0  0  0  0  0  0  0  0  0 
1699967377.787568000  -0.766166  -0.509721  1.34091  0  0  -0.0654355  0.473941  -0.382975  0.0198748  0  0  0  0  0  0  0  0  0  0  0  0  0  0  0 
1699967377.792570000  -0.763778  -0.511636  1.34101  0  0  -0.065563  0.481027  -0.382975  0.0198702  0  0  0  0  0  0  0  0  0  0  0  0  0  0  0 
1699967377.797570000  -0.761355  -0.513551  1.3411  0  0  -0.0656905  0.488166  -0.382975  0.0198581  0  0  0  0  0  0  0  0  0  0  0  0  0  0  0 
1699967377.802578000  -0.758896  -0.515466  1.3412  0  0  -0.0658181  0.495356  -0.382975  0.0198345  0  0  0  0  0  0  0  0  0  0  0  0  0  0  0 
1699967377.807568000  -0.756402  -0.517381  1.3413  0  0  -0.0659456  0.502592  -0.382975  0.0197959  0  0  0  0  0  0  0  0  0  0  0  0  0  0  0 
1699967377.812568000  -0.75387  -0.519296  1.3414  0  0  -0.0660731  0.50987  -0.382975  0.0197383  0  0  0  0  0  0  0  0  0  0  0  0  0  0  0 
1699967377.817568000  -0.751303  -0.521211  1.3415  0  0  -0.0662006  0.517188  -0.382975  0.0196582  0  0  0  0  0  0  0  0  0  0  0  0  0  0  0 
1699967377.822581000  -0.748698  -0.523126  1.3416  0  0  -0.0663282  0.52454  -0.382975  0.0195517  0  0  0  0  0  0  0  0  0  0  0  0  0  0  0 
