ts fx fy fz tx ty tz exfx exfy exfz extx exty extz xd yd zd rolld pitchd yawd vxd vyd vzd wxd wyd wzd axd ayd azd e_x e_y e_z e_vx e_vy e_vz e_rx e_ry e_rz e_wx e_wy e_wz
1699967375.352237000  0  0  11.8403  0.174739  -0.185806  0.00692878  nan  nan  nan  nan  nan  nan  -1  0  1  0.0304761  -0.0515139  -0.00156973  0  0  0  0  0  0  0  0  0  0.0361236  0.00955366  -0.0248162  -0.0123957  0.0188138  -0.00609025  -0.0398141  0.0393507  -0.00865026  0.0168123  0.00958512  -0.00010716 
1699967375.355104000  0  0  11.8479  0.174931  -0.193444  0.00701884  nan  nan  nan  nan  nan  nan  -1  0  1  0.0308851  -0.0512176  -0.00158167  0  0  0  0  0  0  0  0  0  0.036087  0.00960913  -0.0248375  -0.0126596  0.0192555  -0.00669305  -0.040146  0.0392435  -0.0086591  0.0194822  0.0258469  -0.00114449 
1699967375.360098000  0  0  11.8462  0.154377  -0.192802  0.0072727  nan  nan  nan  nan  nan  nan  -1  0  1  0.0305533  -0.051211  -0.00156447  0  0  0  0  0  0  0  0  0  0.0361483  0.00953924  -0.0248379  -0.0128173  0.0189677  -0.00652702  -0.0392885  0.0393443  -0.00872618  0.0527003  0.0236366  -0.00364703 
1699967375.365096000  0  0  11.8455  0.168659  -0.182706  0.00721432  nan  nan  nan  nan  nan  nan  -1  0  1  0.029795  -0.0519514  -0.00154765  0  0  0  0  0  0  0  0  0  0.0362087  0.00946807  -0.0248265  -0.0119817  0.0181239  -0.00647723  -0.0386178  0.0399034  -0.00875398  0.0179655  -0.0016999  -0.00263924 
1699967375.370733000  0  0  11.8529  0.175414  -0.202393  0.00708165  nan  nan  nan  nan  nan  nan  -1  0  1  0.029707  -0.0520793  -0.00154687  0  0  0  0  0  0  0  0  0  0.0362288  0.0094493  -0.0248323  -0.0118139  0.0180746  -0.00709675  -0.0386297  0.040387  -0.00875514  0.00456548  0.033226  -0.000969194 
1699967375.375047000  0  0  11.8684  0.161973  -0.202754  0.00750748  nan  nan  nan  nan  nan  nan  -1  0  1  0.0302467  -0.0513205  -0.00155207  0  0  0  0  0  0  0  0  0  0.0361731  0.00952893  -0.0248699  -0.0126016  0.0186619  -0.00831945  -0.0388188  0.0398457  -0.0088158  0.0331874  0.0389283  -0.00568555 
1699967375.380098000  0  0  11.8411  0.181538  -0.176397  0.00799181  nan  nan  nan  nan  nan  nan  -1  0  1  0.030568  -0.051365  -0.00156992  0  0  0  0  0  0  0  0  0  0.0361131  0.00962022  -0.024886  -0.0125648  0.0187894  -0.00600222  -0.0393671  0.0395074  -0.00888569  -0.000899025  -0.0106746  -0.0110407 
1699967375.385097000  0  0  11.8285  0.189465  -0.18105  0.00762454  nan  nan  nan  nan  nan  nan  -1  0  1  0.0304336  -0.0517022  -0.00157327  0  0  0  0  0  0  0  0  0  0.036172  0.00955248  -0.0248647  -0.0123232  0.01872  -0.0049991  -0.0394292  0.0398192  -0.00889885  -0.016182  -0.00423644  -0.00631827 
1699967375.390091000  0  0  11.8649  0.178104  -0.190889  0.00749005  nan  nan  nan  nan  nan  nan  -1  0  1  0.0309919  -0.0508178  -0.00157477  0  0  0  0  0  0  0  0  0  0.0361059  0.00964756  -0.0249179  -0.0131334  0.0193698  -0.00793773  -0.0397506  0.0392347  -0.00891838  0.00949722  0.020819  -0.00444178 
1699967375.395076000  0  0  11.8162  0.185498  -0.165089  0.00753921  nan  nan  nan  nan  nan  nan  -1  0  1  0.0305004  -0.0514667  -0.00156955  0  0  0  0  0  0  0  0  0  0.036146  0.00959031  -0.024866  -0.0126469  0.0186822  -0.0039626  -0.0394026  0.0393655  -0.00895297  -0.00849118  -0.0319855  -0.00471034 
1699967375.400074000  0  0  11.8201  0.195314  -0.171477  0.00717309  nan  nan  nan  nan  nan  nan  -1  0  1  0.0306815  -0.0513653  -0.00157577  0  0  0  0  0  0  0  0  0  0.0361555  0.00957493  -0.0248459  -0.0127775  0.0189682  -0.00434544  -0.0397794  0.0392511  -0.00891815  -0.0246567  -0.0181552  -0.000482173 
1699967375.405547000  0  0  11.843  0.189748  -0.182928  0.00722084  nan  nan  nan  nan  nan  nan  -1  0  1  0.030514  -0.0512659  -0.00156413  0  0  0  0  0  0  0  0  0  0.0361812  0.00954097  -0.0248348  -0.0128352  0.0189017  -0.00628065  -0.0395918  0.0393703  -0.00894063  -0.0152522  0.00364824  -0.000854107 
1699967375.410024000  0  0  11.803  0.196857  -0.158539  0.00755084  nan  nan  nan  nan  nan  nan  -1  0  1  0.0311503  -0.0510527  -0.00159013  0  0  0  0  0  0  0  0  0  0.0361236  0.00962555  -0.0248303  -0.0132139  0.0194124  -0.00295051  -0.0403732  0.0386711  -0.00896879  -0.0222796  -0.0386974  -0.00469766 
1699967375.415079000  0  0  11.7968  0.209154  -0.167272  0.00748  nan  nan  nan  nan  nan  nan  -1  0  1  0.0308705  -0.0514275  -0.0015874  0  0  0  0  0  0  0  0  0  0.0361646  0.00957468  -0.0248015  -0.0128477  0.0191372  -0.00250439  -0.0404652  0.0389789  -0.00898595  -0.0460271  -0.0240617  -0.00364051 
1699967375.420004000  0  0  11.8164  0.203715  -0.170834  0.00791208  nan  nan  nan  nan  nan  nan  -1  0  1  0.031694  -0.0505712  -0.00160265  0  0  0  0  0  0  0  0  0  0.0360965  0.00967271  -0.0248322  -0.0137077  0.0200696  -0.00409057  -0.0413031  0.0381881  -0.00904641  -0.0274416  -0.00966276  -0.00843695 
1699967375.425075000  0  0  11.7746  0.199921  -0.160678  0.00872606  nan  nan  nan  nan  nan  nan  -1  0  1  0.0310266  -0.0512514  -0.00158997  0  0  0  0  0  0  0  0  0  0.0361759  0.0095795  -0.0247816  -0.0132306  0.0192548  -0.000693774  -0.0407212  0.038539  -0.00920243  -0.0252061  -0.0332026  -0.0170514 
1699967375.430074000  0  0  11.7867  0.214234  -0.156118  0.00823158  nan  nan  nan  nan  nan  nan  -1  0  1  0.0316134  -0.0510175  -0.00161268  0  0  0  0  0  0  0  0  0  0.0361124  0.00967667  -0.0247994  -0.0133245  0.0198497  -0.00167939  -0.0416683  0.0380616  -0.00919509  -0.0451194  -0.0379308  -0.0109438 
1699967375.435076000  0  0  11.7977  0.198261  -0.165574  0.00784024  nan  nan  nan  nan  nan  nan  -1  0  1  0.0317275  -0.050716  -0.00160894  0  0  0  0  0  0  0  0  0  0.0361204  0.00967195  -0.0247831  -0.0136758  0.0200489  -0.00262954  -0.0416102  0.0378181  -0.00920482  -0.0137093  -0.0167779  -0.00595487 
1699967375.440076000  0  0  11.781  0.190816  -0.16162  0.00800296  nan  nan  nan  nan  nan  nan  -1  0  1  0.0314092  -0.0507492  -0.00159383  0  0  0  0  0  0  0  0  0  0.0361371  0.00964751  -0.0247381  -0.0137662  0.019627  -0.0013113  -0.0411866  0.0376997  -0.00927178  -0.00271514  -0.0235984  -0.00731924 
1699967375.445075000  0  0  11.7811  0.198247  -0.15673  0.00772965  nan  nan  nan  nan  nan  nan  -1  0  1  0.0317577  -0.0507403  -0.00161124  0  0  0  0  0  0  0  0  0  0.0360731  0.00974378  -0.0247453  -0.0136338  0.0198694  -0.00130534  -0.0416724  0.0374701  -0.00925187  -0.0131085  -0.0312652  -0.00410193 
1699967375.450073000  0  0  11.8093  0.184808  -0.179501  0.00761321  nan  nan  nan  nan  nan  nan  -1  0  1  0.0317105  -0.0507112  -0.00160793  0  0  0  0  0  0  0  0  0  0.0360891  0.00972018  -0.0247309  -0.0135481  0.0199596  -0.00368907  -0.041375  0.0377742  -0.00926739  0.0110333  0.0114785  -0.00249126 
1699967375.455076000  0  0  11.8155  0.181305  -0.183778  0.00735499  nan  nan  nan  nan  nan  nan  -1  0  1  0.0322289  -0.0499489  -0.00160969  0  0  0  0  0  0  0  0  0  0.0360166  0.00982028  -0.024749  -0.0143531  0.0204414  -0.0041808  -0.0417066  0.0372479  -0.00925324  0.0210916  0.0248747  0.000595095 
1699967375.460075000  0  0  11.7835  0.18389  -0.159972  0.00731419  nan  nan  nan  nan  nan  nan  -1  0  1  0.0314613  -0.0508549  -0.0015998  0  0  0  0  0  0  0  0  0  0.0360594  0.00976705  -0.0247058  -0.0134416  0.0194373  -0.00157081  -0.0409608  0.0376895  -0.00924594  0.00905884  -0.0267994  0.00103199 
1699967375.465072000  0  0  11.8156  0.168744  -0.187977  0.00706008  nan  nan  nan  nan  nan  nan  -1  0  1  0.0316976  -0.0506635  -0.00160576  0  0  0  0  0  0  0  0  0  0.0360598  0.00976146  -0.024703  -0.013511  0.0198728  -0.00426244  -0.0407759  0.0379572  -0.00922399  0.0376506  0.0267478  0.00398897 
1699967375.470072000  0  0  11.8278  0.170222  -0.200762  0.00676703  nan  nan  nan  nan  nan  nan  -1  0  1  0.0319894  -0.049847  -0.00159446  0  0  0  0  0  0  0  0  0  0.0359871  0.00985849  -0.0247288  -0.014355  0.0200859  -0.00524317  -0.0408893  0.0376473  -0.00918824  0.0357374  0.0551687  0.00729449 
1699967375.475210000  0  0  11.7682  0.169289  -0.165081  0.00806868  nan  nan  nan  nan  nan  nan  -1  0  1  0.0314869  -0.0506291  -0.001594  0  0  0  0  0  0  0  0  0  0.0360187  0.0098161  -0.0246626  -0.0137345  0.0193086  -0.000376907  -0.040227  0.0378912  -0.00931084  0.0315112  -0.0184383  -0.00775004 
1699967375.480075000  0  0  11.8107  0.168811  -0.193128  0.00820768  nan  nan  nan  nan  nan  nan  -1  0  1  0.0323332  -0.0499605  -0.00161527  0  0  0  0  0  0  0  0  0  0.03595  0.00991639  -0.0247001  -0.0142172  0.0203467  -0.00386718  -0.0408341  0.0377445  -0.00936873  0.0380511  0.0390058  -0.00890876 
1699967375.485075000  0  0  11.8521  0.167131  -0.209153  0.0082032  nan  nan  nan  nan  nan  nan  -1  0  1  0.0315145  -0.0497869  -0.00156888  0  0  0  0  0  0  0  0  0  0.0359743  0.00986691  -0.0247031  -0.0142731  0.0195285  -0.00732269  -0.0398611  0.0381548  -0.00945103  0.0324589  0.0672811  -0.00802968 
1699967375.490076000  0  0  11.7857  0.167412  -0.165418  0.00849276  nan  nan  nan  nan  nan  nan  -1  0  1  0.0320667  -0.0497471  -0.00159511  0  0  0  0  0  0  0  0  0  0.0359039  0.00996375  -0.0246793  -0.0145364  0.0198026  -0.0018097  -0.0402229  0.0375013  -0.0095039  0.0352257  -0.0141745  -0.0111205 
1699967375.495075000  0  0  11.8164  0.168576  -0.188172  0.00751271  nan  nan  nan  nan  nan  nan  -1  0  1  0.0314569  -0.050019  -0.00157331  0  0  0  0  0  0  0  0  0  0.0359782  0.00986243  -0.0246642  -0.0141758  0.0193364  -0.00440247  -0.0394658  0.0381804  -0.00945741  0.0259339  0.0250831  0.000665236 
1699967375.500024000  0  0  11.8355  0.162455  -0.197599  0.00701401  nan  nan  nan  nan  nan  nan  -1  0  1  0.0308355  -0.0501254  -0.00154548  0  0  0  0  0  0  0  0  0  0.0360231  0.00980103  -0.0246745  -0.0140317  0.0187224  -0.00597003  -0.0386178  0.0386195  -0.00941136  0.0303727  0.0398987  0.00643845 
1699967375.505074000  0  0  11.7773  0.169586  -0.16358  0.00719205  nan  nan  nan  nan  nan  nan  -1  0  1  0.0314156  -0.0499418  -0.00156882  0  0  0  0  0  0  0  0  0  0.035952  0.00989519  -0.0246561  -0.0144377  0.0190727  -0.00114676  -0.0391413  0.037916  -0.00938253  0.0209273  -0.0216675  0.00392476 
1699967375.510075000  0  0  11.8133  0.178866  -0.172872  0.00705327  nan  nan  nan  nan  nan  nan  -1  0  1  0.0311137  -0.0497416  -0.0015475  0  0  0  0  0  0  0  0  0  0.0359744  0.00986214  -0.0246611  -0.014552  0.0188761  -0.00414029  -0.0389197  0.0378091  -0.00936701  0.000329615  -0.00209914  0.00550422 
1699967375.515058000  0  0  11.8391  0.171426  -0.180167  0.00780408  nan  nan  nan  nan  nan  nan  -1  0  1  0.0308221  -0.0496892  -0.00153138  0  0  0  0  0  0  0  0  0  0.0359933  0.0098242  -0.0246617  -0.0145216  0.0186662  -0.00628737  -0.0384894  0.0379352  -0.00945734  0.0112492  0.0113295  -0.00297761 
1699967375.520022000  0  0  11.7903  0.177196  -0.157723  0.00796459  nan  nan  nan  nan  nan  nan  -1  0  1  0.0313808  -0.0493956  -0.00154995  0  0  0  0  0  0  0  0  0  0.0359204  0.00991624  -0.0246498  -0.0150135  0.0190265  -0.00223884  -0.0390421  0.037245  -0.00947434  0.00479571  -0.0272069  -0.00481394 
1699967375.525074000  0  0  11.8166  0.189451  -0.161213  0.00787  nan  nan  nan  nan  nan  nan  -1  0  1  0.0310365  -0.0495956  -0.00153914  0  0  0  0  0  0  0  0  0  0.0359419  0.00987961  -0.0246505  -0.0146544  0.0187474  -0.00443027  -0.038942  0.0373639  -0.009495  -0.0206347  -0.0213231  -0.00342493 
1699967375.530072000  0  0  11.8446  0.185885  -0.171811  0.00818657  nan  nan  nan  nan  nan  nan  -1  0  1  0.0317613  -0.0486143  -0.00154396  0  0  0  0  0  0  0  0  0  0.035863  0.00997723  -0.0246909  -0.0156155  0.0195834  -0.00670641  -0.0396273  0.0366005  -0.00954909  -0.00720003  0.00689812  -0.00684121 
1699967375.535213000  0  0  11.8  0.187618  -0.154849  0.00868461  nan  nan  nan  nan  nan  nan  -1  0  1  0.0313894  -0.048949  -0.00153637  0  0  0  0  0  0  0  0  0  0.0358869  0.00993419  -0.0246491  -0.0154724  0.019033  -0.00305862  -0.0393226  0.0365979  -0.00965142  -0.0134686  -0.0270025  -0.0120434 
1699967375.540641000  0  0  11.8092  0.196921  -0.15174  0.00854735  nan  nan  nan  nan  nan  nan  -1  0  1  0.031263  -0.0491027  -0.00153498  0  0  0  0  0  0  0  0  0  0.0358783  0.0099312  -0.024646  -0.0152015  0.0189056  -0.00383043  -0.0394419  0.0365406  -0.00969181  -0.030976  -0.0326933  -0.00992373 
1699967375.545214000  0  0  11.8295  0.192571  -0.173166  0.00770507  nan  nan  nan  nan  nan  nan  -1  0  1  0.0319999  -0.0481845  -0.00154183  0  0  0  0  0  0  0  0  0  0.0358034  0.010022  -0.0246794  -0.0161298  0.0197456  -0.00548258  -0.0401539  0.0360071  -0.00962623  -0.0157269  0.0150662  -5.11609e-05 
1699967375.550073000  0  0  11.8139  0.186175  -0.15891  0.00765791  nan  nan  nan  nan  nan  nan  -1  0  1  0.0313584  -0.0483756  -0.00151689  0  0  0  0  0  0  0  0  0  0.03583  0.00997108  -0.0246662  -0.0160244  0.0189605  -0.00419482  -0.0394955  0.0359867  -0.00963465  -0.00899177  -0.0132583  0.000622643 
1699967375.555025000  0  0  11.8198  0.187115  -0.140056  0.00790497  nan  nan  nan  nan  nan  nan  -1  0  1  0.0319519  -0.0483071  -0.00154343  0  0  0  0  0  0  0  0  0  0.0357555  0.010067  -0.0246904  -0.0159158  0.0195466  -0.00462363  -0.040084  0.03544  -0.00964607  -0.00545684  -0.0459352  -0.00235151 
1699967375.560074000  0  0  11.8415  0.193567  -0.180618  0.00736817  nan  nan  nan  nan  nan  nan  -1  0  1  0.0320378  -0.048161  -0.0015429  0  0  0  0  0  0  0  0  0  0.0357624  0.0100479  -0.0246958  -0.0160054  0.0197804  -0.00644667  -0.0402928  0.0359375  -0.00959959  -0.0164399  0.0306112  0.00389388 
1699967375.565073000  0  0  11.8308  0.18491  -0.167631  0.00790649  nan  nan  nan  nan  nan  nan  -1  0  1  0.0313124  -0.0483081  -0.00151255  0  0  0  0  0  0  0  0  0  0.0357964  0.00999564  -0.0246915  -0.0159479  0.0189045  -0.00555149  -0.0395306  0.0360068  -0.00966322  -0.00613828  0.00399994  -0.00219902 
1699967375.570073000  0  0  11.8264  0.185939  -0.147092  0.00805932  nan  nan  nan  nan  nan  nan  -1  0  1  0.0318023  -0.0482068  -0.00153301  0  0  0  0  0  0  0  0  0  0.0357202  0.0100908  -0.0247137  -0.0159346  0.019321  -0.00512745  -0.0400037  0.0354605  -0.00967648  -0.00384372  -0.0320523  -0.00397667 
1699967375.575078000  0  0  11.8619  0.195043  -0.196953  0.00738256  nan  nan  nan  nan  nan  nan  -1  0  1  0.0316382  -0.0481799  -0.00152424  0  0  0  0  0  0  0  0  0  0.0357516  0.0100499  -0.0247399  -0.0158478  0.0193227  -0.00806881  -0.0400372  0.0363095  -0.00962981  -0.021744  0.059858  0.00401602 
1699967375.580072000  0  0  11.8498  0.181912  -0.183346  0.00793583  nan  nan  nan  nan  nan  nan  -1  0  1  0.0320661  -0.0476987  -0.00152945  0  0  0  0  0  0  0  0  0  0.0356709  0.0101451  -0.0247646  -0.0163662  0.0196333  -0.00702098  -0.0402593  0.0359101  -0.00967605  0.00656127  0.0363193  -0.00243739 
1699967375.585072000  0  0  11.8291  0.177057  -0.164747  0.00868115  nan  nan  nan  nan  nan  nan  -1  0  1  0.0317491  -0.0483228  -0.00153412  0  0  0  0  0  0  0  0  0  0.0356908  0.010127  -0.0247534  -0.0157003  0.019181  -0.00529357  -0.0398348  0.036252  -0.00978305  0.0123664  -0.00402556  -0.0106839 
1699967375.590071000  0  0  11.8659  0.185575  -0.201933  0.00814972  nan  nan  nan  nan  nan  nan  -1  0  1  0.0315675  -0.0481807  -0.00152086  0  0  0  0  0  0  0  0  0  0.0356981  0.010107  -0.0247758  -0.0157054  0.0191173  -0.00834312  -0.0397999  0.0368619  -0.00979108  -0.00498984  0.0647375  -0.0039607 
1699967375.595213000  0  0  11.8601  0.16482  -0.187889  0.00857434  nan  nan  nan  nan  nan  nan  -1  0  1  0.031976  -0.0477194  -0.00152582  0  0  0  0  0  0  0  0  0  0.0356159  0.0102044  -0.0248078  -0.0161624  0.0194193  -0.00778667  -0.0397677  0.0365183  -0.00985763  0.0362239  0.0398102  -0.00860293 
1699967375.600023000  0  0  11.8365  0.170555  -0.177099  0.00872312  nan  nan  nan  nan  nan  nan  -1  0  1  0.0316648  -0.0483549  -0.00153106  0  0  0  0  0  0  0  0  0  0.0356469  0.0101756  -0.0247815  -0.0155202  0.0189886  -0.00586459  -0.039443  0.0370422  -0.00991312  0.0217643  0.0134099  -0.0099078 
1699967375.605072000  0  0  11.8636  0.183379  -0.200231  0.00804603  nan  nan  nan  nan  nan  nan  -1  0  1  0.0321209  -0.0477602  -0.00153404  0  0  0  0  0  0  0  0  0  0.0355663  0.0102731  -0.0248326  -0.0159775  0.019471  -0.00805242  -0.0400309  0.0370266  -0.00987986  0.00152629  0.0598182  -0.00177676 
1699967375.610075000  0  0  11.8685  0.16578  -0.199662  0.00889103  nan  nan  nan  nan  nan  nan  -1  0  1  0.032098  -0.0476055  -0.00152798  0  0  0  0  0  0  0  0  0  0.0355584  0.0102802  -0.0248346  -0.0161391  0.0194426  -0.00845055  -0.0396517  0.0371707  -0.0100056  0.0332355  0.0573531  -0.0110823 
1699967375.615777000  0  0  11.8299  0.175014  -0.188271  0.00858228  nan  nan  nan  nan  nan  nan  -1  0  1  0.0315733  -0.0485169  -0.00153175  0  0  0  0  0  0  0  0  0  0.0356095  0.0102221  -0.0248051  -0.0152583  0.0187424  -0.00528341  -0.0391393  0.0380614  -0.0100397  0.0100541  0.0263769  -0.00688168 
1699967375.620022000  0  0  11.8502  0.189982  -0.202566  0.00793977  nan  nan  nan  nan  nan  nan  -1  0  1  0.0319307  -0.0480521  -0.00153427  0  0  0  0  0  0  0  0  0  0.0355433  0.0103024  -0.0248444  -0.0156117  0.019108  -0.00692944  -0.039726  0.0380164  -0.00998703  -0.0144857  0.0553818  0.00062317 
1699967375.625074000  0  0  11.856  0.169551  -0.207495  0.00794787  nan  nan  nan  nan  nan  nan  -1  0  1  0.0319228  -0.0479068  -0.00152925  0  0  0  0  0  0  0  0  0  0.0355591  0.0102857  -0.0248361  -0.0158078  0.0191556  -0.00743197  -0.0393836  0.0382601  -0.00999865  0.0232261  0.0629971  0.000638121 
1699967375.630024000  0  0  11.8184  0.187229  -0.18481  0.00773831  nan  nan  nan  nan  nan  nan  -1  0  1  0.0323256  -0.0478893  -0.001548  0  0  0  0  0  0  0  0  0  0.0354834  0.0103788  -0.0248427  -0.0158611  0.0193444  -0.00428873  -0.0399765  0.03806  -0.00995675  -0.00667491  0.0194688  0.00283859 
1699967375.635078000  0  0  11.823  0.204084  -0.193407  0.00796147  nan  nan  nan  nan  nan  nan  -1  0  1  0.0323018  -0.0482346  -0.001558  0  0  0  0  0  0  0  0  0  0.0355192  0.0103421  -0.024812  -0.0154598  0.0194113  -0.00475527  -0.0403477  0.0386161  -0.00996158  -0.0369705  0.031545  9.73551e-05 
1699967375.640073000  0  0  11.8223  0.190137  -0.197846  0.00848358  nan  nan  nan  nan  nan  nan  -1  0  1  0.0321518  -0.0483384  -0.00155409  0  0  0  0  0  0  0  0  0  0.0355619  0.0103043  -0.0247916  -0.015422  0.0192959  -0.0047459  -0.0401112  0.0389543  -0.0100291  -0.01125  0.0373137  -0.00575398 
1699967375.646023000  0  0  11.8025  0.199499  -0.167532  0.00843879  nan  nan  nan  nan  nan  nan  -1  0  1  0.0328158  -0.0478583  -0.00157047  0  0  0  0  0  0  0  0  0  0.0354687  0.0104191  -0.0248048  -0.0159504  0.0198417  -0.00306808  -0.0409304  0.0380716  -0.0100416  -0.0224381  -0.0151947  -0.00506857 
1699967375.650076000  0  0  11.8072  0.208725  -0.173038  0.00789111  nan  nan  nan  nan  nan  nan  -1  0  1  0.0325022  -0.0482896  -0.00156946  0  0  0  0  0  0  0  0  0  0.0355245  0.0103671  -0.0247729  -0.0154828  0.0195624  -0.00352917  -0.0409011  0.0385027  -0.00999356  -0.04116  -0.00814875  0.00129672 
1699967375.655082000  0  0  11.8238  0.207321  -0.176624  0.00788715  nan  nan  nan  nan  nan  nan  -1  0  1  0.0332726  -0.0474376  -0.00157836  0  0  0  0  0  0  0  0  0  0.0354424  0.0104685  -0.024803  -0.0163295  0.0204115  -0.00487034  -0.0417677  0.0377711  -0.00997772  -0.0303787  0.00575388  0.00118778 
1699967375.660022000  0  0  11.8124  0.200683  -0.15687  0.0091874  nan  nan  nan  nan  nan  nan  -1  0  1  0.0329683  -0.047668  -0.0015715  0  0  0  0  0  0  0  0  0  0.0354745  0.0104333  -0.0247619  -0.0161602  0.0200469  -0.00398674  -0.0414848  0.0376055  -0.0101304  -0.0197055  -0.0322305  -0.013538 
1699967375.665072000  0  0  11.8171  0.211816  -0.157768  0.00916351  nan  nan  nan  nan  nan  nan  -1  0  1  0.032716  -0.0482035  -0.00157698  0  0  0  0  0  0  0  0  0  0.0355088  0.0104011  -0.0247328  -0.015507  0.0198033  -0.0044382  -0.0415876  0.0379295  -0.0101806  -0.0410272  -0.0334145  -0.0127382 
1699967375.670055000  0  0  11.827  0.209712  -0.16857  0.00853627  nan  nan  nan  nan  nan  nan  -1  0  1  0.0334871  -0.047386  -0.00158682  0  0  0  0  0  0  0  0  0  0.0354267  0.0105032  -0.0247596  -0.0163443  0.0206286  -0.00523731  -0.0424369  0.0372574  -0.0101564  -0.029005  -0.00562823  -0.00513943 
1699967375.676029000  0  0  11.8289  0.197248  -0.152726  0.00823624  nan  nan  nan  nan  nan  nan  -1  0  1  0.0332538  -0.0474516  -0.00157793  0  0  0  0  0  0  0  0  0  0.0354397  0.0104957  -0.0247423  -0.016279  0.0203447  -0.00541112  -0.0420985  0.0369692  -0.0101412  -0.00719059  -0.0346655  -0.00154116 
1699967375.681025000  0  0  11.8103  0.206545  -0.153165  0.00777286  nan  nan  nan  nan  nan  nan  -1  0  1  0.0330378  -0.0479063  -0.00158269  0  0  0  0  0  0  0  0  0  0.0354492  0.0104835  -0.0247069  -0.015801  0.0200185  -0.00392654  -0.0421151  0.0372034  -0.0100804  -0.0256307  -0.0359411  0.00364279 
1699967375.685070000  0  0  11.8244  0.200166  -0.168211  0.00780134  nan  nan  nan  nan  nan  nan  -1  0  1  0.0336091  -0.047291  -0.00158941  0  0  0  0  0  0  0  0  0  0.0353822  0.0105669  -0.024733  -0.0163846  0.0206373  -0.00506598  -0.0426151  0.0368029  -0.0100679  -0.00827367  -0.00216467  0.00316219 
1699967375.690484000  0  0  11.8245  0.178991  -0.162466  0.00803992  nan  nan  nan  nan  nan  nan  -1  0  1  0.0331773  -0.0474308  -0.00157361  0  0  0  0  0  0  0  0  0  0.0354158  0.0105271  -0.0247057  -0.0162778  0.0201573  -0.00510398  -0.0417942  0.0368441  -0.0100955  0.0265253  -0.0140332  0.000456087 
1699967375.695082000  0  0  11.7999  0.18996  -0.156507  0.0081091  nan  nan  nan  nan  nan  nan  -1  0  1  0.0334541  -0.0475516  -0.00159079  0  0  0  0  0  0  0  0  0  0.0353454  0.0106176  -0.0247106  -0.0160912  0.0202283  -0.00304359  -0.0421484  0.0367671  -0.0100869  0.00784508  -0.0252426  -0.000494706 
1699967375.700074000  0  0  11.8398  0.180583  -0.182924  0.00827374  nan  nan  nan  nan  nan  nan  -1  0  1  0.0333935  -0.0474714  -0.00158523  0  0  0  0  0  0  0  0  0  0.0353685  0.0105908  -0.0247032  -0.0160371  0.0203569  -0.00639213  -0.0418931  0.0370881  -0.010124  0.024251  0.0246373  -0.00218169 
1699967375.705062000  0  0  11.8409  0.167106  -0.186634  0.00830759  nan  nan  nan  nan  nan  nan  -1  0  1  0.0337803  -0.0469302  -0.00158534  0  0  0  0  0  0  0  0  0  0.0352863  0.0106915  -0.0247296  -0.0165617  0.0206468  -0.00642047  -0.0418269  0.0368121  -0.0101499  0.0505951  0.0345962  -0.00234605 
1699967375.710076000  0  0  11.7974  0.172653  -0.177314  0.00843664  nan  nan  nan  nan  nan  nan  -1  0  1  0.0332042  -0.0478498  -0.00158879  0  0  0  0  0  0  0  0  0  0.0353376  0.0106381  -0.0246756  -0.015697  0.0198446  -0.00289203  -0.0411922  0.0376131  -0.0101677  0.0336615  0.00858752  -0.0037812 
1699967375.715078000  0  0  11.8249  0.164771  -0.197497  0.00855986  nan  nan  nan  nan  nan  nan  -1  0  1  0.0331454  -0.0479925  -0.0015907  0  0  0  0  0  0  0  0  0  0.0353671  0.0106113  -0.0246676  -0.0154283  0.019928  -0.0051992  -0.0408326  0.0381535  -0.010212  0.0461176  0.0439814  -0.00487834 
1699967375.720157000  0  0  11.8298  0.161453  -0.196552  0.00846762  nan  nan  nan  nan  nan  nan  -1  0  1  0.033504  -0.0475161  -0.00159197  0  0  0  0  0  0  0  0  0  0.035287  0.0107114  -0.0246954  -0.0158505  0.0201962  -0.00555704  -0.0408514  0.0379481  -0.0102334  0.0529265  0.0439804  -0.00351138 
1699967375.725073000  0  0  11.7744  0.16538  -0.18464  0.00825781  nan  nan  nan  nan  nan  nan  -1  0  1  0.0331289  -0.0482244  -0.00159759  0  0  0  0  0  0  0  0  0  0.0353244  0.0106658  -0.0246301  -0.0152999  0.0195985  -0.00105534  -0.0403424  0.0385718  -0.010218  0.0403911  0.0144185  -0.00104232 
1699967375.730623000  0  0  11.8002  0.16738  -0.188494  0.0077873  nan  nan  nan  nan  nan  nan  -1  0  1  0.0328888  -0.0484553  -0.00159359  0  0  0  0  0  0  0  0  0  0.0353501  0.0106326  -0.0246119  -0.0149157  0.0194518  -0.00324247  -0.0399817  0.0388975  -0.0101646  0.0330717  0.0191307  0.00430474 
1699967375.735076000  0  0  11.8048  0.164331  -0.192881  0.00803366  nan  nan  nan  nan  nan  nan  -1  0  1  0.0334487  -0.047807  -0.00159907  0  0  0  0  0  0  0  0  0  0.0352794  0.0107211  -0.0246297  -0.0155841  0.0200077  -0.00359614  -0.0402815  0.0384953  -0.0101822  0.0419274  0.031605  0.00140146 
1699967375.741024000  0  0  11.762  0.173682  -0.172315  0.00857171  nan  nan  nan  nan  nan  nan  -1  0  1  0.0330965  -0.0483714  -0.00160088  0  0  0  0  0  0  0  0  0  0.0353046  0.0106924  -0.0245651  -0.0151304  0.0194506  -0.000146807  -0.0399441  0.0387532  -0.0102404  0.0201219  -0.0118992  -0.00474239 
1699967375.745074000  0  0  11.7789  0.180455  -0.172273  0.0084728  nan  nan  nan  nan  nan  nan  -1  0  1  0.0336401  -0.0478684  -0.00161029  0  0  0  0  0  0  0  0  0  0.0352414  0.0107739  -0.024582  -0.0155571  0.0200441  -0.0015229  -0.0405013  0.0382288  -0.0102389  0.0117005  -0.0071589  -0.00352126 
1699967375.750212000  0  0  11.7709  0.179615  -0.17805  0.00820504  nan  nan  nan  nan  nan  nan  -1  0  1  0.0336393  -0.0478053  -0.00160813  0  0  0  0  0  0  0  0  0  0.0352458  0.0107603  -0.0245293  -0.0156921  0.0200435  -0.000969694  -0.0403986  0.0382892  -0.0102174  0.0124383  0.00383983  -0.000388641 
1699967375.755542000  0  0  11.7456  0.184608  -0.165533  0.00764277  nan  nan  nan  nan  nan  nan  -1  0  1  0.0332188  -0.0481031  -0.0015979  0  0  0  0  0  0  0  0  0  0.0352822  0.0107124  -0.0244647  -0.01552  0.0195058  0.0010153  -0.0400506  0.0383416  -0.0101435  -0.000749831  -0.0216774  0.00590052 
1699967375.760074000  0  0  11.7554  0.200346  -0.150289  0.00726711  nan  nan  nan  nan  nan  nan  -1  0  1  0.0337576  -0.0477854  -0.00161312  0  0  0  0  0  0  0  0  0  0.0352129  0.0108024  -0.024471  -0.0157278  0.0200461  0.00021211  -0.040866  0.0376326  -0.0100501  -0.0247249  -0.0456423  0.00966232 
1699967375.765661000  0  0  11.7589  0.197059  -0.165275  0.00784904  nan  nan  nan  nan  nan  nan  -1  0  1  0.0337438  -0.0477271  -0.00161049  0  0  0  0  0  0  0  0  0  0.035232  0.0107723  -0.024417  -0.0158275  0.0201089  -0.000203127  -0.0409207  0.0376494  -0.0100791  -0.0176484  -0.0158244  0.00267806 
1699967375.770026000  0  0  11.7562  0.199453  -0.155717  0.00823788  nan  nan  nan  nan  nan  nan  -1  0  1  0.0341997  -0.0470557  -0.00160932  0  0  0  0  0  0  0  0  0  0.0351594  0.0108598  -0.024416  -0.0165577  0.0205014  1.23233e-05  -0.0414386  0.0368135  -0.0101118  -0.017671  -0.0272504  -0.00185563 
1699967375.776024000  0  0  11.7382  0.206351  -0.135368  0.00826881  nan  nan  nan  nan  nan  nan  -1  0  1  0.0340156  -0.0473721  -0.00161141  0  0  0  0  0  0  0  0  0  0.0351647  0.0108218  -0.0243335  -0.0162517  0.0202761  0.00135684  -0.041561  0.0364947  -0.0101106  -0.0303418  -0.065016  -0.00225401 
1699967375.780076000  0  0  11.7613  0.206343  -0.155377  0.00772829  nan  nan  nan  nan  nan  nan  -1  0  1  0.034713  -0.0465577  -0.00161622  0  0  0  0  0  0  0  0  0  0.0350948  0.0109075  -0.0243457  -0.017038  0.0210867  -0.000563247  -0.0423  0.0358949  -0.0100521  -0.0235251  -0.0194789  0.00391768 
1699967375.785073000  0  0  11.7587  0.201039  -0.153274  0.00779217  nan  nan  nan  nan  nan  nan  -1  0  1  0.0340838  -0.0466666  -0.00159061  0  0  0  0  0  0  0  0  0  0.0351339  0.0108564  -0.0242924  -0.0169987  0.0203677  -0.00045074  -0.0417307  0.0358884  -0.0100439  -0.0181562  -0.0236249  0.00303661 
1699967375.790077000  0  0  11.7273  0.200041  -0.131845  0.00790492  nan  nan  nan  nan  nan  nan  -1  0  1  0.0338172  -0.0472766  -0.00159878  0  0  0  0  0  0  0  0  0  0.0351548  0.0108138  -0.0242072  -0.0164135  0.0199938  0.00201377  -0.0415939  0.035886  -0.0100206  -0.0174184  -0.0664618  0.00139408 
1699967375.795090000  0  0  11.7792  0.202873  -0.166021  0.00758949  nan  nan  nan  nan  nan  nan  -1  0  1  0.0347056  -0.0463221  -0.00160771  0  0  0  0  0  0  0  0  0  0.0350684  0.0109205  -0.0242367  -0.0171958  0.0211176  -0.00228292  -0.042515  0.0353889  -0.00998  -0.0146078  0.00646436  0.00493139 
1699967375.800085000  0  0  11.7633  0.196908  -0.164567  0.00785439  nan  nan  nan  nan  nan  nan  -1  -0  1  0.0337595  -0.0465467  -0.00157142  6e-07  -6e-07  6e-07  0  0  0  0  0  0  0.0350892  0.0108265  -0.0241319  -0.0170336  0.0200282  -0.00117578  -0.0416646  0.0356665  -0.0100078  -0.0105014  0.00100226  0.00189791 
1699967375.805160000  0  0  11.75  0.191197  -0.145077  0.00822868  nan  nan  nan  nan  nan  nan  -1  -0  1  0.034281  -0.0463862  -0.00159022  5e-06  -5e-06  5e-06  0  0  0  0  0  0  0.0350053  0.0109285  -0.0241232  -0.0171249  0.0204323  -7.22309e-05  -0.0420773  0.0350653  -0.0100295  0.00471786  -0.0324456  -0.00256342 
1699967375.810879000  0  0  11.811  0.190263  -0.176729  0.0077392  nan  nan  nan  nan  nan  nan  -1  -1e-07  1  0.0341197  -0.0463621  -0.00158191  1.69e-05  -1.69e-05  1.69e-05  0  0  0  0  0  0  0.0350253  0.0108986  -0.0241198  -0.0168858  0.02052  -0.00517699  -0.0419406  0.0355412  -0.00998908  0.00532802  0.0264785  0.00315073 
1699967375.815028000  0  0  11.7854  0.181801  -0.175853  0.00781825  nan  nan  nan  nan  nan  nan  -1  -2e-07  1  0.0336417  -0.0463668  -0.00155978  4e-05  -4e-05  4e-05  0  0  0  0  0  0  0.0350154  0.0108754  -0.0240705  -0.0169917  0.0198488  -0.00314905  -0.0413711  0.0357127  -0.0099996  0.0170119  0.0231495  0.00226791 
1699967375.820024000  0  0  11.7674  0.173907  -0.15414  0.00874738  nan  nan  nan  nan  nan  nan  -1  -5e-07  1  0.0342539  -0.046215  -0.0015829  7.81e-05  -7.81e-05  7.81e-05  0  0  0  0  0  0  0.0349327  0.0109763  -0.0240675  -0.0170986  0.0203571  -0.00163434  -0.041697  0.0351973  -0.0100958  0.0357988  -0.0155345  -0.00838405 
1699967375.825074000  0  0  11.8286  0.172494  -0.184509  0.00857194  nan  nan  nan  nan  nan  nan  -0.999999  -1e-06  1  0.0339686  -0.0461215  -0.00156633  0.000135  -0.000135  0.000135  0  0  0  0  0  0  0.034933  0.0109423  -0.02406  -0.0169081  0.0202913  -0.00676357  -0.0412892  0.03568  -0.0101267  0.0348716  0.0407628  -0.00588187 
1699967375.830824000  0  0  11.7782  0.162926  -0.183974  0.00857814  nan  nan  nan  nan  nan  nan  -0.999998  -1.9e-06  1  0.0336318  -0.0463183  -0.0015572  0.0002141  -0.0002144  0.0002134  0  0  0  0  0  0  0.0349268  0.0109155  -0.0239907  -0.0168966  0.0197192  -0.00269975  -0.0406492  0.036192  -0.0101702  0.0481219  0.0349808  -0.00552467 
1699967375.835088000  0  0  11.7662  0.161945  -0.166893  0.00850177  nan  nan  nan  nan  nan  nan  -0.999997  -3.2e-06  1  0.0342353  -0.0460079  -0.00157436  0.0003149  -0.00032  0.0003113  0  0  0  0  0  0  0.0348548  0.0110018  -0.0239938  -0.0172036  0.0202718  -0.00168312  -0.0409911  0.0356935  -0.0101758  0.0532288  0.00540638  -0.00451447 
1699967375.840079000  0  0  11.8183  0.167255  -0.184862  0.00789442  nan  nan  nan  nan  nan  nan  -0.999995  -5.1e-06  1.00001  0.0336809  -0.046208  -0.00155536  0.0004338  -0.0004556  0.0004249  0  0  0  0  0  0  0.0348679  0.0109558  -0.0239906  -0.0167042  0.0198441  -0.00603944  -0.0403908  0.0362839  -0.0101382  0.0370863  0.0359119  0.00270163 
1699967375.845076000  0  0  11.799  0.164888  -0.196063  0.00797584  nan  nan  nan  nan  nan  nan  -0.999992  -7.8e-06  1.00001  0.0345243  -0.0455037  -0.00156986  0.0005669  -0.000625  0.0005504  0  0  0  0  0  0  0.0347788  0.0110587  -0.0239968  -0.017527  0.0206514  -0.00444031  -0.04094  0.0360587  -0.0101381  0.046872  0.0603859  0.00168272 
1699967375.850059000  0  0  11.7651  0.165726  -0.178138  0.00813193  nan  nan  nan  nan  nan  nan  -0.999989  -1.14e-05  1.00001  0.0341881  -0.0459413  -0.00156931  0.0007105  -0.0008319  0.0006841  0  0  0  0  0  0  0.0348297  0.0110026  -0.0239344  -0.0172405  0.0202048  -0.00172377  -0.0404683  0.0364054  -0.0101453  0.040856  0.0213458  -0.000196058 
1699967375.855599000  0  0  11.7907  0.181743  -0.181719  0.0081371  nan  nan  nan  nan  nan  nan  -0.999985  -1.62e-05  1.00001  0.0341192  -0.0463616  -0.00158027  0.000861  -0.00108  0.0008222  0  0  0  0  0  0  0.0348469  0.0109765  -0.0239075  -0.0165953  0.0202691  -0.00392124  -0.0405821  0.0369632  -0.0101366  0.00986991  0.023377  -0.000348176 
1699967375.860078000  0  0  11.7827  0.181295  -0.1992  0.00834601  nan  nan  nan  nan  nan  nan  -0.999981  -2.23e-05  1.00002  0.0350689  -0.0455244  -0.00159489  0.0010145  -0.0013731  0.000961  0  0  0  0  0  0  0.0347666  0.0110722  -0.023923  -0.017552  0.0212727  -0.00325179  -0.0413885  0.0366668  -0.0101684  0.0181841  0.0610648  -0.00264142 
1699967375.865075000  0  0  11.7603  0.184297  -0.17181  0.00863285  nan  nan  nan  nan  nan  nan  -0.999975  -3e-05  1.00002  0.0349362  -0.0455185  -0.00158854  0.0011672  -0.001715  0.0010968  0  0  0  0  0  0  0.0347739  0.0110426  -0.0238614  -0.0176902  0.0210777  -0.00151124  -0.041294  0.0364506  -0.0102101  0.011311  0.00827388  -0.00580934 
1699967375.870076000  0  0  11.7708  0.201958  -0.156658  0.00842747  nan  nan  nan  nan  nan  nan  -0.999969  -3.96e-05  1.00003  0.0359163  -0.0452402  -0.0016233  0.0013155  -0.0021094  0.0012257  0  0  0  0  0  0  0.0346886  0.0111521  -0.0238827  -0.0178081  0.0221577  -0.00234364  -0.0424821  0.0358734  -0.0101794  -0.0130807  -0.0167186  -0.00354944 
1699967375.875078000  0  0  11.7648  0.208981  -0.182631  0.0078084  nan  nan  nan  nan  nan  nan  -0.999962  -5.12e-05  1.00004  0.0360666  -0.0450275  -0.00162274  0.0014556  -0.0025587  0.0013441  0  0  0  0  0  0  0.0347  0.0111155  -0.0238323  -0.0181402  0.0224134  -0.00197851  -0.0428672  0.0361859  -0.0101208  -0.023585  0.0323516  0.0036035 
1699967375.880076000  0  0  11.7565  0.205699  -0.154242  0.00825266  nan  nan  nan  nan  nan  nan  -0.999954  -6.52e-05  1.00004  0.0369847  -0.044312  -0.00163818  0.0015837  -0.0030604  0.0014482  0  0  0  0  0  0  0.034606  0.0112289  -0.0238302  -0.0189068  0.0233293  -0.00128931  -0.0437339  0.0351402  -0.0101397  -0.00904674  -0.0148062  -0.00176139 
1699967375.885075000  0  0  11.7423  0.217865  -0.139813  0.00813129  nan  nan  nan  nan  nan  nan  -0.999946  -8.19e-05  1.00005  0.0374617  -0.0446667  -0.00167352  0.0016961  -0.0036108  0.0015342  0  0  0  0  0  0  0.0346091  0.0112279  -0.0237688  -0.0185174  0.0238947  -0.000232943  -0.044485  0.0350973  -0.0101027  -0.0264682  -0.0432682  -0.000614094 
1699967375.890076000  0  0  11.7668  0.232039  -0.173848  0.00744318  nan  nan  nan  nan  nan  nan  -0.999938  -0.0001014  1.00006  0.0378832  -0.0443271  -0.00168081  0.001789  -0.0042061  0.0015988  0  0  0  0  0  0  0.034597  0.0112321  -0.0237375  -0.0188096  0.0245415  -0.00238258  -0.0453142  0.0353242  -0.0100159  -0.0471877  0.0227134  0.00711932 
1699967375.895078000  0  0  11.7602  0.222031  -0.150269  0.00786407  nan  nan  nan  nan  nan  nan  -0.999928  -0.000124  1.00007  0.0388918  -0.0438272  -0.00170793  0.0018593  -0.0048425  0.0016434  0  0  0  0  0  0  0.0345015  0.0113557  -0.0237427  -0.019281  0.0255585  -0.00182014  -0.0462468  0.0345276  -0.0100135  -0.0185921  -0.0171157  0.00183456 
1699967375.900005000  0  0  11.7521  0.229539  -0.143193  0.00791182  nan  nan  nan  nan  nan  nan  -0.999919  -0.0001499  1.00007  0.0392424  -0.0443107  -0.00174468  0.0019086  -0.0055164  0.0016716  0  0  0  0  0  0  0.0345135  0.0113554  -0.0236789  -0.0187117  0.0259811  -0.00128229  -0.0468211  0.0347581  -0.00998151  -0.0283242  -0.0333878  0.000917407 
1699967375.905026000  0  0  11.7806  0.235433  -0.177258  0.00702541  nan  nan  nan  nan  nan  nan  -0.999909  -0.0001792  1.00008  0.039582  -0.0443625  -0.001765  0.0019405  -0.0062239  0.0016872  0  0  0  0  0  0  0.0345143  0.0113591  -0.0236496  -0.018501  0.0265436  -0.00375552  -0.0474353  0.0353988  -0.00985752  -0.0344622  0.0288468  0.0107576 
1699967375.910076000  0  0  11.7732  0.216695  -0.168867  0.0076637  nan  nan  nan  nan  nan  nan  -0.9999  -0.0002122  1.00009  0.040757  -0.0437885  -0.00179781  0.0019589  -0.0069612  0.0016939  0  0  0  0  0  0  0.0344189  0.0114953  -0.0236587  -0.0190733  0.0277475  -0.00312007  -0.0482799  0.0348567  -0.00987062  0.010785  0.0170532  0.00290991 
1699967375.915215000  0  0  11.775  0.221193  -0.16945  0.00758981  nan  nan  nan  nan  nan  nan  -0.99989  -0.0002489  1.0001  0.0409599  -0.0444419  -0.00183855  0.0019674  -0.0077248  0.0016954  0  0  0  0  0  0  0.0344376  0.0114986  -0.0236141  -0.018247  0.028012  -0.00336088  -0.0485072  0.0355442  -0.00982374  0.00388038  0.011893  0.00336479 
1699967375.920104000  0  0  11.7896  0.224358  -0.186303  0.00731235  nan  nan  nan  nan  nan  nan  -0.99988  -0.0002895  1.00011  0.0420034  -0.0438994  -0.00186842  0.0019699  -0.0085107  0.0016955  0  0  0  0  0  0  0.0343456  0.0116388  -0.0236387  -0.0186767  0.0291373  -0.00455165  -0.0495037  0.0354337  -0.00976672  0.00671884  0.0466167  0.00626281 
1699967375.925102000  0  0  11.7923  0.196092  -0.184476  0.00791537  nan  nan  nan  nan  nan  nan  -0.99987  -0.000334  1.00012  0.0424103  -0.0442769  -0.00190981  0.0019701  -0.0093153  0.0016955  0  0  0  0  0  0  0.034376  0.0116465  -0.0236062  -0.0182341  0.0296631  -0.00481429  -0.0493063  0.0360001  -0.00978783  0.0614328  0.0377515  -0.00106377 
1699967375.930046000  0  0  11.7963  0.204671  -0.179188  0.00796385  nan  nan  nan  nan  nan  nan  -0.99986  -0.0003826  1.00013  0.0432608  -0.0440907  -0.00194847  0.0019701  -0.0101348  0.0016955  0  0  0  0  0  0  0.0342871  0.011793  -0.0236284  -0.0182569  0.0304722  -0.00510393  -0.0499524  0.0358656  -0.00977762  0.0502205  0.0284133  -0.00177186 
1699967375.935103000  0  0  11.8147  0.2046  -0.194154  0.00822201  nan  nan  nan  nan  nan  nan  -0.99985  -0.0004354  1.00013  0.0434454  -0.0445772  -0.00198835  0.0019701  -0.0109655  0.0016955  0  0  0  0  0  0  0.034302  0.0118142  -0.0235995  -0.017557  0.030754  -0.00669621  -0.0499299  0.0367822  -0.00980034  0.0501562  0.049912  -0.00477166 
1699967375.940102000  0  0  11.818  0.173516  -0.201835  0.0087856  nan  nan  nan  nan  nan  nan  -0.999841  -0.0004923  1.00014  0.0438429  -0.0448144  -0.00202889  0.0019701  -0.0118035  0.0016955  0  0  0  0  0  0  0.0343262  0.0118297  -0.0235746  -0.0172804  0.0312552  -0.00699878  -0.0494637  0.0374309  -0.0098882  0.108034  0.0593055  -0.010938 
1699967375.945101000  0  0  11.8226  0.184238  -0.19546  0.00865843  nan  nan  nan  nan  nan  nan  -0.999831  -0.0005534  1.00015  0.0445558  -0.0447133  -0.00207089  0.0019701  -0.0126452  0.0016955  0  0  0  0  0  0  0.0342416  0.0119841  -0.0236077  -0.0171981  0.0318711  -0.00731003  -0.0498214  0.0374735  -0.00990143  0.0898799  0.0461637  -0.00921608 
1699967375.950093000  0  0  11.8215  0.184027  -0.201489  0.00833946  nan  nan  nan  nan  nan  nan  -0.999821  -0.0006188  1.00016  0.0447726  -0.0453909  -0.00212773  0.0019701  -0.0134869  0.0016955  0  0  0  0  0  0  0.0342787  0.0119949  -0.0235866  -0.0163913  0.0321229  -0.00724671  -0.0496522  0.0384561  -0.0098837  0.0887477  0.049181  -0.00540626 
1699967375.955623000  0  0  11.8243  0.167992  -0.216435  0.00823478  nan  nan  nan  nan  nan  nan  -0.999811  -0.0006883  1.00017  0.0450798  -0.0456103  -0.00217078  0.0019701  -0.0143246  0.0016955  0  0  0  0  0  0  0.0343096  0.0120129  -0.0235616  -0.0161544  0.0324983  -0.00752096  -0.0491605  0.0392812  -0.00989359  0.116293  0.0714829  -0.00399879 
1699967375.960101000  0  0  11.8065  0.176152  -0.199684  0.00809521  nan  nan  nan  nan  nan  nan  -0.999801  -0.000762  1.00018  0.0460148  -0.0453275  -0.00222229  0.0019701  -0.0151548  0.0016955  0  0  0  0  0  0  0.0342347  0.0121662  -0.0235818  -0.0164453  0.0332948  -0.00597727  -0.0496898  0.0389878  -0.00986372  0.104842  0.0406802  -0.0025529 
1699967375.965053000  0  0  11.7896  0.180848  -0.195318  0.00785968  nan  nan  nan  nan  nan  nan  -0.999791  -0.0008398  1.00018  0.0461026  -0.0461988  -0.00229123  0.0019701  -0.0159736  0.0016955  0  0  0  0  0  0  0.0342745  0.0121816  -0.0235297  -0.0154724  0.0332837  -0.00465665  -0.0494134  0.0398989  -0.00981079  0.0929065  0.023566  -0.000138105 
1699967375.970227000  0  0  11.8137  0.172078  -0.209021  0.00776466  nan  nan  nan  nan  nan  nan  -0.999781  -0.0009217  1.00019  0.0473834  -0.0453872  -0.00234007  0.0019701  -0.0167773  0.0016955  0  0  0  0  0  0  0.0341887  0.0123577  -0.0235746  -0.0162186  0.0346992  -0.00656501  -0.0499687  0.0395572  -0.00978185  0.115556  0.0541156  0.0007603 
1699967375.975103000  0  0  11.793  0.17563  -0.191543  0.00826084  nan  nan  nan  nan  nan  nan  -0.999772  -0.0010076  1.0002  0.0472696  -0.0459567  -0.0023931  0.0019701  -0.0175622  0.0016955  0  0  0  0  0  0  0.0342366  0.0123653  -0.0235255  -0.0156809  0.0344187  -0.00491374  -0.0494412  0.040032  -0.00980637  0.103598  0.0147922  -0.00519678 
1699967375.980230000  0  0  11.7651  0.193546  -0.17569  0.00817077  nan  nan  nan  nan  nan  nan  -0.999762  -0.0010973  1.00021  0.0485395  -0.0458739  -0.00248256  0.0019701  -0.0183245  0.0016955  0  0  0  0  0  0  0.0341576  0.0125435  -0.023533  -0.0157483  0.0355348  -0.00255228  -0.0504619  0.0396433  -0.00976025  0.077157  -0.0133375  -0.00453206 
1699967375.985057000  0  0  11.7981  0.185386  -0.194367  0.0080778  nan  nan  nan  nan  nan  nan  -0.999752  -0.0011908  1.00022  0.0483528  -0.0460627  -0.00252201  0.0019701  -0.0190604  0.0016955  0  0  0  0  0  0  0.0342355  0.0125147  -0.0235048  -0.0155033  0.0355281  -0.00535225  -0.0498241  0.0401738  -0.00975201  0.087611  0.0191348  -0.00345236 
1699967375.990824000  0  0  11.7848  0.182533  -0.174672  0.00863628  nan  nan  nan  nan  nan  nan  -0.999742  -0.0012879  1.00023  0.0480359  -0.0466461  -0.00257839  0.0019701  -0.0197662  0.0016955  0  0  0  0  0  0  0.0343206  0.0124748  -0.0234558  -0.0149956  0.0351227  -0.00430391  -0.0490451  0.040478  -0.00980826  0.0861483  -0.0230541  -0.00987094 
1699967375.995229000  0  0  11.7483  0.203701  -0.157029  0.00821386  nan  nan  nan  nan  nan  nan  -0.999732  -0.0013884  1.00024  0.0490865  -0.0466545  -0.00267512  0.0019701  -0.0204382  0.0016955  0  0  0  0  0  0  0.0342554  0.0126427  -0.0234512  -0.015021  0.0359236  -0.00125148  -0.0500491  0.0400324  -0.00971923  0.0530489  -0.0542397  -0.00548106 
1699967376.000101000  0  0  11.7714  0.202272  -0.170802  0.00755647  nan  nan  nan  nan  nan  nan  -0.999722  -0.0014922  1.00024  0.0492331  -0.0466763  -0.00273474  0.0019701  -0.0210726  0.0016955  0  0  0  0  0  0  0.034302  0.0126603  -0.0234191  -0.0149716  0.0361988  -0.00323942  -0.0499521  0.0400939  -0.00962884  0.0550149  -0.0272605  0.00183252 
1699967376.005053000  0  0  11.7706  0.196327  -0.162364  0.00741692  nan  nan  nan  nan  nan  nan  -0.999712  -0.001599  1.00025  0.0492159  -0.0468529  -0.00279902  0.0019701  -0.0216656  0.0016955  0  0  0  0  0  0  0.0343402  0.0126867  -0.0233817  -0.0148274  0.036107  -0.00321476  -0.0495889  0.0399944  -0.00956378  0.0635636  -0.0432196  0.00292629 
1699967376.010084000  0  0  11.7262  0.213535  -0.139644  0.00696711  nan  nan  nan  nan  nan  nan  -0.999703  -0.0017087  1.00026  0.0500777  -0.0468287  -0.00289937  0.0019701  -0.0222136  0.0016955  0  0  0  0  0  0  0.0342686  0.0128666  -0.0233665  -0.0149237  0.0365831  0.000477678  -0.0504178  0.0393076  -0.00940625  0.0367734  -0.0823414  0.00697367 
1699967376.015051000  0  0  11.7638  0.20625  -0.153014  0.00704567  nan  nan  nan  nan  nan  nan  -0.999693  -0.0018211  1.00027  0.0503213  -0.0465871  -0.00296485  0.0019701  -0.0227126  0.0016955  0  0  0  0  0  0  0.0342819  0.0129114  -0.0233512  -0.0150687  0.0370075  -0.00267602  -0.0503804  0.0389624  -0.00933135  0.0509996  -0.052427  0.00524259 
1699967376.020225000  0  0  11.7524  0.202921  -0.153016  0.00786811  nan  nan  nan  nan  nan  nan  -0.999683  -0.0019358  1.00028  0.050926  -0.0460428  -0.00303677  0.0019701  -0.0231591  0.0016955  0  0  0  0  0  0  0.0342019  0.0130966  -0.023356  -0.0156567  0.0373189  -0.00169073  -0.0505938  0.0382501  -0.00934087  0.0596203  -0.0458694  -0.00494274 
1699967376.025098000  0  0  11.725  0.207905  -0.140672  0.00853576  nan  nan  nan  nan  nan  nan  -0.999673  -0.0020526  1.00029  0.0506521  -0.0465632  -0.00312708  0.0019701  -0.0235507  0.0016955  0  0  0  0  0  0  0.0342328  0.013123  -0.0233018  -0.0151833  0.0367399  0.000500658  -0.0502265  0.0382907  -0.00937057  0.0462752  -0.0709294  -0.0129914 
1699967376.030644000  0  0  11.7634  0.197227  -0.154205  0.00860742  nan  nan  nan  nan  nan  nan  -0.999663  -0.0021712  1.0003  0.0508635  -0.0463811  -0.00320969  0.0019701  -0.0238899  0.0016955  0  0  0  0  0  0  0.0342232  0.0131928  -0.0232861  -0.0151965  0.037071  -0.00269991  -0.049988  0.0380213  -0.00938478  0.0654346  -0.0413867  -0.0137449 
1699967376.035047000  0  0  11.7837  0.194716  -0.166185  0.00819582  nan  nan  nan  nan  nan  nan  -0.999653  -0.0022914  1.0003  0.0511991  -0.0458792  -0.0032872  0.0019701  -0.0241806  0.0016955  0  0  0  0  0  0  0.0341538  0.0133683  -0.0233011  -0.0155892  0.0372321  -0.00435558  -0.0499662  0.037663  -0.00932638  0.0702567  -0.0141286  -0.0091839 
1699967376.040100000  0  0  11.7414  0.190868  -0.153959  0.00780558  nan  nan  nan  nan  nan  nan  -0.999643  -0.0024129  1.00031  0.050572  -0.0465796  -0.00338708  0.0019701  -0.0244265  0.0016955  0  0  0  0  0  0  0.0341889  0.0133767  -0.0232346  -0.0149668  0.0361428  -0.000934008  -0.0490097  0.0380323  -0.0092469  0.0691541  -0.0419798  -0.0051007 
1699967376.045101000  0  0  11.7857  0.18535  -0.160037  0.00766067  nan  nan  nan  nan  nan  nan  -0.999634  -0.0025356  1.00032  0.0511716  -0.0461966  -0.00349447  0.0019701  -0.0246313  0.0016955  0  0  0  0  0  0  0.0341156  0.0135618  -0.0232743  -0.015068  0.0367599  -0.00451512  -0.0491167  0.0375837  -0.00916279  0.0811729  -0.0256956  -0.00413045 
1699967376.050781000  0  0  11.7987  0.18102  -0.183644  0.00756236  nan  nan  nan  nan  nan  nan  -0.999624  -0.0026592  1.00033  0.0504993  -0.0461918  -0.00356801  0.0019701  -0.0247989  0.0016955  0  0  0  0  0  0  0.0341441  0.0135733  -0.0232423  -0.015069  0.0359194  -0.00566172  -0.0480308  0.0379827  -0.00912131  0.0798436  0.0178468  -0.00331644 
1699967376.055752000  0  0  11.7593  0.161737  -0.166455  0.00808729  nan  nan  nan  nan  nan  nan  -0.999614  -0.0027835  1.00034  0.0490059  -0.0473886  -0.00366831  0.0019701  -0.0249328  0.0016955  0  0  0  0  0  0  0.034245  0.0134837  -0.0231303  -0.0139334  0.0339296  -0.00257068  -0.0459631  0.0388146  -0.00915201  0.0993859  -0.0241843  -0.00957096 
1699967376.060082000  0  0  11.7848  0.155302  -0.175203  0.00791524  nan  nan  nan  nan  nan  nan  -0.999604  -0.0029085  1.00035  0.0493353  -0.0472003  -0.00379156  0.0019701  -0.025037  0.0016955  0  0  0  0  0  0  0.0341843  0.0136493  -0.0231614  -0.0139022  0.0341242  -0.0046118  -0.0457375  0.0386981  -0.00907409  0.110182  -0.00561773  -0.00819958 
1699967376.065053000  0  0  11.7911  0.150181  -0.20299  0.00787447  nan  nan  nan  nan  nan  nan  -0.999594  -0.0030339  1.00035  0.0485319  -0.0474297  -0.00388759  0.0019701  -0.0251151  0.0016955  0  0  0  0  0  0  0.0342413  0.0136231  -0.0231051  -0.0136926  0.0331546  -0.00525195  -0.0444533  0.0394399  -0.0090357  0.108609  0.0431337  -0.00807386 
1699967376.070093000  0  0  11.7622  0.140643  -0.180056  0.00828037  nan  nan  nan  nan  nan  nan  -0.999584  -0.0031596  1.00036  0.0486458  -0.0471345  -0.00400775  0.0019701  -0.0251709  0.0016955  0  0  0  0  0  0  0.0341704  0.0137859  -0.0231069  -0.0140686  0.0327777  -0.00280517  -0.0438596  0.0389287  -0.00901471  0.122223  0.00196705  -0.0133575 
1699967376.075106000  0  0  11.7622  0.137485  -0.183017  0.00884949  nan  nan  nan  nan  nan  nan  -0.999575  -0.0032855  1.00037  0.047631  -0.0480878  -0.00414042  0.0019701  -0.0252082  0.0016955  0  0  0  0  0  0  0.034256  0.0137425  -0.0230549  -0.0130095  0.0315318  -0.00288785  -0.042344  0.0398289  -0.00905926  0.114594  -0.000390725  -0.0200261 
1699967376.080079000  0  0  11.8054  0.14158  -0.212903  0.00856838  nan  nan  nan  nan  nan  nan  -0.999565  -0.0034116  1.00038  0.0478953  -0.0473978  -0.00426152  0.0019701  -0.0252306  0.0016955  0  0  0  0  0  0  0.0341874  0.0139028  -0.0231017  -0.0135222  0.0317461  -0.00639819  -0.0421522  0.039845  -0.00901578  0.104641  0.0592313  -0.016947 
1699967376.085090000  0  0  11.7646  0.133894  -0.196935  0.00882183  nan  nan  nan  nan  nan  nan  -0.999555  -0.0035378  1.00039  0.046018  -0.048355  -0.0043641  0.0019701  -0.025242  0.0016955  0  0  0  0  0  0  0.0343114  0.0137254  -0.023007  -0.0127657  0.0294529  -0.00317782  -0.0398758  0.0407291  -0.00905766  0.0990689  0.0191615  -0.0196962 
1699967376.090079000  0  0  11.7353  0.136216  -0.181811  0.00839121  nan  nan  nan  nan  nan  nan  -0.999545  -0.003664  1.0004  0.0453059  -0.0490289  -0.00451403  0.0019701  -0.0252461  0.0016955  0  0  0  0  0  0  0.0343591  0.0137178  -0.022949  -0.0121462  0.0283765  -0.000835767  -0.0389018  0.0410788  -0.00898184  0.0854643  -0.0143038  -0.0150717 
1699967376.095087000  0  0  11.7899  0.144048  -0.20739  0.00700518  nan  nan  nan  nan  nan  nan  -0.999535  -0.0037903  1.00041  0.0456893  -0.0481251  -0.00465178  0.0019701  -0.0252466  0.0016955  0  0  0  0  0  0  0.0342933  0.0138645  -0.0229966  -0.0128758  0.028823  -0.00530284  -0.039029  0.040731  -0.00873712  0.0709704  0.0400549  -0.00019358 
1699967376.100088000  0  0  11.7396  0.140731  -0.180695  0.00741517  nan  nan  nan  nan  nan  nan  -0.999525  -0.0039165  1.00041  0.0444708  -0.0487506  -0.00478724  0.0019701  -0.0252462  0.0016955  0  0  0  0  0  0  0.0343523  0.0137928  -0.0228878  -0.0124604  0.0271227  -0.0013223  -0.0375626  0.0410353  -0.00866607  0.0641142  -0.0161347  -0.00602884 
1699967376.105370000  0  0  11.7217  0.154686  -0.16325  0.00712623  nan  nan  nan  nan  nan  nan  -0.999515  -0.0040427  1.00042  0.0442021  -0.0488845  -0.00495274  0.0019701  -0.0252424  0.0016955  0  0  0  0  0  0  0.0343584  0.0138052  -0.022817  -0.0123901  0.026644  4.01122e-05  -0.0373144  0.0407725  -0.00850223  0.033921  -0.0486067  -0.00405557 
1699967376.110074000  0  0  11.7734  0.170587  -0.193219  0.00535949  nan  nan  nan  nan  nan  nan  -0.999506  -0.0041689  1.00043  0.0447231  -0.0476985  -0.00510413  0.0019701  -0.0252316  0.0016955  0  0  0  0  0  0  0.0342935  0.0139431  -0.0228577  -0.0135033  0.0272706  -0.00421655  -0.037965  0.0401283  -0.00813882  0.00810416  0.0172566  0.0143946 
1699967376.115092000  0  0  11.7157  0.174509  -0.15145  0.00562129  nan  nan  nan  nan  nan  nan  -0.999496  -0.004295  1.00044  0.0448556  -0.0474719  -0.00528551  0.0019701  -0.02521  0.0016955  0  0  0  0  0  0  0.0342258  0.0140745  -0.0228331  -0.0139463  0.0268537  0.000568461  -0.0381261  0.0391268  -0.00792627  0.00174097  -0.0570671  0.00899658 
1699967376.120088000  0  0  11.7151  0.183971  -0.14177  0.00577506  nan  nan  nan  nan  nan  nan  -0.999486  -0.004421  1.00045  0.0443557  -0.0478138  -0.00546829  0.0019701  -0.0251737  0.0016955  0  0  0  0  0  0  0.0342654  0.0140515  -0.0227775  -0.0135849  0.0262365  0.000507943  -0.0379007  0.0390175  -0.00773821  -0.0192568  -0.0754206  0.00519386 
1699967376.125087000  0  0  11.7842  0.205697  -0.170788  0.00653386  nan  nan  nan  nan  nan  nan  -0.999476  -0.0045467  1.00046  0.0441487  -0.0472513  -0.00563126  0.0019701  -0.0251192  0.0016955  0  0  0  0  0  0  0.034269  0.0140737  -0.0227872  -0.0139506  0.0262495  -0.00527455  -0.0383067  0.0388725  -0.00763788  -0.058972  -0.0160504  -0.00529442 
1699967376.130586000  0  0  11.7058  0.199578  -0.139831  0.00783347  nan  nan  nan  nan  nan  nan  -0.999466  -0.0046722  1.00046  0.0441275  -0.0472156  -0.00583258  0.0019701  -0.0250426  0.0016955  0  0  0  0  0  0  0.0342493  0.0141203  -0.0226954  -0.0143574  0.0257221  0.00108575  -0.0384978  0.0381296  -0.00763586  -0.0449752  -0.0711313  -0.0215598 
1699967376.135088000  0  0  11.7319  0.212348  -0.129734  0.00801757  nan  nan  nan  nan  nan  nan  -0.999456  -0.0047971  1.00047  0.0441859  -0.0470345  -0.00603744  0.0019701  -0.0249402  0.0016955  0  0  0  0  0  0  0.0341876  0.0142469  -0.0227154  -0.0143066  0.0256327  -0.00104735  -0.0389689  0.0374496  -0.00755231  -0.066181  -0.0850676  -0.0246965 
1699967376.140088000  0  0  11.802  0.217326  -0.152398  0.00755019  nan  nan  nan  nan  nan  nan  -0.999446  -0.0049215  1.00048  0.0436944  -0.0466246  -0.00621279  0.0019701  -0.0248082  0.0016955  0  0  0  0  0  0  0.0341946  0.0142609  -0.0227349  -0.0144844  0.0252909  -0.00687305  -0.0390162  0.0371551  -0.00742491  -0.0757026  -0.037031  -0.0201282 
1699967376.145090000  0  0  11.7229  0.206409  -0.140566  0.00768484  nan  nan  nan  nan  nan  nan  -0.999437  -0.0050451  1.00049  0.0441288  -0.0461729  -0.00643585  0.0019701  -0.0246429  0.0016955  0  0  0  0  0  0  0.0341191  0.0143856  -0.0226981  -0.0153022  0.0251876  -0.000354612  -0.0395074  0.0363612  -0.00731665  -0.0493501  -0.0533905  -0.022894 
1699967376.150082000  0  0  11.7257  0.207222  -0.129231  0.00682194  nan  nan  nan  nan  nan  nan  -0.999427  -0.0051679  1.0005  0.0435109  -0.0465898  -0.00665431  0.0019701  -0.0244405  0.0016955  0  0  0  0  0  0  0.0341271  0.0144087  -0.0226717  -0.0147549  0.0243267  -0.000635125  -0.0392136  0.0362643  -0.00710599  -0.0536793  -0.0751701  -0.0142144 
1699967376.155610000  0  0  11.7554  0.20876  -0.154977  0.00514894  nan  nan  nan  nan  nan  nan  -0.999417  -0.0052895  1.00051  0.0428015  -0.0466255  -0.00685793  0.0019701  -0.0241973  0.0016955  0  0  0  0  0  0  0.0341171  0.0144203  -0.0226595  -0.0145241  0.0235041  -0.00316698  -0.0389522  0.0364841  -0.00676782  -0.0591605  -0.0257005  0.00331651 
1699967376.160078000  0  0  11.7319  0.184954  -0.160971  0.00453065  nan  nan  nan  nan  nan  nan  -0.999407  -0.0054098  1.00052  0.0430081  -0.0460345  -0.00708358  0.0019701  -0.0239095  0.0016955  0  0  0  0  0  0  0.0340467  0.0145383  -0.0226544  -0.0152475  0.0233907  -0.0012173  -0.0388795  0.0360078  -0.00646753  -0.0122173  -0.00932949  0.00804212 
1699967376.165177000  0  0  11.7398  0.187279  -0.14929  0.00367841  nan  nan  nan  nan  nan  nan  -0.999397  -0.0055285  1.00052  0.0418112  -0.046635  -0.00730119  0.0019701  -0.0235734  0.0016955  0  0  0  0  0  0  0.0340744  0.0145186  -0.0226199  -0.0144835  0.0218896  -0.00194048  -0.0379224  0.0363291  -0.00611771  -0.025672  -0.0356483  0.0151969 
1699967376.170099000  0  0  11.7563  0.190905  -0.166649  0.00382716  nan  nan  nan  nan  nan  nan  -0.999387  -0.0056454  1.00053  0.0417377  -0.0465313  -0.00754734  0.0019701  -0.0231852  0.0016955  0  0  0  0  0  0  0.0340054  0.0146283  -0.0226403  -0.0143663  0.0216122  -0.00328647  -0.0380441  0.0364067  -0.00583855  -0.0318034  -0.00164416  0.010546 
1699967376.175101000  0  0  11.7645  0.16643  -0.187504  0.00510669  nan  nan  nan  nan  nan  nan  -0.999378  -0.0057603  1.00054  0.040859  -0.0466183  -0.00777015  0.0019701  -0.0227412  0.0016955  0  0  0  0  0  0  0.0340229  0.0146047  -0.0226111  -0.0142445  0.0205378  -0.0040465  -0.036911  0.0369585  -0.00577111  0.00672096  0.0349898  -0.00612257 
1699967376.180531000  0  0  11.7575  0.160139  -0.171201  0.00767638  nan  nan  nan  nan  nan  nan  -0.999368  -0.0058727  1.00055  0.0391506  -0.0474671  -0.00799001  0.0019701  -0.0222377  0.0016955  0  0  0  0  0  0  0.0340741  0.0145416  -0.0225612  -0.0132909  0.0183891  -0.00355993  -0.0352213  0.0376237  -0.00594408  0.00375854  -0.00373624  -0.036514 
1699967376.185106000  0  0  11.752  0.166048  -0.184759  0.00772243  nan  nan  nan  nan  nan  nan  -0.999358  -0.0059825  1.00056  0.0391544  -0.0473665  -0.00825886  0.0019701  -0.0216708  0.0016955  0  0  0  0  0  0  0.0340131  0.0146371  -0.0225725  -0.0133019  0.0181427  -0.00308593  -0.0353528  0.0377673  -0.0058656  -0.00685079  0.022059  -0.0378744 
1699967376.190099000  0  0  11.7829  0.145816  -0.210663  0.00725979  nan  nan  nan  nan  nan  nan  -0.999348  -0.0060893  1.00057  0.0383671  -0.0471457  -0.00849206  0.0019701  -0.0210368  0.0016955  0  0  0  0  0  0  0.0340069  0.0146481  -0.0225856  -0.0134095  0.0172071  -0.00565444  -0.0342575  0.0382482  -0.00579463  0.0235365  0.0694438  -0.0328011 
1699967376.195103000  0  0  11.7759  0.136156  -0.195361  0.00707795  nan  nan  nan  nan  nan  nan  -0.999338  -0.0061928  1.00057  0.037424  -0.0472319  -0.00873587  0.0019701  -0.0203326  0.0016955  0  0  0  0  0  0  0.0339433  0.0147252  -0.0225939  -0.0131907  0.0157537  -0.00505212  -0.033064  0.0383678  -0.00568821  0.0318754  0.0377394  -0.0315922 
1699967376.200104000  0  0  11.7645  0.137782  -0.202983  0.00581823  nan  nan  nan  nan  nan  nan  -0.999328  -0.0062925  1.00058  0.0365305  -0.0475668  -0.00899726  0.0019701  -0.0195595  0.0016955  0  0  0  0  0  0  0.0339638  0.0147093  -0.0225802  -0.0128554  0.0145531  -0.00414111  -0.0321311  0.0390034  -0.00545161  0.0200419  0.0471344  -0.0182117 
1699967376.205106000  0  0  11.7861  0.132224  -0.214165  0.0049774  nan  nan  nan  nan  nan  nan  -0.999318  -0.0063883  1.00059  0.0361477  -0.0469214  -0.00925342  0.0019701  -0.0187213  0.0016955  0  0  0  0  0  0  0.0338955  0.0147824  -0.0226175  -0.0134265  0.0139663  -0.00588331  -0.0315679  0.0388976  -0.0051868  0.0259755  0.0704732  -0.0103496 
1699967376.210099000  0  0  11.7538  0.12438  -0.19682  0.00465716  nan  nan  nan  nan  nan  nan  -0.999309  -0.0064796  1.0006  0.0345576  -0.0477185  -0.00951017  0.0019701  -0.0178216  0.0016955  0  0  0  0  0  0  0.0339402  0.014725  -0.0225956  -0.0126609  0.0118609  -0.00323226  -0.029804  0.0396265  -0.0049678  0.0254377  0.029075  -0.00853657 
1699967376.215225000  0  0  11.7659  0.141247  -0.200344  0.0042086  nan  nan  nan  nan  nan  nan  -0.999299  -0.0065664  1.00061  0.033268  -0.0479998  -0.00976813  0.0019701  -0.0168643  0.0016955  0  0  0  0  0  0  0.0339656  0.0146694  -0.0225927  -0.0122882  0.0103232  -0.00426406  -0.0288462  0.0400911  -0.00470302  -0.0171096  0.0318509  -0.00557731 
1699967376.220104000  0  0  11.7734  0.138343  -0.2021  0.00487914  nan  nan  nan  nan  nan  nan  -0.999289  -0.0066482  1.00062  0.0328047  -0.0473537  -0.0100411  0.0019701  -0.0158531  0.0016955  0  0  0  0  0  0  0.0339012  0.0147215  -0.0226191  -0.0129444  0.00961832  -0.00485378  -0.0284366  0.0396953  -0.00454228  -0.0150692  0.0390033  -0.0155664 
1699967376.225104000  0  0  11.7267  0.136351  -0.184784  0.00620421  nan  nan  nan  nan  nan  nan  -0.999279  -0.0067248  1.00063  0.0314743  -0.0480249  -0.0103219  0.0019701  -0.0147918  0.0016955  0  0  0  0  0  0  0.0339387  0.0146364  -0.0225699  -0.0124056  0.0078778  -0.00106387  -0.0272546  0.0401817  -0.00451902  -0.0219605  -0.000102655  -0.0323624 
1699967376.230652000  0  0  11.7317  0.16288  -0.183521  0.00558519  nan  nan  nan  nan  nan  nan  -0.999269  -0.006796  1.00063  0.0300695  -0.0482509  -0.0105901  0.0019701  -0.0136841  0.0016955  0  0  0  0  0  0  0.0339614  0.0145468  -0.0225369  -0.0121409  0.00624147  -0.00157123  -0.0266696  0.0403714  -0.00433534  -0.0803993  -0.00437448  -0.0264614 
1699967376.235100000  0  0  11.7425  0.163961  -0.175927  0.0049363  nan  nan  nan  nan  nan  nan  -0.999259  -0.0068616  1.00064  0.02955  -0.0475807  -0.0108804  0.0019701  -0.0125337  0.0016955  0  0  0  0  0  0  0.0339022  0.0145816  -0.0225562  -0.0128223  0.00551144  -0.00244908  -0.0265581  0.0396206  -0.00407012  -0.0835874  -0.0126558  -0.0210026 
