ts x y z roll pitch yaw vx vy vz wx wy wz ax ay az dwx dwy dwz jx jy jz ddwx ddwy ddwz
1699366626.172590000  0  -0  1  0  0  0  6e-07  -6e-07  6e-07  0  0  0  0.000375  -0.000375  0.000375  0  0  0  0  0  0  0  0  0 
1699366626.177591000  0  -0  1  0  0  0  5e-06  -5e-06  5e-06  0  0  0  0.0015  -0.0015  0.0015  0  0  0  0  0  0  0  0  0 
1699366626.182589000  1e-07  -1e-07  1  0  0  0  1.69e-05  -1.69e-05  1.69e-05  0  0  0  0.003375  -0.003375  0.003375  0  0  0  0  0  0  0  0  0 
1699366626.187600000  2e-07  -2e-07  1  0  0  1e-07  4e-05  -4e-05  4e-05  0  0  0  0.006  -0.006  0.006  0  0  0  0  0  0  0  0  0 
1699366626.192589000  5e-07  -5e-07  1  0  0  3e-07  7.81e-05  -7.81e-05  7.81e-05  0  0  0  0.009375  -0.009375  0.009375  0  0  0  0  0  0  0  0  0 
1699366626.197590000  1e-06  -1e-06  1  0  0  5e-07  0.000135  -0.000135  0.000135  0  0  0  0.0135  -0.0135  0.0135  0  0  0  0  0  0  0  0  0 
1699366626.202590000  1.9e-06  -1.9e-06  1  0  0  1e-06  0.0002144  -0.0002144  0.0002144  0  0  0  0.018375  -0.018375  0.018375  0  0  0  0  0  0  0  0  0 
1699366626.207589000  3.2e-06  -3.2e-06  1  0  0  1.7e-06  0.00032  -0.00032  0.00032  0  0  0  0.024  -0.024  0.024  0  0  0  0  0  0  0  0  0 
1699366626.212589000  5.1e-06  -5.1e-06  1.00001  0  0  2.7e-06  0.0004556  -0.0004556  0.0004556  0  0  0  0.030375  -0.030375  0.030375  0  0  0  0  0  0  0  0  0 
1699366626.217589000  7.8e-06  -7.8e-06  1.00001  0  0  4.2e-06  0.000625  -0.000625  0.000625  0  0  0  0.0375  -0.0375  0.0375  0  0  0  0  0  0  0  0  0 
1699366626.222589000  1.14e-05  -1.14e-05  1.00001  0  0  6.1e-06  0.0008319  -0.0008319  0.0008319  0  0  0  0.045375  -0.045375  0.045375  0  0  0  0  0  0  0  0  0 
1699366626.227589000  1.62e-05  -1.62e-05  1.00002  0  0  8.6e-06  0.00108  -0.00108  0.00108  0  0  0  0.054  -0.054  0.054  0  0  0  0  0  0  0  0  0 
1699366626.232589000  2.23e-05  -2.23e-05  1.00002  0  0  1.19e-05  0.0013731  -0.0013731  0.0013731  0  0  0  0.063375  -0.063375  0.063375  0  0  0  0  0  0  0  0  0 
1699366626.237592000  3e-05  -3e-05  1.00003  0  0  1.6e-05  0.001715  -0.001715  0.001715  0  0  0  0.0735  -0.0735  0.0735  0  0  0  0  0  0  0  0  0 
1699366626.242589000  3.96e-05  -3.96e-05  1.00004  0  0  2.11e-05  0.0021094  -0.0021094  0.0021094  0  0  0  0.084375  -0.084375  0.084375  0  0  0  0  0  0  0  0  0 
1699366626.247589000  5.12e-05  -5.12e-05  1.00005  0  0  2.73e-05  0.00256  -0.00256  0.00256  0  0  0  0.096  -0.096  0.096  0  0  0  0  0  0  0  0  0 
1699366626.252590000  6.53e-05  -6.53e-05  1.00007  0  0  3.48e-05  0.0030706  -0.0030706  0.0030706  0  0  0  0.108375  -0.108375  0.108375  0  0  0  0  0  0  0  0  0 
1699366626.257590000  8.2e-05  -8.2e-05  1.00008  0  0  4.37e-05  0.0036447  -0.003645  0.003645  0  0  0  0.121229  -0.1215  0.1215  0  0  0  0  0  0  0  0  0 
1699366626.262593000  0.0001018  -0.0001018  1.0001  0  0  5.43e-05  0.0042817  -0.0042869  0.0042869  0  0  0  0.133453  -0.135375  0.135375  0  0  0  0  0  0  0  0  0 
1699366626.267603000  0.0001249  -0.000125  1.00012  0  0  6.67e-05  0.004978  -0.005  0.005  0  0  0  0.144927  -0.15  0.15  0  0  0  0  0  0  0  0  0 
1699366626.272592000  0.0001517  -0.0001519  1.00015  0  0  8.1e-05  0.0057298  -0.0057881  0.0057881  0  0  0  0.155651  -0.165375  0.165375  0  0  0  0  0  0  0  0  0 
1699366626.277594000  0.0001823  -0.000183  1.00018  0  0  9.76e-05  0.0065333  -0.006655  0.006655  0  0  0  0.165625  -0.1815  0.1815  0  0  0  0  0  0  0  0  0 
1699366626.282593000  0.0002171  -0.0002186  1.00022  0  0  0.0001166  0.0073848  -0.0076044  0.0076044  0  0  0  0.174849  -0.198375  0.198375  0  0  0  0  0  0  0  0  0 
1699366626.287591000  0.0002562  -0.0002592  1.00026  0  0  0.0001382  0.0082805  -0.00864  0.00864  0  0  0  0.183323  -0.216  0.216  0  0  0  0  0  0  0  0  0 
1699366626.292590000  0.0003  -0.0003052  1.00031  0  0  0.0001628  0.0092167  -0.0097656  0.0097656  0  0  0  0.191047  -0.234375  0.234375  0  0  0  0  0  0  0  0  0 
1699366626.297592000  0.0003485  -0.000357  1.00036  0  0  0.0001904  0.0101897  -0.010985  0.0109838  0  0  0  0.198021  -0.2535  0.252779  0  0  0  0  0  0  0  0  0 
1699366626.302591000  0.0004019  -0.0004152  1.00042  0  0  0.0002214  0.0111957  -0.0123019  0.0122922  0  0  0  0.204244  -0.273375  0.270433  0  0  0  0  0  0  0  0  0 
1699366626.307592000  0.0004605  -0.0004802  1.00048  0  0  0.000256  0.0122309  -0.01372  0.0136869  0  0  0  0.209718  -0.294  0.287338  0  0  0  0  0  0  0  0  0 
1699366626.312590000  0.0005243  -0.0005526  1.00055  0  0  0.0002945  0.0132916  -0.0152431  0.0151643  0  0  0  0.214442  -0.315375  0.303492  0  0  0  0  0  0  0  0  0 
1699366626.317591000  0.0005934  -0.0006328  1.00063  0  0  0.000337  0.0143741  -0.016875  0.0167206  0  0  0  0.218416  -0.3375  0.318896  0  0  0  0  0  0  0  0  0 
1699366626.322590000  0.000668  -0.0007215  1.00072  0  0  0.0003837  0.0154745  -0.0186194  0.018352  0  0  0  0.22164  -0.360375  0.33355  0  0  0  0  0  0  0  0  0 
1699366626.327590000  0.0007482  -0.0008192  1.00082  0  0  0.0004349  0.0165892  -0.02048  0.0200548  0  0  0  0.224114  -0.384  0.347455  0  0  0  0  0  0  0  0  0 
1699366626.332589000  0.0008339  -0.0009265  1.00092  0  0  0.0004907  0.0177144  -0.0224606  0.0218253  0  0  0  0.225838  -0.408375  0.360609  0  0  0  0  0  0  0  0  0 
1699366626.337589000  0.0009253  -0.001044  1.00103  0  0  0.0005513  0.0188464  -0.024565  0.0236597  0  0  0  0.226812  -0.4335  0.373013  0  0  0  0  0  0  0  0  0 
1699366626.342589000  0.0010224  -0.0011724  1.00116  0  0  0.0006169  0.0199813  -0.0267969  0.0255542  0  0  0  0.227036  -0.459375  0.384668  0  0  0  0  0  0  0  0  0 
1699366626.347591000  0.0011252  -0.0013122  1.00129  0  0  0.0006876  0.0211155  -0.02916  0.0275051  0  0  0  0.226509  -0.486  0.395572  0  0  0  0  0  0  0  0  0 
1699366626.352589000  0.0012336  -0.0014642  1.00143  0  0  0.0007636  0.0222451  -0.0316581  0.0295087  0  0  0  0.225233  -0.513375  0.405726  0  0  0  0  0  0  0  0  0 
1699366626.357589000  0.0013476  -0.001629  1.00158  0  0  0.000845  0.0233666  -0.034295  0.0315611  0  0  0  0.223207  -0.5415  0.41513  0  0  0  0  0  0  0  0  0 
1699366626.362591000  0.0014672  -0.0018074  1.00175  0  0  0.0009319  0.024476  -0.0370744  0.0336587  0  0  0  0.220431  -0.570375  0.423785  0  0  0  0  0  0  0  0  0 
1699366626.367590000  0.0015923  -0.002  1.00192  0  0  0.0010245  0.0255696  -0.0399999  0.0357977  0  0  0  0.216905  -0.599909  0.431689  0  0  0  0  0  0  0  0  0 
1699366626.372589000  0.0017229  -0.0022076  1.00211  0  0  0.0011228  0.0266438  -0.0430726  0.0379743  0  0  0  0.212629  -0.629012  0.438843  0  0  0  0  0  0  0  0  0 
1699366626.377590000  0.0018587  -0.002431  1.0023  0  0  0.0012269  0.0276947  -0.0462888  0.0401849  0  0  0  0.207603  -0.657364  0.445248  0  0  0  0  0  0  0  0  0 
1699366626.382590000  0.0019998  -0.0026707  1.00251  0  0  0.001337  0.0287185  -0.049645  0.0424256  0  0  0  0.201827  -0.684967  0.450902  0  0  0  0  0  0  0  0  0 
1699366626.387590000  0.0021459  -0.0029276  1.00273  0  0  0.0014531  0.0297117  -0.0531372  0.0446927  0  0  0  0.195301  -0.71182  0.455806  0  0  0  0  0  0  0  0  0 
1699366626.392589000  0.0022968  -0.0032023  1.00295  0  0  0.0015753  0.0306703  -0.0567619  0.0469824  0  0  0  0.188025  -0.737923  0.45996  0  0  0  0  0  0  0  0  0 
1699366626.397598000  0.0024525  -0.0034955  1.0032  0  0  0.0017035  0.0315907  -0.0605152  0.049291  0  0  0  0.179998  -0.763275  0.463365  0  0  0  0  0  0  0  0  0 
1699366626.402589000  0.0026127  -0.0038077  1.00345  0  0  0.001838  0.032469  -0.0643934  0.0516148  0  0  0  0.171222  -0.787878  0.466019  0  0  0  0  0  0  0  0  0 
1699366626.407590000  0.0027771  -0.0041396  1.00371  0  0  0.0019786  0.0333016  -0.0683927  0.0539499  0  0  0  0.161696  -0.811731  0.467923  0  0  0  0  0  0  0  0  0 
1699366626.412589000  0.0029456  -0.0044918  1.00399  0  0  0.0021255  0.0340847  -0.0725095  0.0562928  0  0  0  0.15142  -0.834833  0.469078  0  0  0  0  0  0  0  0  0 
1699366626.417609000  0.0031179  -0.0048649  1.00427  0  0  0.0022787  0.0348146  -0.0767398  0.0586395  0  0  0  0.140394  -0.857186  0.469482  0  0  0  0  0  0  0  0  0 
1699366626.422589000  0.0032936  -0.0052594  1.00457  0  0  0.002438  0.0354874  -0.0810801  0.0609863  0  0  0  0.128618  -0.878789  0.469136  0  0  0  0  0  0  0  0  0 
1699366626.427589000  0.0034726  -0.0056759  1.00488  0  0  0.0026036  0.0360995  -0.0855265  0.0633296  0  0  0  0.116092  -0.899642  0.46804  0  0  0  0  0  0  0  0  0 
1699366626.432589000  0.0036545  -0.0061148  1.00521  0  0  0.0027755  0.0366478  -0.0900752  0.0656655  0  0  0  0.103298  -0.919744  0.466195  0  0  0  0  0  0  0  0  0 
1699366626.437591000  0.003839  -0.0065768  1.00554  0  0  0.0029536  0.0371337  -0.0947227  0.0679903  0  0  0  0.0912255  -0.939097  0.463599  0  0  0  0  0  0  0  0  0 
1699366626.442589000  0.0040258  -0.0070622  1.00589  0  0  0.003138  0.0375613  -0.099465  0.0703002  0  0  0  0.0799028  -0.9577  0.460253  0  0  0  0  0  0  0  0  0 
1699366626.447590000  0.0042145  -0.0075716  1.00624  0  0  0.0033286  0.037934  -0.104298  0.0725916  0  0  0  0.06933  -0.975552  0.456158  0  0  0  0  0  0  0  0  0 
1699366626.452590000  0.004405  -0.0081054  1.00661  0  0  0.0035255  0.0382558  -0.109219  0.0748605  0  0  0  0.0595072  -0.992655  0.451312  0  0  0  0  0  0  0  0  0 
1699366626.457590000  0.004597  -0.0086639  1.00699  0  0  0.0037285  0.0385303  -0.114224  0.0771034  0  0  0  0.0504344  -1.00901  0.445716  0  0  0  0  0  0  0  0  0 
1699366626.462589000  0.0047903  -0.0092477  1.00738  0  0  0.0039377  0.0387614  -0.119308  0.0793165  0  0  0  0.0421116  -1.02461  0.43937  0  0  0  0  0  0  0  0  0 
1699366626.467590000  0.0049846  -0.0098571  1.00779  0  0  0.0041531  0.0389527  -0.124469  0.0814959  0  0  0  0.0345388  -1.03946  0.432275  0  0  0  0  0  0  0  0  0 
1699366626.472592000  0.0051797  -0.0104925  1.0082  0  0  0.0043745  0.039108  -0.129701  0.083638  0  0  0  0.027716  -1.05357  0.424429  0  0  0  0  0  0  0  0  0 
1699366626.477589000  0.0053756  -0.0111543  1.00862  0  0  0.0046019  0.0392311  -0.135003  0.0857389  0  0  0  0.0216432  -1.06692  0.415833  0  0  0  0  0  0  0  0  0 
1699366626.482588000  0.005572  -0.0118427  1.00906  0  0  0.0048352  0.0393257  -0.140369  0.087795  0  0  0  0.0163204  -1.07952  0.406488  0  0  0  0  0  0  0  0  0 
1699366626.487590000  0.0057688  -0.0125581  1.0095  0  0  0.0050743  0.0393956  -0.145797  0.0898026  0  0  0  0.0117476  -1.09137  0.396392  0  0  0  0  0  0  0  0  0 
1699366626.492589000  0.0059659  -0.0133007  1.00995  0  0  0.0053192  0.0394444  -0.151282  0.0917577  0  0  0  0.0079248  -1.10248  0.385546  0  0  0  0  0  0  0  0  0 
1699366626.497588000  0.0061632  -0.014071  1.01042  0  0  0.0055697  0.0394761  -0.15682  0.0936568  0  0  0  0.0048521  -1.11283  0.37395  0  0  0  0  0  0  0  0  0 
1699366626.502593000  0.0063607  -0.014869  1.01089  0  0  0.0058258  0.0394942  -0.162409  0.095496  0  0  0  0.0025293  -1.12243  0.361605  0  0  0  0  0  0  0  0  0 
1699366626.507590000  0.0065581  -0.0156951  1.01137  0  0  0.0060872  0.0395026  -0.168044  0.0972716  0  0  0  0.0009565  -1.13128  0.348509  0  0  0  0  0  0  0  0  0 
1699366626.512590000  0.0067557  -0.0165495  1.01186  0  0  0.0063539  0.039505  -0.173721  0.0989798  0  0  0  0.0001337  -1.13939  0.334663  0  0  0  0  0  0  0  0  0 
1699366626.517589000  0.0069532  -0.0174324  1.01236  0  0  0.0066257  0.0395052  -0.179436  0.100617  0  0  0  6.09e-05  -1.14674  0.320068  0  0  0  0  0  0  0  0  0 
1699366626.522591000  0.0071507  -0.0183439  1.01287  0  0  0.0069024  0.0395069  -0.185187  0.102179  0  0  0  0.0007381  -1.15334  0.304722  0  0  0  0  0  0  0  0  0 
1699366626.527589000  0.0073483  -0.0192843  1.01338  0  0  0.007184  0.0395138  -0.190968  0.103663  0  0  0  0.0021653  -1.1592  0.288626  0  0  0  0  0  0  0  0  0 
1699366626.532589000  0.0075459  -0.0202537  1.01391  0  0  0.0074701  0.0395298  -0.196777  0.105064  0  0  0  0.0043425  -1.1643  0.27178  0  0  0  0  0  0  0  0  0 
1699366626.537591000  0.0077436  -0.0212521  1.01443  0  0  0.0077607  0.0395585  -0.20261  0.106379  0  0  0  0.0072697  -1.16865  0.254185  0  0  0  0  0  0  0  0  0 
1699366626.542590000  0.0079415  -0.0222798  1.01497  0  0  0.0080555  0.0396037  -0.208463  0.107605  0  0  0  0.0109469  -1.17225  0.235839  0  0  0  0  0  0  0  0  0 
1699366626.547589000  0.0081397  -0.0233368  1.01551  0  0  0.0083543  0.0396692  -0.214331  0.108738  0  0  0  0.0153741  -1.17511  0.217408  0  0  0  0  0  0  0  0  0 
1699366626.552595000  0.0083382  -0.0244231  1.01606  0  0  0.008657  0.0397587  -0.220212  0.10978  0  0  0  0.0205514  -1.17721  0.199724  0  0  0  0  0  0  0  0  0 
1699366626.557597000  0.0085373  -0.0255389  1.01661  0  0  0.0089632  0.039876  -0.226102  0.110736  0  0  0  0.0264786  -1.17856  0.182791  0  0  0  0  0  0  0  0  0 
1699366626.562592000  0.008737  -0.0266842  1.01716  0  0  0.0092727  0.0400248  -0.231997  0.111609  0  0  0  0.0331558  -1.17916  0.166607  0  0  0  0  0  0  0  0  0 
1699366626.567589000  0.0089376  -0.0278589  1.01772  0  0  0.0095854  0.0402088  -0.237893  0.112403  0  0  0  0.040583  -1.17902  0.151174  0  0  0  0  0  0  0  0  0 
1699366626.572590000  0.0091392  -0.0290631  1.01829  0  0  0.0099009  0.0404318  -0.243786  0.113122  0  0  0  0.0487602  -1.17812  0.13649  0  0  0  0  0  0  0  0  0 
1699366626.577590000  0.009342  -0.0302967  1.01885  0  0  0.0102191  0.0406977  -0.249673  0.11377  0  0  0  0.0576874  -1.17647  0.122557  0  0  0  0  0  0  0  0  0 
1699366626.582590000  0.0095462  -0.0315598  1.01942  0  0  0.0105396  0.04101  -0.255549  0.114349  0  0  0  0.0673646  -1.17408  0.109373  0  0  0  0  0  0  0  0  0 
1699366626.587590000  0.0097522  -0.0328522  1.02  0  0  0.0108624  0.0413725  -0.261412  0.114865  0  0  0  0.0777918  -1.17093  0.0969394  0  0  0  0  0  0  0  0  0 
1699366626.592590000  0.0099601  -0.0341739  1.02057  0  0  0.0111871  0.0417891  -0.267257  0.11532  0  0  0  0.088969  -1.16703  0.0852559  0  0  0  0  0  0  0  0  0 
1699366626.597591000  0.0101702  -0.0355247  1.02115  0  0  0.0115136  0.0422635  -0.273081  0.115718  0  0  0  0.100896  -1.16238  0.0743223  0  0  0  0  0  0  0  0  0 
1699366626.602594000  0.0103828  -0.0369047  1.02173  0  0  0.0118417  0.0427994  -0.27888  0.116064  0  0  0  0.113573  -1.15699  0.0641387  0  0  0  0  0  0  0  0  0 
1699366626.607592000  0.0105983  -0.0383135  1.02231  0  0  0.0121712  0.0434005  -0.28465  0.116361  0  0  0  0.127001  -1.15084  0.0547051  0  0  0  0  0  0  0  0  0 
1699366626.612591000  0.0108169  -0.0397511  1.02289  0  0  0.012502  0.0440706  -0.290387  0.116613  0  0  0  0.141178  -1.14394  0.0460216  0  0  0  0  0  0  0  0  0 
1699366626.617592000  0.0110391  -0.0412173  1.02348  0  0  0.012834  0.0448135  -0.296088  0.116823  0  0  0  0.156105  -1.13629  0.038088  0  0  0  0  0  0  0  0  0 
1699366626.622592000  0.0112652  -0.0427119  1.02406  0  0  0.0131668  0.0456329  -0.301749  0.116995  0  0  0  0.171782  -1.1279  0.0309044  0  0  0  0  0  0  0  0  0 
1699366626.627589000  0.0114956  -0.0442347  1.02465  0  0  0.0135005  0.0465326  -0.307366  0.117133  0  0  0  0.188209  -1.11875  0.0244709  0  0  0  0  0  0  0  0  0 
1699366626.632591000  0.0117306  -0.0457855  1.02523  0  0  0.013835  0.0475163  -0.312935  0.117241  0  0  0  0.205387  -1.10885  0.0187873  0  0  0  0  0  0  0  0  0 
1699366626.637590000  0.0119709  -0.047364  1.02582  0  0  0.01417  0.0485877  -0.318453  0.117322  0  0  0  0.223314  -1.09821  0.0138537  0  0  0  0  0  0  0  0  0 
1699366626.642591000  0.0122167  -0.0489699  1.02641  0  0  0.0145055  0.0497506  -0.323916  0.11738  0  0  0  0.241991  -1.08681  0.0096701  0  0  0  0  0  0  0  0  0 
1699366626.647593000  0.0124685  -0.050603  1.02699  0  0  0.0148414  0.0510089  -0.32932  0.11742  0  0  0  0.261418  -1.07466  0.0062366  0  0  0  0  0  0  0  0  0 
1699366626.652591000  0.0127269  -0.052263  1.02758  0  0  0.0151776  0.0523661  -0.334661  0.117444  0  0  0  0.281596  -1.06176  0.003553  0  0  0  0  0  0  0  0  0 
1699366626.657589000  0.0129924  -0.0539495  1.02817  0  0  0.0155141  0.0538261  -0.339936  0.117457  0  0  0  0.302523  -1.04812  0.0016194  0  0  0  0  0  0  0  0  0 
1699366626.662591000  0.0132654  -0.0556623  1.02876  0  0  0.0158507  0.0553926  -0.345141  0.117461  0  0  0  0.3242  -1.03372  0.0004359  0  0  0  0  0  0  0  0  0 
1699366626.667590000  0.0135465  -0.0574008  1.02934  0  0  0.0161875  0.0570693  -0.350272  0.117462  0  0  0  0.346627  -1.01857  2.3e-06  0  0  0  0  0  0  0  0  0 
1699366626.672589000  0.0138363  -0.0591649  1.02993  0  0  0.0165243  0.0588601  -0.355325  0.117462  0  0  0  0.369804  -1.00267  0  0  0  0  0  0  0  0  0  0 
1699366626.677590000  0.0141353  -0.0609539  1.03052  0  0  0.0168612  0.0607686  -0.360298  0.117462  0  0  0  0.393732  -0.986027  0  0  0  0  0  0  0  0  0  0 
1699366626.682590000  0.0144441  -0.0627677  1.0311  0  0  0.0171981  0.0627986  -0.365184  0.117462  0  0  0  0.418409  -0.96863  0  0  0  0  0  0  0  0  0  0 
1699366626.687598000  0.0147635  -0.0646056  1.03169  0  0  0.017535  0.0649539  -0.369983  0.117462  0  0  0  0.443836  -0.950482  0  0  0  0  0  0  0  0  0  0 
1699366626.692590000  0.0150939  -0.0664674  1.03228  0  0  0.0178719  0.0672383  -0.374688  0.117462  0  0  0  0.470013  -0.931585  0  0  0  0  0  0  0  0  0  0 
1699366626.697589000  0.0154361  -0.0683524  1.03287  0  0  0.0182088  0.0696553  -0.379297  0.117462  0  0  0  0.49694  -0.911938  0  0  0  0  0  0  0  0  0  0 
1699366626.702591000  0.0157907  -0.0702602  1.03345  0  0  0.0185457  0.0722089  -0.383806  0.117462  0  0  0  0.524618  -0.89154  0  0  0  0  0  0  0  0  0  0 
1699366626.707589000  0.0161584  -0.0721903  1.03404  0  0  0.0188826  0.0749027  -0.388211  0.117462  0  0  0  0.553045  -0.870393  0  0  0  0  0  0  0  0  0  0 
1699366626.712589000  0.0165399  -0.0741421  1.03463  0  0  0.0192195  0.0777406  -0.392509  0.117462  0  0  0  0.582222  -0.848496  0  0  0  0  0  0  0  0  0  0 
1699366626.717592000  0.016936  -0.0761152  1.03522  0  0  0.0195564  0.0807262  -0.396695  0.117462  0  0  0  0.612149  -0.825849  0  0  0  0  0  0  0  0  0  0 
1699366626.722611000  0.0173475  -0.0781089  1.0358  0  0  0.0198933  0.0838633  -0.400766  0.117462  0  0  0  0.642826  -0.802451  0  0  0  0  0  0  0  0  0  0 
1699366626.727590000  0.0177749  -0.0801226  1.03639  0  0  0.0202302  0.0871557  -0.404718  0.117462  0  0  0  0.674254  -0.778304  0  0  0  0  0  0  0  0  0  0 
1699366626.732589000  0.0182193  -0.0821558  1.03698  0  0  0.0205671  0.0906071  -0.408548  0.117462  0  0  0  0.706431  -0.753407  0  0  0  0  0  0  0  0  0  0 
1699366626.737589000  0.0186813  -0.0842079  1.03756  0  0  0.020904  0.0942213  -0.412251  0.117462  0  0  0  0.739358  -0.727759  0  0  0  0  0  0  0  0  0  0 
1699366626.742597000  0.0191618  -0.0862781  1.03815  0  0  0.0212409  0.0980016  -0.415824  0.117462  0  0  0  0.772687  -0.701362  0  0  0  0  0  0  0  0  0  0 
1699366626.747592000  0.0196616  -0.0883659  1.03874  0  0  0.0215778  0.101947  -0.419263  0.117462  0  0  0  0.805342  -0.674215  0  0  0  0  0  0  0  0  0  0 
1699366626.752594000  0.0201815  -0.0904705  1.03933  0  0  0.0219147  0.106054  -0.422565  0.117462  0  0  0  0.837247  -0.646318  0  0  0  0  0  0  0  0  0  0 
1699366626.757591000  0.0207224  -0.0925913  1.03991  0  0  0.0222516  0.110318  -0.425725  0.117462  0  0  0  0.868401  -0.61767  0  0  0  0  0  0  0  0  0  0 
1699366626.762598000  0.0212849  -0.0947275  1.0405  0  0  0.0225885  0.114736  -0.428741  0.117462  0  0  0  0.898806  -0.588274  0  0  0  0  0  0  0  0  0  0 
1699366626.767592000  0.02187  -0.0968785  1.04109  0  0  0.0229254  0.119305  -0.431608  0.117462  0  0  0  0.928461  -0.558944  0  0  0  0  0  0  0  0  0  0 
1699366626.772593000  0.0224782  -0.0990434  1.04168  0  0  0.0232623  0.12402  -0.434331  0.117462  0  0  0  0.957366  -0.530364  0  0  0  0  0  0  0  0  0  0 
1699366626.777594000  0.0231104  -0.101222  1.04226  0  0  0.0235992  0.128877  -0.436913  0.117462  0  0  0  0.985521  -0.502533  0  0  0  0  0  0  0  0  0  0 
1699366626.782589000  0.0237672  -0.103412  1.04285  0  0  0.0239361  0.133874  -0.439358  0.117462  0  0  0  1.01293  -0.475453  0  0  0  0  0  0  0  0  0  0 
1699366626.787590000  0.0244494  -0.105615  1.04344  0  0  0.024273  0.139005  -0.441669  0.117462  0  0  0  1.03958  -0.449122  0  0  0  0  0  0  0  0  0  0 
1699366626.792592000  0.0251575  -0.107829  1.04403  0  0  0.0246099  0.144268  -0.44385  0.117462  0  0  0  1.06549  -0.423542  0  0  0  0  0  0  0  0  0  0 
1699366626.797591000  0.0258923  -0.110053  1.04461  0  0  0.0249468  0.149659  -0.445906  0.117462  0  0  0  1.09064  -0.398712  0  0  0  0  0  0  0  0  0  0 
1699366626.802611000  0.0266543  -0.112288  1.0452  0  0  0.0252837  0.155174  -0.447839  0.117462  0  0  0  1.11504  -0.374631  0  0  0  0  0  0  0  0  0  0 
1699366626.807592000  0.0274442  -0.114531  1.04579  0  0  0.0256206  0.160808  -0.449653  0.117462  0  0  0  1.1387  -0.351301  0  0  0  0  0  0  0  0  0  0 
1699366626.812590000  0.0282626  -0.116784  1.04637  0  0  0.0259575  0.166559  -0.451353  0.117462  0  0  0  1.1616  -0.32872  0  0  0  0  0  0  0  0  0  0 
1699366626.817589000  0.02911  -0.119045  1.04696  0  0  0.0262944  0.172423  -0.452942  0.117462  0  0  0  1.18376  -0.30689  0  0  0  0  0  0  0  0  0  0 
1699366626.822592000  0.029987  -0.121313  1.04755  0  0  0.0266313  0.178396  -0.454423  0.117462  0  0  0  1.20516  -0.285809  0  0  0  0  0  0  0  0  0  0 
1699366626.827594000  0.0308941  -0.123589  1.04814  0  0  0.0269682  0.184473  -0.455801  0.117462  0  0  0  1.22582  -0.265479  0  0  0  0  0  0  0  0  0  0 
1699366626.832588000  0.0318319  -0.125871  1.04872  0  0  0.0273051  0.190653  -0.457079  0.117462  0  0  0  1.24572  -0.245899  0  0  0  0  0  0  0  0  0  0 
1699366626.837588000  0.0328008  -0.128159  1.04931  0  0  0.027642  0.196929  -0.458261  0.117462  0  0  0  1.26488  -0.227068  0  0  0  0  0  0  0  0  0  0 
1699366626.842589000  0.0338014  -0.130454  1.0499  0  0  0.0279789  0.2033  -0.459351  0.117462  0  0  0  1.28328  -0.208988  0  0  0  0  0  0  0  0  0  0 
1699366626.847590000  0.034834  -0.132753  1.05049  0  0  0.0283158  0.209761  -0.460352  0.117462  0  0  0  1.30094  -0.191657  0  0  0  0  0  0  0  0  0  0 
1699366626.852589000  0.0358991  -0.135057  1.05107  0  0  0.0286527  0.216308  -0.461269  0.117462  0  0  0  1.31784  -0.175077  0  0  0  0  0  0  0  0  0  0 
1699366626.857589000  0.0369972  -0.137365  1.05166  0  0  0.0289896  0.222938  -0.462104  0.117462  0  0  0  1.334  -0.159247  0  0  0  0  0  0  0  0  0  0 
1699366626.862591000  0.0381286  -0.139678  1.05225  0  0  0.0293265  0.229647  -0.462863  0.117462  0  0  0  1.3494  -0.144166  0  0  0  0  0  0  0  0  0  0 
1699366626.867592000  0.0392938  -0.141994  1.05284  0  0  0.0296634  0.236431  -0.463547  0.117462  0  0  0  1.36406  -0.129836  0  0  0  0  0  0  0  0  0  0 
1699366626.872599000  0.040493  -0.144313  1.05342  0  0  0.0300003  0.243286  -0.464162  0.117462  0  0  0  1.37796  -0.116255  0  0  0  0  0  0  0  0  0  0 
1699366626.877598000  0.0417268  -0.146635  1.05401  0  0  0.0303372  0.250209  -0.464711  0.117462  0  0  0  1.39112  -0.103425  0  0  0  0  0  0  0  0  0  0 
1699366626.882595000  0.0429952  -0.14896  1.0546  0  0  0.0306741  0.257196  -0.465198  0.117462  0  0  0  1.40352  -0.0913445  0  0  0  0  0  0  0  0  0  0 
1699366626.887601000  0.0442988  -0.151287  1.05518  0  0  0.031011  0.264243  -0.465626  0.117462  0  0  0  1.41518  -0.0800141  0  0  0  0  0  0  0  0  0  0 
1699366626.892598000  0.0456378  -0.153616  1.05577  0  0  0.0313479  0.271347  -0.465999  0.117462  0  0  0  1.42608  -0.0694337  0  0  0  0  0  0  0  0  0  0 
1699366626.897590000  0.0470124  -0.155947  1.05636  0  0  0.0316848  0.278503  -0.466321  0.117462  0  0  0  1.43624  -0.0596032  0  0  0  0  0  0  0  0  0  0 
1699366626.902594000  0.0484229  -0.158279  1.05695  0  0  0.0320217  0.285708  -0.466596  0.117462  0  0  0  1.44564  -0.0505228  0  0  0  0  0  0  0  0  0  0 
1699366626.907599000  0.0498695  -0.160613  1.05753  0  0  0.0323586  0.292958  -0.466828  0.117462  0  0  0  1.4543  -0.0421924  0  0  0  0  0  0  0  0  0  0 
1699366626.912590000  0.0513525  -0.162948  1.05812  0  0  0.0326955  0.30025  -0.46702  0.117462  0  0  0  1.4622  -0.034612  0  0  0  0  0  0  0  0  0  0 
1699366626.917590000  0.0528721  -0.165283  1.05871  0  0  0.0330324  0.307579  -0.467175  0.117462  0  0  0  1.46936  -0.0277816  0  0  0  0  0  0  0  0  0  0 
1699366626.922599000  0.0544284  -0.167619  1.0593  0  0  0.0333693  0.314942  -0.467299  0.117462  0  0  0  1.47576  -0.0217012  0  0  0  0  0  0  0  0  0  0 
1699366626.927590000  0.0560216  -0.169956  1.05988  0  0  0.0337062  0.322335  -0.467393  0.117462  0  0  0  1.48142  -0.0163708  0  0  0  0  0  0  0  0  0  0 
1699366626.932596000  0.0576518  -0.172293  1.06047  0  0  0.0340431  0.329755  -0.467464  0.117462  0  0  0  1.48632  -0.0117903  0  0  0  0  0  0  0  0  0  0 
1699366626.937591000  0.0593191  -0.174631  1.06106  0  0  0.03438  0.337197  -0.467513  0.117462  0  0  0  1.49048  -0.0079599  0  0  0  0  0  0  0  0  0  0 
1699366626.942589000  0.0610238  -0.176968  1.06164  0  0  0.0347169  0.344658  -0.467544  0.117462  0  0  0  1.49388  -0.0048795  0  0  0  0  0  0  0  0  0  0 
1699366626.947595000  0.0627658  -0.179306  1.06223  0  0  0.0350538  0.352135  -0.467563  0.117462  0  0  0  1.49653  -0.0025491  0  0  0  0  0  0  0  0  0  0 
1699366626.952599000  0.0645451  -0.181644  1.06282  0  0  0.0353907  0.359622  -0.467571  0.117462  0  0  0  1.49844  -0.0009687  0  0  0  0  0  0  0  0  0  0 
1699366626.957613000  0.066362  -0.183982  1.06341  0  0  0.0357276  0.367118  -0.467574  0.117462  0  0  0  1.49959  -0.0001383  0  0  0  0  0  0  0  0  0  0 
1699366626.962591000  0.0682163  -0.18632  1.06399  0  0  0.0360645  0.374617  -0.467574  0.117462  0  0  0  1.5  -0  0  0  0  0  0  0  0  0  0  0 
1699366626.967604000  0.0701082  -0.188658  1.06458  0  0  0.0364014  0.382117  -0.467574  0.117462  0  0  0  1.5  -0  0  0  0  0  0  0  0  0  0  0 
1699366626.972596000  0.0720375  -0.190995  1.06517  0  0  0.0367383  0.389617  -0.467574  0.117462  0  0  0  1.5  -0  0  0  0  0  0  0  0  0  0  0 
1699366626.977589000  0.0740043  -0.193333  1.06576  0  0  0.0370752  0.397117  -0.467574  0.117462  0  0  0  1.5  -0  0  0  0  0  0  0  0  0  0  0 
1699366626.982591000  0.0760087  -0.195671  1.06634  0  0  0.0374121  0.404617  -0.467574  0.117462  0  0  0  1.5  -0  0  0  0  0  0  0  0  0  0  0 
1699366626.987600000  0.0780505  -0.198009  1.06693  0  0  0.037749  0.412117  -0.467574  0.117462  0  0  0  1.5  -0  0  0  0  0  0  0  0  0  0  0 
1699366626.992597000  0.0801298  -0.200347  1.06752  0  0  0.0380859  0.419617  -0.467574  0.117462  0  0  0  1.5  -0  0  0  0  0  0  0  0  0  0  0 
1699366626.997589000  0.0822467  -0.202685  1.06811  0  0  0.0384228  0.427117  -0.467574  0.117462  0  0  0  1.5  -0  0  0  0  0  0  0  0  0  0  0 
1699366627.002591000  0.084401  -0.205023  1.06869  0  0  0.0387597  0.434617  -0.467574  0.117462  0  0  0  1.5  -0  0  0  0  0  0  0  0  0  0  0 
1699366627.007589000  0.0865928  -0.207361  1.06928  0  0  0.0390966  0.442117  -0.467574  0.117462  0  0  0  1.5  -0  0  0  0  0  0  0  0  0  0  0 
1699366627.012589000  0.0888222  -0.209698  1.06987  0  0  0.0394335  0.449617  -0.467574  0.117462  0  0  0  1.5  -0  0  0  0  0  0  0  0  0  0  0 
1699366627.017590000  0.091089  -0.212036  1.07045  0  0  0.0397704  0.457117  -0.467574  0.117462  0  0  0  1.5  -0  0  0  0  0  0  0  0  0  0  0 
1699366627.022589000  0.0933933  -0.214374  1.07104  0  0  0.0401073  0.464617  -0.467574  0.117462  0  0  0  1.5  -0  0  0  0  0  0  0  0  0  0  0 
1699366627.027590000  0.0957352  -0.216712  1.07163  0  0  0.0404442  0.472117  -0.467574  0.117462  0  0  0  1.5  -0  0  0  0  0  0  0  0  0  0  0 
1699366627.032590000  0.0981145  -0.21905  1.07222  0  0  0.0407811  0.479617  -0.467574  0.117462  0  0  0  1.5  -0  0  0  0  0  0  0  0  0  0  0 
1699366627.037589000  0.100531  -0.221388  1.0728  0  0  0.041118  0.487117  -0.467574  0.117462  0  0  0  1.5  -0  0  0  0  0  0  0  0  0  0  0 
1699366627.042589000  0.102986  -0.223726  1.07339  0  0  0.0414549  0.494617  -0.467574  0.117462  0  0  0  1.5  -0  0  0  0  0  0  0  0  0  0  0 
1699366627.047591000  0.105478  -0.226063  1.07398  0  0  0.0417918  0.502117  -0.467574  0.117462  0  0  0  1.5  -0  0  0  0  0  0  0  0  0  0  0 
1699366627.052590000  0.108007  -0.228401  1.07457  0  0  0.0421287  0.509617  -0.467574  0.117462  0  0  0  1.5  -0  0  0  0  0  0  0  0  0  0  0 
1699366627.057589000  0.110574  -0.230739  1.07515  0  0  0.0424656  0.517117  -0.467574  0.117462  0  0  0  1.5  -0  0  0  0  0  0  0  0  0  0  0 
1699366627.062596000  0.113178  -0.233077  1.07574  0  0  0.0428025  0.524617  -0.467574  0.117462  0  0  0  1.5  -0  0  0  0  0  0  0  0  0  0  0 
1699366627.067596000  0.11582  -0.235415  1.07633  0  0  0.0431394  0.532117  -0.467574  0.117462  0  0  0  1.5  -0  0  0  0  0  0  0  0  0  0  0 
1699366627.072591000  0.118499  -0.237753  1.07691  0  0  0.0434763  0.539617  -0.467574  0.117462  0  0  0  1.5  -0  0  0  0  0  0  0  0  0  0  0 
1699366627.077589000  0.121216  -0.240091  1.0775  0  0  0.0438132  0.547117  -0.467574  0.117462  0  0  0  1.5  -0  0  0  0  0  0  0  0  0  0  0 
1699366627.082592000  0.12397  -0.242429  1.07809  0  0  0.0441501  0.554617  -0.467574  0.117462  0  0  0  1.5  -0  0  0  0  0  0  0  0  0  0  0 
1699366627.087590000  0.126762  -0.244766  1.07868  0  0  0.044487  0.562117  -0.467574  0.117462  0  0  0  1.5  -0  0  0  0  0  0  0  0  0  0  0 
1699366627.092591000  0.129592  -0.247104  1.07926  0  0  0.0448239  0.569617  -0.467574  0.117462  0  0  0  1.5  -0  0  0  0  0  0  0  0  0  0  0 
1699366627.097592000  0.132458  -0.249442  1.07985  0  0  0.0451609  0.577117  -0.467574  0.117462  0  0  0  1.5  -0  0  0  0  0  0  0  0  0  0  0 
1699366627.102592000  0.135363  -0.25178  1.08044  0  0  0.0454978  0.584617  -0.467574  0.117462  0  0  0  1.5  -0  -6.2e-05  0  0  0  0  0  0  0  0  0 
1699366627.107591000  0.138305  -0.254118  1.08103  0  0  0.0458347  0.592117  -0.467574  0.117461  0  0  0  1.5  -0  -0.000742  0  0  0  0  0  0  0  0  0 
1699366627.112592000  0.141284  -0.256456  1.08161  0  0  0.0461716  0.599617  -0.467574  0.117454  0  0  0  1.5  -0  -0.002172  0  0  0  0  0  0  0  0  0 
1699366627.117590000  0.144301  -0.258794  1.0822  0  0  0.0465085  0.607117  -0.467574  0.117438  0  0  0  1.5  -0  -0.004352  0  0  0  0  0  0  0  0  0 
1699366627.122590000  0.147355  -0.261132  1.08279  0  0  0.0468454  0.614617  -0.467574  0.117409  0  0  0  1.5  -0  -0.007282  0  0  0  0  0  0  0  0  0 
1699366627.127592000  0.150447  -0.263469  1.08337  0  0  0.0471823  0.622117  -0.467574  0.117363  0  0  0  1.5  -0  -0.010962  0  0  0  0  0  0  0  0  0 
1699366627.132591000  0.153576  -0.265807  1.08396  0  0  0.0475192  0.629617  -0.467574  0.117298  0  0  0  1.5  -0  -0.015392  0  0  0  0  0  0  0  0  0 
1699366627.137590000  0.156743  -0.268145  1.08455  0  0  0.0478561  0.637117  -0.467574  0.117208  0  0  0  1.5  -0  -0.020572  0  0  0  0  0  0  0  0  0 
1699366627.142592000  0.159947  -0.270483  1.08513  0  0  0.048193  0.644617  -0.467574  0.117091  0  0  0  1.5  -0  -0.026502  0  0  0  0  0  0  0  0  0 
1699366627.147592000  0.163189  -0.272821  1.08572  0  0  0.0485299  0.652117  -0.467574  0.116942  0  0  0  1.5  -0  -0.033182  0  0  0  0  0  0  0  0  0 
1699366627.152590000  0.166469  -0.275159  1.0863  0  0  0.0488668  0.659617  -0.467574  0.116758  0  0  0  1.5  -0  -0.040612  0  0  0  0  0  0  0  0  0 
1699366627.157590000  0.169785  -0.277497  1.08689  0  0  0.0492037  0.667117  -0.467574  0.116535  0  0  0  1.5  -0  -0.048792  0  0  0  0  0  0  0  0  0 
1699366627.162591000  0.17314  -0.279834  1.08747  0  0  0.0495406  0.674617  -0.467574  0.116269  0  0  0  1.5  -0  -0.057722  0  0  0  0  0  0  0  0  0 
1699366627.167607000  0.176532  -0.282172  1.08805  0  0  0.0498775  0.682117  -0.467574  0.115956  0  0  0  1.5  -0  -0.0674021  0  0  0  0  0  0  0  0  0 
1699366627.172590000  0.179961  -0.28451  1.08863  0  0  0.0502144  0.689617  -0.467574  0.115593  0  0  0  1.5  -0  -0.0778321  0  0  0  0  0  0  0  0  0 
1699366627.177591000  0.183428  -0.286848  1.0892  0  0  0.0505513  0.697117  -0.467574  0.115177  0  0  0  1.5  -0  -0.0890121  0  0  0  0  0  0  0  0  0 
1699366627.182591000  0.186932  -0.289186  1.08978  0  0  0.0508882  0.704617  -0.467574  0.114702  0  0  0  1.5  -0  -0.100942  0  0  0  0  0  0  0  0  0 
1699366627.187590000  0.190474  -0.291524  1.09035  0  0  0.0512251  0.712117  -0.467574  0.114166  0  0  0  1.5  -0  -0.113622  0  0  0  0  0  0  0  0  0 
1699366627.192589000  0.194053  -0.293862  1.09092  0  0  0.051562  0.719617  -0.467574  0.113565  0  0  0  1.5  -0  -0.127052  0  0  0  0  0  0  0  0  0 
1699366627.197592000  0.19767  -0.2962  1.09149  0  0  0.0518989  0.727117  -0.467574  0.112894  0  0  0  1.5  -0  -0.141232  0  0  0  0  0  0  0  0  0 
1699366627.202592000  0.201324  -0.298537  1.09205  0  0  0.0522358  0.734617  -0.467574  0.112151  0  0  0  1.5  -0  -0.156162  0  0  0  0  0  0  0  0  0 
1699366627.207589000  0.205016  -0.300875  1.09261  0  0  0.0525727  0.742117  -0.467574  0.111331  0  0  0  1.5  -0  -0.171842  0  0  0  0  0  0  0  0  0 
1699366627.212590000  0.208746  -0.303213  1.09316  0  0  0.0529096  0.749617  -0.467574  0.110431  0  0  0  1.5  -0  -0.188272  0  0  0  0  0  0  0  0  0 
1699366627.217589000  0.212512  -0.305551  1.09371  0  0  0.0532465  0.757117  -0.467574  0.109447  0  0  0  1.5  -0  -0.205452  0  0  0  0  0  0  0  0  0 
1699366627.222592000  0.216317  -0.307889  1.09426  0  0  0.0535834  0.764617  -0.467574  0.108376  0  0  0  1.5  -0  -0.223382  0  0  0  0  0  0  0  0  0 
1699366627.227589000  0.220159  -0.310227  1.0948  0  0  0.0539203  0.772117  -0.467574  0.107212  0  0  0  1.5  -0  -0.242062  0  0  0  0  0  0  0  0  0 
1699366627.232589000  0.224038  -0.312565  1.09533  0  0  0.0542572  0.779617  -0.467574  0.105954  0  0  0  1.5  -0  -0.261492  0  0  0  0  0  0  0  0  0 
1699366627.237591000  0.227955  -0.314902  1.09586  0  0  0.0545941  0.787117  -0.467574  0.104596  0  0  0  1.5  -0  -0.281672  0  0  0  0  0  0  0  0  0 
1699366627.242591000  0.231909  -0.31724  1.09637  0  0  0.054931  0.794617  -0.467574  0.103136  0  0  0  1.5  -0  -0.302602  0  0  0  0  0  0  0  0  0 
1699366627.247589000  0.235901  -0.319578  1.09689  0  0  0.0552679  0.802117  -0.467574  0.101569  0  0  0  1.5  -0  -0.324172  0  0  0  0  0  0  0  0  0 
1699366627.252592000  0.23993  -0.321916  1.09739  0  0  0.0556048  0.809617  -0.467574  0.099895  0  0  0  1.5  -0  -0.345279  0  0  0  0  0  0  0  0  0 
1699366627.257603000  0.243997  -0.324254  1.09789  0  0  0.0559417  0.817117  -0.467574  0.0981174  0  0  0  1.5  -0  -0.365635  0  0  0  0  0  0  0  0  0 
1699366627.262600000  0.248101  -0.326592  1.09837  0  0  0.0562786  0.824617  -0.467574  0.0962399  0  0  0  1.5  -0  -0.385242  0  0  0  0  0  0  0  0  0 
1699366627.267604000  0.252243  -0.32893  1.09885  0  0  0.0566155  0.832117  -0.467574  0.0942662  0  0  0  1.5  -0  -0.404098  0  0  0  0  0  0  0  0  0 
1699366627.272599000  0.256423  -0.331268  1.09931  0  0  0.0569524  0.839617  -0.467574  0.0922001  0  0  0  1.5  -0  -0.422205  0  0  0  0  0  0  0  0  0 
1699366627.277600000  0.260639  -0.333605  1.09977  0  0  0.0572893  0.847117  -0.467574  0.0900454  0  0  0  1.5  -0  -0.439561  0  0  0  0  0  0  0  0  0 
1699366627.282596000  0.264894  -0.335943  1.10021  0  0  0.0576262  0.854617  -0.467574  0.0878058  0  0  0  1.5  -0  -0.456167  0  0  0  0  0  0  0  0  0 
1699366627.287598000  0.269186  -0.338281  1.10065  0  0  0.0579631  0.862117  -0.467574  0.085485  0  0  0  1.5  -0  -0.472024  0  0  0  0  0  0  0  0  0 
1699366627.292597000  0.273515  -0.340619  1.10107  0  0  0.0583  0.869617  -0.467574  0.0830868  0  0  0  1.5  -0  -0.48713  0  0  0  0  0  0  0  0  0 
1699366627.297596000  0.277882  -0.342957  1.10148  0  0  0.0586369  0.877117  -0.467574  0.0806149  0  0  0  1.5  -0  -0.501487  0  0  0  0  0  0  0  0  0 
1699366627.302604000  0.282286  -0.345295  1.10187  0  0  0.0589738  0.884617  -0.467574  0.0780732  0  0  0  1.5  -0  -0.515093  0  0  0  0  0  0  0  0  0 
1699366627.307598000  0.286728  -0.347633  1.10226  0  0  0.0593107  0.892117  -0.467574  0.0754652  0  0  0  1.5  -0  -0.52795  0  0  0  0  0  0  0  0  0 
1699366627.312593000  0.291207  -0.349971  1.10263  0  0  0.0596476  0.899617  -0.467574  0.0727949  0  0  0  1.5  -0  -0.540056  0  0  0  0  0  0  0  0  0 
1699366627.317592000  0.295724  -0.352308  1.10299  0  0  0.0599845  0.907117  -0.467574  0.0700659  0  0  0  1.5  -0  -0.551412  0  0  0  0  0  0  0  0  0 
1699366627.322601000  0.300278  -0.354646  1.10333  0  0  0.0603214  0.914617  -0.467574  0.067282  0  0  0  1.5  -0  -0.562019  0  0  0  0  0  0  0  0  0 
1699366627.327589000  0.30487  -0.356984  1.10366  0  0  0.0606583  0.922117  -0.467574  0.064447  0  0  0  1.5  -0  -0.571875  0  0  0  0  0  0  0  0  0 
1699366627.332593000  0.3095  -0.359322  1.10397  0  0  0.0609952  0.929617  -0.467574  0.0615645  0  0  0  1.5  -0  -0.580982  0  0  0  0  0  0  0  0  0 
1699366627.337593000  0.314166  -0.36166  1.10427  0  0  0.061332  0.937117  -0.467573  0.0586384  0  0  0  1.5  0.0003367  -0.589338  0  0  0  0  0  0  0  0  0 
1699366627.342613000  0.318871  -0.363998  1.10456  0  0  0.0616689  0.944617  -0.467569  0.0556724  0  0  0  1.5  0.0014224  -0.596945  0  0  0  0  0  0  0  0  0 
1699366627.347589000  0.323613  -0.366336  1.10483  0  0  0.0620056  0.952117  -0.467558  0.0526702  0  0  0  1.5  0.0032581  -0.603801  0  0  0  0  0  0  0  0  0 
1699366627.352593000  0.328392  -0.368673  1.10509  0  0  0.0623422  0.959617  -0.467535  0.0496357  0  0  0  1.5  0.0058438  -0.609907  0  0  0  0  0  0  0  0  0 
1699366627.357590000  0.333209  -0.371011  1.10533  0  0  0.0626786  0.967117  -0.467498  0.0465724  0  0  0  1.5  0.0091795  -0.615264  0  0  0  0  0  0  0  0  0 
1699366627.362588000  0.338063  -0.373348  1.10555  0  0  0.0630147  0.974617  -0.467442  0.0434843  0  0  0  1.5  0.0132652  -0.61987  0  0  0  0  0  0  0  0  0 
1699366627.367593000  0.342955  -0.375685  1.10576  0  0  0.0633505  0.982117  -0.467364  0.040375  0  0  0  1.5  0.0181009  -0.623727  0  0  0  0  0  0  0  0  0 
1699366627.372590000  0.347884  -0.378022  1.10596  0  0  0.0636859  0.989617  -0.46726  0.0372482  0  0  0  1.5  0.0236866  -0.626833  0  0  0  0  0  0  0  0  0 
1699366627.377588000  0.352851  -0.380358  1.10614  0  0  0.0640208  0.997117  -0.467126  0.0341079  0  0  0  1.5  0.0300223  -0.62919  0  0  0  0  0  0  0  0  0 
1699366627.382593000  0.357855  -0.382693  1.1063  0  0  0.064355  1.00462  -0.466959  0.0309576  0  0  0  1.5  0.037108  -0.630796  0  0  0  0  0  0  0  0  0 
1699366627.387591000  0.362897  -0.385027  1.10644  0  0  0.0646885  1.01212  -0.466754  0.0278012  0  0  0  1.5  0.0449437  -0.631652  0  0  0  0  0  0  0  0  0 
1699366627.392588000  0.367977  -0.387361  1.10658  0  0  0.0650211  1.01962  -0.466508  0.0246423  0  0  0  1.5  0.0535294  -0.631759  0  0  0  0  0  0  0  0  0 
1699366627.397590000  0.373093  -0.389692  1.10669  0  0  0.0653528  1.02712  -0.466217  0.0214848  0  0  0  1.5  0.0628651  -0.631115  0  0  0  0  0  0  0  0  0 
1699366627.402595000  0.378248  -0.392023  1.10679  0  0  0.0656832  1.03462  -0.465878  0.0183324  0  0  0  1.49993  0.0729508  -0.629722  0  0  0  0  0  0  0  0  0 
1699366627.407590000  0.38344  -0.394351  1.10687  0  0  0.0660124  1.04212  -0.465486  0.0151889  0  0  0  1.49924  0.0837865  -0.627578  0  0  0  0  0  0  0  0  0 
1699366627.412588000  0.388669  -0.396677  1.10694  0  0  0.06634  1.04961  -0.465039  0.0120579  0  0  0  1.4978  0.0953722  -0.624685  0  0  0  0  0  0  0  0  0 
1699366627.417592000  0.393936  -0.399001  1.107  0  0  0.0666661  1.05709  -0.464531  0.0089433  0  0  0  1.49561  0.107708  -0.621041  0  0  0  0  0  0  0  0  0 
1699366627.422590000  0.39924  -0.401323  1.10703  0  0  0.0669903  1.06456  -0.463961  0.0058487  0  0  0  1.49267  0.120794  -0.616647  0  0  0  0  0  0  0  0  0 
1699366627.427590000  0.404581  -0.403641  1.10705  0  0  0.0673124  1.07202  -0.463322  0.002778  0  0  0  1.48898  0.134629  -0.611504  0  0  0  0  0  0  0  0  0 
1699366627.432590000  0.40996  -0.405956  1.10706  0  0  0.0676323  1.07945  -0.462613  -0.0002651  0  0  0  1.48454  0.149215  -0.60561  0  0  0  0  0  0  0  0  0 
1699366627.437590000  0.415376  -0.408267  1.10705  0  0  0.0679497  1.08686  -0.461829  -0.0032768  0  0  0  1.47936  0.164551  -0.598967  0  0  0  0  0  0  0  0  0 
1699366627.442589000  0.420829  -0.410574  1.10703  0  0  0.0682645  1.09424  -0.460966  -0.0062535  0  0  0  1.47342  0.180636  -0.591573  0  0  0  0  0  0  0  0  0 
1699366627.447589000  0.426318  -0.412876  1.10699  0  0  0.0685763  1.10159  -0.460021  -0.0091913  0  0  0  1.46673  0.197472  -0.58343  0  0  0  0  0  0  0  0  0 
1699366627.452591000  0.431844  -0.415174  1.10694  0  0  0.068885  1.10891  -0.45899  -0.0120865  0  0  0  1.45929  0.215058  -0.574536  0  0  0  0  0  0  0  0  0 
1699366627.457592000  0.437407  -0.417466  1.10687  0  0  0.0691902  1.11619  -0.457869  -0.0149354  0  0  0  1.4511  0.233393  -0.564892  0  0  0  0  0  0  0  0  0 
1699366627.462596000  0.443006  -0.419752  1.10679  0  0  0.0694918  1.12342  -0.456655  -0.0177342  0  0  0  1.44216  0.252479  -0.554499  0  0  0  0  0  0  0  0  0 
1699366627.467589000  0.448641  -0.422032  1.10669  0  0  0.0697895  1.13061  -0.455343  -0.0204791  0  0  0  1.43247  0.272315  -0.543355  0  0  0  0  0  0  0  0  0 
1699366627.472594000  0.454312  -0.424306  1.10658  0  0  0.0700832  1.13774  -0.453931  -0.0231665  0  0  0  1.42203  0.292901  -0.531462  0  0  0  0  0  0  0  0  0 
1699366627.477591000  0.460019  -0.426572  1.10646  0  0  0.0703725  1.14483  -0.452413  -0.0257925  0  0  0  1.41084  0.314236  -0.518818  0  0  0  0  0  0  0  0  0 
1699366627.482594000  0.46576  -0.42883  1.10632  0  0  0.0706574  1.15185  -0.450787  -0.0283534  0  0  0  1.3989  0.336322  -0.505425  0  0  0  0  0  0  0  0  0 
1699366627.487590000  0.471537  -0.431079  1.10618  0  0  0.0709376  1.15881  -0.449049  -0.0308455  0  0  0  1.38621  0.359158  -0.491281  0  0  0  0  0  0  0  0  0 
1699366627.492589000  0.477348  -0.43332  1.10602  0  0  0.071213  1.16571  -0.447194  -0.033265  0  0  0  1.37277  0.382743  -0.476387  0  0  0  0  0  0  0  0  0 
1699366627.497595000  0.483194  -0.435551  1.10584  0  0  0.0714834  1.17254  -0.44522  -0.0356081  0  0  0  1.35858  0.407079  -0.460744  0  0  0  0  0  0  0  0  0 
1699366627.502591000  0.489074  -0.437772  1.10566  0  0  0.0717486  1.1793  -0.443122  -0.0378712  0  0  0  1.34364  0.432165  -0.44435  0  0  0  0  0  0  0  0  0 
1699366627.507591000  0.494987  -0.439982  1.10546  0  0  0.0720086  1.18597  -0.440897  -0.0400504  0  0  0  1.32795  0.458  -0.427207  0  0  0  0  0  0  0  0  0 
1699366627.512594000  0.500933  -0.442181  1.10526  0  0  0.0722631  1.19257  -0.438541  -0.042142  0  0  0  1.31151  0.484584  -0.409313  0  0  0  0  0  0  0  0  0 
1699366627.517589000  0.506913  -0.444367  1.10504  0  0  0.0725121  1.19909  -0.436051  -0.0441423  0  0  0  1.29432  0.511086  -0.390669  0  0  0  0  0  0  0  0  0 
1699366627.522589000  0.512924  -0.446541  1.10482  0  0  0.0727554  1.20552  -0.433431  -0.0460474  0  0  0  1.27638  0.536839  -0.371276  0  0  0  0  0  0  0  0  0 
1699366627.527610000  0.518968  -0.448701  1.10458  0  0  0.0729929  1.21185  -0.430684  -0.0478538  0  0  0  1.25769  0.561842  -0.351132  0  0  0  0  0  0  0  0  0 
1699366627.532599000  0.525042  -0.450848  1.10434  0  0  0.0732246  1.21809  -0.427814  -0.0495575  0  0  0  1.23825  0.586094  -0.330239  0  0  0  0  0  0  0  0  0 
1699366627.537602000  0.531148  -0.452979  1.10409  0  0  0.0734503  1.22423  -0.424825  -0.0511549  0  0  0  1.21806  0.609597  -0.308595  0  0  0  0  0  0  0  0  0 
1699366627.542592000  0.537285  -0.455096  1.10383  0  0  0.07367  1.23027  -0.421719  -0.0526422  0  0  0  1.19712  0.632349  -0.286202  0  0  0  0  0  0  0  0  0 
1699366627.547598000  0.543451  -0.457196  1.10356  0  0  0.0738836  1.2362  -0.418502  -0.0540157  0  0  0  1.17543  0.654352  -0.263058  0  0  0  0  0  0  0  0  0 
1699366627.552592000  0.549646  -0.459281  1.10329  0  0  0.0740911  1.24202  -0.415177  -0.0552715  0  0  0  1.15299  0.675605  -0.239164  0  0  0  0  0  0  0  0  0 
1699366627.557593000  0.555871  -0.461348  1.10301  0  0  0.0742924  1.24773  -0.411748  -0.0564061  0  0  0  1.1298  0.696107  -0.214521  0  0  0  0  0  0  0  0  0 
1699366627.562589000  0.562124  -0.463398  1.10272  0  0  0.0744875  1.25332  -0.408217  -0.0574155  0  0  0  1.10586  0.71586  -0.189127  0  0  0  0  0  0  0  0  0 
1699366627.567593000  0.568404  -0.46543  1.10243  0  0  0.0746764  1.25879  -0.40459  -0.0582961  0  0  0  1.08117  0.734862  -0.162984  0  0  0  0  0  0  0  0  0 
1699366627.572590000  0.574711  -0.467444  1.10214  0  0  0.074859  1.26413  -0.40087  -0.0590441  0  0  0  1.05573  0.753115  -0.13609  0  0  0  0  0  0  0  0  0 
1699366627.577589000  0.581045  -0.469438  1.10184  0  0  0.0750354  1.26934  -0.39706  -0.0596557  0  0  0  1.02954  0.770618  -0.108447  0  0  0  0  0  0  0  0  0 
1699366627.582588000  0.587404  -0.471414  1.10154  0  0  0.0752056  1.27443  -0.393165  -0.0601273  0  0  0  1.0026  0.78737  -0.080053  0  0  0  0  0  0  0  0  0 
1699366627.587589000  0.593789  -0.47337  1.10124  0  0  0.0753694  1.27937  -0.389188  -0.060455  0  0  0  0.97491  0.803373  -0.0509095  0  0  0  0  0  0  0  0  0 
1699366627.592589000  0.600198  -0.475306  1.10094  0  0  0.0755271  1.28417  -0.385133  -0.0606351  0  0  0  0.946471  0.818625  -0.0210159  0  0  0  0  0  0  0  0  0 
1699366627.597589000  0.60663  -0.477221  1.10064  0  0  0.0756784  1.28883  -0.381003  -0.0606639  0  0  0  0.917281  0.833128  0.0096277  0  0  0  0  0  0  0  0  0 
1699366627.602598000  0.613086  -0.479116  1.10033  0  0  0.0758236  1.29334  -0.376803  -0.0605376  0  0  0  0.887341  0.846881  0.0410212  0  0  0  0  0  0  0  0  0 
1699366627.607603000  0.619564  -0.480989  1.10003  0  0  0.0759625  1.2977  -0.372535  -0.0602525  0  0  0  0.856651  0.859883  0.0731648  0  0  0  0  0  0  0  0  0 
1699366627.612618000  0.626063  -0.482841  1.09973  0  0  0.0760951  1.30191  -0.368205  -0.0598047  0  0  0  0.825211  0.872136  0.106058  0  0  0  0  0  0  0  0  0 
1699366627.617589000  0.632582  -0.484671  1.09943  0  0  0.0762215  1.30596  -0.363815  -0.0591906  0  0  0  0.793021  0.883638  0.139702  0  0  0  0  0  0  0  0  0 
1699366627.622592000  0.639122  -0.486479  1.09914  0  0  0.0763416  1.30984  -0.35937  -0.0584064  0  0  0  0.760082  0.894391  0.174096  0  0  0  0  0  0  0  0  0 
1699366627.627589000  0.645681  -0.488265  1.09885  0  0  0.0764555  1.31356  -0.354873  -0.0574484  0  0  0  0.726392  0.904394  0.209239  0  0  0  0  0  0  0  0  0 
1699366627.632588000  0.652257  -0.490028  1.09857  0  0  0.0765631  1.3171  -0.350327  -0.0563128  0  0  0  0.691952  0.913646  0.245133  0  0  0  0  0  0  0  0  0 
1699366627.637609000  0.658851  -0.491768  1.09829  0  0  0.0766645  1.32047  -0.345737  -0.0549958  0  0  0  0.656762  0.922149  0.281776  0  0  0  0  0  0  0  0  0 
1699366627.642589000  0.665462  -0.493485  1.09802  0  0  0.0767596  1.32367  -0.341107  -0.0534938  0  0  0  0.620822  0.929901  0.31917  0  0  0  0  0  0  0  0  0 
1699366627.647589000  0.672088  -0.495179  1.09775  0  0  0.0768485  1.32668  -0.33644  -0.0518029  0  0  0  0.584133  0.936904  0.357313  0  0  0  0  0  0  0  0  0 
1699366627.652589000  0.678728  -0.496849  1.0975  0  0  0.0769311  1.32951  -0.331739  -0.0499194  0  0  0  0.546693  0.943157  0.396207  0  0  0  0  0  0  0  0  0 
1699366627.657599000  0.685382  -0.498496  1.09725  0  0  0.0770075  1.33215  -0.327009  -0.0478399  0  0  0  0.508503  0.948659  0.435559  0  0  0  0  0  0  0  0  0 
1699366627.662589000  0.692049  -0.500119  1.09702  0  0  0.0770776  1.33459  -0.322254  -0.045565  0  0  0  0.469875  0.953412  0.474268  0  0  0  0  0  0  0  0  0 
1699366627.667588000  0.698728  -0.501719  1.0968  0  0  0.0771415  1.33685  -0.317476  -0.0430985  0  0  0  0.431903  0.957415  0.512227  0  0  0  0  0  0  0  0  0 
1699366627.672588000  0.705418  -0.503294  1.09659  0  0  0.0771992  1.33891  -0.312681  -0.040444  0  0  0  0.394681  0.960667  0.549435  0  0  0  0  0  0  0  0  0 
1699366627.677598000  0.712117  -0.504845  1.09639  0  0  0.0772505  1.34079  -0.307871  -0.0376053  0  0  0  0.358209  0.96317  0.585894  0  0  0  0  0  0  0  0  0 
1699366627.682618000  0.718825  -0.506373  1.09621  0  0  0.0772957  1.3425  -0.30305  -0.0345863  0  0  0  0.322487  0.964922  0.621603  0  0  0  0  0  0  0  0  0 
1699366627.687609000  0.725542  -0.507876  1.09605  0  0  0.0773345  1.34402  -0.298223  -0.0313906  0  0  0  0.287515  0.965925  0.656562  0  0  0  0  0  0  0  0  0 
1699366627.692610000  0.732265  -0.509355  1.0959  0  0  0.0773672  1.34537  -0.293392  -0.0280219  0  0  0  0.253293  0.966178  0.69077  0  0  0  0  0  0  0  0  0 
1699366627.697611000  0.738995  -0.51081  1.09577  0  0  0.0773936  1.34655  -0.288562  -0.0244841  0  0  0  0.219821  0.96568  0.724229  0  0  0  0  0  0  0  0  0 
1699366627.702610000  0.74573  -0.512241  1.09566  0  0  0.0774137  1.34757  -0.283737  -0.0207809  0  0  0  0.187099  0.964433  0.756938  0  0  0  0  0  0  0  0  0 
1699366627.707589000  0.75247  -0.513647  1.09556  0  0  0.0774276  1.34843  -0.278919  -0.016916  0  0  0  0.155127  0.962435  0.788897  0  0  0  0  0  0  0  0  0 
1699366627.712611000  0.759214  -0.51503  1.09549  0  0  0.0774352  1.34912  -0.274114  -0.0128932  0  0  0  0.123905  0.959688  0.820105  0  0  0  0  0  0  0  0  0 
1699366627.717593000  0.765961  -0.516388  1.09543  0  0  0.0774366  1.34967  -0.269324  -0.0087162  0  0  0  0.0934333  0.956191  0.850564  0  0  0  0  0  0  0  0  0 
1699366627.722589000  0.772711  -0.517723  1.0954  0  0  0.0774317  1.35006  -0.264553  -0.0043888  0  0  0  0.0637113  0.951943  0.880273  0  0  0  0  0  0  0  0  0 
1699366627.727590000  0.779462  -0.519034  1.09539  0  0  0.0774206  1.35031  -0.259806  8.53e-05  0  0  0  0.0347393  0.946946  0.909231  0  0  0  0  0  0  0  0  0 
1699366627.732611000  0.786214  -0.520321  1.0954  0  0  0.0774032  1.35041  -0.255085  0.0047023  0  0  0  0.0065173  0.941198  0.93744  0  0  0  0  0  0  0  0  0 
1699366627.737609000  0.792966  -0.521585  1.09544  0  0  0.0773796  1.35037  -0.250395  0.0094585  0  0  0  -0.0209547  0.934701  0.964899  0  0  0  0  0  0  0  0  0 
1699366627.742591000  0.799717  -0.522825  1.0955  0  0  0.0773497  1.3502  -0.245739  0.01435  0  0  0  -0.0476767  0.927454  0.991608  0  0  0  0  0  0  0  0  0 
1699366627.747589000  0.806467  -0.524042  1.09558  0  0  0.0773136  1.3499  -0.241122  0.0193733  0  0  0  -0.0736487  0.919456  1.01757  0  0  0  0  0  0  0  0  0 
1699366627.752588000  0.813216  -0.525237  1.09569  0  0  0.0772712  1.34946  -0.236546  0.0245244  0  0  0  -0.0988707  0.910709  1.04278  0  0  0  0  0  0  0  0  0 
1699366627.757607000  0.819962  -0.526408  1.09583  0  0  0.0772226  1.34891  -0.232016  0.0297998  0  0  0  -0.123343  0.901211  1.06723  0  0  0  0  0  0  0  0  0 
1699366627.762605000  0.826705  -0.527557  1.09599  0  0  0.0771678  1.34823  -0.227535  0.0351955  0  0  0  -0.147065  0.890964  1.09094  0  0  0  0  0  0  0  0  0 
1699366627.767607000  0.833444  -0.528683  1.09618  0  0  0.0771066  1.34744  -0.223107  0.0407079  0  0  0  -0.170037  0.879967  1.1139  0  0  0  0  0  0  0  0  0 
1699366627.772605000  0.840179  -0.529788  1.0964  0  0  0.0770393  1.34653  -0.218737  0.0463333  0  0  0  -0.192259  0.868219  1.13611  0  0  0  0  0  0  0  0  0 
1699366627.777681000  0.846909  -0.530871  1.09664  0  0  0.0769657  1.34552  -0.214426  0.0520678  0  0  0  -0.213731  0.855722  1.15757  0  0  0  0  0  0  0  0  0 
1699366627.782592000  0.853634  -0.531932  1.09692  0  0  0.0768858  1.3444  -0.210181  0.0579077  0  0  0  -0.234453  0.842474  1.17828  0  0  0  0  0  0  0  0  0 
1699366627.787589000  0.860353  -0.532973  1.09722  0  0  0.0767997  1.34317  -0.206003  0.0638493  0  0  0  -0.254425  0.828477  1.19824  0  0  0  0  0  0  0  0  0 
1699366627.792589000  0.867066  -0.533992  1.09756  0  0  0.0767073  1.34185  -0.201897  0.0698888  0  0  0  -0.273647  0.81373  1.21744  0  0  0  0  0  0  0  0  0 
1699366627.797596000  0.873771  -0.534992  1.09792  0  0  0.0766087  1.34044  -0.197867  0.0760225  0  0  0  -0.292119  0.798232  1.2359  0  0  0  0  0  0  0  0  0 
1699366627.802590000  0.88047  -0.535971  1.09832  0  0  0.0765038  1.33893  -0.193916  0.0822466  0  0  0  -0.309841  0.781985  1.25361  0  0  0  0  0  0  0  0  0 
1699366627.807608000  0.88716  -0.536931  1.09874  0  0  0.0763927  1.33734  -0.190048  0.0885574  0  0  0  -0.326813  0.765187  1.27057  0  0  0  0  0  0  0  0  0 
1699366627.812597000  0.893843  -0.537872  1.0992  0  0  0.0762753  1.33567  -0.186263  0.0949511  0  0  0  -0.343035  0.748965  1.28678  0  0  0  0  0  0  0  0  0 
1699366627.817589000  0.900517  -0.538794  1.09969  0  0  0.0761517  1.33391  -0.182557  0.101424  0  0  0  -0.358507  0.733492  1.30224  0  0  0  0  0  0  0  0  0 
1699366627.822590000  0.907182  -0.539698  1.10022  0  0  0.0760218  1.33208  -0.178927  0.107972  0  0  0  -0.373229  0.718769  1.31695  0  0  0  0  0  0  0  0  0 
1699366627.827589000  0.913838  -0.540583  1.10077  0  0  0.0758857  1.33018  -0.175368  0.114592  0  0  0  -0.387201  0.704797  1.33091  0  0  0  0  0  0  0  0  0 
1699366627.832603000  0.920484  -0.541451  1.10136  0  0  0.0757433  1.32821  -0.171878  0.12128  0  0  0  -0.400423  0.691574  1.34411  0  0  0  0  0  0  0  0  0 
1699366627.837602000  0.92712  -0.542302  1.10198  0  0  0.0755947  1.32618  -0.168451  0.128032  0  0  0  -0.412895  0.679101  1.35657  0  0  0  0  0  0  0  0  0 
1699366627.842603000  0.933745  -0.543136  1.10264  0  0  0.0754398  1.32409  -0.165085  0.134845  0  0  0  -0.424617  0.667379  1.36828  0  0  0  0  0  0  0  0  0 
1699366627.847603000  0.940361  -0.543953  1.10333  0  0  0.0752787  1.32193  -0.161776  0.141714  0  0  0  -0.435589  0.656406  1.37924  0  0  0  0  0  0  0  0  0 
1699366627.852592000  0.946965  -0.544754  1.10406  0  0  0.0751114  1.31973  -0.15852  0.148636  0  0  0  -0.445811  0.646183  1.38945  0  0  0  0  0  0  0  0  0 
1699366627.857599000  0.953558  -0.545538  1.10482  0  0  0.0749377  1.31748  -0.155313  0.155607  0  0  0  -0.455283  0.63671  1.39891  0  0  0  0  0  0  0  0  0 
1699366627.862602000  0.960139  -0.546307  1.10562  0  0  0.0747579  1.31518  -0.152152  0.162624  0  0  0  -0.464005  0.627988  1.40762  0  0  0  0  0  0  0  0  0 
1699366627.867602000  0.966709  -0.54706  1.10645  0  0  0.0745718  1.31284  -0.149032  0.169682  0  0  0  -0.471977  0.620015  1.41558  0  0  0  0  0  0  0  0  0 
1699366627.872588000  0.973268  -0.547797  1.10731  0  0  0.0743794  1.31046  -0.14595  0.176778  0  0  0  -0.479199  0.612792  1.42278  0  0  0  0  0  0  0  0  0 
1699366627.877606000  0.979814  -0.54852  1.10821  0  0  0.0741808  1.30805  -0.142903  0.183908  0  0  0  -0.485671  0.60632  1.42924  0  0  0  0  0  0  0  0  0 
1699366627.882592000  0.986348  -0.549226  1.10915  0  0  0.0739759  1.30561  -0.139886  0.191069  0  0  0  -0.491393  0.600597  1.43495  0  0  0  0  0  0  0  0  0 
1699366627.887606000  0.99287  -0.549918  1.11012  0  0  0.0737648  1.30314  -0.136896  0.198257  0  0  0  -0.496365  0.595624  1.43991  0  0  0  0  0  0  0  0  0 
1699366627.892589000  0.999379  -0.550595  1.11113  0  0  0.0735474  1.30064  -0.133928  0.205467  0  0  0  -0.500587  0.591402  1.44412  0  0  0  0  0  0  0  0  0 
1699366627.897610000  1.00588  -0.551258  1.11218  0  0  0.0733238  1.29813  -0.13098  0.212697  0  0  0  -0.504059  0.587929  1.44758  0  0  0  0  0  0  0  0  0 
1699366627.902602000  1.01236  -0.551905  1.11326  0  0  0.0730939  1.2956  -0.128048  0.219942  0  0  0  -0.506781  0.585206  1.45029  0  0  0  0  0  0  0  0  0 
1699366627.907602000  1.01883  -0.552538  1.11438  0  0  0.0728578  1.29306  -0.125127  0.227198  0  0  0  -0.508753  0.583234  1.45225  0  0  0  0  0  0  0  0  0 
1699366627.912591000  1.02529  -0.553157  1.11553  0  0  0.0726154  1.29052  -0.122214  0.234463  0  0  0  -0.509975  0.582011  1.45345  0  0  0  0  0  0  0  0  0 
1699366627.917604000  1.03174  -0.55376  1.11672  0  0  0.0723668  1.28797  -0.119306  0.241732  0  0  0  -0.510447  0.581538  1.45391  0  0  0  0  0  0  0  0  0 
1699366627.922602000  1.03246  -0.553757  1.11674  0  0  0.0723317  1.28757  -0.118842  0.242448  0  0  0  -0.510453  0.581532  1.45392  0  0  0  0  0  0  0  0  0 
1699366627.927612000  1.03889  -0.554344  1.11797  0  0  0.0720759  1.28502  -0.115935  0.249717  0  0  0  -0.510828  0.581157  1.45354  0  0  0  0  0  0  0  0  0 
1699366627.932600000  1.04531  -0.554916  1.11924  0  0  0.0718139  1.28246  -0.113032  0.256982  0  0  0  -0.511953  0.580032  1.45242  0  0  0  0  0  0  0  0  0 
1699366627.937601000  1.05172  -0.555474  1.12054  0  0  0.0715457  1.2799  -0.110136  0.26424  0  0  0  -0.513828  0.578157  1.45054  0  0  0  0  0  0  0  0  0 
1699366627.942593000  1.05811  -0.556017  1.12188  0  0  0.0712713  1.27732  -0.107251  0.271486  0  0  0  -0.516453  0.575532  1.44792  0  0  0  0  0  0  0  0  0 
1699366627.947589000  1.06449  -0.556546  1.12325  0  0  0.0709907  1.27473  -0.104382  0.278718  0  0  0  -0.519828  0.572157  1.44454  0  0  0  0  0  0  0  0  0 
1699366627.952588000  1.07086  -0.557061  1.12467  0  0  0.070704  1.27212  -0.101531  0.28593  0  0  0  -0.523953  0.568032  1.44042  0  0  0  0  0  0  0  0  0 
1699366627.957588000  1.07721  -0.557562  1.12611  0  0  0.0704112  1.26949  -0.0987027  0.293121  0  0  0  -0.528828  0.563157  1.43554  0  0  0  0  0  0  0  0  0 
1699366627.962603000  1.08355  -0.558048  1.1276  0  0  0.0701124  1.26683  -0.0959007  0.300284  0  0  0  -0.534453  0.557532  1.42992  0  0  0  0  0  0  0  0  0 
1699366627.967588000  1.08988  -0.558521  1.12912  0  0  0.0698077  1.26414  -0.0931287  0.307418  0  0  0  -0.540828  0.551157  1.42354  0  0  0  0  0  0  0  0  0 
1699366627.972588000  1.09619  -0.55898  1.13067  0  0  0.0694972  1.26142  -0.0903904  0.314519  0  0  0  -0.547953  0.544032  1.41642  0  0  0  0  0  0  0  0  0 
1699366627.977589000  1.10249  -0.559425  1.13226  0  0  0.0691809  1.25866  -0.0876896  0.321581  0  0  0  -0.555828  0.536157  1.40854  0  0  0  0  0  0  0  0  0 
1699366627.982591000  1.10878  -0.559857  1.13389  0  0  0.0688589  1.25586  -0.0850301  0.328603  0  0  0  -0.564453  0.527532  1.39992  0  0  0  0  0  0  0  0  0 
1699366627.987590000  1.11505  -0.560275  1.13555  0  0  0.0685314  1.25302  -0.0824155  0.335579  0  0  0  -0.573828  0.518157  1.39054  0  0  0  0  0  0  0  0  0 
1699366627.992588000  1.12131  -0.560681  1.13724  0  0  0.0681985  1.25012  -0.0798497  0.342507  0  0  0  -0.583953  0.508032  1.38042  0  0  0  0  0  0  0  0  0 
1699366627.997588000  1.12755  -0.561074  1.13897  0  0  0.0678604  1.24718  -0.0773365  0.349382  0  0  0  -0.594828  0.497157  1.36954  0  0  0  0  0  0  0  0  0 
1699366628.002589000  1.13378  -0.561454  1.14074  0  0  0.0675171  1.24417  -0.0748794  0.356201  0  0  0  -0.606453  0.485532  1.35792  0  0  0  0  0  0  0  0  0 
1699366628.007589000  1.14  -0.561823  1.14253  0  0  0.0671689  1.24111  -0.0724824  0.36296  0  0  0  -0.618828  0.473157  1.34554  0  0  0  0  0  0  0  0  0 
1699366628.012602000  1.14619  -0.562179  1.14437  0  0  0.0668158  1.23798  -0.0701491  0.369655  0  0  0  -0.631953  0.460032  1.33242  0  0  0  0  0  0  0  0  0 
