ts fx fy fz tx ty tz exfx exfy exfz extx exty extz xd yd zd rolld pitchd yawd vxd vyd vzd wxd wyd wzd axd ayd azd e_x e_y e_z e_vx e_vy e_vz e_rx e_ry e_rz e_wx e_wy e_wz
1699365549.121060000  0  0  10.887  0.033663  -0.024211  0.00599061  nan  nan  nan  nan  nan  nan  0  0  1  -0.00880087  -0.0118829  0.00010458  0  0  0  0  0  0  0  0  0  0.00651248  -0.00719151  -0.00265862  -9.73302e-05  0.00533643  0.00824669  -0.00549014  0.00225402  -0.00632956  -0.0168168  0.0276851  -0.0115869 
1699365549.125103000  0  0  10.9306  0.0462811  -0.0289532  0.00555925  nan  nan  nan  nan  nan  nan  0  0  1  -0.00852165  -0.0116954  9.96644e-05  0  0  0  0  0  0  0  0  0  0.006511  -0.00717013  -0.0026647  -0.000264132  0.00558527  0.00461803  -0.00606107  0.00228547  -0.00631838  -0.0368003  0.0368802  -0.00630685 
1699365549.129106000  0  0  10.9587  0.0372465  -0.00661335  0.00569156  nan  nan  nan  nan  nan  nan  0  0  1  -0.00841335  -0.0116579  9.80824e-05  0  0  0  0  0  0  0  0  0  0.00651036  -0.0071493  -0.00266535  -0.000271897  0.00564426  0.0022802  -0.00611753  0.0019667  -0.00635248  -0.0182117  -0.00486696  -0.00761965 
1699365549.135102000  0  0  10.8939  0.0338548  -0.00663272  0.00503385  nan  nan  nan  nan  nan  nan  0  0  1  -0.00811926  -0.0116947  9.4952e-05  0  0  0  0  0  0  0  0  0  0.00654042  -0.00716339  -0.00261819  -0.000378233  0.00609209  0.00758149  -0.00644055  0.00194846  -0.00631684  -0.00845647  -0.00466043  0.000245224 
1699365549.140094000  0  0  10.9237  0.0443801  -0.0161675  0.00443482  nan  nan  nan  nan  nan  nan  0  0  1  -0.00819917  -0.0116839  9.57982e-05  0  0  0  0  0  0  0  0  0  0.00658116  -0.00719014  -0.00264248  -0.000443074  0.00602764  0.00514619  -0.00665999  0.00214991  -0.00624311  -0.0274883  0.0125559  0.00699581 
1699365549.144114000  0  0  10.955  0.0294681  0.0108354  0.00445275  nan  nan  nan  nan  nan  nan  0  0  1  -0.00820891  -0.0117385  9.63604e-05  0  0  0  0  0  0  0  0  0  0.00658152  -0.00716866  -0.00264247  -0.000336766  0.0059396  0.00254224  -0.00646711  0.00174253  -0.00621539  0.000561306  -0.037702  0.00649454 
1699365549.150032000  0  0  10.9173  0.024858  0.0098572  0.00413218  nan  nan  nan  nan  nan  nan  0  0  1  -0.00809291  -0.0116832  9.45506e-05  0  0  0  0  0  0  0  0  0  0.00660884  -0.0071841  -0.00261775  -0.000513839  0.00614896  0.00563007  -0.00649052  0.00149354  -0.00613082  0.00999677  -0.033455  0.00965594 
1699365549.155081000  0  0  10.9486  0.0412064  0.00558547  0.00361845  nan  nan  nan  nan  nan  nan  0  0  1  -0.0079203  -0.0111592  8.83844e-05  0  0  0  0  0  0  0  0  0  0.00660292  -0.00715406  -0.00261286  -0.00109739  0.00626389  0.00300377  -0.00695726  0.000981963  -0.0060207  -0.0184061  -0.020205  0.0149763 
1699365549.159108000  0  0  10.9656  0.0232181  0.0295715  0.00462501  nan  nan  nan  nan  nan  nan  0  0  1  -0.00813233  -0.0113005  9.18997e-05  0  0  0  0  0  0  0  0  0  0.00662435  -0.00718498  -0.00263727  -0.00095173  0.00605933  0.00163874  -0.00650894  0.000572564  -0.0060926  0.013446  -0.0644107  0.0031134 
1699365549.165081000  0  0  10.9239  0.0253663  0.0225122  0.00498814  nan  nan  nan  nan  nan  nan  0  0  1  -0.00800819  -0.0113856  9.11782e-05  0  0  0  0  0  0  0  0  0  0.00665554  -0.00719924  -0.00263138  -0.000970149  0.00627936  0.00510153  -0.00658582  0.0003792  -0.00611694  0.00985693  -0.048513  -0.0011823 
1699365549.169086000  0  0  10.9353  0.032247  0.0211659  0.00491961  nan  nan  nan  nan  nan  nan  0  0  1  -0.00776622  -0.01104  8.5739e-05  0  0  0  0  0  0  0  0  0  0.00664976  -0.00717405  -0.00262275  -0.00136289  0.00650717  0.00413134  -0.00692388  -6.50965e-05  -0.0061038  -0.00079426  -0.0417329  -0.000457106 
1699365549.175081000  0  0  10.947  0.00533793  0.0527153  0.0071121  nan  nan  nan  nan  nan  nan  0  0  1  -0.00796918  -0.0107667  8.58023e-05  0  0  0  0  0  0  0  0  0  0.00665635  -0.00718197  -0.00262993  -0.00169552  0.00626778  0.00317031  -0.00618835  -0.00117974  -0.00638753  0.046257  -0.094577  -0.025026 
1699365549.180085000  0  0  10.9267  0.0197806  0.0323612  0.00649635  nan  nan  nan  nan  nan  nan  0  0  1  -0.00759586  -0.0107853  8.19234e-05  0  0  0  0  0  0  0  0  0  0.00665016  -0.00714834  -0.00259909  -0.00168352  0.00666417  0.00479018  -0.0065868  -0.001231  -0.00642069  0.0210375  -0.0533972  -0.0169975 
1699365549.185080000  0  0  10.9511  0.0173042  0.023073  0.00594191  nan  nan  nan  nan  nan  nan  0  0  1  -0.00762702  -0.0105661  8.05881e-05  0  0  0  0  0  0  0  0  0  0.00666659  -0.00716852  -0.00264229  -0.00195744  0.00665047  0.00284485  -0.00647658  -0.00139581  -0.00640851  0.0249762  -0.0333045  -0.0101888 
1699365549.190041000  0  0  10.9637  -0.000959288  0.0373153  0.00629451  nan  nan  nan  nan  nan  nan  0  0  1  -0.00749985  -0.0103738  7.7802e-05  0  0  0  0  0  0  0  0  0  0.00665714  -0.00713677  -0.0026349  -0.00215601  0.00672416  0.00178206  -0.00607546  -0.0020215  -0.0064974  0.0578128  -0.0560328  -0.0137074 
1699365549.194091000  0  0  10.9522  0.0167671  0.0205807  0.00557093  nan  nan  nan  nan  nan  nan  0  0  1  -0.00751763  -0.0106668  8.01889e-05  0  0  0  0  0  0  0  0  0  0.00666816  -0.00716062  -0.00264574  -0.00183724  0.00676518  0.00276799  -0.00622507  -0.00164054  -0.00645771  0.0237365  -0.0260684  -0.00505956 
1699365549.200091000  0  0  10.945  0.018805  -0.000682953  0.00530303  nan  nan  nan  nan  nan  nan  0  0  1  -0.00754238  -0.0104099  7.85155e-05  0  0  0  0  0  0  0  0  0  0.0066792  -0.00717102  -0.00266277  -0.00218273  0.00676415  0.00340095  -0.00615209  -0.00148958  -0.0064225  0.0189893  0.0150701  -0.00206282 
1699365549.205086000  0  0  10.9657  -0.00104789  0.0127672  0.00564866  nan  nan  nan  nan  nan  nan  0  0  1  -0.00801848  -0.01058  8.48357e-05  0  0  0  0  0  0  0  0  0  0.00668866  -0.00720255  -0.00268592  -0.0019725  0.0062369  0.00172961  -0.00525971  -0.00150933  -0.00648537  0.0504851  -0.0116486  -0.00575457 
1699365549.211039000  0  0  10.965  0.0116661  -0.00371381  0.00507165  nan  nan  nan  nan  nan  nan  0  0  1  -0.00770067  -0.0106589  8.20809e-05  0  0  0  0  0  0  0  0  0  0.00667899  -0.00716378  -0.00267264  -0.0018558  0.00653858  0.00176366  -0.00556927  -0.00112421  -0.00642926  0.0279052  0.0177704  0.000897012 
1699365549.216086000  0  0  10.9583  0.00828853  -0.0254299  0.00532179  nan  nan  nan  nan  nan  nan  0  0  1  -0.00812293  -0.0106435  8.64565e-05  0  0  0  0  0  0  0  0  0  0.00668646  -0.0071982  -0.00268422  -0.00189905  0.0061067  0.00234693  -0.00510662  -0.000499788  -0.00643063  0.0304038  0.0554579  -0.00221604 
1699365549.221084000  0  0  10.9717  -0.00214223  -0.0183596  0.00543851  nan  nan  nan  nan  nan  nan  0  0  1  -0.00827112  -0.0111646  9.23438e-05  0  0  0  0  0  0  0  0  0  0.00671447  -0.00723054  -0.00270478  -0.00131026  0.00598602  0.00128566  -0.00463758  8.60955e-05  -0.00645521  0.0469502  0.0359271  -0.00342927 
1699365549.226124000  0  0  10.9459  0.0305012  -0.0454417  0.0043979  nan  nan  nan  nan  nan  nan  0  0  1  -0.00790497  -0.0111541  8.81724e-05  0  0  0  0  0  0  0  0  0  0.00670733  -0.00719822  -0.00267873  -0.00133917  0.00638311  0.00337298  -0.00544116  0.000811763  -0.00634527  -0.0109437  0.0834152  0.0084789 
1699365549.231097000  0  0  10.9333  0.0273233  -0.0430888  0.00473444  nan  nan  nan  nan  nan  nan  0  -0  1  -0.00765337  -0.0109288  8.36422e-05  6e-07  -6e-07  6e-07  0  0  0  0  0  0  0.00669815  -0.00716611  -0.00265713  -0.00160798  0.00662832  0.00436879  -0.00568214  0.000950172  -0.00634309  -0.00237097  0.077436  0.00425048 
1699365549.235085000  0  0  10.9538  0.00204485  -0.0214087  0.00530007  nan  nan  nan  nan  nan  nan  0  -0  1  -0.00803835  -0.011257  9.04874e-05  5e-06  -5e-06  5e-06  0  0  0  0  0  0  0.00672813  -0.00720722  -0.002679  -0.00125038  0.0062339  0.00272023  -0.00485338  0.00113534  -0.00639796  0.0405614  0.0323723  -0.00227129 
1699365549.241081000  0  0  10.94  0.0384777  -0.0441672  0.00448419  nan  nan  nan  nan  nan  nan  1e-07  -1e-07  1  -0.00806143  -0.0115826  9.33721e-05  1.69e-05  -1.69e-05  1.69e-05  0  0  0  0  0  0  0.0067607  -0.00722767  -0.00266791  -0.000944065  0.00626361  0.00384165  -0.00539346  0.002115  -0.0063124  -0.0273356  0.0688764  0.00707162 
1699365549.245084000  0  0  10.9141  0.0346303  -0.0344684  0.00501522  nan  nan  nan  nan  nan  nan  2e-07  -2e-07  1  -0.0076944  -0.0113496  8.74285e-05  4e-05  -4e-05  4e-05  0  0  0  0  0  0  0.00675484  -0.00720076  -0.00263817  -0.00124696  0.00667201  0.00593676  -0.00577125  0.00198107  -0.00633954  -0.0161651  0.050711  0.00070515 
1699365549.251078000  0  0  10.9391  0.0163329  -0.0105234  0.0061315  nan  nan  nan  nan  nan  nan  5e-07  -5e-07  1  -0.00758307  -0.0112323  8.54751e-05  7.81e-05  -7.81e-05  7.81e-05  0  0  0  0  0  0  0.0067762  -0.00719206  -0.00264852  -0.00140556  0.00676658  0.00387365  -0.00552119  0.00159367  -0.00649362  0.0181292  0.00638501  -0.0117075 
1699365549.256085000  0  0  10.9307  0.0462136  -0.0210549  0.00546126  nan  nan  nan  nan  nan  nan  1e-06  -1e-06  1  -0.00778095  -0.0116003  9.07614e-05  0.000135  -0.000135  0.000135  0  0  0  0  0  0  0.00681701  -0.00722295  -0.0026391  -0.00105968  0.00660206  0.00455625  -0.0059126  0.0022079  -0.00646636  -0.0380313  0.0217972  -0.00360209 
1699365549.261084000  0  0  10.9014  0.0307423  0.000740663  0.00590882  nan  nan  nan  nan  nan  nan  1.9e-06  -1.9e-06  1  -0.00722011  -0.0109242  7.98741e-05  0.0002144  -0.0002144  0.0002144  0  0  0  0  0  0  0.00680584  -0.00718672  -0.00259655  -0.00189158  0.00722597  0.00689779  -0.00632335  0.00128431  -0.0065335  -0.00330975  -0.013297  -0.00852519 
1699365549.266080000  0  0  10.9575  0.0237996  0.0211579  0.00549729  nan  nan  nan  nan  nan  nan  3.2e-06  -3.2e-06  1  -0.00739373  -0.0111487  8.41306e-05  0.00032  -0.00032  0.00032  0  0  0  0  0  0  0.00682982  -0.00721033  -0.00262524  -0.00160342  0.00702215  0.0022869  -0.00603603  0.00103554  -0.00651351  0.00793222  -0.0518427  -0.00358101 
1699365549.271079000  0  0  10.9405  0.0452269  0.013512  0.00441833  nan  nan  nan  nan  nan  nan  5.1e-06  -5.1e-06  1.00001  -0.0074825  -0.0110503  8.53839e-05  0.0004556  -0.0004556  0.0004556  0  0  0  0  0  0  0.0068469  -0.00723705  -0.00262276  -0.00178202  0.00698756  0.00369456  -0.00642274  0.000881695  -0.00638716  -0.0313646  -0.0351357  0.00864247 
1699365549.276085000  0  0  10.9093  0.0292602  0.0273944  0.00507404  nan  nan  nan  nan  nan  nan  7.8e-06  -7.8e-06  1.00001  -0.00682721  -0.0101698  7.36309e-05  0.000625  -0.000625  0.000625  0  0  0  0  0  0  0.00683088  -0.00719844  -0.0025783  -0.00285212  0.00772174  0.00618672  -0.00684505  -0.000341037  -0.00642239  0.0044541  -0.0516513  0.000798423 
1699365549.281080000  0  0  10.964  0.028691  0.041008  0.00484911  nan  nan  nan  nan  nan  nan  1.14e-05  -1.14e-05  1.00001  -0.00683832  -0.0102092  7.59137e-05  0.0008319  -0.0008319  0.0008319  0  0  0  0  0  0  0.00685517  -0.00722671  -0.00263485  -0.00279625  0.0077296  0.00174979  -0.00683068  -0.00076998  -0.0063783  0.00546022  -0.0749322  0.00316914 
1699365549.286078000  0  0  10.9488  0.047492  0.0382006  0.00387013  nan  nan  nan  nan  nan  nan  1.62e-05  -1.62e-05  1.00002  -0.00657845  -0.00977262  7.28886e-05  0.00108  -0.00108  0.00108  0  0  0  0  0  0  0.00683996  -0.00718936  -0.00261536  -0.0033107  0.00797414  0.00296251  -0.00742764  -0.00145757  -0.00623894  -0.0266497  -0.0629916  0.0140128 
1699365549.291078000  0  0  10.918  0.0255153  0.0463704  0.00495887  nan  nan  nan  nan  nan  nan  2.23e-05  -2.23e-05  1.00002  -0.00625202  -0.00913141  6.89897e-05  0.0013731  -0.0013731  0.0013731  0  0  0  0  0  0  0.00683444  -0.00719827  -0.00258493  -0.00410976  0.00841235  0.00545966  -0.00741272  -0.00249129  -0.00631829  0.0171665  -0.0698209  0.00119707 
1699365549.296070000  0  0  11.0033  0.0152466  0.048966  0.00526059  nan  nan  nan  nan  nan  nan  3e-05  -3e-05  1.00003  -0.00613718  -0.00892719  7.07877e-05  0.001715  -0.001715  0.001715  0  0  0  0  0  0  0.00683436  -0.00720983  -0.00263554  -0.00427264  0.00851915  -0.00155091  -0.00724098  -0.00306002  -0.00635469  0.0361239  -0.0697799  -0.00221044 
1699365549.301079000  0  0  10.9879  0.0361294  0.0479196  0.00498882  nan  nan  nan  nan  nan  nan  3.96e-05  -3.96e-05  1.00004  -0.00573792  -0.00835339  6.90311e-05  0.0021094  -0.0021094  0.0021094  0  0  0  0  0  0  0.00681113  -0.00716756  -0.00262169  -0.00493676  0.00892307  -0.000309624  -0.0078726  -0.00387669  -0.00632388  0.000169201  -0.0601736  0.000878548 
1699365549.306079000  0  0  10.9297  0.00428899  0.049307  0.00649786  nan  nan  nan  nan  nan  nan  5.12e-05  -5.12e-05  1.00005  -0.00527992  -0.00748964  6.68447e-05  0.00256  -0.00256  0.00256  0  0  0  0  0  0  0.00679539  -0.00717052  -0.00260051  -0.00600479  0.00952288  0.00448923  -0.00770429  -0.00497132  -0.00650224  0.0623015  -0.0528779  -0.0162008 
1699365549.311078000  0  0  11.0275  0.000936716  0.0446982  0.00695381  nan  nan  nan  nan  nan  nan  6.53e-05  -6.53e-05  1.00007  -0.00462954  -0.00709609  6.76516e-05  0.0030706  -0.0030706  0.0030706  0  0  0  0  0  0  0.00676819  -0.00712236  -0.00266133  -0.00634509  0.0101553  -0.0035481  -0.00789827  -0.00547364  -0.00664111  0.0707907  -0.039039  -0.0205114 
1699365549.316084000  0  0  10.9971  0.0394784  0.0390369  0.00546902  nan  nan  nan  nan  nan  nan  8.2e-05  -8.2e-05  1.00008  -0.00462795  -0.0065953  7.42227e-05  0.0036447  -0.003645  0.003645  0  0  0  0  0  0  0.00675105  -0.0071304  -0.00265749  -0.00694284  0.0101908  -0.00102898  -0.00842993  -0.0059835  -0.00655279  -0.00140151  -0.0230255  -0.00283489 
1699365549.321078000  0  0  10.9318  0.00947743  0.0407503  0.0051423  nan  nan  nan  nan  nan  nan  0.0001018  -0.0001018  1.0001  -0.00434439  -0.00574256  7.9248e-05  0.0042817  -0.0042869  0.0042869  0  0  0  0  0  0  0.00674078  -0.00714805  -0.00261227  -0.00800364  0.0106079  0.00430939  -0.00809706  -0.00695522  -0.00652615  0.0555381  -0.0175127  0.000982808 
1699365549.326100000  0  0  11.0611  0.011865  0.0238103  0.00492614  nan  nan  nan  nan  nan  nan  0.0001249  -0.000125  1.00012  -0.00364457  -0.00564445  8.72716e-05  0.004978  -0.005  0.005  0  0  0  0  0  0  0.00670684  -0.00709436  -0.0026826  -0.00796627  0.0112864  -0.00632852  -0.00849318  -0.00679807  -0.00650488  0.0544073  0.0149216  0.00347211 
1699365549.331101000  0  0  11.0626  0.0325458  0.0173979  0.00451563  nan  nan  nan  nan  nan  nan  0.0001517  -0.0001519  1.00015  -0.00343867  -0.00510799  9.85647e-05  0.0057298  -0.0057881  0.0057881  0  0  0  0  0  0  0.00669079  -0.00710051  -0.00269767  -0.00858903  0.0115525  -0.00642925  -0.00887897  -0.00713038  -0.00643779  0.0165949  0.0308037  0.00793252 
1699365549.335105000  0  0  10.9429  0.0232702  0.0164355  0.0055987  nan  nan  nan  nan  nan  nan  0.0001823  -0.000183  1.00018  -0.00231441  -0.00389571  0.000106616  0.0065333  -0.006655  0.006655  0  0  0  0  0  0  0.0066435  -0.0070431  -0.00263722  -0.010026  0.0128376  0.00340259  -0.00966726  -0.0081105  -0.00654997  0.0423984  0.0417457  -0.00448413 
1699365549.341101000  0  0  11.081  0.018095  0.00127202  0.00612127  nan  nan  nan  nan  nan  nan  0.0002171  -0.0002186  1.00022  -0.00170883  -0.00373569  0.000122984  0.0073848  -0.0076044  0.0076044  0  0  0  0  0  0  0.00660958  -0.0070171  -0.00274301  -0.0100879  0.01349  -0.00788951  -0.00985487  -0.00769796  -0.00665219  0.0544748  0.0682772  -0.00999403 
1699365549.346098000  0  0  11.0729  0.0408604  -0.00517138  0.00515982  nan  nan  nan  nan  nan  nan  0.0002562  -0.0002592  1.00026  -0.00121032  -0.00331158  0.000142208  0.0082805  -0.00864  0.00864  0  0  0  0  0  0  0.00657518  -0.00699123  -0.00277998  -0.0105366  0.0140474  -0.0071479  -0.0105732  -0.00760715  -0.00659276  0.0155524  0.0803285  0.00142994 
1699365549.351099000  0  0  10.9805  0.0400852  -0.00763876  0.0054355  nan  nan  nan  nan  nan  nan  0.0003  -0.0003052  1.00031  0.000381357  -0.00205066  0.000162018  0.0092167  -0.0097656  0.0097656  0  0  0  0  0  0  0.00651453  -0.00691244  -0.0027425  -0.0119746  0.0158267  0.000457599  -0.0119266  -0.00833117  -0.00664415  0.0295548  0.0919243  -0.00150229 
1699365549.356092000  0  0  11.1132  0.041879  -0.0163025  0.00596136  nan  nan  nan  nan  nan  nan  0.0003485  -0.000357  1.00036  0.00101334  -0.00200383  0.000188369  0.0101897  -0.010985  0.0109838  0  0  0  0  0  0  0.00649288  -0.00688749  -0.00285357  -0.0119543  0.0165574  -0.0103739  -0.0124197  -0.00776243  -0.00673736  0.030503  0.104019  -0.00714341 
1699365549.361088000  0  0  11.0985  0.0639186  -0.0129139  0.00579578  nan  nan  nan  nan  nan  nan  0.0004019  -0.0004152  1.00042  0.002295  -0.00129654  0.000218424  0.0111957  -0.0123019  0.0122922  0  0  0  0  0  0  0.00643176  -0.00680163  -0.00288112  -0.0126944  0.0179456  -0.0091078  -0.0138882  -0.00801714  -0.00677419  -6.53633e-05  0.0995855  -0.00470542 
1699365549.366100000  0  0  11.0021  0.0533848  -0.0125878  0.00611582  nan  nan  nan  nan  nan  nan  0.0004605  -0.0004802  1.00048  0.0037214  -0.000209389  0.000255221  0.0122309  -0.01372  0.0136869  0  0  0  0  0  0  0.00639117  -0.00675185  -0.00287003  -0.0139478  0.0195541  -0.00111324  -0.0150103  -0.00852734  -0.00686831  0.0313248  0.103627  -0.00776464 
1699365549.371087000  0  0  11.0949  0.0570797  -0.00858022  0.00580075  nan  nan  nan  nan  nan  nan  0.0005243  -0.0005526  1.00055  0.00475032  0.000257857  0.000295725  0.0132916  -0.0152431  0.0151643  0  0  0  0  0  0  0.00635136  -0.00669758  -0.0029644  -0.0144338  0.0207404  -0.0086635  -0.0158992  -0.00853489  -0.00689805  0.0321136  0.0956814  -0.0035289 
1699365549.376099000  0  0  11.1075  0.0734642  0.00354245  0.00508645  nan  nan  nan  nan  nan  nan  0.0005934  -0.0006328  1.00063  0.00614904  0.000814689  0.00034201  0.0143741  -0.016875  0.0167206  0  0  0  0  0  0  0.00628074  -0.00659208  -0.00301151  -0.0149654  0.0222391  -0.00963129  -0.0173641  -0.00886716  -0.00686101  0.0128217  0.074493  0.00502947 
1699365549.381104000  0  0  11.0321  0.0609526  -0.000726724  0.00531747  nan  nan  nan  nan  nan  nan  0.000668  -0.0007215  1.00072  0.00778148  0.00193722  0.000398775  0.0154745  -0.0186194  0.018352  0  0  0  0  0  0  0.00622856  -0.00652338  -0.00301656  -0.0162201  0.0240359  -0.00334966  -0.0185772  -0.00944001  -0.00690922  0.0490046  0.0883015  0.00262382 
1699365549.385103000  0  0  11.1308  0.0619928  0.00779773  0.00596806  nan  nan  nan  nan  nan  nan  0.0007482  -0.0008192  1.00082  0.00909184  0.00277387  0.00046012  0.0165892  -0.02048  0.0200548  0  0  0  0  0  0  0.00614719  -0.00640817  -0.00312225  -0.0170969  0.0254858  -0.011368  -0.0196032  -0.0100414  -0.00703174  0.0563636  0.0767856  -0.00428336 
1699365549.391101000  0  0  11.1977  0.0658801  0.0283266  0.00626656  nan  nan  nan  nan  nan  nan  0.0008339  -0.0009265  1.00092  0.0100541  0.0031359  0.00052223  0.0177144  -0.0224606  0.0218253  0  0  0  0  0  0  0.0061039  -0.00633872  -0.00321049  -0.0174732  0.0265963  -0.0167641  -0.0202996  -0.0103917  -0.00713606  0.0549966  0.0389502  -0.00697134 
1699365549.396092000  0  0  11.1043  0.051063  0.0196108  0.0065135  nan  nan  nan  nan  nan  nan  0.0009253  -0.001044  1.00103  0.0118907  0.00408138  0.000599833  0.0188464  -0.024565  0.0236597  0  0  0  0  0  0  0.00605042  -0.00626164  -0.003227  -0.0184909  0.0285866  -0.00895604  -0.0214361  -0.0108773  -0.00726618  0.0950857  0.0608492  -0.00875697 
1699365549.401102000  0  0  11.208  0.055604  0.0278568  0.00639224  nan  nan  nan  nan  nan  nan  0.0010224  -0.0011724  1.00116  0.0134982  0.00504351  0.000684982  0.0199813  -0.0267969  0.0255542  0  0  0  0  0  0  0.00595553  -0.00611657  -0.00335321  -0.0195283  0.0304027  -0.0173387  -0.0225325  -0.0116299  -0.00736219  0.0960912  0.0512812  -0.00628105 
1699365549.406099000  0  0  11.2148  0.0568234  0.0427093  0.00692522  nan  nan  nan  nan  nan  nan  0.0011252  -0.0013122  1.00129  0.0146859  0.005519  0.000768657  0.0211155  -0.02916  0.0275051  0  0  0  0  0  0  0.00590231  -0.00603984  -0.00343925  -0.0200091  0.0317221  -0.0177302  -0.0232397  -0.0120811  -0.00752147  0.100159  0.025728  -0.0113505 
1699365549.411098000  0  0  11.1576  0.0481025  0.0319241  0.00642558  nan  nan  nan  nan  nan  nan  0.0012336  -0.0014642  1.00143  0.0171984  0.00692477  0.000882706  0.0222451  -0.0316581  0.0295087  0  0  0  0  0  0  0.00579553  -0.00587208  -0.00347253  -0.0214847  0.0343704  -0.0128978  -0.0248485  -0.0130194  -0.00759123  0.132401  0.0559301  -0.00440746 
1699365549.415084000  0  0  11.2523  0.0499625  0.0290644  0.00570478  nan  nan  nan  nan  nan  nan  0.0013476  -0.001629  1.00158  0.0190591  0.00766014  0.000991012  0.0233666  -0.034295  0.0315611  0  0  0  0  0  0  0.00568768  -0.00569998  -0.00361374  -0.0222424  0.0364948  -0.0204943  -0.0260927  -0.0134351  -0.00760252  0.140128  0.0654744  0.0047154 
1699365549.421102000  0  0  11.2776  0.0474445  0.0362012  0.00586847  nan  nan  nan  nan  nan  nan  0.0014672  -0.0018074  1.00175  0.0197933  0.00761197  0.00108258  0.024476  -0.0370744  0.0336587  0  0  0  0  0  0  0.00566706  -0.00567692  -0.0037457  -0.0221607  0.0374163  -0.0223085  -0.0259887  -0.0131422  -0.00764429  0.144208  0.0485054  0.0030871 
1699365549.426099000  0  0  11.2328  0.0350137  0.0145066  0.00607715  nan  nan  nan  nan  nan  nan  0.0015923  -0.002  1.00192  0.0225082  0.00868869  0.0012201  0.0255696  -0.0399999  0.0357977  0  0  0  0  0  0  0.00555232  -0.00548087  -0.00381099  -0.0232192  0.0402695  -0.0184157  -0.0275403  -0.0134896  -0.00775931  0.183343  0.0950915  0.0016287 
1699365549.431099000  0  0  11.3255  0.0362278  0.0104947  0.00613046  nan  nan  nan  nan  nan  nan  0.0017229  -0.0022076  1.00211  0.0237661  0.00903076  0.00133746  0.0266438  -0.0430726  0.0379743  0  0  0  0  0  0  0.00546774  -0.00537513  -0.0039711  -0.0235567  0.0418478  -0.0257819  -0.0278985  -0.0132267  -0.00783291  0.18421  0.100696  0.00169843 
1699365549.436094000  0  0  11.3286  0.0396257  0.0250193  0.006057  nan  nan  nan  nan  nan  nan  0.0018587  -0.002431  1.0023  0.0258928  0.00942473  0.00147098  0.0276947  -0.0462888  0.0401849  0  0  0  0  0  0  0.00535258  -0.00516362  -0.00408238  -0.0238077  0.0440624  -0.0257924  -0.0290599  -0.0134552  -0.00791579  0.1881  0.0737495  0.00344545 
1699365549.441101000  0  0  11.2961  0.0334843  -0.00714479  0.00581223  nan  nan  nan  nan  nan  nan  0.0019998  -0.0026707  1.00251  0.0281018  0.0101002  0.0016209  0.0287185  -0.049645  0.0424256  0  0  0  0  0  0  0.00526167  -0.00503586  -0.00418927  -0.0244283  0.0464558  -0.0228244  -0.030058  -0.0130116  -0.00795846  0.209565  0.133997  0.00693182 
1699365549.446098000  0  0  11.3999  0.0358341  -0.00627995  0.00658885  nan  nan  nan  nan  nan  nan  0.0021459  -0.0029276  1.00273  0.0296695  0.0103503  0.00176027  0.0297117  -0.0531372  0.0446927  0  0  0  0  0  0  0.00515999  -0.00487706  -0.00436719  -0.0246442  0.0484108  -0.031064  -0.0305773  -0.0126166  -0.00812221  0.209643  0.128633  -0.00113854 
1699365549.451099000  0  0  11.3817  0.0396637  0.00703684  0.00701105  nan  nan  nan  nan  nan  nan  0.0022968  -0.0032023  1.00295  0.0324869  0.0108128  0.00192669  0.0306703  -0.0567619  0.0469824  0  0  0  0  0  0  0.00503753  -0.00462779  -0.00447963  -0.0249487  0.0513592  -0.0292831  -0.0322458  -0.0127696  -0.00830889  0.217334  0.103407  -0.00454923 
1699365549.456093000  0  0  11.3217  0.0387517  -0.0229903  0.00708727  nan  nan  nan  nan  nan  nan  0.0024525  -0.0034955  1.0032  0.0350101  0.0114292  0.00210379  0.0315907  -0.0605152  0.049291  0  0  0  0  0  0  0.00491743  -0.00444792  -0.00456745  -0.0253978  0.0539144  -0.0240421  -0.033453  -0.0121776  -0.00843845  0.230264  0.158014  -0.00420632 
1699365549.460093000  0  0  11.3905  0.0468116  -0.0168662  0.00703784  nan  nan  nan  nan  nan  nan  0.0026127  -0.0038077  1.00345  0.0377563  0.0120649  0.00229373  0.032469  -0.0643934  0.0516148  0  0  0  0  0  0  0.00478192  -0.00416524  -0.00475765  -0.0260049  0.0570276  -0.0293334  -0.0352796  -0.0123105  -0.00859332  0.230949  0.146989  -0.00203983 
1699365549.466085000  0  0  11.3512  0.0481447  0.00487817  0.0066706  nan  nan  nan  nan  nan  nan  0.0027771  -0.0041396  1.00371  0.0400987  0.0122554  0.00247027  0.0333016  -0.0683927  0.0539499  0  0  0  0  0  0  0.00467073  -0.00395851  -0.0048304  -0.0259597  0.0593558  -0.0258476  -0.0360981  -0.0121495  -0.00867632  0.235813  0.102019  0.00338079 
1699365549.471100000  0  0  11.298  0.0616066  -0.0169822  0.00570703  nan  nan  nan  nan  nan  nan  0.0029456  -0.0044918  1.00399  0.0425736  0.0126619  0.00266487  0.0340847  -0.0725095  0.0562928  0  0  0  0  0  0  0.00455391  -0.00377868  -0.00488612  -0.0261546  0.0618237  -0.021241  -0.0374846  -0.0115351  -0.0086777  0.221645  0.140087  0.0154392 
1699365549.476092000  0  0  11.372  0.0616273  -0.00368545  0.00629411  nan  nan  nan  nan  nan  nan  0.0031179  -0.0048649  1.00427  0.0453535  0.0130773  0.00287219  0.0348146  -0.0767398  0.0586395  0  0  0  0  0  0  0.00442139  -0.00346332  -0.00504705  -0.0265101  0.0649832  -0.0270063  -0.0390188  -0.0115639  -0.00884341  0.235719  0.113759  0.00975772 
1699365549.481102000  0  0  11.3449  0.0655952  0.0133881  0.00686952  nan  nan  nan  nan  nan  nan  0.0032936  -0.0052594  1.00457  0.047863  0.0132635  0.0030733  0.0354874  -0.0810801  0.0609863  0  0  0  0  0  0  0.00431337  -0.00324499  -0.00509999  -0.0264849  0.0675226  -0.0245659  -0.0402389  -0.0115009  -0.00901821  0.239008  0.0790325  0.00431312 
1699365549.485102000  0  0  11.3144  0.0835474  -0.00177654  0.00675073  nan  nan  nan  nan  nan  nan  0.0034726  -0.0056759  1.00488  0.0516291  0.01389  0.00332134  0.0360995  -0.0855265  0.0633296  0  0  0  0  0  0  0.00416957  -0.00288364  -0.0052354  -0.0269368  0.0712917  -0.021678  -0.0431277  -0.0115433  -0.00918553  0.22968  0.109752  0.00747119 
1699365549.491098000  0  0  11.3485  0.0860227  0.0130345  0.00738615  nan  nan  nan  nan  nan  nan  0.0036545  -0.0061148  1.00521  0.0539887  0.0139544  0.00352959  0.0366478  -0.0900752  0.0656655  0  0  0  0  0  0  0.00405766  -0.00261861  -0.0053069  -0.026845  0.0738706  -0.0242809  -0.0440667  -0.0112921  -0.00939248  0.233369  0.0778188  0.00159798 
1699365549.496092000  0  0  11.341  0.0865112  0.0333707  0.00781449  nan  nan  nan  nan  nan  nan  0.003839  -0.0065768  1.00554  0.0566212  0.0138794  0.00374028  0.0371337  -0.0947227  0.0679903  0  0  0  0  0  0  0.00394463  -0.00234606  -0.00537686  -0.0265129  0.0765367  -0.0234343  -0.0453709  -0.0112826  -0.00959705  0.24439  0.0370581  -0.0017106 
1699365549.501104000  0  0  11.3217  0.103179  0.0138297  0.00712705  nan  nan  nan  nan  nan  nan  0.0040258  -0.0070622  1.00589  0.0600038  0.0141017  0.00398514  0.0375613  -0.099465  0.0703002  0  0  0  0  0  0  0.00381194  -0.00195751  -0.00548139  -0.0264999  0.0798062  -0.0215097  -0.0476526  -0.0109514  -0.00972449  0.232045  0.0730934  0.00815678 
1699365549.506100000  0  0  11.3669  0.0831219  0.0330269  0.00730192  nan  nan  nan  nan  nan  nan  0.0042145  -0.0075716  1.00624  0.0627629  0.0143719  0.00423178  0.037934  -0.104298  0.0725916  0  0  0  0  0  0  0.00367753  -0.00163446  -0.00557053  -0.0266456  0.0828705  -0.0249776  -0.0487059  -0.0112602  -0.00989109  0.28185  0.0375397  0.00763686 
1699365549.511099000  0  0  11.3784  0.0886453  0.0324429  0.00654861  nan  nan  nan  nan  nan  nan  0.004405  -0.0081054  1.00661  0.0660288  0.0143061  0.00447145  0.0382558  -0.109219  0.0748605  0  0  0  0  0  0  0.00354671  -0.00121452  -0.00569641  -0.0263257  0.0861465  -0.0255597  -0.0504599  -0.0110854  -0.00997289  0.286941  0.0371001  0.0178712 
1699365549.516092000  0  0  11.3483  0.102436  0.0122313  0.00503889  nan  nan  nan  nan  nan  nan  0.004597  -0.0086639  1.00699  0.0688912  0.0141045  0.00470169  0.0385303  -0.114224  0.0771034  0  0  0  0  0  0  0.00343884  -0.000873391  -0.0057601  -0.0258172  0.0887762  -0.0228034  -0.0520364  -0.0103092  -0.00987103  0.273863  0.070382  0.0357242 
1699365549.521084000  0  0  11.3721  0.0853493  0.0182598  0.0051102  nan  nan  nan  nan  nan  nan  0.0047903  -0.0092477  1.00738  0.0717946  0.0142171  0.00496014  0.0387614  -0.119308  0.0793165  0  0  0  0  0  0  0.00330575  -0.000483512  -0.00586566  -0.0257398  0.0917565  -0.0244257  -0.053072  -0.0102505  -0.00991393  0.317564  0.0577847  0.0352618 
1699365549.526086000  0  0  11.4223  0.0851674  0.0148396  0.00593528  nan  nan  nan  nan  nan  nan  0.0049846  -0.0098571  1.00779  0.0747872  0.0136673  0.00517712  0.0389527  -0.124469  0.0814959  0  0  0  0  0  0  0.00318243  -1.93208e-05  -0.00602408  -0.0248866  0.0949237  -0.0281261  -0.0543285  -0.00947579  -0.0100635  0.329487  0.057498  0.026444 
1699365549.531099000  0  0  11.3897  0.0854512  0.00265882  0.00616494  nan  nan  nan  nan  nan  nan  0.0051797  -0.0104925  1.0082  0.0779643  0.0135531  0.00543327  0.039108  -0.129701  0.083638  0  0  0  0  0  0  0.00305313  0.000397081  -0.00610529  -0.0244472  0.0977453  -0.025078  -0.0556937  -0.00888279  -0.0101886  0.341479  0.0764041  0.0248245 
1699365549.536092000  0  0  11.4155  0.0626507  0.00699245  0.00783211  nan  nan  nan  nan  nan  nan  0.0053756  -0.0111543  1.00862  0.0810172  0.0133082  0.00568243  0.0392311  -0.135003  0.0857389  0  0  0  0  0  0  0.00293158  0.000890481  -0.00624106  -0.0239503  0.10074  -0.0267579  -0.0564543  -0.00844944  -0.0105059  0.394078  0.0637499  0.00715781 
1699365549.541102000  0  0  11.4615  0.0560288  0.0019527  0.00848217  nan  nan  nan  nan  nan  nan  0.005572  -0.0118427  1.00906  0.083601  0.0127025  0.00589959  0.0393257  -0.140369  0.087795  0  0  0  0  0  0  0.00281853  0.0013354  -0.00638936  -0.0230378  0.103452  -0.0300913  -0.0568176  -0.00754493  -0.0107657  0.410665  0.0655079  0.00162965 
1699365549.546099000  0  0  11.4264  0.0582096  -0.017447  0.00811753  nan  nan  nan  nan  nan  nan  0.0057688  -0.0125581  1.0095  0.0862455  0.0123198  0.00613944  0.0393956  -0.145797  0.0898026  0  0  0  0  0  0  0.00272144  0.00175443  -0.00648192  -0.0223286  0.105548  -0.0267964  -0.0574135  -0.00651651  -0.0109299  0.411785  0.0948459  0.00783007 
1699365549.551099000  0  0  11.4279  0.0420489  -0.0124109  0.00852416  nan  nan  nan  nan  nan  nan  0.0059659  -0.0133007  1.00995  0.0894648  0.0119991  0.00639555  0.0394444  -0.151282  0.0917577  0  0  0  0  0  0  0.00261083  0.00228745  -0.00660961  -0.0217291  0.108459  -0.0264235  -0.0581188  -0.00596116  -0.0111863  0.450595  0.0796644  0.00531085 
1699365549.556092000  0  0  11.4889  0.026775  -0.0198827  0.00812186  nan  nan  nan  nan  nan  nan  0.0061632  -0.014071  1.01042  0.091433  0.011074  0.00658504  0.0394761  -0.15682  0.0936568  0  0  0  0  0  0  0.00252436  0.002737  -0.00676165  -0.0204788  0.110573  -0.0309775  -0.0574887  -0.00463577  -0.0113179  0.475346  0.0824145  0.0116558 
1699365549.561101000  0  0  11.4429  0.0309234  -0.0324812  0.00701715  nan  nan  nan  nan  nan  nan  0.0063607  -0.014869  1.01089  0.0949408  0.0107267  0.00684726  0.0394942  -0.162409  0.095496  0  0  0  0  0  0  0.0024227  0.00329446  -0.00686962  -0.0198103  0.113321  -0.0266763  -0.0586136  -0.00373153  -0.0113964  0.477398  0.0992925  0.0262492 
1699365549.566099000  0  0  11.4493  0.0158731  -0.0234642  0.00677022  nan  nan  nan  nan  nan  nan  0.0065581  -0.0156951  1.01137  0.0973754  0.010541  0.00711687  0.0395026  -0.168044  0.0972716  0  0  0  0  0  0  0.00232377  0.00377259  -0.00697486  -0.0194141  0.11541  -0.0267541  -0.0583385  -0.00331981  -0.0114705  0.504968  0.0774706  0.0300773 
1699365549.570049000  0  0  11.5209  0.0147237  -0.0237238  0.00666444  nan  nan  nan  nan  nan  nan  0.0067557  -0.0165495  1.01186  0.100638  0.00995895  0.00735953  0.039505  -0.173721  0.0989798  0  0  0  0  0  0  0.00220952  0.00441488  -0.00722572  -0.0185641  0.118929  -0.0319304  -0.0594576  -0.00256133  -0.0116055  0.517562  0.0710118  0.0327492 
1699365549.576078000  0  0  11.4381  0.0233108  -0.0326946  0.00695736  nan  nan  nan  nan  nan  nan  0.0069532  -0.0174324  1.01236  0.103  0.00955046  0.00761287  0.0395052  -0.179436  0.100617  0  0  0  0  0  0  0.00212252  0.00486049  -0.00718822  -0.0178071  0.120002  -0.0248805  -0.0589219  -0.00158555  -0.0116569  0.495459  0.0799763  0.0296015 
1699365549.581101000  0  0  11.4367  0.0134125  -0.0253311  0.00790776  nan  nan  nan  nan  nan  nan  0.0071507  -0.0183439  1.01287  0.105544  0.00926299  0.00788368  0.0395069  -0.185187  0.102179  0  0  0  0  0  0  0.00203512  0.00537327  -0.00729278  -0.0173048  0.122064  -0.0242801  -0.0587272  -0.00114033  -0.0118578  0.513465  0.0611532  0.0197308 
1699365549.586100000  0  0  11.4687  0.0222618  -0.0149497  0.00816284  nan  nan  nan  nan  nan  nan  0.0073483  -0.0192843  1.01338  0.107993  0.00841263  0.00809604  0.0395138  -0.190968  0.103663  0  0  0  0  0  0  0.0019545  0.00598531  -0.00743371  -0.0161329  0.124193  -0.0263994  -0.0587777  -0.000338232  -0.0120488  0.496231  0.0330111  0.018452 
1699365549.591099000  0  0  11.3783  0.0271056  -0.0124378  0.00763487  nan  nan  nan  nan  nan  nan  0.0075459  -0.0202537  1.01391  0.110543  0.00832765  0.00839442  0.0395298  -0.196777  0.105064  0  0  0  0  0  0  0.00186175  0.00645335  -0.0074517  -0.0157918  0.12528  -0.0186083  -0.0588909  -0.000188109  -0.012126  0.487585  0.0266063  0.0258238 
1699365549.596093000  0  0  11.3868  0.0324874  -0.0065764  0.00756757  nan  nan  nan  nan  nan  nan  0.0077436  -0.0212521  1.01443  0.113702  0.00822345  0.00869977  0.0395585  -0.20261  0.106379  0  0  0  0  0  0  0.00178078  0.00708807  -0.00755328  -0.0155634  0.127956  -0.0188125  -0.0596637  -0.000163897  -0.0122852  0.483932  0.0146607  0.0282571 
1699365549.601098000  0  0  11.4094  0.0399276  0.000146277  0.0074805  nan  nan  nan  nan  nan  nan  0.0079415  -0.0222798  1.01497  0.115651  0.00762804  0.00894163  0.0396037  -0.208463  0.107605  0  0  0  0  0  0  0.0017155  0.00761753  -0.00766465  -0.0147446  0.129524  -0.0202254  -0.0593095  0.000276082  -0.0123471  0.465792  -0.00283251  0.0299644 
1699365549.606099000  0  0  11.3017  0.0436435  0.0075112  0.00788744  nan  nan  nan  nan  nan  nan  0.0081397  -0.0233368  1.01551  0.118633  0.00746986  0.00924465  0.0396692  -0.214331  0.108738  0  0  0  0  0  0  0.00164975  0.00815792  -0.00765992  -0.0143731  0.13067  -0.0110072  -0.0598873  0.000200456  -0.0124867  0.463677  -0.0168666  0.0262743 
1699365549.611098000  0  0  11.2943  0.0437802  0.011592  0.00761077  nan  nan  nan  nan  nan  nan  0.0083382  -0.0244231  1.01606  0.121389  0.00760676  0.00958493  0.0397587  -0.220212  0.10978  0  0  0  0  0  0  0.00155382  0.00874015  -0.00768583  -0.0144044  0.132715  -0.010041  -0.0601211  -8.04215e-05  -0.0125076  0.465554  -0.0224441  0.0299412 
1699365549.616093000  0  0  11.3369  0.0607529  0.0302002  0.00717379  nan  nan  nan  nan  nan  nan  0.0085373  -0.0255389  1.01661  0.123536  0.00713604  0.00984926  0.039876  -0.226102  0.110736  0  0  0  0  0  0  0.00148541  0.00940471  -0.00777809  -0.0137686  0.134505  -0.0131434  -0.0603023  -0.000168032  -0.0125831  0.433275  -0.0588545  0.036159 
1699365549.621099000  0  0  11.2559  0.0602302  0.0349787  0.00672303  nan  nan  nan  nan  nan  nan  0.008737  -0.0266842  1.01716  0.126813  0.00722579  0.010194  0.0400248  -0.231997  0.111609  0  0  0  0  0  0  0.00139052  0.0100211  -0.00774223  -0.0136861  0.136102  -0.00617073  -0.0611454  -0.000641006  -0.0125553  0.442077  -0.0640601  0.0415148 
1699365549.626084000  0  0  11.2897  0.0611255  0.0272531  0.00673962  nan  nan  nan  nan  nan  nan  0.0089376  -0.0278589  1.01772  0.129577  0.00699672  0.0104971  0.0402088  -0.237893  0.112403  0  0  0  0  0  0  0.00132261  0.0107102  -0.0078104  -0.013363  0.138496  -0.00852583  -0.0616714  -0.000623773  -0.0126537  0.445126  -0.0487674  0.0422922 
1699365549.631099000  0  0  11.3185  0.0695588  0.0369383  0.00716939  nan  nan  nan  nan  nan  nan  0.0091392  -0.0290631  1.01829  0.131507  0.00674802  0.0107935  0.0404318  -0.243786  0.113122  0  0  0  0  0  0  0.00125817  0.0113464  -0.0078559  -0.0130077  0.139906  -0.0105698  -0.0615252  -0.000906694  -0.0127361  0.426914  -0.065535  0.0377432 
1699365549.636095000  0  0  11.2154  0.0748772  0.0364137  0.00742157  nan  nan  nan  nan  nan  nan  0.009342  -0.0302967  1.01885  0.135021  0.00661254  0.0111174  0.0406977  -0.249673  0.11377  0  0  0  0  0  0  0.00119395  0.0120449  -0.00782682  -0.0127026  0.14121  -0.00173833  -0.0628854  -0.00116096  -0.0128882  0.428791  -0.0621466  0.0361126 
1699365549.641098000  0  0  11.2448  0.0761924  0.0265678  0.00690477  nan  nan  nan  nan  nan  nan  0.0095462  -0.0315598  1.01942  0.13734  0.00669515  0.0114649  0.04101  -0.255549  0.114349  0  0  0  0  0  0  0.00110379  0.012714  -0.0078454  -0.0127201  0.143038  -0.00385158  -0.0630573  -0.00133674  -0.0128979  0.427743  -0.0408377  0.0426694 
1699365549.645100000  0  0  11.3087  0.0807588  0.028655  0.00684181  nan  nan  nan  nan  nan  nan  0.0097522  -0.0328522  1.02  0.140023  0.00636113  0.011759  0.0413725  -0.261412  0.114865  0  0  0  0  0  0  0.00101521  0.0135481  -0.00802572  -0.0122527  0.145517  -0.00847253  -0.0640289  -0.00127088  -0.0130251  0.427548  -0.0456179  0.0447288 
1699365549.651100000  0  0  11.2079  0.0717711  0.021188  0.00751644  nan  nan  nan  nan  nan  nan  0.0099601  -0.0341739  1.02057  0.141899  0.00655241  0.0121232  0.0417891  -0.267257  0.11532  0  0  0  0  0  0  0.000928896  0.0140711  -0.00785452  -0.0122969  0.14509  -0.00019137  -0.0631625  -0.00159048  -0.0131164  0.437553  -0.0277435  0.0372085 
1699365549.656092000  0  0  11.2551  0.0654976  0.000967666  0.00835373  nan  nan  nan  nan  nan  nan  0.0101702  -0.0355247  1.02115  0.143403  0.00654942  0.0124593  0.0422635  -0.273081  0.115718  0  0  0  0  0  0  0.000845087  0.0147263  -0.00789146  -0.0122306  0.14623  -0.00377505  -0.0623959  -0.00136405  -0.0133156  0.443047  0.0106139  0.0287343 
1699365549.661108000  0  0  11.2822  0.0562623  0.00603786  0.0085653  nan  nan  nan  nan  nan  nan  0.0103828  -0.0369047  1.02173  0.145122  0.00608921  0.0127316  0.0427994  -0.27888  0.116064  0  0  0  0  0  0  0.000788625  0.0154545  -0.00792703  -0.0116317  0.147175  -0.00566413  -0.0617454  -0.00105056  -0.0135067  0.455533  -0.00241059  0.0280006 
1699365549.666100000  0  0  11.2219  0.0552538  -0.0122389  0.00757915  nan  nan  nan  nan  nan  nan  0.0105983  -0.0383135  1.02231  0.14739  0.00617887  0.0130886  0.0434005  -0.28465  0.116361  0  0  0  0  0  0  0.000717665  0.0161171  -0.00789717  -0.0116306  0.147531  -0.000438912  -0.0616826  -0.000836252  -0.0134794  0.456972  0.0321712  0.0400549 
1699365549.671099000  0  0  11.234  0.048551  -0.025348  0.00738922  nan  nan  nan  nan  nan  nan  0.0108169  -0.0397511  1.02289  0.148988  0.00621835  0.0134354  0.0440706  -0.290387  0.116613  0  0  0  0  0  0  0.00065408  0.0168096  -0.0078959  -0.0116368  0.148152  -0.00116825  -0.0609086  -0.000410238  -0.0134783  0.463257  0.0544701  0.042418 
1699365549.676092000  0  0  11.2821  0.0267962  -0.0141041  0.00845357  nan  nan  nan  nan  nan  nan  0.0110391  -0.0412173  1.02348  0.15006  0.0057513  0.0137036  0.0448135  -0.296088  0.116823  0  0  0  0  0  0  0.000600599  0.0175495  -0.00794495  -0.0110477  0.14862  -0.00480048  -0.0593348  -5.65932e-06  -0.0137071  0.492288  0.0282603  0.0314009 
1699365549.681101000  0  0  11.2265  0.0245651  -0.0295702  0.00834781  nan  nan  nan  nan  nan  nan  0.0112652  -0.0427119  1.02406  0.152232  0.00572373  0.0140449  0.0456329  -0.301749  0.116995  0  0  0  0  0  0  0.000548574  0.0182555  -0.00791826  -0.010949  0.148804  5.42805e-05  -0.0590177  0.000441536  -0.0138096  0.493832  0.0550782  0.0337488 
1699365549.686100000  0  0  11.2479  0.0261605  -0.035699  0.00742452  nan  nan  nan  nan  nan  nan  0.0114956  -0.0442347  1.02465  0.153648  0.00588037  0.0144112  0.0465326  -0.307366  0.117133  0  0  0  0  0  0  0.000492323  0.019  -0.0079405  -0.011129  0.149246  -0.00141048  -0.0580946  0.000642283  -0.0138637  0.482149  0.065489  0.0458304 
1699365549.691099000  0  0  11.2698  0.00549452  -0.0115048  0.00724938  nan  nan  nan  nan  nan  nan  0.0117306  -0.0457855  1.02523  0.154366  0.00591515  0.0147554  0.0475163  -0.312935  0.117241  0  0  0  0  0  0  0.000426851  0.0197087  -0.00796367  -0.0111234  0.148908  -0.00296149  -0.0560584  0.000389691  -0.0138667  0.504748  0.0194244  0.0480492 
1699365549.696092000  0  0  11.2184  0.0012717  -0.0283784  0.00709307  nan  nan  nan  nan  nan  nan  0.0119709  -0.047364  1.02582  0.156009  0.00628537  0.0151586  0.0485877  -0.318453  0.117322  0  0  0  0  0  0  0.000379233  0.0203958  -0.00798784  -0.0115333  0.148507  0.00161423  -0.0551711  0.000491226  -0.0138573  0.50503  0.0522376  0.0499094 
1699365549.701100000  0  0  11.2132  0.00414489  -0.0279769  0.00736438  nan  nan  nan  nan  nan  nan  0.0122167  -0.0489699  1.02641  0.157346  0.00659857  0.0155524  0.0497506  -0.323916  0.11738  0  0  0  0  0  0  0.000321484  0.0211353  -0.00798533  -0.0118856  0.1484  0.00229162  -0.0541593  0.000403803  -0.0139856  0.489976  0.0522387  0.0478017 
1699365549.706098000  0  0  11.2164  -0.0084204  0.0116168  0.00873113  nan  nan  nan  nan  nan  nan  0.0124685  -0.050603  1.02699  0.158042  0.00683258  0.0159303  0.0510089  -0.32932  0.11742  0  0  0  0  0  0  0.000283019  0.0218408  -0.00797157  -0.0121772  0.147718  0.00219037  -0.0522761  -0.000400543  -0.0141706  0.497781  -0.0195486  0.032567 
1699365549.711098000  0  0  11.1696  0.00330436  0.00701819  0.00872395  nan  nan  nan  nan  nan  nan  0.0127269  -0.052263  1.02758  0.159736  0.00757403  0.0163978  0.0523661  -0.334661  0.117444  0  0  0  0  0  0  0.000218305  0.0225777  -0.00793444  -0.0130176  0.147314  0.00625021  -0.0517901  -0.00114892  -0.0143563  0.46986  -0.00346632  0.0345139 
1699365549.716092000  0  0  11.1866  0.012135  0.0137692  0.00794716  nan  nan  nan  nan  nan  nan  0.0129924  -0.0539495  1.02817  0.160427  0.00852222  0.0168931  0.0538261  -0.339936  0.117457  0  0  0  0  0  0  0.000145372  0.0232915  -0.00791585  -0.0141498  0.14684  0.00497851  -0.0504789  -0.00214633  -0.0143618  0.440136  -0.00779218  0.0442782 
1699365549.721099000  0  0  11.1717  0.00118159  0.0412486  0.00799532  nan  nan  nan  nan  nan  nan  0.0132654  -0.0556623  1.02876  0.161288  0.00919895  0.0173474  0.0553926  -0.345141  0.117461  0  0  0  0  0  0  6.96263e-05  0.0239996  -0.0078877  -0.014899  0.146022  0.00634516  -0.0489998  -0.00339099  -0.0144167  0.448435  -0.0513  0.0442257 
1699365549.726099000  0  0  11.1379  0.0253886  0.0330179  0.00679525  nan  nan  nan  nan  nan  nan  0.0135465  -0.0574008  1.02934  0.162504  0.0104757  0.017905  0.0570693  -0.350272  0.117462  0  0  0  0  0  0  -1.11269e-05  0.0247267  -0.00783077  -0.0163706  0.14525  0.0092256  -0.0485375  -0.00470745  -0.014401  0.395768  -0.0227271  0.059069 
1699365549.731099000  0  0  11.1461  0.0256323  0.0431691  0.00702059  nan  nan  nan  nan  nan  nan  0.0138363  -0.0591649  1.02993  0.163034  0.0115816  0.0184294  0.0588601  -0.355325  0.117462  0  0  0  0  0  0  -9.68784e-05  0.0254307  -0.00782889  -0.0176597  0.144436  0.00868696  -0.0472475  -0.00608646  -0.0144125  0.383412  -0.0303427  0.0563676 
1699365549.735085000  0  0  11.1415  0.0148522  0.071536  0.00788774  nan  nan  nan  nan  nan  nan  0.0141353  -0.0609539  1.03052  0.164885  0.0125856  0.0189553  0.0607686  -0.360298  0.117462  0  0  0  0  0  0  -0.000227311  0.0263674  -0.00791413  -0.0187341  0.144506  0.00952022  -0.0472968  -0.00774543  -0.014637  0.405426  -0.071814  0.0477735 
1699365549.741098000  0  0  11.1071  0.0370761  0.0580392  0.00700654  nan  nan  nan  nan  nan  nan  0.0144441  -0.0627677  1.0311  0.164502  0.013655  0.0194648  0.0627986  -0.365184  0.117462  0  0  0  0  0  0  -0.00028747  0.026859  -0.00771656  -0.0199374  0.142268  0.0119721  -0.0452318  -0.00881826  -0.0145276  0.34198  -0.0349503  0.0576945 
1699365549.746098000  0  0  11.1082  0.037875  0.0639928  0.00681657  nan  nan  nan  nan  nan  nan  0.0147635  -0.0646056  1.03169  0.165158  0.0152142  0.0200707  0.0649539  -0.369983  0.117462  0  0  0  0  0  0  -0.000393635  0.0275697  -0.00766672  -0.0217394  0.141453  0.0119168  -0.0443136  -0.0105411  -0.0145664  0.331935  -0.0310073  0.0604565 
1699365549.751084000  0  0  11.11  0.0356836  0.0769164  0.00700548  nan  nan  nan  nan  nan  nan  0.0150939  -0.0664674  1.03228  0.165148  0.0161871  0.0205696  0.0672383  -0.374688  0.117462  0  0  0  0  0  0  -0.000500592  0.0282659  -0.0076134  -0.0227905  0.139879  0.0117181  -0.0427519  -0.0118906  -0.0145769  0.32195  -0.0444397  0.0582007 
1699365549.756085000  0  0  11.0804  0.0490221  0.0520894  0.00653769  nan  nan  nan  nan  nan  nan  0.0154361  -0.0683524  1.03287  0.165812  0.0175158  0.0211399  0.0696553  -0.379297  0.117462  0  0  0  0  0  0  -0.000616792  0.0289622  -0.00753931  -0.0242128  0.138548  0.0141341  -0.0421527  -0.01287  -0.0145851  0.28976  0.0142255  0.06413 
1699365549.761091000  0  0  11.0788  0.0438515  0.0515855  0.00707959  nan  nan  nan  nan  nan  nan  0.0157907  -0.0702602  1.03345  0.165704  0.0190114  0.0217249  0.0722089  -0.383806  0.117462  0  0  0  0  0  0  -0.000734048  0.0296351  -0.0074689  -0.0258804  0.136828  0.0141694  -0.0406147  -0.0141646  -0.0146396  0.285953  0.0271437  0.0579011 
1699365549.766086000  0  0  11.0936  0.0328472  0.057497  0.00786404  nan  nan  nan  nan  nan  nan  0.0161584  -0.0721903  1.03404  0.165525  0.0204981  0.0223066  0.0749027  -0.388211  0.117462  0  0  0  0  0  0  -0.000884678  0.0303212  -0.00741108  -0.0275031  0.13529  0.0128783  -0.0389449  -0.0154613  -0.0146903  0.292599  0.0272499  0.0486028 
1699365549.770039000  0  0  11.0912  0.0469684  0.0489812  0.00785079  nan  nan  nan  nan  nan  nan  0.0165399  -0.0741421  1.03463  0.166926  0.0222242  0.0229638  0.0777406  -0.392509  0.117462  0  0  0  0  0  0  -0.00107528  0.0312636  -0.0074809  -0.0293394  0.134797  0.0134273  -0.0394161  -0.0168447  -0.0148656  0.268692  0.0570092  0.0505207 
1699365549.776079000  0  0  11.0735  0.028939  0.0328722  0.00802178  nan  nan  nan  nan  nan  nan  0.016936  -0.0761152  1.03522  0.16482  0.0239745  0.0235437  0.0807262  -0.396695  0.117462  0  0  0  0  0  0  -0.00118403  0.0316383  -0.00726578  -0.0312356  0.130987  0.0142674  -0.0357708  -0.0177154  -0.014861  0.271213  0.0972372  0.0483376 
1699365549.781085000  0  0  11.0997  0.00998526  0.0348872  0.00821893  nan  nan  nan  nan  nan  nan  0.0173475  -0.0781089  1.0358  0.16436  0.0254127  0.0241077  0.0838633  -0.400766  0.117462  0  0  0  0  0  0  -0.00134532  0.0323183  -0.00719022  -0.0328082  0.129322  0.0119618  -0.0337503  -0.0185952  -0.0149318  0.290532  0.101302  0.0465816 
1699365549.786080000  0  0  11.0795  0.0312634  0.0066542  0.0076642  nan  nan  nan  nan  nan  nan  0.0177749  -0.0801226  1.03639  0.163675  0.0272991  0.0247381  0.0871557  -0.404718  0.117462  0  0  0  0  0  0  -0.00151342  0.0329566  -0.00711713  -0.0347689  0.126617  0.0134495  -0.0322139  -0.0193391  -0.014978  0.233841  0.164612  0.0539778 
1699365549.791085000  0  0  11.0718  0.0128174  0.0107983  0.00795375  nan  nan  nan  nan  nan  nan  0.0182193  -0.0821558  1.03698  0.162933  0.0293967  0.0253989  0.0906071  -0.408548  0.117462  0  0  0  0  0  0  -0.00168042  0.0335871  -0.00704571  -0.0370292  0.124079  0.0139098  -0.0301939  -0.0205451  -0.0150163  0.252149  0.167418  0.0507406 
1699365549.796086000  0  0  11.102  -0.00696884  0.0176228  0.00810807  nan  nan  nan  nan  nan  nan  0.0186813  -0.0842079  1.03756  0.161811  0.0309494  0.0259553  0.0942213  -0.412251  0.117462  0  0  0  0  0  0  -0.00187068  0.034236  -0.00701201  -0.0386867  0.121728  0.0112897  -0.0276214  -0.0211993  -0.0150396  0.268055  0.159788  0.0490454 
1699365549.801092000  0  0  11.0912  0.00482206  0.00259115  0.00757443  nan  nan  nan  nan  nan  nan  0.0191618  -0.0862781  1.03815  0.160647  0.0330857  0.0266012  0.0980016  -0.415824  0.117462  0  0  0  0  0  0  -0.00206849  0.034834  -0.00694668  -0.0408992  0.118687  0.0119632  -0.0255797  -0.0221354  -0.0150559  0.225689  0.198464  0.055879 
1699365549.806091000  0  0  11.0637  -0.0219973  0.0160176  0.00848364  nan  nan  nan  nan  nan  nan  0.0196616  -0.0883659  1.03874  0.15929  0.0358358  0.0273336  0.101947  -0.419263  0.117462  0  0  0  0  0  0  -0.00228239  0.0354159  -0.00687195  -0.0437537  0.115132  0.0139737  -0.0227463  -0.0240325  -0.0152075  0.253261  0.189064  0.0460295 
1699365549.810095000  0  0  11.0948  -0.0340161  0.0306563  0.00834982  nan  nan  nan  nan  nan  nan  0.0201815  -0.0904705  1.03933  0.159082  0.0381595  0.0280354  0.106054  -0.422565  0.117462  0  0  0  0  0  0  -0.00254322  0.036296  -0.00695072  -0.0462693  0.113355  0.0116207  -0.0214074  -0.0257401  -0.0152803  0.26498  0.175496  0.0484302 
1699365549.816086000  0  0  11.081  -0.0164995  0.0156337  0.00697293  nan  nan  nan  nan  nan  nan  0.0207224  -0.0925913  1.03991  0.156297  0.0402737  0.0285962  0.110318  -0.425725  0.117462  0  0  0  0  0  0  -0.00271277  0.0365803  -0.0067496  -0.0484273  0.108983  0.0120556  -0.0178742  -0.0262406  -0.0150228  0.197442  0.210146  0.0630668 
1699365549.821090000  0  0  11.046  -0.0323748  0.0285515  0.00679722  nan  nan  nan  nan  nan  nan  0.0212849  -0.0947275  1.0405  0.154622  0.0429913  0.0292872  0.114736  -0.428741  0.117462  0  0  0  0  0  0  -0.00293768  0.0371256  -0.00666112  -0.0511324  0.105003  0.0146224  -0.0151132  -0.0279339  -0.014927  0.203791  0.199889  0.0643047 
1699365549.826091000  0  0  11.0939  -0.0423002  0.0405966  0.00690379  nan  nan  nan  nan  nan  nan  0.02187  -0.0968785  1.04109  0.15244  0.0457646  0.0299538  0.119305  -0.431608  0.117462  0  0  0  0  0  0  -0.00320139  0.0376468  -0.00662949  -0.0542366  0.101862  0.0104055  -0.0119167  -0.0298243  -0.0149052  0.194234  0.193191  0.0627541 
1699365549.831091000  0  0  11.0678  -0.0177981  0.0381007  0.00690937  nan  nan  nan  nan  nan  nan  0.0224782  -0.0990434  1.04168  0.150723  0.0484901  0.0306237  0.12402  -0.434331  0.117462  0  0  0  0  0  0  -0.0034524  0.0381601  -0.00654018  -0.0569207  0.098059  0.0122252  -0.0100073  -0.0313301  -0.0148471  0.127663  0.212036  0.0621039 
1699365549.835092000  0  0  11.0255  -0.0153362  0.0577103  0.00762177  nan  nan  nan  nan  nan  nan  0.0231104  -0.101222  1.04226  0.150294  0.0522497  0.0315079  0.128877  -0.436913  0.117462  0  0  0  0  0  0  -0.00381424  0.038978  -0.00657043  -0.0605728  0.0948386  0.0157996  -0.00912513  -0.0344286  -0.0150087  0.114624  0.201323  0.0548154 
1699365549.841090000  0  0  11.0533  -0.0315451  0.0666336  0.00802273  nan  nan  nan  nan  nan  nan  0.0237672  -0.103412  1.04285  0.146697  0.0547237  0.0320178  0.133874  -0.439358  0.117462  0  0  0  0  0  0  -0.00402245  0.0391603  -0.00640608  -0.0632746  0.0903926  0.0127797  -0.00489329  -0.0356378  -0.0149026  0.108108  0.1946  0.0487422 
1699365549.846092000  0  0  11.0212  -0.00248464  0.062462  0.00692272  nan  nan  nan  nan  nan  nan  0.0244494  -0.105615  1.04344  0.144506  0.0579586  0.0327023  0.139005  -0.441669  0.117462  0  0  0  0  0  0  -0.004296  0.0396077  -0.00628973  -0.0664313  0.0860613  0.0150014  -0.00301554  -0.0375603  -0.0147356  0.0327123  0.220631  0.0608219 
1699365549.851093000  0  0  10.9623  -0.0132907  0.0809042  0.00690068  nan  nan  nan  nan  nan  nan  0.0251575  -0.107829  1.04403  0.142419  0.061836  0.0334707  0.144268  -0.44385  0.117462  0  0  0  0  0  0  -0.00463648  0.0400254  -0.00618266  -0.0700144  0.0814888  0.0194714  -0.000680041  -0.0404659  -0.0146786  0.0328378  0.210478  0.0605277 
1699365549.856085000  0  0  11.0106  -0.0152899  0.0854845  0.00667052  nan  nan  nan  nan  nan  nan  0.0258923  -0.110053  1.04461  0.139735  0.064513  0.0340141  0.149659  -0.445906  0.117462  0  0  0  0  0  0  -0.00497705  0.0404552  -0.00611871  -0.0728654  0.0778896  0.0151056  0.00194687  -0.0419335  -0.0145092  0.0126685  0.214819  0.0617104 
1699365549.860037000  0  0  11.0287  0.00309391  0.0870562  0.00635831  nan  nan  nan  nan  nan  nan  0.0266543  -0.112288  1.0452  0.138619  0.068311  0.0348064  0.155174  -0.447839  0.117462  0  0  0  0  0  0  -0.00543115  0.0412267  -0.00619441  -0.0767033  0.0748884  0.0137547  0.00271508  -0.0446903  -0.0145071  -0.0311666  0.237038  0.0655923 
1699365549.866092000  0  0  10.9543  -0.00831214  0.0904882  0.00681739  nan  nan  nan  nan  nan  nan  0.0274442  -0.114531  1.04579  0.134884  0.0718577  0.0353635  0.160808  -0.449653  0.117462  0  0  0  0  0  0  -0.00572064  0.0412488  -0.00592706  -0.0797141  0.0690245  0.0189992  0.00618696  -0.0464938  -0.0142726  -0.0402958  0.246766  0.0575085 
1699365549.870090000  0  0  11.0085  -0.00394787  0.0887392  0.006274  nan  nan  nan  nan  nan  nan  0.0282626  -0.116784  1.04637  0.133612  0.0754859  0.0360938  0.166559  -0.451353  0.117462  0  0  0  0  0  0  -0.0062092  0.0419771  -0.00600355  -0.0835633  0.0664512  0.0146651  0.00720991  -0.0489135  -0.0142325  -0.0584354  0.272526  0.0639004 
1699365549.876085000  0  0  10.9886  0.010535  0.0590942  0.00570247  nan  nan  nan  nan  nan  nan  0.02911  -0.119045  1.04696  0.129257  0.0782931  0.0364603  0.172423  -0.452942  0.117462  0  0  0  0  0  0  -0.00651859  0.0419593  -0.0057752  -0.086014  0.0607745  0.015461  0.0104758  -0.0492495  -0.0138499  -0.117447  0.334907  0.0672186 
1699365549.881091000  0  0  10.931  0.00245093  0.0602411  0.00649791  nan  nan  nan  nan  nan  nan  0.029987  -0.121313  1.04755  0.126743  0.0820729  0.0370775  0.178396  -0.454423  0.117462  0  0  0  0  0  0  -0.00694024  0.0422951  -0.00564737  -0.0891161  0.055976  0.0198307  0.0124372  -0.0510631  -0.013751  -0.119324  0.349298  0.0562866 
1699365549.886093000  0  0  11.0157  -0.00196873  0.045567  0.00652895  nan  nan  nan  nan  nan  nan  0.0308941  -0.123589  1.04814  0.123493  0.0848164  0.037483  0.184473  -0.455801  0.117462  0  0  0  0  0  0  -0.00739059  0.0425747  -0.00562242  -0.09221  0.0524086  0.012563  0.0150209  -0.0516526  -0.0136179  -0.134254  0.38407  0.0545669 
1699365549.891092000  0  0  10.9811  0.0116861  0.0337399  0.00595269  nan  nan  nan  nan  nan  nan  0.0318319  -0.125871  1.04872  0.120683  0.0884919  0.0380223  0.190653  -0.457079  0.117462  0  0  0  0  0  0  -0.00784116  0.042865  -0.0054974  -0.0953007  0.0476804  0.0150556  0.0166769  -0.0529168  -0.0133799  -0.176799  0.419355  0.0593904 
1699365549.896068000  0  0  10.9445  -0.00338541  0.0382999  0.00666089  nan  nan  nan  nan  nan  nan  0.0328008  -0.128159  1.04931  0.1179  0.092071  0.0385319  0.196929  -0.458261  0.117462  0  0  0  0  0  0  -0.00829588  0.0431528  -0.00539449  -0.0982137  0.0429907  0.0177553  0.0187141  -0.0542513  -0.0132793  -0.165399  0.422512  0.0495321 
1699365549.901085000  0  0  11.0058  -0.0207229  0.0331892  0.00700819  nan  nan  nan  nan  nan  nan  0.0338014  -0.130454  1.0499  0.114357  0.0951355  0.0388891  0.2033  -0.459351  0.117462  0  0  0  0  0  0  -0.00879167  0.0433571  -0.00535843  -0.101415  0.0388326  0.0124196  0.0216109  -0.0549755  -0.0131595  -0.157375  0.439396  0.0439922 
1699365549.906086000  0  0  10.9712  0.00538946  0.0198632  0.00570496  nan  nan  nan  nan  nan  nan  0.034834  -0.132753  1.05049  0.111552  0.0985822  0.0393403  0.209761  -0.460352  0.117462  0  0  0  0  0  0  -0.00922902  0.0436032  -0.0052532  -0.104196  0.0342495  0.0150053  0.0228084  -0.055716  -0.0128803  -0.220616  0.472861  0.0574915 
1699365549.910088000  0  0  10.9111  5.24722e-05  0.0358067  0.00642782  nan  nan  nan  nan  nan  nan  0.0358991  -0.135057  1.05107  0.109632  0.103499  0.0400244  0.216308  -0.461269  0.117462  0  0  0  0  0  0  -0.00986432  0.0441858  -0.00526146  -0.10805  0.029624  0.0200629  0.0239597  -0.0587877  -0.0128857  -0.220534  0.469233  0.048509 
1699365549.916080000  0  0  10.9999  -0.0178087  0.0309002  0.00688079  nan  nan  nan  nan  nan  nan  0.0369972  -0.137365  1.05166  0.104503  0.105325  0.0400158  0.222938  -0.462104  0.117462  0  0  0  0  0  0  -0.0102607  0.0439437  -0.00510646  -0.11026  0.0248759  0.0120513  0.027782  -0.0576649  -0.0125882  -0.219977  0.468717  0.039872 
1699365549.921093000  0  0  10.9724  -0.00540447  0.0240717  0.00607012  nan  nan  nan  nan  nan  nan  0.0381286  -0.139678  1.05225  0.101456  0.108987  0.0403996  0.229647  -0.462863  0.117462  0  0  0  0  0  0  -0.0107783  0.0441097  -0.00501458  -0.11315  0.0202826  0.0141064  0.0292626  -0.0586472  -0.0123323  -0.258407  0.491411  0.0474466 
1699365549.926094000  0  0  10.9202  -0.0127605  0.0402073  0.00651676  nan  nan  nan  nan  nan  nan  0.0392938  -0.141994  1.05284  0.0978045  0.113466  0.0407721  0.236431  -0.463547  0.117462  0  0  0  0  0  0  -0.0113518  0.0441946  -0.0049078  -0.116545  0.014866  0.0181448  0.0316085  -0.06075  -0.012157  -0.265277  0.478485  0.0401102 
1699365549.931092000  0  0  10.9954  -0.0143174  0.038899  0.00638139  nan  nan  nan  nan  nan  nan  0.040493  -0.144313  1.05342  0.0947806  0.115965  0.0409994  0.243286  -0.464162  0.117462  0  0  0  0  0  0  -0.0118921  0.0443353  -0.00485809  -0.119266  0.0114966  0.0117796  0.0331406  -0.0606889  -0.0119541  -0.276259  0.48054  0.0397734 
1699365549.935092000  0  0  10.9867  0.00524049  0.0417381  0.00550574  nan  nan  nan  nan  nan  nan  0.0417268  -0.146635  1.05401  0.0926882  0.120614  0.0415212  0.250209  -0.464711  0.117462  0  0  0  0  0  0  -0.0126222  0.0448356  -0.0049147  -0.123154  0.00745899  0.0127795  0.0337366  -0.0632389  -0.0117815  -0.320858  0.498321  0.0489936 
1699365549.941092000  0  0  10.9172  -0.00786408  0.043254  0.00513688  nan  nan  nan  nan  nan  nan  0.0429952  -0.14896  1.0546  0.0877543  0.123984  0.0415539  0.257196  -0.465198  0.117462  0  0  0  0  0  0  -0.0130745  0.0444534  -0.00465319  -0.12508  0.00149544  0.0178425  0.0366327  -0.0634342  -0.0112973  -0.321293  0.497087  0.0487618 
1699365549.946092000  0  0  10.9965  0.000968447  0.0410772  0.00545218  nan  nan  nan  nan  nan  nan  0.0442988  -0.151287  1.05518  0.0846413  0.126449  0.0417104  0.264243  -0.465626  0.117462  0  0  0  0  0  0  -0.0136565  0.0445224  -0.00461282  -0.127791  -0.00187365  0.0112216  0.0377934  -0.0632548  -0.0110942  -0.349636  0.49979  0.0427895 
1699365549.951091000  0  0  10.9515  0.0161617  0.0404328  0.00491013  nan  nan  nan  nan  nan  nan  0.0456378  -0.153616  1.05577  0.080897  0.13067  0.0419113  0.271347  -0.465999  0.117462  0  0  0  0  0  0  -0.0143009  0.0444987  -0.00452174  -0.130701  -0.006999  0.0148141  0.0393408  -0.0647876  -0.0107509  -0.394259  0.51518  0.0461327 
1699365549.956084000  0  0  10.9029  0.00317449  0.0521593  0.00518296  nan  nan  nan  nan  nan  nan  0.0470124  -0.155947  1.05636  0.0774701  0.134718  0.0421103  0.278503  -0.466321  0.117462  0  0  0  0  0  0  -0.0149308  0.0444792  -0.0044017  -0.133349  -0.0117347  0.0186749  0.0409056  -0.0662658  -0.0104879  -0.382681  0.505327  0.0400921 
1699365549.961091000  0  0  10.9729  0.00457703  0.0517964  0.00477572  nan  nan  nan  nan  nan  nan  0.0484229  -0.158279  1.05695  0.0737649  0.137749  0.0421687  0.285708  -0.466596  0.117462  0  0  0  0  0  0  -0.0156043  0.0444129  -0.00436816  -0.136458  -0.0157005  0.012859  0.0425495  -0.06668  -0.0101782  -0.400609  0.509864  0.0420858 
