ts fx fy fz tx ty tz exfx exfy exfz extx exty extz xd yd zd rolld pitchd yawd vxd vyd vzd wxd wyd wzd axd ayd azd e_x e_y e_z e_vx e_vy e_vz e_rx e_ry e_rz e_wx e_wy e_wz
1699366626.166507000  0  0  10.8893  -0.00652009  0.0117679  -0.000831839  nan  nan  nan  nan  nan  nan  0  0  1  -0.00962898  0.00923762  -8.89504e-05  0  0  0  0  0  0  0  0  0  -0.00752673  -0.0036067  -0.0021275  0.00554818  -0.003635  0.00689042  0.0055477  -0.0102281  -0.00292388  -0.0379987  0.0705631  0.0396368 
1699366626.170520000  0  0  10.9946  0.0196557  -0.00684846  0.00277726  nan  nan  nan  nan  nan  nan  0  0  1  -0.00327273  0.00465841  -1.52457e-05  0  0  0  0  0  0  0  0  0  -0.00749674  -0.00356498  -0.00218008  0.0109685  0.00392415  -0.00180131  -0.00075928  -0.0056401  -0.00331485  -0.032326  0.0655858  -0.00156721 
1699366626.175516000  0  0  10.899  0.0254339  0.0241584  0.000331476  nan  nan  nan  nan  nan  nan  0  -0  1  -0.00203106  0.012583  -2.55562e-05  6e-07  -6e-07  6e-07  0  0  0  0.000375  -0.000375  0.000375  -0.00756173  -0.00355201  -0.00213285  0.00161117  0.00538752  0.00609613  -0.00195901  -0.0133839  -0.00318134  -0.0328449  0.0748153  0.02767 
1699366626.180526000  0  0  10.8303  4.24698e-05  -0.000501538  0.000187995  nan  nan  nan  nan  nan  nan  0  -0  1  -0.00720362  0.00771023  -5.5542e-05  5e-06  -5e-06  5e-06  0  0  0  0.0015  -0.0015  0.0015  -0.00753589  -0.0035915  -0.00209326  0.00765317  -0.00087274  0.0118669  0.00324778  -0.00834886  -0.00309721  -0.0299645  0.0778126  0.0286222 
1699366626.185502000  0  0  10.886  0.0239968  -0.00733354  0.00261287  nan  nan  nan  nan  nan  nan  1e-07  -1e-07  1  -0.00105608  0.00612013  -6.46333e-06  1.69e-05  -1.69e-05  1.69e-05  0  0  0  0.003375  -0.003375  0.003375  -0.00752341  -0.0035453  -0.00211043  0.00973323  0.00618369  0.00741038  -0.00277472  -0.00666651  -0.00342395  -0.0224661  0.075999  0.00157863 
1699366626.190520000  0  0  10.8409  0.0110988  0.0262561  -0.00122164  nan  nan  nan  nan  nan  nan  2e-07  -2e-07  1  -0.00347444  0.014088  -4.88466e-05  4e-05  -4e-05  4e-05  0  0  0  0.006  -0.006  0.006  -0.00758614  -0.00355503  -0.00206534  0.00062914  0.00297334  0.0113297  -0.000233126  -0.0144308  -0.00308716  -0.0200529  0.0802509  0.0461421 
1699366626.195514000  0  0  10.8176  -0.00947225  -0.00562853  -0.000112303  nan  nan  nan  nan  nan  nan  5e-07  -5e-07  1  -0.00725896  0.00750613  -5.41872e-05  7.81e-05  -7.81e-05  7.81e-05  0  0  0  0.009375  -0.009375  0.009375  -0.0075432  -0.00358504  -0.00203125  0.0088995  -0.00191734  0.0135269  0.00367447  -0.00767627  -0.00308026  -0.0148606  0.0818787  0.0322064 
1699366626.200515000  0  0  10.9297  0.0172297  -0.0113002  0.00297085  nan  nan  nan  nan  nan  nan  1e-06  -1e-06  1  -0.000472832  0.00598447  -2.32963e-06  0.000135  -0.000135  0.000135  0  0  0  0.0135  -0.0135  0.0135  -0.00752654  -0.00353485  -0.00206678  0.0111274  0.00561152  0.00462109  -0.0029149  -0.00605583  -0.00346528  -0.00764243  0.078314  -0.00248285 
1699366626.205494000  0  0  10.8777  0.00263462  0.019811  -0.00111984  nan  nan  nan  nan  nan  nan  1.9e-06  -1.9e-06  1  -0.00376665  0.0135996  -5.02238e-05  0.0002144  -0.0002144  0.0002144  0  0  0  0.018375  -0.018375  0.018375  -0.00758298  -0.00355371  -0.00201507  0.00268541  0.00107268  0.00931498  0.000520142  -0.0134379  -0.00309949  -0.0100545  0.0840065  0.0449929 
1699366626.210532000  0  0  10.8167  -0.0119944  -0.0124262  0.000171322  nan  nan  nan  nan  nan  nan  3.2e-06  -3.2e-06  1  -0.00651097  0.00715983  -4.49177e-05  0.00032  -0.00032  0.00032  0  0  0  0.024  -0.024  0.024  -0.00753557  -0.00357817  -0.00196144  0.0111083  -0.00284156  0.0148119  0.00341232  -0.00678633  -0.00312591  -0.00740461  0.0872865  0.0291176 
1699366626.215519000  0  0  10.9468  0.0242178  -0.00664452  0.00287461  nan  nan  nan  nan  nan  nan  5.1e-06  -5.1e-06  1.00001  0.0019204  0.00857664  1.91704e-05  0.0004556  -0.0004556  0.0004556  0  0  0  0.030375  -0.030375  0.030375  -0.00753807  -0.00351535  -0.00202047  0.0100755  0.00639122  0.00466854  -0.00481887  -0.00805392  -0.00350121  -0.00410211  0.0873851  -0.000920415 
1699366626.220487000  0  0  10.9436  0.0104155  0.0246923  -0.00104972  nan  nan  nan  nan  nan  nan  7.8e-06  -7.8e-06  1.00001  -0.00126067  0.0157242  -1.56223e-05  0.000625  -0.000625  0.000625  0  0  0  0.0375  -0.0375  0.0375  -0.00759109  -0.00353161  -0.00200008  0.00238519  0.00167773  0.00556351  -0.00148629  -0.0149754  -0.00315546  -0.00715716  0.0883895  0.0446761 
1699366626.225485000  0  0  10.8911  0.00276366  -0.00570539  0.000535102  nan  nan  nan  nan  nan  nan  1.14e-05  -1.14e-05  1.00001  -0.00242064  0.00940952  -1.66768e-05  0.0008319  -0.0008319  0.0008319  0  0  0  0.045375  -0.045375  0.045375  -0.00754458  -0.00354145  -0.00195782  0.0109902  -0.000670669  0.0105861  -0.000162055  -0.00845839  -0.00320818  -0.00403643  0.089228  0.0253931 
1699366626.230473000  0  0  11.0054  0.0384849  0.00347839  0.00299542  nan  nan  nan  nan  nan  nan  1.62e-05  -1.62e-05  1.00002  0.00591453  0.0117363  7.8014e-05  0.00108  -0.00108  0.00108  0  0  0  0.054  -0.054  0.054  -0.00755501  -0.00347467  -0.00201365  0.00911424  0.00827538  0.00196347  -0.00827802  -0.0106127  -0.00357616  -0.000811888  0.0906796  -0.00168119 
1699366626.236475000  0  0  11.0448  0.0128916  0.0305748  -0.00159473  nan  nan  nan  nan  nan  nan  2.23e-05  -2.23e-05  1.00002  0.000415245  0.0176685  1.92364e-05  0.0013731  -0.0013731  0.0013731  0  0  0  0.063375  -0.063375  0.063375  -0.00760338  -0.00350321  -0.00201926  0.00304924  0.000456786  -0.000418664  -0.00256636  -0.0162893  -0.00312046  -0.00217269  0.088712  0.0511387 
1699366626.240476000  0  0  10.9257  0.0171811  0.00316842  0.000693766  nan  nan  nan  nan  nan  nan  3e-05  -3e-05  1.00003  0.00202946  0.0121126  4.05815e-05  0.001715  -0.001715  0.001715  0  0  0  0.0735  -0.0735  0.0735  -0.0075615  -0.0034904  -0.0019561  0.0111879  0.00113019  0.0103087  -0.00400142  -0.0105678  -0.00327745  0.00245087  0.0908869  0.0241024 
1699366626.245528000  0  0  11.0393  0.0497262  0.0207855  0.00276204  nan  nan  nan  nan  nan  nan  3.96e-05  -3.96e-05  1.00004  0.0101713  0.0164152  0.000188062  0.0021094  -0.0021094  0.0021094  0  0  0  0.084375  -0.084375  0.084375  -0.00758925  -0.00341951  -0.00201346  0.00716073  0.00963872  0.00196554  -0.0118444  -0.0146761  -0.00364056  0.00951638  0.0934489  0.00188009 
1699366626.250537000  0  0  11.1226  0.0210961  0.0344297  -0.00141051  nan  nan  nan  nan  nan  nan  5.12e-05  -5.12e-05  1.00005  0.00460895  0.0193935  0.000116678  0.00256  -0.00256  0.00256  0  0  0  0.096  -0.096  0.096  -0.00762403  -0.00344625  -0.00205926  0.00484399  0.00148043  -0.00378559  -0.00597424  -0.0174841  -0.00324313  0.0127708  0.0919941  0.0500626 
1699366626.255518000  0  0  11.0555  0.0303221  0.00934567  0.00108474  nan  nan  nan  nan  nan  nan  6.53e-05  -6.53e-05  1.00007  0.00775932  0.0148554  0.000150066  0.0030706  -0.0030706  0.0030706  0  0  0  0.108375  -0.108375  0.108375  -0.00758332  -0.00341721  -0.00203363  0.0120036  0.00372119  0.00289292  -0.00883156  -0.0126413  -0.00339649  0.0206062  0.0976082  0.0204057 
1699366626.260474000  0  0  11.1248  0.0606221  0.031554  0.00279155  nan  nan  nan  nan  nan  nan  8.2e-05  -8.2e-05  1.00008  0.0156612  0.0210102  0.000372747  0.0036447  -0.003645  0.003645  0  0  0  0.121229  -0.1215  0.1215  -0.00762841  -0.00334168  -0.00207126  0.00596339  0.0117545  -0.00157182  -0.0163225  -0.0185041  -0.00377238  0.0289229  0.10713  0.00282938 
1699366626.265534000  0  0  11.1636  0.0352232  0.0508092  -0.00145688  nan  nan  nan  nan  nan  nan  0.0001018  -0.0001018  1.0001  0.010572  0.0253465  0.000322244  0.0042817  -0.0042869  0.0042869  0  0  0  0.133453  -0.135375  0.135375  -0.00767325  -0.00336179  -0.00209613  0.00210644  0.00383657  -0.0034442  -0.0108931  -0.0225386  -0.00333595  0.0297703  0.105737  0.0515704 
1699366626.270466000  0  0  11.075  0.0437126  0.0315629  0.00133573  nan  nan  nan  nan  nan  nan  0.0001249  -0.000125  1.00012  0.014478  0.0216316  0.00037988  0.004978  -0.005  0.005  0  0  0  0.144927  -0.15  0.15  -0.00765693  -0.00332074  -0.00204923  0.00830993  0.00663963  0.0052002  -0.0143015  -0.0185452  -0.00356598  0.0441482  0.10749  0.0189633 
1699366626.275489000  0  0  11.1425  0.0671536  0.0604803  0.00269868  nan  nan  nan  nan  nan  nan  0.0001517  -0.0001519  1.00015  0.0213971  0.0300132  0.000723198  0.0057298  -0.0057881  0.0057881  0  0  0  0.155651  -0.165375  0.165375  -0.00773652  -0.00324405  -0.00208959  -0.000742911  0.0132345  0.00113579  -0.0206393  -0.0265089  -0.00397865  0.0555742  0.122922  0.00605298 
1699366626.280478000  0  0  11.2185  0.0377647  0.065369  -0.0016511  nan  nan  nan  nan  nan  nan  0.0001823  -0.000183  1.00018  0.0158367  0.0318333  0.000601691  0.0065333  -0.006655  0.006655  0  0  0  0.165625  -0.1815  0.1815  -0.00778176  -0.00326337  -0.00212737  -0.00192496  0.00453192  -0.0036029  -0.0145889  -0.0278953  -0.00347504  0.0586889  0.125899  0.0553891 
1699366626.285491000  0  0  11.1701  0.0613841  0.0348573  0.00230615  nan  nan  nan  nan  nan  nan  0.0002171  -0.0002186  1.00022  0.0230773  0.0268605  0.000736503  0.0073848  -0.0076044  0.0076044  0  0  0  0.174849  -0.198375  0.198375  -0.00776768  -0.00318907  -0.00210345  0.00552322  0.0111827  0.00195776  -0.0211796  -0.0224435  -0.00387323  0.0720846  0.136765  0.00990541 
1699366626.290473000  0  0  11.1832  0.0717081  0.0613897  0.00298747  nan  nan  nan  nan  nan  nan  0.0002562  -0.0002592  1.00026  0.0279093  0.035623  0.00113246  0.0082805  -0.00864  0.00864  0  0  0  0.183323  -0.216  0.216  -0.00786364  -0.00311967  -0.00210843  -0.00416608  0.0148727  0.00259304  -0.0252328  -0.0305743  -0.0042565  0.0887251  0.158505  0.00522161 
1699366626.295524000  0  0  11.2504  0.0463531  0.0513893  -0.00104869  nan  nan  nan  nan  nan  nan  0.0003  -0.0003052  1.00031  0.0234641  0.0343868  0.000969645  0.0092167  -0.0097656  0.0097656  0  0  0  0.191047  -0.234375  0.234375  -0.00789628  -0.00312227  -0.00214452  -0.00184618  0.00725891  -0.00121493  -0.0201443  -0.0287321  -0.00376187  0.0926218  0.161557  0.0507273 
1699366626.300475000  0  0  11.2541  0.0780092  0.0285649  0.00324859  nan  nan  nan  nan  nan  nan  0.0003485  -0.000357  1.00036  0.0324491  0.0308609  0.001192  0.0101897  -0.010985  0.0109838  0  0  0  0.198021  -0.2535  0.252779  -0.00790437  -0.00302336  -0.00214205  0.00341456  0.0159207  0.000222732  -0.0283131  -0.0245946  -0.00427428  0.104462  0.169141  0.00213532 
1699366626.305509000  0  0  11.263  0.0755001  0.0550973  0.00284781  nan  nan  nan  nan  nan  nan  0.0004019  -0.0004152  1.00042  0.0349296  0.039975  0.0016179  0.0111957  -0.0123019  0.0122922  0  0  0  0.204244  -0.273375  0.270433  -0.008015  -0.00295992  -0.00214827  -0.00703323  0.0164357  0.00125306  -0.029813  -0.0328672  -0.00456774  0.123279  0.192184  0.0100798 
1699366626.310481000  0  0  11.3088  0.0549969  0.0451426  -0.000605602  nan  nan  nan  nan  nan  nan  0.0004605  -0.0004802  1.00048  0.0318686  0.0383263  0.00147752  0.0122309  -0.01372  0.0136869  0  0  0  0.209718  -0.294  0.287338  -0.00805658  -0.00294183  -0.00216806  -0.00438103  0.0101774  -0.000937255  -0.0259246  -0.0305023  -0.00413377  0.128512  0.190336  0.0489078 
1699366626.315509000  0  0  11.3218  0.0852437  0.031916  0.0037986  nan  nan  nan  nan  nan  nan  0.0005243  -0.0005526  1.00055  0.0414468  0.0370411  0.00183026  0.0132916  -0.0152431  0.0151643  0  0  0  0.214442  -0.315375  0.303492  -0.00809467  -0.00282397  -0.00217381  -0.00218079  0.0193652  -0.000415252  -0.0344265  -0.0284684  -0.00474814  0.146236  0.198077  -1.10627e-06 
1699366626.320489000  0  0  11.3272  0.0695027  0.0602677  0.00252317  nan  nan  nan  nan  nan  nan  0.0005934  -0.0006328  1.00063  0.0417647  0.0463702  0.00227407  0.0143741  -0.016875  0.0167206  0  0  0  0.218416  -0.3375  0.318896  -0.00822676  -0.00276536  -0.00218005  -0.0131878  0.0168888  0.000735296  -0.0335035  -0.0368284  -0.00493567  0.169226  0.218286  0.0178171 
1699366626.325528000  0  0  11.3496  0.0558031  0.0206942  -0.000450371  nan  nan  nan  nan  nan  nan  0.000668  -0.0007215  1.00072  0.0410482  0.0393397  0.00199901  0.0154745  -0.0186194  0.018352  0  0  0  0.22164  -0.360375  0.33355  -0.00823873  -0.00272015  -0.0021988  -0.00398658  0.0131766  0.00025672  -0.0317088  -0.0288878  -0.00448466  0.180115  0.224379  0.0504762 
1699366626.330511000  0  0  11.3771  0.0944578  0.0272879  0.00465596  nan  nan  nan  nan  nan  nan  0.0007482  -0.0008192  1.00082  0.0524919  0.0426181  0.00267338  0.0165892  -0.02048  0.0200548  0  0  0  0.224114  -0.384  0.347455  -0.00833025  -0.00257118  -0.00222575  -0.00780783  0.0244979  -0.000479386  -0.0417864  -0.0313375  -0.00536396  0.195519  0.23373  -0.00455984 
1699366626.335514000  0  0  11.403  0.0739365  0.0399623  0.00205558  nan  nan  nan  nan  nan  nan  0.0008339  -0.0009265  1.00092  0.0508533  0.0473871  0.00290166  0.0177144  -0.0224606  0.0218253  0  0  0  0.225838  -0.408375  0.360609  -0.00843455  -0.00250839  -0.00224067  -0.0135362  0.0193889  -0.00126071  -0.0388265  -0.0350109  -0.00530854  0.209331  0.242175  0.0273906 
1699366626.340499000  0  0  11.4102  0.072183  -0.00893414  0.0009551  nan  nan  nan  nan  nan  nan  0.0009253  -0.001044  1.00103  0.0543323  0.0392951  0.00268784  0.0188464  -0.024565  0.0236597  0  0  0  0.226812  -0.4335  0.373013  -0.00844747  -0.00241036  -0.0022514  -0.00315418  0.0205421  -0.000661344  -0.0408948  -0.0258422  -0.00513466  0.231866  0.255616  0.0394078 
1699366626.345473000  0  0  11.4278  0.115519  0.0075625  0.00541978  nan  nan  nan  nan  nan  nan  0.0010224  -0.0011724  1.00116  0.0664215  0.0436775  0.00352137  0.0199813  -0.0267969  0.0255542  0  0  0  0.227036  -0.459375  0.384668  -0.00855219  -0.00222898  -0.00228068  -0.00863242  0.0323734  -0.000672293  -0.0514438  -0.0293334  -0.00606735  0.242245  0.254742  -0.00707375 
1699366626.350499000  0  0  11.4735  0.0819896  0.0248306  0.00241681  nan  nan  nan  nan  nan  nan  0.0011252  -0.0013122  1.00129  0.0625528  0.0491353  0.00376392  0.0211155  -0.02916  0.0275051  0  0  0  0.226509  -0.486  0.395572  -0.00868116  -0.002161  -0.00231587  -0.0155902  0.024286  -0.00326133  -0.0459331  -0.0336354  -0.00594747  0.258605  0.259785  0.0292646 
1699366626.355509000  0  0  11.4771  0.0861577  -0.0282634  0.00205283  nan  nan  nan  nan  nan  nan  0.0012336  -0.0014642  1.00143  0.0678026  0.0393906  0.00343779  0.0222451  -0.0316581  0.0295087  0  0  0  0.225233  -0.513375  0.405726  -0.00868829  -0.00202755  -0.00233141  -0.0033144  0.0273716  -0.00253891  -0.0495178  -0.0228002  -0.00583485  0.283248  0.266289  0.0326881 
1699366626.360540000  0  0  11.4552  0.123753  -0.00465517  0.00566971  nan  nan  nan  nan  nan  nan  0.0013476  -0.001629  1.00158  0.0796902  0.0458636  0.00450633  0.0233666  -0.034295  0.0315611  0  0  0  0.223207  -0.5415  0.41513  -0.00881656  -0.0018258  -0.00233301  -0.0115575  0.0383711  0.000602175  -0.0594899  -0.0282948  -0.00679829  0.299801  0.269622  -0.00288841 
1699366626.365502000  0  0  11.5088  0.08014  0.00248405  0.00237777  nan  nan  nan  nan  nan  nan  0.0014672  -0.0018074  1.00175  0.0742838  0.0481001  0.00451015  0.024476  -0.0370744  0.0336587  0  0  0  0.220431  -0.570375  0.423785  -0.00893146  -0.00174678  -0.00239013  -0.0147456  0.0281414  -0.00286855  -0.0521793  -0.029405  -0.00650852  0.319769  0.265558  0.0353631 
1699366626.370505000  0  0  11.5443  0.0922044  -0.052219  0.00310013  nan  nan  nan  nan  nan  nan  0.0015923  -0.002  1.00192  0.0820784  0.0379629  0.00414669  0.0255696  -0.0399999  0.0357977  0  0  0  0.216905  -0.599909  0.431689  -0.00894323  -0.00156958  -0.00242392  -0.0023478  0.0344549  -0.00490026  -0.0579449  -0.0181743  -0.00656992  0.348684  0.271642  0.0269476 
1699366626.375514000  0  0  11.5137  0.119158  -0.0157217  0.00539774  nan  nan  nan  nan  nan  nan  0.0017229  -0.0022076  1.00211  0.0921665  0.0469698  0.00546252  0.0266438  -0.0430726  0.0379743  0  0  0  0.212629  -0.629012  0.438843  -0.00910097  -0.00135557  -0.00243405  -0.0140862  0.0429332  -0.00109797  -0.0657672  -0.0262362  -0.00749681  0.366743  0.272816  0.0074963 
1699366626.380488000  0  0  11.5375  0.0714417  -0.0120276  0.00264794  nan  nan  nan  nan  nan  nan  0.0018587  -0.002431  1.0023  0.0863338  0.0469416  0.00528813  0.0276947  -0.0462888  0.0401849  0  0  0  0.207603  -0.657364  0.445248  -0.00920622  -0.00125643  -0.00246619  -0.0145025  0.0319362  -0.00241047  -0.0577009  -0.0251888  -0.00715885  0.387965  0.255792  0.0384892 
1699366626.385529000  0  0  11.5835  0.0984663  -0.0609996  0.00443959  nan  nan  nan  nan  nan  nan  0.0019998  -0.0026707  1.00251  0.097099  0.0375481  0.00499351  0.0287185  -0.049645  0.0424256  0  0  0  0.201827  -0.684967  0.450902  -0.00922922  -0.00102501  -0.00251567  -0.00335342  0.0423904  -0.00533569  -0.0661298  -0.0148157  -0.00745698  0.411462  0.258304  0.0190749 
1699366626.390495000  0  0  11.5496  0.114166  -0.0218405  0.00534535  nan  nan  nan  nan  nan  nan  0.0021459  -0.0029276  1.00273  0.105501  0.0474769  0.00647868  0.0297117  -0.0531372  0.0446927  0  0  0  0.195301  -0.71182  0.455806  -0.00940318  -0.000792051  -0.00252322  -0.0165677  0.0488606  -0.00137467  -0.0718845  -0.023847  -0.00829076  0.433006  0.263073  0.0160906 
1699366626.395471000  0  0  11.5653  0.0641088  -0.0332571  0.00380726  nan  nan  nan  nan  nan  nan  0.0022968  -0.0032023  1.00295  0.0996202  0.0437989  0.00595162  0.0306703  -0.0567619  0.0469824  0  0  0  0.188025  -0.737923  0.45996  -0.00948616  -0.000663065  -0.00255241  -0.012538  0.037966  -0.00233119  -0.0634887  -0.0192522  -0.0079437  0.455878  0.243635  0.0318463 
1699366626.400527000  0  0  11.6169  0.0981715  -0.0691357  0.00547336  nan  nan  nan  nan  nan  nan  0.0024525  -0.0034955  1.0032  0.111924  0.0353602  0.00567691  0.0315907  -0.0605152  0.049291  0  0  0  0.179998  -0.763275  0.463365  -0.00951842  -0.000385917  -0.00260943  -0.0028787  0.0507653  -0.00575145  -0.0731134  -0.0100766  -0.00833629  0.4763  0.230976  0.0149459 
1699366626.405514000  0  0  11.5919  0.0993371  -0.0256523  0.00485977  nan  nan  nan  nan  nan  nan  0.0026127  -0.0038077  1.00345  0.11714  0.0459795  0.00724683  0.032469  -0.0643934  0.0516148  0  0  0  0.171222  -0.787878  0.466019  -0.00970447  -0.000143084  -0.00262015  -0.0173264  0.0534407  -0.00271909  -0.0753823  -0.0199115  -0.00897478  0.494843  0.234491  0.0290006 
1699366626.410503000  0  0  11.5913  0.0475268  -0.0493538  0.00468097  nan  nan  nan  nan  nan  nan  0.0027771  -0.0041396  1.00371  0.111763  0.0397811  0.00644204  0.0333016  -0.0683927  0.0539499  0  0  0  0.161696  -0.811731  0.467923  -0.00976943  1.89581e-05  -0.00264637  -0.0102413  0.0432205  -0.00261082  -0.067143  -0.0129108  -0.00867928  0.522662  0.217487  0.0282807 
1699366626.415515000  0  0  11.6305  0.0923427  -0.0705641  0.0059774  nan  nan  nan  nan  nan  nan  0.0029456  -0.0044918  1.00399  0.126143  0.0338666  0.00641949  0.0340847  -0.0725095  0.0562928  0  0  0  0.15142  -0.834833  0.469078  -0.00982328  0.000348282  -0.00269723  -0.00403533  0.0587895  -0.00495052  -0.0785892  -0.00651654  -0.00920875  0.538335  0.20108  0.01737 
1699366626.420520000  0  0  11.6066  0.0846433  -0.0248966  0.00486509  nan  nan  nan  nan  nan  nan  0.0031179  -0.0048649  1.00427  0.128844  0.0442351  0.00800794  0.0348146  -0.0767398  0.0586395  0  0  0  0.140394  -0.857186  0.469482  -0.0100095  0.000605322  -0.00270358  -0.0184598  0.0584193  -0.00226535  -0.0780829  -0.0162794  -0.00972208  0.549076  0.199563  0.0364072 
1699366626.425521000  0  0  11.614  0.042507  -0.0669181  0.00589005  nan  nan  nan  nan  nan  nan  0.0032936  -0.0052594  1.00457  0.125455  0.0343493  0.00676916  0.0354874  -0.0810801  0.0609863  0  0  0  0.128618  -0.878789  0.469136  -0.0100446  0.000817603  -0.00274294  -0.00695028  0.0510899  -0.00303752  -0.0716446  -0.00572782  -0.00949033  0.574116  0.186532  0.0212776 
1699366626.430503000  0  0  11.6524  0.0850682  -0.0774853  0.00626359  nan  nan  nan  nan  nan  nan  0.0034726  -0.0056759  1.00488  0.1402  0.0306448  0.00692766  0.0360995  -0.0855265  0.0633296  0  0  0  0.116092  -0.899642  0.46804  -0.0101123  0.00118723  -0.00278805  -0.00384538  0.0673808  -0.00529381  -0.0831259  -0.00172973  -0.0100299  0.594622  0.170884  0.0220038 
1699366626.435513000  0  0  11.6192  0.0621113  -0.034913  0.0049849  nan  nan  nan  nan  nan  nan  0.0036545  -0.0061148  1.00521  0.139225  0.0395568  0.00831717  0.0366478  -0.0900752  0.0656655  0  0  0  0.103298  -0.919744  0.466195  -0.0102868  0.00144915  -0.00280855  -0.0165803  0.0623397  -0.00221  -0.0787767  -0.0101947  -0.0103526  0.600523  0.163618  0.0412146 
1699366626.440521000  0  0  11.6102  0.0304826  -0.0867892  0.0069613  nan  nan  nan  nan  nan  nan  0.003839  -0.0065768  1.00554  0.138141  0.0277741  0.00681441  0.0371337  -0.0947227  0.0679903  0  0  0  0.0912255  -0.939097  0.463599  -0.0102972  0.00170853  -0.00283123  -0.00263062  0.0579535  -0.00181569  -0.0744055  0.00210985  -0.0102471  0.623565  0.154168  0.015455 
1699366626.445521000  0  0  11.6528  0.0734053  -0.0795002  0.00617945  nan  nan  nan  nan  nan  nan  0.0040258  -0.0070622  1.00589  0.15243  0.0282313  0.00747434  0.0375613  -0.099465  0.0703002  0  0  0  0.0799028  -0.9577  0.460253  -0.01039  0.00211262  -0.00288352  -0.00475918  0.0739055  -0.00434623  -0.0852192  0.00177109  -0.0108152  0.637206  0.142706  0.0309087 
1699366626.450487000  0  0  11.6333  0.0409235  -0.0407033  0.00543201  nan  nan  nan  nan  nan  nan  0.0042145  -0.0075716  1.00624  0.148716  0.0349726  0.00856716  0.037934  -0.104298  0.0725916  0  0  0  0.06933  -0.975552  0.456158  -0.0105404  0.0023854  -0.00289754  -0.0144814  0.0657731  -0.0028703  -0.0780373  -0.00474761  -0.0110176  0.636096  0.125085  0.0422763 
1699366626.455524000  0  0  11.6247  0.0346402  -0.0948483  0.00786929  nan  nan  nan  nan  nan  nan  0.004405  -0.0081054  1.00661  0.153436  0.021432  0.00683972  0.0382558  -0.109219  0.0748605  0  0  0  0.0595072  -0.992655  0.451312  -0.0105308  0.00272077  -0.00292638  0.00196462  0.0690398  -0.002348  -0.0792425  0.00894568  -0.0111062  0.659751  0.107396  0.0126957 
1699366626.460513000  0  0  11.6485  0.0586808  -0.0743702  0.00595071  nan  nan  nan  nan  nan  nan  0.004597  -0.0086639  1.00699  0.164306  0.0255064  0.00795699  0.0385303  -0.114224  0.0771034  0  0  0  0.0504344  -1.00901  0.445716  -0.0106305  0.00313088  -0.00296271  -0.00451623  0.0804932  -0.00353631  -0.0864082  0.00490495  -0.0115755  0.677594  0.103615  0.0413709 
1699366626.465526000  0  0  11.64  0.0154061  -0.0491847  0.00613788  nan  nan  nan  nan  nan  nan  0.0047903  -0.0092477  1.00738  0.158139  0.0287145  0.00851616  0.0387614  -0.119308  0.0793165  0  0  0  0.0421116  -1.02461  0.43937  -0.0107402  0.00341485  -0.00299175  -0.00944035  0.0696565  -0.00346134  -0.0766717  0.00173257  -0.0116589  0.674567  0.0824297  0.039865 
1699366626.470488000  0  0  11.631  0.016022  -0.0957481  0.00823614  nan  nan  nan  nan  nan  nan  0.0049846  -0.0098571  1.00779  0.163551  0.0164813  0.00687281  0.0389527  -0.124469  0.0814959  0  0  0  0.0345388  -1.03946  0.432275  -0.010716  0.00378769  -0.00302815  0.00555307  0.0739799  -0.00295874  -0.0785236  0.0139097  -0.0117834  0.690374  0.063527  0.014882 
1699366626.475514000  0  0  11.6297  0.0379649  -0.0590766  0.00565972  nan  nan  nan  nan  nan  nan  0.0051797  -0.0104925  1.0082  0.173442  0.0230943  0.00842029  0.039108  -0.129701  0.083638  0  0  0  0.027716  -1.05357  0.424429  -0.0108283  0.00421648  -0.00305124  -0.00389092  0.0838859  -0.00219458  -0.0845328  0.00697108  -0.0122446  0.701772  0.0540192  0.0516996 
1699366626.480525000  0  0  11.6258  -0.0114559  -0.05094  0.00690137  nan  nan  nan  nan  nan  nan  0.0053756  -0.0111543  1.00862  0.166276  0.0228726  0.00844014  0.0392311  -0.135003  0.0857389  0  0  0  0.0216432  -1.06692  0.415833  -0.0108937  0.00451653  -0.0030798  -0.00413943  0.0721528  -0.0029656  -0.0736858  0.00706967  -0.0122911  0.700821  0.0368391  0.0366434 
1699366626.485509000  0  0  11.6346  0.00813258  -0.0871903  0.00811813  nan  nan  nan  nan  nan  nan  0.005572  -0.0118427  1.00906  0.175071  0.0128398  0.00710626  0.0393257  -0.140369  0.087795  0  0  0  0.0163204  -1.07952  0.406488  -0.0108679  0.00494622  -0.00312291  0.00816682  0.0812857  -0.00367866  -0.078845  0.0167678  -0.0125068  0.709109  0.0201174  0.0235912 
1699366626.490515000  0  0  11.6024  0.0157738  -0.0410879  0.00555676  nan  nan  nan  nan  nan  nan  0.0057688  -0.0125581  1.0095  0.181827  0.0210303  0.00894057  0.0393956  -0.145797  0.0898026  0  0  0  0.0117476  -1.09137  0.396392  -0.0109763  0.00537127  -0.00312643  -0.0029979  0.08675  -0.000771905  -0.0816083  0.0080115  -0.0129101  0.719248  0.00846995  0.0596414 
1699366626.495519000  0  0  11.5875  -0.0279277  -0.0499233  0.00772123  nan  nan  nan  nan  nan  nan  0.0059659  -0.0133007  1.00995  0.175477  0.0165659  0.0082562  0.0394444  -0.151282  0.0917577  0  0  0  0.0079248  -1.10248  0.385546  -0.0109909  0.00570035  -0.00315316  0.00248865  0.0761745  -0.000975287  -0.0716387  0.0121423  -0.0129467  0.714931  -0.0118628  0.0329519 
1699366626.500516000  0  0  11.626  0.000911326  -0.0748376  0.0083948  nan  nan  nan  nan  nan  nan  0.0061632  -0.014071  1.01042  0.185464  0.00937447  0.00732851  0.0394761  -0.15682  0.0936568  0  0  0  0.0048521  -1.11283  0.37395  -0.0109644  0.00616348  -0.00320365  0.0112741  0.0875648  -0.0040123  -0.0779313  0.0187617  -0.013227  0.715145  -0.0229325  0.0273354 
1699366626.505490000  0  0  11.5947  -0.00898429  -0.0271864  0.00626631  nan  nan  nan  nan  nan  nan  0.0063607  -0.014869  1.01089  0.187739  0.0179936  0.00924396  0.0394942  -0.162409  0.095496  0  0  0  0.0025293  -1.12243  0.361605  -0.0110632  0.00658001  -0.00321544  -0.000170636  0.0875062  -0.00178623  -0.0762826  0.00942231  -0.0135663  0.719768  -0.0323125  0.0573338 
1699366626.510509000  0  0  11.5325  -0.0474119  -0.0463038  0.00851212  nan  nan  nan  nan  nan  nan  0.0065581  -0.0156951  1.01137  0.183081  0.0111012  0.00814258  0.0395026  -0.168044  0.0972716  0  0  0  0.0009565  -1.13128  0.348509  -0.0110356  0.00692871  -0.00321238  0.00871702  0.0784384  0.00166336  -0.0679574  0.0157858  -0.0136202  0.720032  -0.0526219  0.0298004 
1699366626.515493000  0  0  11.5767  -0.0112466  -0.0547412  0.00804099  nan  nan  nan  nan  nan  nan  0.0067557  -0.0165495  1.01186  0.193977  0.00791723  0.0079092  0.039505  -0.173721  0.0989798  0  0  0  0.0001337  -1.13939  0.334663  -0.0110233  0.00742373  -0.00326089  0.0125233  0.0912067  -0.00173521  -0.0751874  0.0182018  -0.0139281  0.714218  -0.057974  0.0387683 
1699366626.520489000  0  0  11.5834  -0.0337378  -0.0113775  0.00667883  nan  nan  nan  nan  nan  nan  0.0069532  -0.0174324  1.01236  0.192899  0.0158666  0.00972475  0.0395052  -0.179436  0.100617  0  0  0  6.09e-05  -1.14674  0.320068  -0.0110981  0.0078297  -0.00329011  0.00217368  0.0879325  -0.00322352  -0.0702215  0.00942635  -0.0142174  0.713513  -0.0639674  0.0586891 
1699366626.525507000  0  0  11.5146  -0.0554638  -0.037685  0.0088257  nan  nan  nan  nan  nan  nan  0.0071507  -0.0183439  1.01287  0.190969  0.00733739  0.00832089  0.0395069  -0.185187  0.102179  0  0  0  0.0007381  -1.15334  0.304722  -0.0110396  0.00821587  -0.00328882  0.0133613  0.0824176  0.000790259  -0.064783  0.017251  -0.0143041  0.706931  -0.0833395  0.0327199 
1699366626.530516000  0  0  11.5136  -0.0178964  -0.031765  0.00816917  nan  nan  nan  nan  nan  nan  0.0073483  -0.0192843  1.01338  0.201644  0.00684613  0.00858349  0.0395138  -0.190968  0.103663  0  0  0  0.0021653  -1.1592  0.288626  -0.0110272  0.00871236  -0.00330039  0.0139638  0.0941161  0.00095734  -0.0718213  0.0167553  -0.0146436  0.696549  -0.0906191  0.0443215 
1699366626.536484000  0  0  11.5164  -0.0660145  0.00104797  0.00765536  nan  nan  nan  nan  nan  nan  0.0075459  -0.0202537  1.01391  0.194566  0.0124987  0.009933  0.0395298  -0.196777  0.105064  0  0  0  0.0043425  -1.1643  0.27178  -0.0110312  0.00898494  -0.00324409  0.00686905  0.0837431  -0.00144255  -0.0603669  0.0101308  -0.01481  0.687405  -0.0952989  0.0524078 
1699366626.540512000  0  0  11.4723  -0.0692277  -0.0299313  0.0090445  nan  nan  nan  nan  nan  nan  0.0077436  -0.0212521  1.01443  0.197188  0.00419491  0.00859877  0.0395585  -0.20261  0.106379  0  0  0  0.0072697  -1.16865  0.254185  -0.0109941  0.00951811  -0.00333295  0.0179251  0.0844929  0.00106061  -0.0601851  0.017768  -0.0149666  0.692158  -0.103603  0.0366094 
1699366626.545519000  0  0  11.456  -0.0325063  -0.00947712  0.00839308  nan  nan  nan  nan  nan  nan  0.0079415  -0.0222798  1.01497  0.206679  0.00684002  0.00948966  0.0396037  -0.208463  0.107605  0  0  0  0.0109469  -1.17225  0.235839  -0.0109924  0.0100185  -0.00334827  0.0147564  0.0944843  0.00225969  -0.0661942  0.013997  -0.0153476  0.673999  -0.109818  0.0485622 
1699366626.550519000  0  0  11.4717  -0.0693924  0.0165016  0.00798923  nan  nan  nan  nan  nan  nan  0.0081397  -0.0233368  1.01551  0.201107  0.0117711  0.0107539  0.0396692  -0.214331  0.108738  0  0  0  0.0153741  -1.17511  0.217408  -0.0110126  0.0104079  -0.00337931  0.00890633  0.0864138  -0.00111976  -0.0570857  0.00819132  -0.0155429  0.663974  -0.108363  0.0555633 
1699366626.555507000  0  0  11.4312  -0.072866  -0.0177093  0.00898571  nan  nan  nan  nan  nan  nan  0.0083382  -0.0244231  1.01606  0.202905  0.00312004  0.0092989  0.0397587  -0.220212  0.10978  0  0  0  0.0205514  -1.17721  0.199724  -0.0109203  0.0108451  -0.00338635  0.0205369  0.0866525  0.000835793  -0.0556484  0.0160349  -0.0156313  0.657697  -0.112103  0.0439916 
1699366626.560553000  0  0  11.4064  -0.0501634  0.0163875  0.00848529  nan  nan  nan  nan  nan  nan  0.0085373  -0.0255389  1.01661  0.209365  0.00908717  0.010894  0.039876  -0.226102  0.110736  0  0  0  0.0264786  -1.17856  0.182791  -0.0109345  0.0113163  -0.00338273  0.0134144  0.0928402  0.00249965  -0.0586731  0.00882936  -0.0160703  0.640119  -0.114005  0.0546368 
1699366626.565526000  0  0  11.3817  -0.0826366  0.0243082  0.00841002  nan  nan  nan  nan  nan  nan  0.008737  -0.0266842  1.01716  0.203208  0.00905533  0.0111385  0.0400248  -0.231997  0.111609  0  0  0  0.0331558  -1.17916  0.166607  -0.010903  0.0117018  -0.00338741  0.0142535  0.0835706  0.00230104  -0.0493477  0.007998  -0.016152  0.619272  -0.122198  0.0563943 
1699366626.570525000  0  0  11.3879  -0.0727837  -0.00111005  0.00924705  nan  nan  nan  nan  nan  nan  0.0089376  -0.0278589  1.01772  0.20805  0.00349856  0.010324  0.0402088  -0.237893  0.112403  0  0  0  0.040583  -1.17902  0.151174  -0.0108218  0.0121673  -0.00340448  0.0220282  0.0888146  0.00118248  -0.0510649  0.0127136  -0.0163451  0.615364  -0.114745  0.0478626 
1699366626.575523000  0  0  11.3563  -0.060066  0.0248184  0.00904049  nan  nan  nan  nan  nan  nan  0.0091392  -0.0290631  1.01829  0.212019  0.00846338  0.0117227  0.0404318  -0.243786  0.113122  0  0  0  0.0487602  -1.17812  0.13649  -0.0108038  0.0126265  -0.00340137  0.0164679  0.0919994  0.00321695  -0.0519228  0.00673564  -0.0166666  0.597822  -0.111605  0.0536597 
1699366626.580523000  0  0  11.3229  -0.0946197  0.0384818  0.00846675  nan  nan  nan  nan  nan  nan  0.009342  -0.0302967  1.01885  0.205447  0.0101257  0.0123291  0.0406977  -0.249673  0.11377  0  0  0  0.0576874  -1.17647  0.122557  -0.0107725  0.0129974  -0.00339167  0.0154244  0.082345  0.00378733  -0.0423491  0.00423567  -0.0167356  0.578851  -0.115932  0.0615216 
1699366626.585469000  0  0  11.3316  -0.0888749  0.0103079  0.00916861  nan  nan  nan  nan  nan  nan  0.0095462  -0.0315598  1.01942  0.208573  0.00444148  0.0114796  0.04101  -0.255549  0.114349  0  0  0  0.0673646  -1.17408  0.109373  -0.0106812  0.0134552  -0.00341174  0.0235954  0.0857819  0.0024212  -0.0426637  0.00918956  -0.0168936  0.570256  -0.10516  0.0543286 
1699366626.590507000  0  0  11.3274  -0.0763713  0.0385251  0.00946853  nan  nan  nan  nan  nan  nan  0.0097522  -0.0328522  1.02  0.211846  0.0103581  0.0130901  0.0413725  -0.261412  0.114865  0  0  0  0.0777918  -1.17093  0.0969394  -0.0106669  0.013894  -0.00341198  0.0171014  0.0890157  0.00231942  -0.0430171  0.00227273  -0.0172658  0.5485  -0.0979592  0.0543013 
1699366626.595527000  0  0  11.2719  -0.105227  0.0451213  0.00886412  nan  nan  nan  nan  nan  nan  0.0099601  -0.0341739  1.02057  0.20603  0.0109764  0.0134811  0.0417891  -0.267257  0.11532  0  0  0  0.088969  -1.16703  0.0852559  -0.0106198  0.0142632  -0.00338938  0.0176829  0.0801472  0.00489311  -0.034502  0.000920232  -0.0173176  0.527873  -0.0987088  0.0623741 
1699366626.600534000  0  0  11.2469  -0.102103  0.0348068  0.00943995  nan  nan  nan  nan  nan  nan  0.0101702  -0.0355247  1.02115  0.208306  0.00826691  0.013261  0.0422635  -0.273081  0.115718  0  0  0  0.100896  -1.16238  0.0743223  -0.0105393  0.0146812  -0.00337723  0.0223567  0.0820553  0.00631729  -0.0341334  0.00285495  -0.0175054  0.518233  -0.0958791  0.057055 
1699366626.605502000  0  0  11.2764  -0.0956107  0.0577292  0.00961588  nan  nan  nan  nan  nan  nan  0.0103828  -0.0369047  1.02173  0.209296  0.0142915  0.0148772  0.0427994  -0.27888  0.116064  0  0  0  0.113573  -1.15699  0.0641387  -0.0105309  0.0151141  -0.00339608  0.0160499  0.0835056  0.00330692  -0.0325796  -0.00395137  -0.0178053  0.490954  -0.0791058  0.0578541 
1699366626.610517000  0  0  11.1927  -0.116396  0.0586588  0.00912695  nan  nan  nan  nan  nan  nan  0.0105983  -0.0383135  1.02231  0.20452  0.0145197  0.0151828  0.0434005  -0.28465  0.116361  0  0  0  0.127001  -1.15084  0.0547051  -0.0104755  0.0154623  -0.00334931  0.0174646  0.0756842  0.00843219  -0.0254289  -0.00476207  -0.0178539  0.466738  -0.0735065  0.0644526 
1699366626.615515000  0  0  11.165  -0.102935  0.0539722  0.00921759  nan  nan  nan  nan  nan  nan  0.0108169  -0.0397511  1.02289  0.207188  0.0139188  0.0154277  0.0440706  -0.290387  0.116613  0  0  0  0.141178  -1.14394  0.0460216  -0.0104197  0.0158742  -0.00333214  0.0197746  0.0782482  0.0103404  -0.0258245  -0.00484067  -0.0180446  0.443457  -0.0634102  0.0652266 
1699366626.620475000  0  0  11.2758  -0.113384  0.0668417  0.00947268  nan  nan  nan  nan  nan  nan  0.0110391  -0.0412173  1.02348  0.205157  0.017741  0.0165254  0.0448135  -0.296088  0.116823  0  0  0  0.156105  -1.13629  0.038088  -0.0103867  0.0162761  -0.00339214  0.0164048  0.0782191  0.000428498  -0.0215725  -0.00914406  -0.0181955  0.425235  -0.0495579  0.0635468 
1699366626.625520000  0  0  11.1878  -0.124239  0.0654876  0.0093506  nan  nan  nan  nan  nan  nan  0.0112652  -0.0427119  1.02406  0.202287  0.0182669  0.016913  0.0456329  -0.301749  0.116995  0  0  0  0.171782  -1.1279  0.0309044  -0.0103319  0.016623  -0.00333731  0.0177347  0.0729619  0.00636598  -0.0166567  -0.0100804  -0.0182851  0.40172  -0.038236  0.0659686 
1699366626.630521000  0  0  11.1495  -0.115778  0.0695619  0.00874054  nan  nan  nan  nan  nan  nan  0.0114956  -0.0442347  1.02465  0.202608  0.0202506  0.0176602  0.0465326  -0.307366  0.117133  0  0  0  0.188209  -1.11875  0.0244709  -0.0102967  0.0169969  -0.00332132  0.0171805  0.0727354  0.00895913  -0.015062  -0.0125279  -0.0183868  0.370126  -0.0238669  0.0746114 
1699366626.635496000  0  0  11.2174  -0.127137  0.075185  0.00908857  nan  nan  nan  nan  nan  nan  0.0117306  -0.0457855  1.02523  0.199867  0.0225107  0.0183946  0.0475163  -0.312935  0.117241  0  0  0  0.205387  -1.10885  0.0187873  -0.010254  0.0173623  -0.0033461  0.0161379  0.0712365  0.00249772  -0.0104946  -0.0150357  -0.0184574  0.350823  -0.0120412  0.0709669 
1699366626.640473000  0  0  11.2228  -0.133603  0.0781838  0.00973884  nan  nan  nan  nan  nan  nan  0.0119709  -0.047364  1.02582  0.198153  0.0238895  0.0189662  0.0485877  -0.318453  0.117322  0  0  0  0.223314  -1.09821  0.0138537  -0.0102112  0.0177113  -0.00334734  0.0164483  0.0697508  0.00131539  -0.00706021  -0.0166832  -0.0186229  0.332161  -0.00288238  0.0644931 
1699366626.645501000  0  0  11.1602  -0.128758  0.0869168  0.00818186  nan  nan  nan  nan  nan  nan  0.0122167  -0.0489699  1.02641  0.196412  0.0278064  0.0200376  0.0497506  -0.323916  0.11738  0  0  0  0.241991  -1.08681  0.0096701  -0.0101892  0.0180435  -0.00331838  0.0139053  0.0668206  0.00570139  -0.00383574  -0.0207486  -0.0185519  0.292804  0.0170533  0.0832454 
1699366626.650524000  0  0  11.2049  -0.142293  0.0811687  0.00867469  nan  nan  nan  nan  nan  nan  0.0124685  -0.050603  1.02699  0.192044  0.0285704  0.0203958  0.0510089  -0.32932  0.11742  0  0  0  0.261418  -1.07466  0.0062366  -0.0101463  0.0183476  -0.00333083  0.0151168  0.0632472  0.000982185  0.00191239  -0.0214656  -0.0185633  0.266992  0.0351464  0.0771997 
1699366626.655496000  0  0  11.196  -0.133206  0.0851993  0.0102992  nan  nan  nan  nan  nan  nan  0.0127269  -0.052263  1.02758  0.192549  0.031062  0.0212325  0.0523661  -0.334661  0.117444  0  0  0  0.281596  -1.06176  0.003553  -0.0101218  0.018696  -0.00332965  0.0143378  0.0644126  0.00156149  0.00267255  -0.0239948  -0.0188521  0.241824  0.0503535  0.0597815 
1699366626.660503000  0  0  11.139  -0.139336  0.10252  0.00729612  nan  nan  nan  nan  nan  nan  0.0129924  -0.0539495  1.02817  0.188195  0.0369359  0.0225468  0.0538261  -0.339936  0.117457  0  0  0  0.302523  -1.04812  0.0016194  -0.0101235  0.018972  -0.00329848  0.00977899  0.0588118  0.00522494  0.00813416  -0.0297232  -0.0185484  0.203837  0.0684136  0.0942824 
1699366626.665542000  0  0  11.1388  -0.151311  0.0875498  0.00849704  nan  nan  nan  nan  nan  nan  0.0132654  -0.0556623  1.02876  0.183981  0.0362845  0.0226011  0.0553926  -0.345141  0.117461  0  0  0  0.3242  -1.03372  0.0004359  -0.0100825  0.0192449  -0.00329685  0.0132281  0.0548757  0.00435894  0.0132735  -0.0287107  -0.0185558  0.180506  0.0890388  0.079345 
1699366626.670490000  0  0  11.1684  -0.138654  0.096497  0.0106456  nan  nan  nan  nan  nan  nan  0.0135465  -0.0574008  1.02934  0.185088  0.0398268  0.0236422  0.0570693  -0.350272  0.117462  0  0  0  0.346627  -1.01857  2.3e-06  -0.0100772  0.0195618  -0.00329681  0.0112768  0.0578643  0.00211555  0.0130574  -0.0320687  -0.0188881  0.157179  0.102038  0.0558118 
1699366626.675513000  0  0  11.1609  -0.144156  0.118304  0.00630669  nan  nan  nan  nan  nan  nan  0.0138363  -0.0591649  1.02993  0.180231  0.0472198  0.0251247  0.0588601  -0.355325  0.117462  0  0  0  0.369804  -1.00267  0  -0.010118  0.0198666  -0.00330957  0.00500417  0.0528404  0.00192807  0.0185822  -0.0390262  -0.0183756  0.117356  0.122433  0.104922 
1699366626.681492000  0  0  11.1748  -0.149845  0.0984685  0.00875118  nan  nan  nan  nan  nan  nan  0.0141353  -0.0609539  1.03052  0.175641  0.046799  0.0251634  0.0607686  -0.360298  0.117462  0  0  0  0.393732  -0.986027  0  -0.0100556  0.019881  -0.00322797  0.00834105  0.0495536  -0.000214443  0.0236531  -0.0378169  -0.0183531  0.082082  0.150978  0.0741415 
1699366626.686481000  0  0  11.1356  -0.137593  0.110398  0.00784849  nan  nan  nan  nan  nan  nan  0.0144441  -0.0627677  1.0311  0.176334  0.0539821  0.0268119  0.0627986  -0.365184  0.117462  0  0  0  0.418409  -0.96863  0  -0.0101066  0.0201931  -0.00321297  0.00259354  0.0508172  0.00317971  0.0234789  -0.0443244  -0.0182931  0.05918  0.186989  0.0848252 
1699366626.690474000  0  0  11.1807  -0.14818  0.129813  0.00336287  nan  nan  nan  nan  nan  nan  0.0147635  -0.0646056  1.03169  0.171321  0.0606149  0.0280156  0.0649539  -0.369983  0.117462  0  0  0  0.443836  -0.950482  0  -0.0102231  0.0207509  -0.00336229  -0.00258656  0.0463282  -0.00105755  0.0287177  -0.0502606  -0.0176059  0.0321568  0.202771  0.134023 
1699366626.695452000  0  0  11.1246  -0.158714  0.104057  0.00629785  nan  nan  nan  nan  nan  nan  0.0150939  -0.0664674  1.03228  0.165619  0.0600584  0.0279043  0.0672383  -0.374688  0.117462  0  0  0  0.470013  -0.931585  0  -0.0102312  0.0209638  -0.00334085  0.00188784  0.0402258  0.00250431  0.0343694  -0.0484495  -0.0175165  0.00122944  0.237621  0.0964424 
1699366626.700489000  0  0  11.1246  -0.135512  0.107029  0.00759732  nan  nan  nan  nan  nan  nan  0.0154361  -0.0683524  1.03287  0.166947  0.0647851  0.0291181  0.0696553  -0.379297  0.117462  0  0  0  0.49694  -0.911938  0  -0.0102819  0.0212118  -0.00333471  -0.000715128  0.0434906  0.00283953  0.0330033  -0.0521043  -0.0176501  -0.0326067  0.265301  0.0815348 
1699366626.705475000  0  0  11.1324  -0.152328  0.131171  0.00139398  nan  nan  nan  nan  nan  nan  0.0157907  -0.0702602  1.03345  0.160185  0.0735187  0.0304128  0.0722089  -0.383806  0.117462  0  0  0  0.524618  -0.89154  0  -0.0103746  0.0213844  -0.003326  -0.00796336  0.037198  0.0011135  0.0396404  -0.059512  -0.016524  -0.0600359  0.285167  0.147815 
1699366626.711465000  0  0  11.111  -0.172393  0.102502  0.00665163  nan  nan  nan  nan  nan  nan  0.0161584  -0.0721903  1.03404  0.151472  0.0727068  0.0299704  0.0749027  -0.388211  0.117462  0  0  0  0.553045  -0.870393  0  -0.0103446  0.0211767  -0.00319625  -0.00307515  0.0293531  0.00112834  0.0477103  -0.0566818  -0.0163944  -0.0941494  0.316469  0.0807981 
1699366626.715492000  0  0  11.0876  -0.143872  0.103351  0.00632472  nan  nan  nan  nan  nan  nan  0.0165399  -0.0741421  1.03463  0.152834  0.0774148  0.0311316  0.0777406  -0.392509  0.117462  0  0  0  0.582222  -0.848496  0  -0.0104741  0.021697  -0.00328431  -0.00496767  0.0319138  0.00364616  0.0458442  -0.0601462  -0.0164021  -0.134023  0.346643  0.0849624 
1699366626.720598000  0  0  11.0512  -0.15393  0.128504  0.000823438  nan  nan  nan  nan  nan  nan  0.016936  -0.0761152  1.03522  0.145627  0.0879854  0.0324434  0.0807262  -0.396695  0.117462  0  0  0  0.612149  -0.825849  0  -0.010599  0.0217631  -0.00324381  -0.0136478  0.0247927  0.00556259  0.0523736  -0.068899  -0.015145  -0.173978  0.376862  0.141157 
1699366626.725518000  0  0  11.0929  -0.178996  0.11696  0.00476185  nan  nan  nan  nan  nan  nan  0.0173475  -0.0781089  1.0358  0.137129  0.0895476  0.0322333  0.0838633  -0.400766  0.117462  0  0  0  0.642826  -0.802451  0  -0.0106739  0.021875  -0.00325815  -0.0118219  0.017718  0.000819614  0.0599214  -0.0684129  -0.0148422  -0.193285  0.395478  0.0888985 
1699366626.730496000  0  0  11.0836  -0.155012  0.103755  0.0040895  nan  nan  nan  nan  nan  nan  0.0177749  -0.0801226  1.03639  0.136753  0.0916679  0.0328265  0.0871557  -0.404718  0.117462  0  0  0  0.674254  -0.778304  0  -0.0107566  0.0220052  -0.00324181  -0.010326  0.0196586  0.00170849  0.0591293  -0.0685704  -0.0146996  -0.233966  0.423338  0.0958777 
1699366626.735452000  0  0  10.9929  -0.156056  0.135593  -0.000251716  nan  nan  nan  nan  nan  nan  0.0182193  -0.0821558  1.03698  0.13208  0.103781  0.0343292  0.0906071  -0.408548  0.117462  0  0  0  0.706431  -0.753407  0  -0.0109183  0.022074  -0.00318508  -0.019919  0.0150281  0.00871912  0.0627153  -0.0785527  -0.0134949  -0.264869  0.451499  0.138096 
1699366626.740521000  0  0  11.052  -0.183439  0.1253  0.00300324  nan  nan  nan  nan  nan  nan  0.0186813  -0.0842079  1.03756  0.120436  0.106826  0.033807  0.0942213  -0.412251  0.117462  0  0  0  0.739358  -0.727759  0  -0.0110343  0.0220588  -0.00319854  -0.0197258  0.00487106  0.00214888  0.0727342  -0.07902  -0.0128165  -0.302277  0.476384  0.0906249 
1699366626.745478000  0  0  11.0992  -0.16348  0.104546  0.00224373  nan  nan  nan  nan  nan  nan  0.0191618  -0.0862781  1.03815  0.119051  0.10685  0.033997  0.0980016  -0.415824  0.117462  0  0  0  0.772687  -0.701362  0  -0.0111355  0.0221177  -0.00321297  -0.0159502  0.00685755  -0.00168284  0.0723778  -0.0767044  -0.0126206  -0.338915  0.496588  0.0981596 
1699366626.750506000  0  0  11.0044  -0.155431  0.140236  -0.000645553  nan  nan  nan  nan  nan  nan  0.0196616  -0.0883659  1.03874  0.115178  0.120388  0.035471  0.101947  -0.419263  0.117462  0  0  0  0.805342  -0.674215  0  -0.0113375  0.0221261  -0.00315442  -0.0269804  0.00361219  0.00605276  0.0745771  -0.0877017  -0.0114471  -0.375247  0.526383  0.122541 
1699366626.755533000  0  0  11.0027  -0.183085  0.124434  0.00104005  nan  nan  nan  nan  nan  nan  0.0201815  -0.0904705  1.03933  0.101803  0.123534  0.0345017  0.106054  -0.422565  0.117462  0  0  0  0.837247  -0.646318  0  -0.0114959  0.0220409  -0.00315727  -0.0261383  -0.00900703  0.00439377  0.0856769  -0.087855  -0.0103929  -0.422058  0.559398  0.0909283 
1699366626.760476000  0  0  11.0624  -0.167721  0.10582  -0.000145775  nan  nan  nan  nan  nan  nan  0.0207224  -0.0925913  1.03991  0.100256  0.124017  0.0346943  0.110318  -0.425725  0.117462  0  0  0  0.868401  -0.61767  0  -0.0116377  0.0220572  -0.00317785  -0.0233454  -0.00683559  -0.000370078  0.0850111  -0.0856243  -0.0100571  -0.446661  0.576103  0.102393 
1699366626.765528000  0  0  11.0154  -0.152837  0.137264  -0.00133509  nan  nan  nan  nan  nan  nan  0.0212849  -0.0947275  1.0405  0.0967832  0.137189  0.0358651  0.114736  -0.428741  0.117462  0  0  0  0.898806  -0.588274  0  -0.0118732  0.0219835  -0.00314122  -0.0346247  -0.00844219  0.00378192  0.0861487  -0.0957788  -0.00899018  -0.486893  0.606637  0.10659 
1699366626.770536000  0  0  11.0162  -0.180022  0.119337  -0.00191197  nan  nan  nan  nan  nan  nan  0.02187  -0.0968785  1.04109  0.0818655  0.140867  0.0344447  0.119305  -0.431608  0.117462  0  0  0  0.928461  -0.558944  0  -0.012078  0.0218375  -0.00315434  -0.0346248  -0.0226199  0.00195672  0.0980705  -0.0960379  -0.00743109  -0.542204  0.644876  0.0982105 
1699366626.775520000  0  0  11.0281  -0.169919  0.100479  -0.0025894  nan  nan  nan  nan  nan  nan  0.0224782  -0.0990434  1.04168  0.0795147  0.141122  0.0344695  0.12402  -0.434331  0.117462  0  0  0  0.957366  -0.530364  0  -0.0122531  0.0217659  -0.00316374  -0.0310427  -0.0217659  0.00113532  0.0976559  -0.0931661  -0.00701954  -0.558597  0.65617  0.102563 
1699366626.780515000  0  0  11.0449  -0.147827  0.125352  -0.00230623  nan  nan  nan  nan  nan  nan  0.0231104  -0.101222  1.04226  0.0771718  0.152991  0.0353826  0.128877  -0.436913  0.117462  0  0  0  0.985521  -0.502533  0  -0.0125349  0.0216865  -0.00316793  -0.0418564  -0.0215041  0.000472395  0.0971045  -0.101683  -0.00618988  -0.597707  0.684784  0.0907267 
1699366626.785507000  0  0  11.0523  -0.170649  0.122082  -0.00484175  nan  nan  nan  nan  nan  nan  0.0237672  -0.103412  1.04285  0.0634472  0.159667  0.0340368  0.133874  -0.439358  0.117462  0  0  0  1.01293  -0.475453  0  -0.0127974  0.0214815  -0.00318423  -0.0459247  -0.0345392  -0.00126853  0.107261  -0.104626  -0.00422398  -0.645502  0.718398  0.102762 
1699366626.790469000  0  0  11.0074  -0.160116  0.0950245  -0.00424073  nan  nan  nan  nan  nan  nan  0.0244494  -0.105615  1.04344  0.0593906  0.159227  0.0337005  0.139005  -0.441669  0.117462  0  0  0  1.03958  -0.449122  0  -0.0130178  0.0213533  -0.00317986  -0.0405808  -0.0362353  0.00246641  0.107935  -0.100658  -0.00376866  -0.672772  0.736007  0.0906958 
1699366626.795529000  0  0  11.0633  -0.133637  0.10559  -0.0036104  nan  nan  nan  nan  nan  nan  0.0251575  -0.107829  1.04403  0.0578935  0.168342  0.0343204  0.144268  -0.44385  0.117462  0  0  0  1.06549  -0.423542  0  -0.0133169  0.021164  -0.00320646  -0.0489346  -0.0346536  -0.00112579  0.105896  -0.105966  -0.00316213  -0.706972  0.763704  0.0767512 
1699366626.800550000  0  0  11.0869  -0.148329  0.109951  -0.00763419  nan  nan  nan  nan  nan  nan  0.0258923  -0.110053  1.04461  0.0460319  0.17633  0.0330271  0.149659  -0.445906  0.117462  0  0  0  1.09064  -0.398712  0  -0.0136355  0.020918  -0.00322423  -0.0551971  -0.045638  -0.00353203  0.113642  -0.109968  -0.00100565  -0.748848  0.791801  0.105484 
1699366626.805525000  0  0  10.99  -0.150256  0.0808151  -0.00635987  nan  nan  nan  nan  nan  nan  0.0266543  -0.112288  1.0452  0.0384225  0.176036  0.0320158  0.155174  -0.447839  0.117462  0  0  0  1.11504  -0.374631  0  -0.0138896  0.0206711  -0.00319322  -0.0490388  -0.0517182  0.00415442  0.11718  -0.105687  -0.000159469  -0.777547  0.810686  0.0810931 
1699366626.810494000  0  0  11.0657  -0.111489  0.0829962  -0.00571582  nan  nan  nan  nan  nan  nan  0.0274442  -0.114531  1.04579  0.0394691  0.183213  0.0328151  0.160808  -0.449653  0.117462  0  0  0  1.1387  -0.351301  0  -0.0142327  0.0204998  -0.00324856  -0.0556428  -0.0473445  -0.000566404  0.112229  -0.108839  4.74886e-05  -0.809531  0.835327  0.0709728 
1699366626.815500000  0  0  11.1377  -0.124681  0.0946725  -0.0102472  nan  nan  nan  nan  nan  nan  0.0282626  -0.116784  1.04637  0.0285472  0.192615  0.0314236  0.166559  -0.451353  0.117462  0  0  0  1.1616  -0.32872  0  -0.0146075  0.0201839  -0.00328849  -0.0649384  -0.0572571  -0.00636365  0.118542  -0.113988  0.00238358  -0.841228  0.859349  0.104255 
1699366626.820523000  0  0  11.0587  -0.12916  0.059546  -0.00787865  nan  nan  nan  nan  nan  nan  0.02911  -0.119045  1.04696  0.019888  0.191295  0.0300762  0.172423  -0.452942  0.117462  0  0  0  1.18376  -0.30689  0  -0.0148983  0.0198676  -0.00327035  -0.0578826  -0.0644656  -0.000150787  0.122595  -0.108351  0.00326343  -0.869557  0.877736  0.0658488 
1699366626.825477000  0  0  11.0806  -0.0802356  0.0531054  -0.00775404  nan  nan  nan  nan  nan  nan  0.029987  -0.121313  1.04755  0.0222676  0.196821  0.0309865  0.178396  -0.454423  0.117462  0  0  0  1.20516  -0.285809  0  -0.0152598  0.0196268  -0.00329765  -0.0615919  -0.058761  -0.000230981  0.115828  -0.109518  0.00321903  -0.905149  0.901357  0.0647352 
1699366626.830522000  0  0  11.1331  -0.0939459  0.0786002  -0.0124005  nan  nan  nan  nan  nan  nan  0.0308941  -0.123589  1.04814  0.0115702  0.20828  0.0293608  0.184473  -0.455801  0.117462  0  0  0  1.22582  -0.265479  0  -0.0156889  0.0192557  -0.00333886  -0.0732991  -0.0687261  -0.00385056  0.12142  -0.11655  0.00578869  -0.929168  0.915063  0.0971198 
1699366626.836487000  0  0  11.1127  -0.0969335  0.0180387  -0.0091933  nan  nan  nan  nan  nan  nan  0.0318319  -0.125871  1.04872  0.00208261  0.202229  0.0277234  0.190653  -0.457079  0.117462  0  0  0  1.24572  -0.245899  0  -0.0158872  0.0183734  -0.00323583  -0.061971  -0.0756016  -0.0028271  0.124996  -0.105109  0.00654714  -0.956097  0.930922  0.0494449 
1699366626.840529000  0  0  11.1244  -0.048678  0.0269417  -0.00982998  nan  nan  nan  nan  nan  nan  0.0328008  -0.128159  1.04931  0.00638607  0.210238  0.0289747  0.196929  -0.458261  0.117462  0  0  0  1.26488  -0.227068  0  -0.0164039  0.0185714  -0.00336033  -0.0685402  -0.0689279  -0.00148768  0.116905  -0.10933  0.0063521  -0.978171  0.95195  0.0593538 
1699366626.845555000  0  0  11.1466  -0.0662955  0.0627477  -0.0144272  nan  nan  nan  nan  nan  nan  0.0338014  -0.130454  1.0499  -0.00603941  0.223162  0.0266423  0.2033  -0.459351  0.117462  0  0  0  1.28328  -0.208988  0  -0.0168752  0.0181142  -0.00338026  -0.081646  -0.0810959  -0.00229945  0.123611  -0.117702  0.00934849  -1.00463  0.95736  0.0868553 
1699366626.850487000  0  0  11.1283  -0.0720964  0.0134681  -0.0115559  nan  nan  nan  nan  nan  nan  0.034834  -0.132753  1.05049  -0.012544  0.217868  0.0256043  0.209761  -0.460352  0.117462  0  0  0  1.30094  -0.191657  0  -0.017233  0.0177462  -0.00340326  -0.0712713  -0.0857935  -0.000930918  0.125188  -0.107867  0.00976095  -1.00754  0.965442  0.0468389 
1699366626.855476000  0  0  11.1688  -0.00915014  0.0112124  -0.0114441  nan  nan  nan  nan  nan  nan  0.0358991  -0.135057  1.05107  -0.00583043  0.224161  0.0273567  0.216308  -0.461269  0.117462  0  0  0  1.31784  -0.175077  0  -0.0176725  0.017409  -0.00341959  -0.0767748  -0.0753021  -0.00186178  0.113687  -0.109325  0.00899127  -1.02762  0.983362  0.0531389 
1699366626.860507000  0  0  11.1719  -0.0365528  0.0484846  -0.0154435  nan  nan  nan  nan  nan  nan  0.0369972  -0.137365  1.05166  -0.0203613  0.236563  0.024217  0.222938  -0.462104  0.117462  0  0  0  1.334  -0.159247  0  -0.0181806  0.0169071  -0.00343054  -0.0890045  -0.0900432  -0.000994453  0.122085  -0.1172  0.012305  -1.05007  0.981274  0.0699937 
1699366626.865592000  0  0  11.1431  -0.046504  -0.0180047  -0.0128367  nan  nan  nan  nan  nan  nan  0.0381286  -0.139678  1.05225  -0.0284941  0.227932  0.0228862  0.229647  -0.462863  0.117462  0  0  0  1.3494  -0.144166  0  -0.0185153  0.0163673  -0.00342457  -0.0744774  -0.0964214  0.000733203  0.124845  -0.103759  0.0128254  -1.05556  0.990596  0.0322058 
1699366626.870525000  0  0  11.197  0.013296  -0.00457743  -0.012879  nan  nan  nan  nan  nan  nan  0.0392938  -0.141994  1.05284  -0.0209483  0.236843  0.0247475  0.236431  -0.463547  0.117462  0  0  0  1.36406  -0.129836  0  -0.0190216  0.0160397  -0.00346397  -0.0837341  -0.0853832  -0.000890315  0.112512  -0.107822  0.0119515  -1.0617  1.00111  0.0414728 
1699366626.875455000  0  0  11.2133  -0.0195328  0.025777  -0.0165751  nan  nan  nan  nan  nan  nan  0.040493  -0.144313  1.05342  -0.0366926  0.247277  0.0210155  0.243286  -0.464162  0.117462  0  0  0  1.37796  -0.116255  0  -0.0195544  0.0155062  -0.00347398  -0.0941449  -0.101669  -0.00105843  0.121878  -0.11383  0.0154166  -1.08221  0.995685  0.0530226 
1699366626.880523000  0  0  11.1898  -0.0141185  -0.0414121  -0.0142932  nan  nan  nan  nan  nan  nan  0.0417268  -0.146635  1.05401  -0.0404762  0.238224  0.0207808  0.250209  -0.464711  0.117462  0  0  0  1.39112  -0.103425  0  -0.0199216  0.0149814  -0.00347248  -0.0793652  -0.103174  0.000462761  0.120559  -0.0999344  0.0152467  -1.0809  1.00222  0.0261973 
1699366626.885508000  0  0  11.2143  0.0335248  -0.0229332  -0.0141697  nan  nan  nan  nan  nan  nan  0.0429952  -0.14896  1.0546  -0.0346208  0.248113  0.0221689  0.257196  -0.465198  0.117462  0  0  0  1.40352  -0.0913445  0  -0.0204424  0.0145407  -0.00348062  -0.0893344  -0.0940886  0.00121845  0.109696  -0.104837  0.0145754  -1.07625  1.01037  0.0313676 
1699366626.890503000  0  0  11.2363  -0.00213444  -0.00445197  -0.0168917  nan  nan  nan  nan  nan  nan  0.0442988  -0.151287  1.05518  -0.0500149  0.255071  0.0183817  0.264243  -0.465626  0.117462  0  0  0  1.41518  -0.0800141  0  -0.0209724  0.0139551  -0.00348724  -0.095867  -0.10998  0.000466749  0.118691  -0.107455  0.0177885  -1.08769  0.997494  0.0332608 
1699366626.895474000  0  0  11.2242  0.0140681  -0.0676308  -0.0152374  nan  nan  nan  nan  nan  nan  0.0456378  -0.153616  1.05577  -0.0519532  0.246401  0.018665  0.271347  -0.465999  0.117462  0  0  0  1.42608  -0.0694337  0  -0.0213723  0.0134282  -0.00349217  -0.0820682  -0.10964  0.00110106  0.11565  -0.0940176  0.0173567  -1.09211  1.00022  0.0168996 
1699366626.900523000  0  0  11.2349  0.0471509  -0.0286377  -0.0154357  nan  nan  nan  nan  nan  nan  0.0470124  -0.155947  1.05636  -0.0496528  0.259808  0.0189195  0.278503  -0.466321  0.117462  0  0  0  1.43624  -0.0596032  0  -0.0219393  0.0128984  -0.003483  -0.0962714  -0.104802  0.00329535  0.107963  -0.102587  0.0174253  -1.08756  1.00108  0.0186934 
1699366626.906470000  0  0  11.249  0.0153868  -0.0530914  -0.0163375  nan  nan  nan  nan  nan  nan  0.0484229  -0.158279  1.05695  -0.0621408  0.25739  0.0161842  0.285708  -0.466596  0.117462  0  0  0  1.44564  -0.0505228  0  -0.022243  0.0117567  -0.00338293  -0.0915606  -0.116041  0.0020972  0.113667  -0.0950142  0.0195304  -1.07651  0.980313  0.00891457 
1699366626.911471000  0  0  11.2513  0.0536184  -0.0928745  -0.0151326  nan  nan  nan  nan  nan  nan  0.0498695  -0.160613  1.05753  -0.058262  0.252625  0.0177807  0.292958  -0.466828  0.117462  0  0  0  1.4543  -0.0421924  0  -0.0226741  0.0112243  -0.0033713  -0.0832396  -0.109216  0.00219236  0.105134  -0.0854823  0.0182088  -1.07447  0.972187  0.00706912 
1699366626.915471000  0  0  11.2808  0.0781506  -0.0575296  -0.0150752  nan  nan  nan  nan  nan  nan  0.0513525  -0.162948  1.05812  -0.0571676  0.263882  0.0177693  0.30025  -0.46702  0.117462  0  0  0  1.4622  -0.034612  0  -0.0234309  0.0112574  -0.00348746  -0.095229  -0.107428  0.00259571  0.0997141  -0.0930085  0.0182412  -1.07367  0.970737  0.00602838 
1699366626.920518000  0  0  11.2731  0.0447527  -0.0569573  -0.01571  nan  nan  nan  nan  nan  nan  0.0528721  -0.165283  1.05871  -0.0687705  0.265993  0.0149283  0.307579  -0.467175  0.117462  0  0  0  1.46936  -0.0277816  0  -0.0239386  0.0106046  -0.00347108  -0.0954576  -0.118859  0.00400119  0.105487  -0.0909992  0.0203701  -1.05999  0.951107  -0.0073264 
1699366626.925472000  0  0  11.2509  0.0621124  -0.0918046  -0.016034  nan  nan  nan  nan  nan  nan  0.0544284  -0.167619  1.0593  -0.0685725  0.261649  0.0156054  0.314942  -0.467299  0.117462  0  0  0  1.47576  -0.0217012  0  -0.0243991  0.0100476  -0.00345693  -0.0872451  -0.116463  0.00585037  0.100614  -0.082236  0.0198597  -1.04987  0.94018  0.00182813 
1699366626.930525000  0  0  11.3045  0.0857477  -0.0721659  -0.015356  nan  nan  nan  nan  nan  nan  0.0560216  -0.169956  1.05988  -0.0676393  0.268559  0.0157331  0.322335  -0.467393  0.117462  0  0  0  1.48142  -0.0163708  0  -0.0249482  0.00946326  -0.00345133  -0.0951973  -0.113902  0.00349864  0.0946129  -0.0847599  0.0196221  -1.04193  0.924123  -0.00427015 
1699366626.935471000  0  0  11.2979  0.0643352  -0.0737682  -0.0149378  nan  nan  nan  nan  nan  nan  0.0576518  -0.172293  1.06047  -0.0759966  0.27022  0.01372  0.329755  -0.467464  0.117462  0  0  0  1.48632  -0.0117903  0  -0.02547  0.0088401  -0.00343403  -0.0951265  -0.121809  0.00487084  0.0976363  -0.0824938  0.0209835  -1.02692  0.90648  -0.0231124 
1699366626.940516000  0  0  11.2747  0.0750008  -0.0944231  -0.0165762  nan  nan  nan  nan  nan  nan  0.0593191  -0.174631  1.06106  -0.0760416  0.268103  0.0142002  0.337197  -0.467513  0.117462  0  0  0  1.49048  -0.0079599  0  -0.0259458  0.00823725  -0.00340477  -0.0899334  -0.119875  0.00701297  0.0931153  -0.0762047  0.020706  -1.00666  0.88993  0.000142655 
1699366626.945485000  0  0  11.3155  0.0963424  -0.0919088  -0.0150897  nan  nan  nan  nan  nan  nan  0.0610238  -0.176968  1.06164  -0.0755419  0.271097  0.0144518  0.344658  -0.467544  0.117462  0  0  0  1.49388  -0.0048795  0  -0.0264758  0.00764944  -0.00339413  -0.0929892  -0.118002  0.00492654  0.0879032  -0.0750966  0.0202673  -1.00139  0.874706  -0.0140523 
1699366626.950515000  0  0  11.3082  0.0898473  -0.0874196  -0.0138226  nan  nan  nan  nan  nan  nan  0.0627658  -0.179306  1.06223  -0.0797123  0.273714  0.0134645  0.352135  -0.467563  0.117462  0  0  0  1.49653  -0.0025491  0  -0.0269957  0.00702124  -0.00336425  -0.0943332  -0.121205  0.00655221  0.0872105  -0.0738785  0.0206805  -0.982031  0.854521  -0.0340223 
1699366626.955491000  0  0  11.2915  0.0826837  -0.103977  -0.0165233  nan  nan  nan  nan  nan  nan  0.0645451  -0.181644  1.06282  -0.0828368  0.271483  0.0131299  0.359622  -0.467571  0.117462  0  0  0  1.49844  -0.0009687  0  -0.0274774  0.00639642  -0.00333439  -0.0895386  -0.123189  0.00798589  0.0858887  -0.0679389  0.0211184  -0.955544  0.832992  -0.00464236 
1699366626.960505000  0  0  11.316  0.106772  -0.110785  -0.0138186  nan  nan  nan  nan  nan  nan  0.066362  -0.183982  1.06341  -0.0798507  0.272128  0.0142228  0.367118  -0.467574  0.117462  0  0  0  1.49959  -0.0001383  0  -0.0279836  0.00581805  -0.00332142  -0.089529  -0.118569  0.00666042  0.0788242  -0.0646552  0.0199009  -0.938727  0.816398  -0.0262766 
