    ts      x      y      z   roll  pitch    yaw     vx     vy     vz     wx     wy     wz     ax     ay     az    dwx    dwy    dwz
 0.0050000   0.0000000  -0.0000000   1.0000000   0.0000000   0.0000000   0.0000000   0.0000006  -0.0000006   0.0000006   0.0000000   0.0000000   0.0000000   0.0003750  -0.0003750   0.0003750   0.0000000   0.0000000   0.0000000
 0.0100000   0.0000000  -0.0000000   1.0000000   0.0000000   0.0000000   0.0000000   0.0000050  -0.0000050   0.0000050   0.0000000   0.0000000   0.0000000   0.0015000  -0.0015000   0.0015000   0.0000000   0.0000000   0.0000000
 0.0150000   0.0000001  -0.0000001   1.0000000   0.0000000   0.0000000   0.0000000   0.0000169  -0.0000169   0.0000169   0.0000000   0.0000000   0.0000000   0.0033750  -0.0033750   0.0033750   0.0000000   0.0000000   0.0000000
 0.0200000   0.0000002  -0.0000002   1.0000000   0.0000000   0.0000000   0.0000001   0.0000400  -0.0000400   0.0000400   0.0000000   0.0000000   0.0000000   0.0060000  -0.0060000   0.0060000   0.0000000   0.0000000   0.0000000
 0.0250000   0.0000005  -0.0000005   1.0000000   0.0000000   0.0000000   0.0000003   0.0000781  -0.0000781   0.0000781   0.0000000   0.0000000   0.0000000   0.0093750  -0.0093750   0.0093750   0.0000000   0.0000000   0.0000000
 0.0300000   0.0000010  -0.0000010   1.0000000   0.0000000   0.0000000   0.0000005   0.0001350  -0.0001350   0.0001350   0.0000000   0.0000000   0.0000000   0.0135000  -0.0135000   0.0135000   0.0000000   0.0000000   0.0000000
 0.0350000   0.0000019  -0.0000019   1.0000000   0.0000000   0.0000000   0.0000010   0.0002144  -0.0002144   0.0002144   0.0000000   0.0000000   0.0000000   0.0183750  -0.0183750   0.0183750   0.0000000   0.0000000   0.0000000
 0.0400000   0.0000032  -0.0000032   1.0000000   0.0000000   0.0000000   0.0000017   0.0003200  -0.0003200   0.0003200   0.0000000   0.0000000   0.0000000   0.0240000  -0.0240000   0.0240000   0.0000000   0.0000000   0.0000000
 0.0450000   0.0000051  -0.0000051   1.0000100   0.0000000   0.0000000   0.0000027   0.0004556  -0.0004556   0.0004556   0.0000000   0.0000000   0.0000000   0.0303750  -0.0303750   0.0303750   0.0000000   0.0000000   0.0000000
 0.0500000   0.0000078  -0.0000078   1.0000100   0.0000000   0.0000000   0.0000042   0.0006250  -0.0006250   0.0006250   0.0000000   0.0000000   0.0000000   0.0375000  -0.0375000   0.0375000   0.0000000   0.0000000   0.0000000
 0.0550000   0.0000114  -0.0000114   1.0000100   0.0000000   0.0000000   0.0000061   0.0008319  -0.0008319   0.0008319   0.0000000   0.0000000   0.0000000   0.0453750  -0.0453750   0.0453750   0.0000000   0.0000000   0.0000000
 0.0600000   0.0000162  -0.0000162   1.0000200   0.0000000   0.0000000   0.0000086   0.0010800  -0.0010800   0.0010800   0.0000000   0.0000000   0.0000000   0.0540000  -0.0540000   0.0540000   0.0000000   0.0000000   0.0000000
 0.0650000   0.0000223  -0.0000223   1.0000200   0.0000000   0.0000000   0.0000119   0.0013731  -0.0013731   0.0013731   0.0000000   0.0000000   0.0000000   0.0633750  -0.0633750   0.0633750   0.0000000   0.0000000   0.0000000
 0.0700000   0.0000300  -0.0000300   1.0000300   0.0000000   0.0000000   0.0000160   0.0017150  -0.0017150   0.0017150   0.0000000   0.0000000   0.0000000   0.0735000  -0.0735000   0.0735000   0.0000000   0.0000000   0.0000000
 0.0750000   0.0000396  -0.0000396   1.0000400   0.0000000   0.0000000   0.0000211   0.0021094  -0.0021094   0.0021094   0.0000000   0.0000000   0.0000000   0.0843750  -0.0843750   0.0843750   0.0000000   0.0000000   0.0000000
 0.0800000   0.0000512  -0.0000512   1.0000500   0.0000000   0.0000000   0.0000273   0.0025600  -0.0025600   0.0025600   0.0000000   0.0000000   0.0000000   0.0960000  -0.0960000   0.0960000   0.0000000   0.0000000   0.0000000
 0.0850000   0.0000653  -0.0000653   1.0000700   0.0000000   0.0000000   0.0000348   0.0030706  -0.0030706   0.0030706   0.0000000   0.0000000   0.0000000   0.1083750  -0.1083750   0.1083750   0.0000000   0.0000000   0.0000000
 0.0900000   0.0000820  -0.0000820   1.0000800   0.0000000   0.0000000   0.0000437   0.0036447  -0.0036450   0.0036450   0.0000000   0.0000000   0.0000000   0.1212290  -0.1215000   0.1215000   0.0000000   0.0000000   0.0000000
 0.0950000   0.0001018  -0.0001018   1.0001000   0.0000000   0.0000000   0.0000543   0.0042817  -0.0042869   0.0042869   0.0000000   0.0000000   0.0000000   0.1334530  -0.1353750   0.1353750   0.0000000   0.0000000   0.0000000
 0.1000000   0.0001249  -0.0001250   1.0001200   0.0000000   0.0000000   0.0000667   0.0049780  -0.0050000   0.0050000   0.0000000   0.0000000   0.0000000   0.1449270  -0.1500000   0.1500000   0.0000000   0.0000000   0.0000000
 0.1050000   0.0001517  -0.0001519   1.0001500   0.0000000   0.0000000   0.0000810   0.0057298  -0.0057881   0.0057881   0.0000000   0.0000000   0.0000000   0.1556510  -0.1653750   0.1653750   0.0000000   0.0000000   0.0000000
 0.1100000   0.0001823  -0.0001830   1.0001800   0.0000000   0.0000000   0.0000976   0.0065333  -0.0066550   0.0066550   0.0000000   0.0000000   0.0000000   0.1656250  -0.1815000   0.1815000   0.0000000   0.0000000   0.0000000
 0.1150000   0.0002171  -0.0002186   1.0002200   0.0000000   0.0000000   0.0001166   0.0073848  -0.0076044   0.0076044   0.0000000   0.0000000   0.0000000   0.1748490  -0.1983750   0.1983750   0.0000000   0.0000000   0.0000000
 0.1200000   0.0002562  -0.0002592   1.0002600   0.0000000   0.0000000   0.0001382   0.0082805  -0.0086400   0.0086400   0.0000000   0.0000000   0.0000000   0.1833230  -0.2160000   0.2160000   0.0000000   0.0000000   0.0000000
 0.1250000   0.0003000  -0.0003052   1.0003100   0.0000000   0.0000000   0.0001628   0.0092167  -0.0097656   0.0097656   0.0000000   0.0000000   0.0000000   0.1910470  -0.2343750   0.2343750   0.0000000   0.0000000   0.0000000
 0.1300000   0.0003485  -0.0003570   1.0003600   0.0000000   0.0000000   0.0001904   0.0101897  -0.0109850   0.0109838   0.0000000   0.0000000   0.0000000   0.1980210  -0.2535000   0.2527790   0.0000000   0.0000000   0.0000000
 0.1350000   0.0004019  -0.0004152   1.0004200   0.0000000   0.0000000   0.0002214   0.0111957  -0.0123019   0.0122922   0.0000000   0.0000000   0.0000000   0.2042440  -0.2733750   0.2704330   0.0000000   0.0000000   0.0000000
 0.1400000   0.0004605  -0.0004802   1.0004800   0.0000000   0.0000000   0.0002560   0.0122309  -0.0137200   0.0136869   0.0000000   0.0000000   0.0000000   0.2097180  -0.2940000   0.2873380   0.0000000   0.0000000   0.0000000
 0.1450000   0.0005243  -0.0005526   1.0005500   0.0000000   0.0000000   0.0002945   0.0132916  -0.0152431   0.0151643   0.0000000   0.0000000   0.0000000   0.2144420  -0.3153750   0.3034920   0.0000000   0.0000000   0.0000000
 0.1500000   0.0005934  -0.0006328   1.0006300   0.0000000   0.0000000   0.0003370   0.0143741  -0.0168750   0.0167206   0.0000000   0.0000000   0.0000000   0.2184160  -0.3375000   0.3188960   0.0000000   0.0000000   0.0000000
 0.1550000   0.0006680  -0.0007215   1.0007200   0.0000000   0.0000000   0.0003837   0.0154745  -0.0186194   0.0183520   0.0000000   0.0000000   0.0000000   0.2216400  -0.3603750   0.3335500   0.0000000   0.0000000   0.0000000
 0.1600000   0.0007482  -0.0008192   1.0008200   0.0000000   0.0000000   0.0004349   0.0165892  -0.0204800   0.0200548   0.0000000   0.0000000   0.0000000   0.2241140  -0.3840000   0.3474550   0.0000000   0.0000000   0.0000000
 0.1650000   0.0008339  -0.0009265   1.0009200   0.0000000   0.0000000   0.0004907   0.0177144  -0.0224606   0.0218253   0.0000000   0.0000000   0.0000000   0.2258380  -0.4083750   0.3606090   0.0000000   0.0000000   0.0000000
 0.1700000   0.0009253  -0.0010440   1.0010300   0.0000000   0.0000000   0.0005513   0.0188464  -0.0245650   0.0236597   0.0000000   0.0000000   0.0000000   0.2268120  -0.4335000   0.3730130   0.0000000   0.0000000   0.0000000
 0.1750000   0.0010224  -0.0011724   1.0011600   0.0000000   0.0000000   0.0006169   0.0199813  -0.0267969   0.0255542   0.0000000   0.0000000   0.0000000   0.2270360  -0.4593750   0.3846680   0.0000000   0.0000000   0.0000000
 0.1800000   0.0011252  -0.0013122   1.0012900   0.0000000   0.0000000   0.0006876   0.0211155  -0.0291600   0.0275051   0.0000000   0.0000000   0.0000000   0.2265090  -0.4860000   0.3955720   0.0000000   0.0000000   0.0000000
 0.1850000   0.0012336  -0.0014642   1.0014300   0.0000000   0.0000000   0.0007636   0.0222451  -0.0316581   0.0295087   0.0000000   0.0000000   0.0000000   0.2252330  -0.5133750   0.4057260   0.0000000   0.0000000   0.0000000
 0.1900000   0.0013476  -0.0016290   1.0015800   0.0000000   0.0000000   0.0008450   0.0233666  -0.0342950   0.0315611   0.0000000   0.0000000   0.0000000   0.2232070  -0.5415000   0.4151300   0.0000000   0.0000000   0.0000000
 0.1950000   0.0014672  -0.0018074   1.0017500   0.0000000   0.0000000   0.0009319   0.0244760  -0.0370744   0.0336587   0.0000000   0.0000000   0.0000000   0.2204310  -0.5703750   0.4237850   0.0000000   0.0000000   0.0000000
 0.2000000   0.0015923  -0.0020000   1.0019200   0.0000000   0.0000000   0.0010245   0.0255696  -0.0399999   0.0357977   0.0000000   0.0000000   0.0000000   0.2169050  -0.5999090   0.4316890   0.0000000   0.0000000   0.0000000
 0.2050000   0.0017229  -0.0022076   1.0021100   0.0000000   0.0000000   0.0011228   0.0266438  -0.0430726   0.0379743   0.0000000   0.0000000   0.0000000   0.2126290  -0.6290120   0.4388430   0.0000000   0.0000000   0.0000000
 0.2100000   0.0018587  -0.0024310   1.0023000   0.0000000   0.0000000   0.0012269   0.0276947  -0.0462888   0.0401849   0.0000000   0.0000000   0.0000000   0.2076030  -0.6573640   0.4452480   0.0000000   0.0000000   0.0000000
 0.2150000   0.0019998  -0.0026707   1.0025100   0.0000000   0.0000000   0.0013370   0.0287185  -0.0496450   0.0424256   0.0000000   0.0000000   0.0000000   0.2018270  -0.6849670   0.4509020   0.0000000   0.0000000   0.0000000
 0.2200000   0.0021459  -0.0029276   1.0027300   0.0000000   0.0000000   0.0014531   0.0297117  -0.0531372   0.0446927   0.0000000   0.0000000   0.0000000   0.1953010  -0.7118200   0.4558060   0.0000000   0.0000000   0.0000000
 0.2250000   0.0022968  -0.0032023   1.0029500   0.0000000   0.0000000   0.0015753   0.0306703  -0.0567619   0.0469824   0.0000000   0.0000000   0.0000000   0.1880250  -0.7379230   0.4599600   0.0000000   0.0000000   0.0000000
 0.2300000   0.0024525  -0.0034955   1.0032000   0.0000000   0.0000000   0.0017035   0.0315907  -0.0605152   0.0492910   0.0000000   0.0000000   0.0000000   0.1799980  -0.7632750   0.4633650   0.0000000   0.0000000   0.0000000
 0.2350000   0.0026127  -0.0038077   1.0034500   0.0000000   0.0000000   0.0018380   0.0324690  -0.0643934   0.0516148   0.0000000   0.0000000   0.0000000   0.1712220  -0.7878780   0.4660190   0.0000000   0.0000000   0.0000000
 0.2400000   0.0027771  -0.0041396   1.0037100   0.0000000   0.0000000   0.0019786   0.0333016  -0.0683927   0.0539499   0.0000000   0.0000000   0.0000000   0.1616960  -0.8117310   0.4679230   0.0000000   0.0000000   0.0000000
 0.2450000   0.0029456  -0.0044918   1.0039900   0.0000000   0.0000000   0.0021255   0.0340847  -0.0725095   0.0562928   0.0000000   0.0000000   0.0000000   0.1514200  -0.8348330   0.4690780   0.0000000   0.0000000   0.0000000
 0.2500000   0.0031179  -0.0048649   1.0042700   0.0000000   0.0000000   0.0022787   0.0348146  -0.0767398   0.0586395   0.0000000   0.0000000   0.0000000   0.1403940  -0.8571860   0.4694820   0.0000000   0.0000000   0.0000000
 0.2550000   0.0032936  -0.0052594   1.0045700   0.0000000   0.0000000   0.0024380   0.0354874  -0.0810801   0.0609863   0.0000000   0.0000000   0.0000000   0.1286180  -0.8787890   0.4691360   0.0000000   0.0000000   0.0000000
 0.2600000   0.0034726  -0.0056759   1.0048800   0.0000000   0.0000000   0.0026036   0.0360995  -0.0855265   0.0633296   0.0000000   0.0000000   0.0000000   0.1160920  -0.8996420   0.4680400   0.0000000   0.0000000   0.0000000
 0.2650000   0.0036545  -0.0061148   1.0052100   0.0000000   0.0000000   0.0027755   0.0366478  -0.0900752   0.0656655   0.0000000   0.0000000   0.0000000   0.1032980  -0.9197440   0.4661950   0.0000000   0.0000000   0.0000000
 0.2700000   0.0038390  -0.0065768   1.0055400   0.0000000   0.0000000   0.0029536   0.0371337  -0.0947227   0.0679903   0.0000000   0.0000000   0.0000000   0.0912255  -0.9390970   0.4635990   0.0000000   0.0000000   0.0000000
 0.2750000   0.0040258  -0.0070622   1.0058900   0.0000000   0.0000000   0.0031380   0.0375613  -0.0994650   0.0703002   0.0000000   0.0000000   0.0000000   0.0799028  -0.9577000   0.4602530   0.0000000   0.0000000   0.0000000
 0.2800000   0.0042145  -0.0075716   1.0062400   0.0000000   0.0000000   0.0033286   0.0379340  -0.1042980   0.0725916   0.0000000   0.0000000   0.0000000   0.0693300  -0.9755520   0.4561580   0.0000000   0.0000000   0.0000000
 0.2850000   0.0044050  -0.0081054   1.0066100   0.0000000   0.0000000   0.0035255   0.0382558  -0.1092190   0.0748605   0.0000000   0.0000000   0.0000000   0.0595072  -0.9926550   0.4513120   0.0000000   0.0000000   0.0000000
 0.2900000   0.0045970  -0.0086639   1.0069900   0.0000000   0.0000000   0.0037285   0.0385303  -0.1142240   0.0771034   0.0000000   0.0000000   0.0000000   0.0504344  -1.0090100   0.4457160   0.0000000   0.0000000   0.0000000
 0.2950000   0.0047903  -0.0092477   1.0073800   0.0000000   0.0000000   0.0039377   0.0387614  -0.1193080   0.0793165   0.0000000   0.0000000   0.0000000   0.0421116  -1.0246100   0.4393700   0.0000000   0.0000000   0.0000000
 0.3000000   0.0049846  -0.0098571   1.0077900   0.0000000   0.0000000   0.0041531   0.0389527  -0.1244690   0.0814959   0.0000000   0.0000000   0.0000000   0.0345388  -1.0394600   0.4322750   0.0000000   0.0000000   0.0000000
 0.3050000   0.0051797  -0.0104925   1.0082000   0.0000000   0.0000000   0.0043745   0.0391080  -0.1297010   0.0836380   0.0000000   0.0000000   0.0000000   0.0277160  -1.0535700   0.4244290   0.0000000   0.0000000   0.0000000
 0.3100000   0.0053756  -0.0111543   1.0086200   0.0000000   0.0000000   0.0046019   0.0392311  -0.1350030   0.0857389   0.0000000   0.0000000   0.0000000   0.0216432  -1.0669200   0.4158330   0.0000000   0.0000000   0.0000000
 0.3150000   0.0055720  -0.0118427   1.0090600   0.0000000   0.0000000   0.0048352   0.0393257  -0.1403690   0.0877950   0.0000000   0.0000000   0.0000000   0.0163204  -1.0795200   0.4064880   0.0000000   0.0000000   0.0000000
 0.3200000   0.0057688  -0.0125581   1.0095000   0.0000000   0.0000000   0.0050743   0.0393956  -0.1457970   0.0898026   0.0000000   0.0000000   0.0000000   0.0117476  -1.0913700   0.3963920   0.0000000   0.0000000   0.0000000
 0.3250000   0.0059659  -0.0133007   1.0099500   0.0000000   0.0000000   0.0053192   0.0394444  -0.1512820   0.0917577   0.0000000   0.0000000   0.0000000   0.0079248  -1.1024800   0.3855460   0.0000000   0.0000000   0.0000000
 0.3300000   0.0061632  -0.0140710   1.0104200   0.0000000   0.0000000   0.0055697   0.0394761  -0.1568200   0.0936568   0.0000000   0.0000000   0.0000000   0.0048521  -1.1128300   0.3739500   0.0000000   0.0000000   0.0000000
 0.3350000   0.0063607  -0.0148690   1.0108900   0.0000000   0.0000000   0.0058258   0.0394942  -0.1624090   0.0954960   0.0000000   0.0000000   0.0000000   0.0025293  -1.1224300   0.3616050   0.0000000   0.0000000   0.0000000
 0.3400000   0.0065581  -0.0156951   1.0113700   0.0000000   0.0000000   0.0060872   0.0395026  -0.1680440   0.0972716   0.0000000   0.0000000   0.0000000   0.0009565  -1.1312800   0.3485090   0.0000000   0.0000000   0.0000000
 0.3450000   0.0067557  -0.0165495   1.0118600   0.0000000   0.0000000   0.0063539   0.0395050  -0.1737210   0.0989798   0.0000000   0.0000000   0.0000000   0.0001337  -1.1393900   0.3346630   0.0000000   0.0000000   0.0000000
 0.3500000   0.0069532  -0.0174324   1.0123600   0.0000000   0.0000000   0.0066257   0.0395052  -0.1794360   0.1006170   0.0000000   0.0000000   0.0000000   0.0000609  -1.1467400   0.3200680   0.0000000   0.0000000   0.0000000
 0.3550000   0.0071507  -0.0183439   1.0128700   0.0000000   0.0000000   0.0069024   0.0395069  -0.1851870   0.1021790   0.0000000   0.0000000   0.0000000   0.0007381  -1.1533400   0.3047220   0.0000000   0.0000000   0.0000000
 0.3600000   0.0073483  -0.0192843   1.0133800   0.0000000   0.0000000   0.0071840   0.0395138  -0.1909680   0.1036630   0.0000000   0.0000000   0.0000000   0.0021653  -1.1592000   0.2886260   0.0000000   0.0000000   0.0000000
 0.3650000   0.0075459  -0.0202537   1.0139100   0.0000000   0.0000000   0.0074701   0.0395298  -0.1967770   0.1050640   0.0000000   0.0000000   0.0000000   0.0043425  -1.1643000   0.2717800   0.0000000   0.0000000   0.0000000
 0.3700000   0.0077436  -0.0212521   1.0144300   0.0000000   0.0000000   0.0077607   0.0395585  -0.2026100   0.1063790   0.0000000   0.0000000   0.0000000   0.0072697  -1.1686500   0.2541850   0.0000000   0.0000000   0.0000000
 0.3750000   0.0079415  -0.0222798   1.0149700   0.0000000   0.0000000   0.0080555   0.0396037  -0.2084630   0.1076050   0.0000000   0.0000000   0.0000000   0.0109469  -1.1722500   0.2358390   0.0000000   0.0000000   0.0000000
 0.3800000   0.0081397  -0.0233368   1.0155100   0.0000000   0.0000000   0.0083543   0.0396692  -0.2143310   0.1087380   0.0000000   0.0000000   0.0000000   0.0153741  -1.1751100   0.2174080   0.0000000   0.0000000   0.0000000
 0.3850000   0.0083382  -0.0244231   1.0160600   0.0000000   0.0000000   0.0086570   0.0397587  -0.2202120   0.1097800   0.0000000   0.0000000   0.0000000   0.0205514  -1.1772100   0.1997240   0.0000000   0.0000000   0.0000000
 0.3900000   0.0085373  -0.0255389   1.0166100   0.0000000   0.0000000   0.0089632   0.0398760  -0.2261020   0.1107360   0.0000000   0.0000000   0.0000000   0.0264786  -1.1785600   0.1827910   0.0000000   0.0000000   0.0000000
 0.3950000   0.0087370  -0.0266842   1.0171600   0.0000000   0.0000000   0.0092727   0.0400248  -0.2319970   0.1116090   0.0000000   0.0000000   0.0000000   0.0331558  -1.1791600   0.1666070   0.0000000   0.0000000   0.0000000
 0.4000000   0.0089376  -0.0278589   1.0177200   0.0000000   0.0000000   0.0095854   0.0402088  -0.2378930   0.1124030   0.0000000   0.0000000   0.0000000   0.0405830  -1.1790200   0.1511740   0.0000000   0.0000000   0.0000000
 0.4050000   0.0091392  -0.0290631   1.0182900   0.0000000   0.0000000   0.0099009   0.0404318  -0.2437860   0.1131220   0.0000000   0.0000000   0.0000000   0.0487602  -1.1781200   0.1364900   0.0000000   0.0000000   0.0000000
 0.4100000   0.0093420  -0.0302967   1.0188500   0.0000000   0.0000000   0.0102191   0.0406977  -0.2496730   0.1137700   0.0000000   0.0000000   0.0000000   0.0576874  -1.1764700   0.1225570   0.0000000   0.0000000   0.0000000
 0.4150000   0.0095462  -0.0315598   1.0194200   0.0000000   0.0000000   0.0105396   0.0410100  -0.2555490   0.1143490   0.0000000   0.0000000   0.0000000   0.0673646  -1.1740800   0.1093730   0.0000000   0.0000000   0.0000000
 0.4200000   0.0097522  -0.0328522   1.0200000   0.0000000   0.0000000   0.0108624   0.0413725  -0.2614120   0.1148650   0.0000000   0.0000000   0.0000000   0.0777918  -1.1709300   0.0969394   0.0000000   0.0000000   0.0000000
 0.4250000   0.0099601  -0.0341739   1.0205700   0.0000000   0.0000000   0.0111871   0.0417891  -0.2672570   0.1153200   0.0000000   0.0000000   0.0000000   0.0889690  -1.1670300   0.0852559   0.0000000   0.0000000   0.0000000
 0.4300000   0.0101702  -0.0355247   1.0211500   0.0000000   0.0000000   0.0115136   0.0422635  -0.2730810   0.1157180   0.0000000   0.0000000   0.0000000   0.1008960  -1.1623800   0.0743223   0.0000000   0.0000000   0.0000000
 0.4350000   0.0103828  -0.0369047   1.0217300   0.0000000   0.0000000   0.0118417   0.0427994  -0.2788800   0.1160640   0.0000000   0.0000000   0.0000000   0.1135730  -1.1569900   0.0641387   0.0000000   0.0000000   0.0000000
 0.4400000   0.0105983  -0.0383135   1.0223100   0.0000000   0.0000000   0.0121712   0.0434005  -0.2846500   0.1163610   0.0000000   0.0000000   0.0000000   0.1270010  -1.1508400   0.0547051   0.0000000   0.0000000   0.0000000
 0.4450000   0.0108169  -0.0397511   1.0228900   0.0000000   0.0000000   0.0125020   0.0440706  -0.2903870   0.1166130   0.0000000   0.0000000   0.0000000   0.1411780  -1.1439400   0.0460216   0.0000000   0.0000000   0.0000000
 0.4500000   0.0110391  -0.0412173   1.0234800   0.0000000   0.0000000   0.0128340   0.0448135  -0.2960880   0.1168230   0.0000000   0.0000000   0.0000000   0.1561050  -1.1362900   0.0380880   0.0000000   0.0000000   0.0000000
 0.4550000   0.0112652  -0.0427119   1.0240600   0.0000000   0.0000000   0.0131668   0.0456329  -0.3017490   0.1169950   0.0000000   0.0000000   0.0000000   0.1717820  -1.1279000   0.0309044   0.0000000   0.0000000   0.0000000
 0.4600000   0.0114956  -0.0442347   1.0246500   0.0000000   0.0000000   0.0135005   0.0465326  -0.3073660   0.1171330   0.0000000   0.0000000   0.0000000   0.1882090  -1.1187500   0.0244709   0.0000000   0.0000000   0.0000000
 0.4650000   0.0117306  -0.0457855   1.0252300   0.0000000   0.0000000   0.0138350   0.0475163  -0.3129350   0.1172410   0.0000000   0.0000000   0.0000000   0.2053870  -1.1088500   0.0187873   0.0000000   0.0000000   0.0000000
 0.4700000   0.0119709  -0.0473640   1.0258200   0.0000000   0.0000000   0.0141700   0.0485877  -0.3184530   0.1173220   0.0000000   0.0000000   0.0000000   0.2233140  -1.0982100   0.0138537   0.0000000   0.0000000   0.0000000
 0.4750000   0.0122167  -0.0489699   1.0264100   0.0000000   0.0000000   0.0145055   0.0497506  -0.3239160   0.1173800   0.0000000   0.0000000   0.0000000   0.2419910  -1.0868100   0.0096701   0.0000000   0.0000000   0.0000000
 0.4800000   0.0124685  -0.0506030   1.0269900   0.0000000   0.0000000   0.0148414   0.0510089  -0.3293200   0.1174200   0.0000000   0.0000000   0.0000000   0.2614180  -1.0746600   0.0062366   0.0000000   0.0000000   0.0000000
 0.4850000   0.0127269  -0.0522630   1.0275800   0.0000000   0.0000000   0.0151776   0.0523661  -0.3346610   0.1174440   0.0000000   0.0000000   0.0000000   0.2815960  -1.0617600   0.0035530   0.0000000   0.0000000   0.0000000
 0.4900000   0.0129924  -0.0539495   1.0281700   0.0000000   0.0000000   0.0155141   0.0538261  -0.3399360   0.1174570   0.0000000   0.0000000   0.0000000   0.3025230  -1.0481200   0.0016194   0.0000000   0.0000000   0.0000000
 0.4950000   0.0132654  -0.0556623   1.0287600   0.0000000   0.0000000   0.0158507   0.0553926  -0.3451410   0.1174610   0.0000000   0.0000000   0.0000000   0.3242000  -1.0337200   0.0004359   0.0000000   0.0000000   0.0000000
 0.5000000   0.0135465  -0.0574008   1.0293400   0.0000000   0.0000000   0.0161875   0.0570693  -0.3502720   0.1174620   0.0000000   0.0000000   0.0000000   0.3466270  -1.0185700   0.0000023   0.0000000   0.0000000   0.0000000
 0.5050000   0.0138363  -0.0591649   1.0299300   0.0000000   0.0000000   0.0165243   0.0588601  -0.3553250   0.1174620   0.0000000   0.0000000   0.0000000   0.3698040  -1.0026700   0.0000000   0.0000000   0.0000000   0.0000000
 0.5100000   0.0141353  -0.0609539   1.0305200   0.0000000   0.0000000   0.0168612   0.0607686  -0.3602980   0.1174620   0.0000000   0.0000000   0.0000000   0.3937320  -0.9860270   0.0000000   0.0000000   0.0000000   0.0000000
 0.5150000   0.0144441  -0.0627677   1.0311000   0.0000000   0.0000000   0.0171981   0.0627986  -0.3651840   0.1174620   0.0000000   0.0000000   0.0000000   0.4184090  -0.9686300   0.0000000   0.0000000   0.0000000   0.0000000
 0.5200000   0.0147635  -0.0646056   1.0316900   0.0000000   0.0000000   0.0175350   0.0649539  -0.3699830   0.1174620   0.0000000   0.0000000   0.0000000   0.4438360  -0.9504820   0.0000000   0.0000000   0.0000000   0.0000000
 0.5250000   0.0150939  -0.0664674   1.0322800   0.0000000   0.0000000   0.0178719   0.0672383  -0.3746880   0.1174620   0.0000000   0.0000000   0.0000000   0.4700130  -0.9315850   0.0000000   0.0000000   0.0000000   0.0000000
 0.5300000   0.0154361  -0.0683524   1.0328700   0.0000000   0.0000000   0.0182088   0.0696553  -0.3792970   0.1174620   0.0000000   0.0000000   0.0000000   0.4969400  -0.9119380   0.0000000   0.0000000   0.0000000   0.0000000
 0.5350000   0.0157907  -0.0702602   1.0334500   0.0000000   0.0000000   0.0185457   0.0722089  -0.3838060   0.1174620   0.0000000   0.0000000   0.0000000   0.5246180  -0.8915400   0.0000000   0.0000000   0.0000000   0.0000000
 0.5400000   0.0161584  -0.0721903   1.0340400   0.0000000   0.0000000   0.0188826   0.0749027  -0.3882110   0.1174620   0.0000000   0.0000000   0.0000000   0.5530450  -0.8703930   0.0000000   0.0000000   0.0000000   0.0000000
 0.5450000   0.0165399  -0.0741421   1.0346300   0.0000000   0.0000000   0.0192195   0.0777406  -0.3925090   0.1174620   0.0000000   0.0000000   0.0000000   0.5822220  -0.8484960   0.0000000   0.0000000   0.0000000   0.0000000
 0.5500000   0.0169360  -0.0761152   1.0352200   0.0000000   0.0000000   0.0195564   0.0807262  -0.3966950   0.1174620   0.0000000   0.0000000   0.0000000   0.6121490  -0.8258490   0.0000000   0.0000000   0.0000000   0.0000000
 0.5550000   0.0173475  -0.0781089   1.0358000   0.0000000   0.0000000   0.0198933   0.0838633  -0.4007660   0.1174620   0.0000000   0.0000000   0.0000000   0.6428260  -0.8024510   0.0000000   0.0000000   0.0000000   0.0000000
 0.5600000   0.0177749  -0.0801226   1.0363900   0.0000000   0.0000000   0.0202302   0.0871557  -0.4047180   0.1174620   0.0000000   0.0000000   0.0000000   0.6742540  -0.7783040   0.0000000   0.0000000   0.0000000   0.0000000
 0.5650000   0.0182193  -0.0821558   1.0369800   0.0000000   0.0000000   0.0205671   0.0906071  -0.4085480   0.1174620   0.0000000   0.0000000   0.0000000   0.7064310  -0.7534070   0.0000000   0.0000000   0.0000000   0.0000000
 0.5700000   0.0186813  -0.0842079   1.0375600   0.0000000   0.0000000   0.0209040   0.0942213  -0.4122510   0.1174620   0.0000000   0.0000000   0.0000000   0.7393580  -0.7277590   0.0000000   0.0000000   0.0000000   0.0000000
 0.5750000   0.0191618  -0.0862781   1.0381500   0.0000000   0.0000000   0.0212409   0.0980016  -0.4158240   0.1174620   0.0000000   0.0000000   0.0000000   0.7726870  -0.7013620   0.0000000   0.0000000   0.0000000   0.0000000
 0.5800000   0.0196616  -0.0883659   1.0387400   0.0000000   0.0000000   0.0215778   0.1019470  -0.4192630   0.1174620   0.0000000   0.0000000   0.0000000   0.8053420  -0.6742150   0.0000000   0.0000000   0.0000000   0.0000000
 0.5850000   0.0201815  -0.0904705   1.0393300   0.0000000   0.0000000   0.0219147   0.1060540  -0.4225650   0.1174620   0.0000000   0.0000000   0.0000000   0.8372470  -0.6463180   0.0000000   0.0000000   0.0000000   0.0000000
 0.5900000   0.0207224  -0.0925913   1.0399100   0.0000000   0.0000000   0.0222516   0.1103180  -0.4257250   0.1174620   0.0000000   0.0000000   0.0000000   0.8684010  -0.6176700   0.0000000   0.0000000   0.0000000   0.0000000
 0.5950000   0.0212849  -0.0947275   1.0405000   0.0000000   0.0000000   0.0225885   0.1147360  -0.4287410   0.1174620   0.0000000   0.0000000   0.0000000   0.8988060  -0.5882740   0.0000000   0.0000000   0.0000000   0.0000000
 0.6000000   0.0218700  -0.0968785   1.0410900   0.0000000   0.0000000   0.0229254   0.1193050  -0.4316080   0.1174620   0.0000000   0.0000000   0.0000000   0.9284610  -0.5589440   0.0000000   0.0000000   0.0000000   0.0000000
 0.6050000   0.0224782  -0.0990434   1.0416800   0.0000000   0.0000000   0.0232623   0.1240200  -0.4343310   0.1174620   0.0000000   0.0000000   0.0000000   0.9573660  -0.5303640   0.0000000   0.0000000   0.0000000   0.0000000
 0.6100000   0.0231104  -0.1012220   1.0422600   0.0000000   0.0000000   0.0235992   0.1288770  -0.4369130   0.1174620   0.0000000   0.0000000   0.0000000   0.9855210  -0.5025330   0.0000000   0.0000000   0.0000000   0.0000000
 0.6150000   0.0237672  -0.1034120   1.0428500   0.0000000   0.0000000   0.0239361   0.1338740  -0.4393580   0.1174620   0.0000000   0.0000000   0.0000000   1.0129300  -0.4754530   0.0000000   0.0000000   0.0000000   0.0000000
 0.6200000   0.0244494  -0.1056150   1.0434400   0.0000000   0.0000000   0.0242730   0.1390050  -0.4416690   0.1174620   0.0000000   0.0000000   0.0000000   1.0395800  -0.4491220   0.0000000   0.0000000   0.0000000   0.0000000
 0.6250000   0.0251575  -0.1078290   1.0440300   0.0000000   0.0000000   0.0246099   0.1442680  -0.4438500   0.1174620   0.0000000   0.0000000   0.0000000   1.0654900  -0.4235420   0.0000000   0.0000000   0.0000000   0.0000000
 0.6300000   0.0258923  -0.1100530   1.0446100   0.0000000   0.0000000   0.0249468   0.1496590  -0.4459060   0.1174620   0.0000000   0.0000000   0.0000000   1.0906400  -0.3987120   0.0000000   0.0000000   0.0000000   0.0000000
 0.6350000   0.0266543  -0.1122880   1.0452000   0.0000000   0.0000000   0.0252837   0.1551740  -0.4478390   0.1174620   0.0000000   0.0000000   0.0000000   1.1150400  -0.3746310   0.0000000   0.0000000   0.0000000   0.0000000
 0.6400000   0.0274442  -0.1145310   1.0457900   0.0000000   0.0000000   0.0256206   0.1608080  -0.4496530   0.1174620   0.0000000   0.0000000   0.0000000   1.1387000  -0.3513010   0.0000000   0.0000000   0.0000000   0.0000000
 0.6450000   0.0282626  -0.1167840   1.0463700   0.0000000   0.0000000   0.0259575   0.1665590  -0.4513530   0.1174620   0.0000000   0.0000000   0.0000000   1.1616000  -0.3287200   0.0000000   0.0000000   0.0000000   0.0000000
 0.6500000   0.0291100  -0.1190450   1.0469600   0.0000000   0.0000000   0.0262944   0.1724230  -0.4529420   0.1174620   0.0000000   0.0000000   0.0000000   1.1837600  -0.3068900   0.0000000   0.0000000   0.0000000   0.0000000
 0.6550000   0.0299870  -0.1213130   1.0475500   0.0000000   0.0000000   0.0266313   0.1783960  -0.4544230   0.1174620   0.0000000   0.0000000   0.0000000   1.2051600  -0.2858090   0.0000000   0.0000000   0.0000000   0.0000000
 0.6600000   0.0308941  -0.1235890   1.0481400   0.0000000   0.0000000   0.0269682   0.1844730  -0.4558010   0.1174620   0.0000000   0.0000000   0.0000000   1.2258200  -0.2654790   0.0000000   0.0000000   0.0000000   0.0000000
 0.6650000   0.0318319  -0.1258710   1.0487200   0.0000000   0.0000000   0.0273051   0.1906530  -0.4570790   0.1174620   0.0000000   0.0000000   0.0000000   1.2457200  -0.2458990   0.0000000   0.0000000   0.0000000   0.0000000
 0.6700000   0.0328008  -0.1281590   1.0493100   0.0000000   0.0000000   0.0276420   0.1969290  -0.4582610   0.1174620   0.0000000   0.0000000   0.0000000   1.2648800  -0.2270680   0.0000000   0.0000000   0.0000000   0.0000000
 0.6750000   0.0338014  -0.1304540   1.0499000   0.0000000   0.0000000   0.0279789   0.2033000  -0.4593510   0.1174620   0.0000000   0.0000000   0.0000000   1.2832800  -0.2089880   0.0000000   0.0000000   0.0000000   0.0000000
 0.6800000   0.0348340  -0.1327530   1.0504900   0.0000000   0.0000000   0.0283158   0.2097610  -0.4603520   0.1174620   0.0000000   0.0000000   0.0000000   1.3009400  -0.1916570   0.0000000   0.0000000   0.0000000   0.0000000
 0.6850000   0.0358991  -0.1350570   1.0510700   0.0000000   0.0000000   0.0286527   0.2163080  -0.4612690   0.1174620   0.0000000   0.0000000   0.0000000   1.3178400  -0.1750770   0.0000000   0.0000000   0.0000000   0.0000000
 0.6900000   0.0369972  -0.1373650   1.0516600   0.0000000   0.0000000   0.0289896   0.2229380  -0.4621040   0.1174620   0.0000000   0.0000000   0.0000000   1.3340000  -0.1592470   0.0000000   0.0000000   0.0000000   0.0000000
 0.6950000   0.0381286  -0.1396780   1.0522500   0.0000000   0.0000000   0.0293265   0.2296470  -0.4628630   0.1174620   0.0000000   0.0000000   0.0000000   1.3494000  -0.1441660   0.0000000   0.0000000   0.0000000   0.0000000
 0.7000000   0.0392938  -0.1419940   1.0528400   0.0000000   0.0000000   0.0296634   0.2364310  -0.4635470   0.1174620   0.0000000   0.0000000   0.0000000   1.3640600  -0.1298360   0.0000000   0.0000000   0.0000000   0.0000000
 0.7050000   0.0404930  -0.1443130   1.0534200   0.0000000   0.0000000   0.0300003   0.2432860  -0.4641620   0.1174620   0.0000000   0.0000000   0.0000000   1.3779600  -0.1162550   0.0000000   0.0000000   0.0000000   0.0000000
 0.7100000   0.0417268  -0.1466350   1.0540100   0.0000000   0.0000000   0.0303372   0.2502090  -0.4647110   0.1174620   0.0000000   0.0000000   0.0000000   1.3911200  -0.1034250   0.0000000   0.0000000   0.0000000   0.0000000
 0.7150000   0.0429952  -0.1489600   1.0546000   0.0000000   0.0000000   0.0306741   0.2571960  -0.4651980   0.1174620   0.0000000   0.0000000   0.0000000   1.4035200  -0.0913445   0.0000000   0.0000000   0.0000000   0.0000000
 0.7200000   0.0442988  -0.1512870   1.0551800   0.0000000   0.0000000   0.0310110   0.2642430  -0.4656260   0.1174620   0.0000000   0.0000000   0.0000000   1.4151800  -0.0800141   0.0000000   0.0000000   0.0000000   0.0000000
 0.7250000   0.0456378  -0.1536160   1.0557700   0.0000000   0.0000000   0.0313479   0.2713470  -0.4659990   0.1174620   0.0000000   0.0000000   0.0000000   1.4260800  -0.0694337   0.0000000   0.0000000   0.0000000   0.0000000
 0.7300000   0.0470124  -0.1559470   1.0563600   0.0000000   0.0000000   0.0316848   0.2785030  -0.4663210   0.1174620   0.0000000   0.0000000   0.0000000   1.4362400  -0.0596032   0.0000000   0.0000000   0.0000000   0.0000000
 0.7350000   0.0484229  -0.1582790   1.0569500   0.0000000   0.0000000   0.0320217   0.2857080  -0.4665960   0.1174620   0.0000000   0.0000000   0.0000000   1.4456400  -0.0505228   0.0000000   0.0000000   0.0000000   0.0000000
 0.7400000   0.0498695  -0.1606130   1.0575300   0.0000000   0.0000000   0.0323586   0.2929580  -0.4668280   0.1174620   0.0000000   0.0000000   0.0000000   1.4543000  -0.0421924   0.0000000   0.0000000   0.0000000   0.0000000
 0.7450000   0.0513525  -0.1629480   1.0581200   0.0000000   0.0000000   0.0326955   0.3002500  -0.4670200   0.1174620   0.0000000   0.0000000   0.0000000   1.4622000  -0.0346120   0.0000000   0.0000000   0.0000000   0.0000000
 0.7500000   0.0528721  -0.1652830   1.0587100   0.0000000   0.0000000   0.0330324   0.3075790  -0.4671750   0.1174620   0.0000000   0.0000000   0.0000000   1.4693600  -0.0277816   0.0000000   0.0000000   0.0000000   0.0000000
 0.7550000   0.0544284  -0.1676190   1.0593000   0.0000000   0.0000000   0.0333693   0.3149420  -0.4672990   0.1174620   0.0000000   0.0000000   0.0000000   1.4757600  -0.0217012   0.0000000   0.0000000   0.0000000   0.0000000
 0.7600000   0.0560216  -0.1699560   1.0598800   0.0000000   0.0000000   0.0337062   0.3223350  -0.4673930   0.1174620   0.0000000   0.0000000   0.0000000   1.4814200  -0.0163708   0.0000000   0.0000000   0.0000000   0.0000000
 0.7650000   0.0576518  -0.1722930   1.0604700   0.0000000   0.0000000   0.0340431   0.3297550  -0.4674640   0.1174620   0.0000000   0.0000000   0.0000000   1.4863200  -0.0117903   0.0000000   0.0000000   0.0000000   0.0000000
 0.7700000   0.0593191  -0.1746310   1.0610600   0.0000000   0.0000000   0.0343800   0.3371970  -0.4675130   0.1174620   0.0000000   0.0000000   0.0000000   1.4904800  -0.0079599   0.0000000   0.0000000   0.0000000   0.0000000
 0.7750000   0.0610238  -0.1769680   1.0616400   0.0000000   0.0000000   0.0347169   0.3446580  -0.4675440   0.1174620   0.0000000   0.0000000   0.0000000   1.4938800  -0.0048795   0.0000000   0.0000000   0.0000000   0.0000000
 0.7800000   0.0627658  -0.1793060   1.0622300   0.0000000   0.0000000   0.0350538   0.3521350  -0.4675630   0.1174620   0.0000000   0.0000000   0.0000000   1.4965300  -0.0025491   0.0000000   0.0000000   0.0000000   0.0000000
 0.7850000   0.0645451  -0.1816440   1.0628200   0.0000000   0.0000000   0.0353907   0.3596220  -0.4675710   0.1174620   0.0000000   0.0000000   0.0000000   1.4984400  -0.0009687   0.0000000   0.0000000   0.0000000   0.0000000
 0.7900000   0.0663620  -0.1839820   1.0634100   0.0000000   0.0000000   0.0357276   0.3671180  -0.4675740   0.1174620   0.0000000   0.0000000   0.0000000   1.4995900  -0.0001383   0.0000000   0.0000000   0.0000000   0.0000000
 0.7950000   0.0682163  -0.1863200   1.0639900   0.0000000   0.0000000   0.0360645   0.3746170  -0.4675740   0.1174620   0.0000000   0.0000000   0.0000000   1.5000000  -0.0000000   0.0000000   0.0000000   0.0000000   0.0000000
 0.8000000   0.0701082  -0.1886580   1.0645800   0.0000000   0.0000000   0.0364014   0.3821170  -0.4675740   0.1174620   0.0000000   0.0000000   0.0000000   1.5000000  -0.0000000   0.0000000   0.0000000   0.0000000   0.0000000
 0.8050000   0.0720375  -0.1909950   1.0651700   0.0000000   0.0000000   0.0367383   0.3896170  -0.4675740   0.1174620   0.0000000   0.0000000   0.0000000   1.5000000  -0.0000000   0.0000000   0.0000000   0.0000000   0.0000000
 0.8100000   0.0740043  -0.1933330   1.0657600   0.0000000   0.0000000   0.0370752   0.3971170  -0.4675740   0.1174620   0.0000000   0.0000000   0.0000000   1.5000000  -0.0000000   0.0000000   0.0000000   0.0000000   0.0000000
 0.8150000   0.0760087  -0.1956710   1.0663400   0.0000000   0.0000000   0.0374121   0.4046170  -0.4675740   0.1174620   0.0000000   0.0000000   0.0000000   1.5000000  -0.0000000   0.0000000   0.0000000   0.0000000   0.0000000
 0.8200000   0.0780505  -0.1980090   1.0669300   0.0000000   0.0000000   0.0377490   0.4121170  -0.4675740   0.1174620   0.0000000   0.0000000   0.0000000   1.5000000  -0.0000000   0.0000000   0.0000000   0.0000000   0.0000000
 0.8250000   0.0801298  -0.2003470   1.0675200   0.0000000   0.0000000   0.0380859   0.4196170  -0.4675740   0.1174620   0.0000000   0.0000000   0.0000000   1.5000000  -0.0000000   0.0000000   0.0000000   0.0000000   0.0000000
 0.8300000   0.0822467  -0.2026850   1.0681100   0.0000000   0.0000000   0.0384228   0.4271170  -0.4675740   0.1174620   0.0000000   0.0000000   0.0000000   1.5000000  -0.0000000   0.0000000   0.0000000   0.0000000   0.0000000
 0.8350000   0.0844010  -0.2050230   1.0686900   0.0000000   0.0000000   0.0387597   0.4346170  -0.4675740   0.1174620   0.0000000   0.0000000   0.0000000   1.5000000  -0.0000000   0.0000000   0.0000000   0.0000000   0.0000000
 0.8400000   0.0865928  -0.2073610   1.0692800   0.0000000   0.0000000   0.0390966   0.4421170  -0.4675740   0.1174620   0.0000000   0.0000000   0.0000000   1.5000000  -0.0000000   0.0000000   0.0000000   0.0000000   0.0000000
 0.8450000   0.0888222  -0.2096980   1.0698700   0.0000000   0.0000000   0.0394335   0.4496170  -0.4675740   0.1174620   0.0000000   0.0000000   0.0000000   1.5000000  -0.0000000   0.0000000   0.0000000   0.0000000   0.0000000
 0.8500000   0.0910890  -0.2120360   1.0704500   0.0000000   0.0000000   0.0397704   0.4571170  -0.4675740   0.1174620   0.0000000   0.0000000   0.0000000   1.5000000  -0.0000000   0.0000000   0.0000000   0.0000000   0.0000000
 0.8550000   0.0933933  -0.2143740   1.0710400   0.0000000   0.0000000   0.0401073   0.4646170  -0.4675740   0.1174620   0.0000000   0.0000000   0.0000000   1.5000000  -0.0000000   0.0000000   0.0000000   0.0000000   0.0000000
 0.8600000   0.0957352  -0.2167120   1.0716300   0.0000000   0.0000000   0.0404442   0.4721170  -0.4675740   0.1174620   0.0000000   0.0000000   0.0000000   1.5000000  -0.0000000   0.0000000   0.0000000   0.0000000   0.0000000
 0.8650000   0.0981145  -0.2190500   1.0722200   0.0000000   0.0000000   0.0407811   0.4796170  -0.4675740   0.1174620   0.0000000   0.0000000   0.0000000   1.5000000  -0.0000000   0.0000000   0.0000000   0.0000000   0.0000000
 0.8700000   0.1005310  -0.2213880   1.0728000   0.0000000   0.0000000   0.0411180   0.4871170  -0.4675740   0.1174620   0.0000000   0.0000000   0.0000000   1.5000000  -0.0000000   0.0000000   0.0000000   0.0000000   0.0000000
 0.8750000   0.1029860  -0.2237260   1.0733900   0.0000000   0.0000000   0.0414549   0.4946170  -0.4675740   0.1174620   0.0000000   0.0000000   0.0000000   1.5000000  -0.0000000   0.0000000   0.0000000   0.0000000   0.0000000
 0.8800000   0.1054780  -0.2260630   1.0739800   0.0000000   0.0000000   0.0417918   0.5021170  -0.4675740   0.1174620   0.0000000   0.0000000   0.0000000   1.5000000  -0.0000000   0.0000000   0.0000000   0.0000000   0.0000000
 0.8850000   0.1080070  -0.2284010   1.0745700   0.0000000   0.0000000   0.0421287   0.5096170  -0.4675740   0.1174620   0.0000000   0.0000000   0.0000000   1.5000000  -0.0000000   0.0000000   0.0000000   0.0000000   0.0000000
 0.8900000   0.1105740  -0.2307390   1.0751500   0.0000000   0.0000000   0.0424656   0.5171170  -0.4675740   0.1174620   0.0000000   0.0000000   0.0000000   1.5000000  -0.0000000   0.0000000   0.0000000   0.0000000   0.0000000
 0.8950000   0.1131780  -0.2330770   1.0757400   0.0000000   0.0000000   0.0428025   0.5246170  -0.4675740   0.1174620   0.0000000   0.0000000   0.0000000   1.5000000  -0.0000000   0.0000000   0.0000000   0.0000000   0.0000000
 0.9000000   0.1158200  -0.2354150   1.0763300   0.0000000   0.0000000   0.0431394   0.5321170  -0.4675740   0.1174620   0.0000000   0.0000000   0.0000000   1.5000000  -0.0000000   0.0000000   0.0000000   0.0000000   0.0000000
 0.9050000   0.1184990  -0.2377530   1.0769100   0.0000000   0.0000000   0.0434763   0.5396170  -0.4675740   0.1174620   0.0000000   0.0000000   0.0000000   1.5000000  -0.0000000   0.0000000   0.0000000   0.0000000   0.0000000
 0.9100000   0.1212160  -0.2400910   1.0775000   0.0000000   0.0000000   0.0438132   0.5471170  -0.4675740   0.1174620   0.0000000   0.0000000   0.0000000   1.5000000  -0.0000000   0.0000000   0.0000000   0.0000000   0.0000000
 0.9150000   0.1239700  -0.2424290   1.0780900   0.0000000   0.0000000   0.0441501   0.5546170  -0.4675740   0.1174620   0.0000000   0.0000000   0.0000000   1.5000000  -0.0000000   0.0000000   0.0000000   0.0000000   0.0000000
 0.9200000   0.1267620  -0.2447660   1.0786800   0.0000000   0.0000000   0.0444870   0.5621170  -0.4675740   0.1174620   0.0000000   0.0000000   0.0000000   1.5000000  -0.0000000   0.0000000   0.0000000   0.0000000   0.0000000
 0.9250000   0.1295920  -0.2471040   1.0792600   0.0000000   0.0000000   0.0448239   0.5696170  -0.4675740   0.1174620   0.0000000   0.0000000   0.0000000   1.5000000  -0.0000000   0.0000000   0.0000000   0.0000000   0.0000000
 0.9300000   0.1324580  -0.2494420   1.0798500   0.0000000   0.0000000   0.0451609   0.5771170  -0.4675740   0.1174620   0.0000000   0.0000000   0.0000000   1.5000000  -0.0000000   0.0000000   0.0000000   0.0000000   0.0000000
 0.9350000   0.1353630  -0.2517800   1.0804400   0.0000000   0.0000000   0.0454978   0.5846170  -0.4675740   0.1174620   0.0000000   0.0000000   0.0000000   1.5000000  -0.0000000  -0.0000620   0.0000000   0.0000000   0.0000000
 0.9400000   0.1383050  -0.2541180   1.0810300   0.0000000   0.0000000   0.0458347   0.5921170  -0.4675740   0.1174610   0.0000000   0.0000000   0.0000000   1.5000000  -0.0000000  -0.0007420   0.0000000   0.0000000   0.0000000
 0.9450000   0.1412840  -0.2564560   1.0816100   0.0000000   0.0000000   0.0461716   0.5996170  -0.4675740   0.1174540   0.0000000   0.0000000   0.0000000   1.5000000  -0.0000000  -0.0021720   0.0000000   0.0000000   0.0000000
 0.9500000   0.1443010  -0.2587940   1.0822000   0.0000000   0.0000000   0.0465085   0.6071170  -0.4675740   0.1174380   0.0000000   0.0000000   0.0000000   1.5000000  -0.0000000  -0.0043520   0.0000000   0.0000000   0.0000000
 0.9550000   0.1473550  -0.2611320   1.0827900   0.0000000   0.0000000   0.0468454   0.6146170  -0.4675740   0.1174090   0.0000000   0.0000000   0.0000000   1.5000000  -0.0000000  -0.0072820   0.0000000   0.0000000   0.0000000
 0.9600000   0.1504470  -0.2634690   1.0833700   0.0000000   0.0000000   0.0471823   0.6221170  -0.4675740   0.1173630   0.0000000   0.0000000   0.0000000   1.5000000  -0.0000000  -0.0109620   0.0000000   0.0000000   0.0000000
 0.9650000   0.1535760  -0.2658070   1.0839600   0.0000000   0.0000000   0.0475192   0.6296170  -0.4675740   0.1172980   0.0000000   0.0000000   0.0000000   1.5000000  -0.0000000  -0.0153920   0.0000000   0.0000000   0.0000000
 0.9700000   0.1567430  -0.2681450   1.0845500   0.0000000   0.0000000   0.0478561   0.6371170  -0.4675740   0.1172080   0.0000000   0.0000000   0.0000000   1.5000000  -0.0000000  -0.0205720   0.0000000   0.0000000   0.0000000
 0.9750000   0.1599470  -0.2704830   1.0851300   0.0000000   0.0000000   0.0481930   0.6446170  -0.4675740   0.1170910   0.0000000   0.0000000   0.0000000   1.5000000  -0.0000000  -0.0265020   0.0000000   0.0000000   0.0000000
 0.9800000   0.1631890  -0.2728210   1.0857200   0.0000000   0.0000000   0.0485299   0.6521170  -0.4675740   0.1169420   0.0000000   0.0000000   0.0000000   1.5000000  -0.0000000  -0.0331820   0.0000000   0.0000000   0.0000000
 0.9850000   0.1664690  -0.2751590   1.0863000   0.0000000   0.0000000   0.0488668   0.6596170  -0.4675740   0.1167580   0.0000000   0.0000000   0.0000000   1.5000000  -0.0000000  -0.0406120   0.0000000   0.0000000   0.0000000
 0.9900000   0.1697850  -0.2774970   1.0868900   0.0000000   0.0000000   0.0492037   0.6671170  -0.4675740   0.1165350   0.0000000   0.0000000   0.0000000   1.5000000  -0.0000000  -0.0487920   0.0000000   0.0000000   0.0000000
 0.9950000   0.1731400  -0.2798340   1.0874700   0.0000000   0.0000000   0.0495406   0.6746170  -0.4675740   0.1162690   0.0000000   0.0000000   0.0000000   1.5000000  -0.0000000  -0.0577220   0.0000000   0.0000000   0.0000000
 1.0000000   0.1765320  -0.2821720   1.0880500   0.0000000   0.0000000   0.0498775   0.6821170  -0.4675740   0.1159560   0.0000000   0.0000000   0.0000000   1.5000000  -0.0000000  -0.0674021   0.0000000   0.0000000   0.0000000
 1.0050000   0.1799610  -0.2845100   1.0886300   0.0000000   0.0000000   0.0502144   0.6896170  -0.4675740   0.1155930   0.0000000   0.0000000   0.0000000   1.5000000  -0.0000000  -0.0778321   0.0000000   0.0000000   0.0000000
 1.0100000   0.1834280  -0.2868480   1.0892000   0.0000000   0.0000000   0.0505513   0.6971170  -0.4675740   0.1151770   0.0000000   0.0000000   0.0000000   1.5000000  -0.0000000  -0.0890121   0.0000000   0.0000000   0.0000000
 1.0150000   0.1869320  -0.2891860   1.0897800   0.0000000   0.0000000   0.0508882   0.7046170  -0.4675740   0.1147020   0.0000000   0.0000000   0.0000000   1.5000000  -0.0000000  -0.1009420   0.0000000   0.0000000   0.0000000
 1.0200000   0.1904740  -0.2915240   1.0903500   0.0000000   0.0000000   0.0512251   0.7121170  -0.4675740   0.1141660   0.0000000   0.0000000   0.0000000   1.5000000  -0.0000000  -0.1136220   0.0000000   0.0000000   0.0000000
 1.0250000   0.1940530  -0.2938620   1.0909200   0.0000000   0.0000000   0.0515620   0.7196170  -0.4675740   0.1135650   0.0000000   0.0000000   0.0000000   1.5000000  -0.0000000  -0.1270520   0.0000000   0.0000000   0.0000000
 1.0300000   0.1976700  -0.2962000   1.0914900   0.0000000   0.0000000   0.0518989   0.7271170  -0.4675740   0.1128940   0.0000000   0.0000000   0.0000000   1.5000000  -0.0000000  -0.1412320   0.0000000   0.0000000   0.0000000
 1.0350000   0.2013240  -0.2985370   1.0920500   0.0000000   0.0000000   0.0522358   0.7346170  -0.4675740   0.1121510   0.0000000   0.0000000   0.0000000   1.5000000  -0.0000000  -0.1561620   0.0000000   0.0000000   0.0000000
 1.0400000   0.2050160  -0.3008750   1.0926100   0.0000000   0.0000000   0.0525727   0.7421170  -0.4675740   0.1113310   0.0000000   0.0000000   0.0000000   1.5000000  -0.0000000  -0.1718420   0.0000000   0.0000000   0.0000000
 1.0450000   0.2087460  -0.3032130   1.0931600   0.0000000   0.0000000   0.0529096   0.7496170  -0.4675740   0.1104310   0.0000000   0.0000000   0.0000000   1.5000000  -0.0000000  -0.1882720   0.0000000   0.0000000   0.0000000
 1.0500000   0.2125120  -0.3055510   1.0937100   0.0000000   0.0000000   0.0532465   0.7571170  -0.4675740   0.1094470   0.0000000   0.0000000   0.0000000   1.5000000  -0.0000000  -0.2054520   0.0000000   0.0000000   0.0000000
 1.0550000   0.2163170  -0.3078890   1.0942600   0.0000000   0.0000000   0.0535834   0.7646170  -0.4675740   0.1083760   0.0000000   0.0000000   0.0000000   1.5000000  -0.0000000  -0.2233820   0.0000000   0.0000000   0.0000000
 1.0600000   0.2201590  -0.3102270   1.0948000   0.0000000   0.0000000   0.0539203   0.7721170  -0.4675740   0.1072120   0.0000000   0.0000000   0.0000000   1.5000000  -0.0000000  -0.2420620   0.0000000   0.0000000   0.0000000
 1.0650000   0.2240380  -0.3125650   1.0953300   0.0000000   0.0000000   0.0542572   0.7796170  -0.4675740   0.1059540   0.0000000   0.0000000   0.0000000   1.5000000  -0.0000000  -0.2614920   0.0000000   0.0000000   0.0000000
 1.0700000   0.2279550  -0.3149020   1.0958600   0.0000000   0.0000000   0.0545941   0.7871170  -0.4675740   0.1045960   0.0000000   0.0000000   0.0000000   1.5000000  -0.0000000  -0.2816720   0.0000000   0.0000000   0.0000000
 1.0750000   0.2319090  -0.3172400   1.0963700   0.0000000   0.0000000   0.0549310   0.7946170  -0.4675740   0.1031360   0.0000000   0.0000000   0.0000000   1.5000000  -0.0000000  -0.3026020   0.0000000   0.0000000   0.0000000
 1.0800000   0.2359010  -0.3195780   1.0968900   0.0000000   0.0000000   0.0552679   0.8021170  -0.4675740   0.1015690   0.0000000   0.0000000   0.0000000   1.5000000  -0.0000000  -0.3241720   0.0000000   0.0000000   0.0000000
 1.0850000   0.2399300  -0.3219160   1.0973900   0.0000000   0.0000000   0.0556048   0.8096170  -0.4675740   0.0998950   0.0000000   0.0000000   0.0000000   1.5000000  -0.0000000  -0.3452790   0.0000000   0.0000000   0.0000000
 1.0900000   0.2439970  -0.3242540   1.0978900   0.0000000   0.0000000   0.0559417   0.8171170  -0.4675740   0.0981174   0.0000000   0.0000000   0.0000000   1.5000000  -0.0000000  -0.3656350   0.0000000   0.0000000   0.0000000
 1.0950000   0.2481010  -0.3265920   1.0983700   0.0000000   0.0000000   0.0562786   0.8246170  -0.4675740   0.0962399   0.0000000   0.0000000   0.0000000   1.5000000  -0.0000000  -0.3852420   0.0000000   0.0000000   0.0000000
 1.1000000   0.2522430  -0.3289300   1.0988500   0.0000000   0.0000000   0.0566155   0.8321170  -0.4675740   0.0942662   0.0000000   0.0000000   0.0000000   1.5000000  -0.0000000  -0.4040980   0.0000000   0.0000000   0.0000000
 1.1050000   0.2564230  -0.3312680   1.0993100   0.0000000   0.0000000   0.0569524   0.8396170  -0.4675740   0.0922001   0.0000000   0.0000000   0.0000000   1.5000000  -0.0000000  -0.4222050   0.0000000   0.0000000   0.0000000
 1.1100000   0.2606390  -0.3336050   1.0997700   0.0000000   0.0000000   0.0572893   0.8471170  -0.4675740   0.0900454   0.0000000   0.0000000   0.0000000   1.5000000  -0.0000000  -0.4395610   0.0000000   0.0000000   0.0000000
 1.1150000   0.2648940  -0.3359430   1.1002100   0.0000000   0.0000000   0.0576262   0.8546170  -0.4675740   0.0878058   0.0000000   0.0000000   0.0000000   1.5000000  -0.0000000  -0.4561670   0.0000000   0.0000000   0.0000000
 1.1200000   0.2691860  -0.3382810   1.1006500   0.0000000   0.0000000   0.0579631   0.8621170  -0.4675740   0.0854850   0.0000000   0.0000000   0.0000000   1.5000000  -0.0000000  -0.4720240   0.0000000   0.0000000   0.0000000
 1.1250000   0.2735150  -0.3406190   1.1010700   0.0000000   0.0000000   0.0583000   0.8696170  -0.4675740   0.0830868   0.0000000   0.0000000   0.0000000   1.5000000  -0.0000000  -0.4871300   0.0000000   0.0000000   0.0000000
 1.1300000   0.2778820  -0.3429570   1.1014800   0.0000000   0.0000000   0.0586369   0.8771170  -0.4675740   0.0806149   0.0000000   0.0000000   0.0000000   1.5000000  -0.0000000  -0.5014870   0.0000000   0.0000000   0.0000000
 1.1350000   0.2822860  -0.3452950   1.1018700   0.0000000   0.0000000   0.0589738   0.8846170  -0.4675740   0.0780732   0.0000000   0.0000000   0.0000000   1.5000000  -0.0000000  -0.5150930   0.0000000   0.0000000   0.0000000
 1.1400000   0.2867280  -0.3476330   1.1022600   0.0000000   0.0000000   0.0593107   0.8921170  -0.4675740   0.0754652   0.0000000   0.0000000   0.0000000   1.5000000  -0.0000000  -0.5279500   0.0000000   0.0000000   0.0000000
 1.1450000   0.2912070  -0.3499710   1.1026300   0.0000000   0.0000000   0.0596476   0.8996170  -0.4675740   0.0727949   0.0000000   0.0000000   0.0000000   1.5000000  -0.0000000  -0.5400560   0.0000000   0.0000000   0.0000000
 1.1500000   0.2957240  -0.3523080   1.1029900   0.0000000   0.0000000   0.0599845   0.9071170  -0.4675740   0.0700659   0.0000000   0.0000000   0.0000000   1.5000000  -0.0000000  -0.5514120   0.0000000   0.0000000   0.0000000
 1.1550000   0.3002780  -0.3546460   1.1033300   0.0000000   0.0000000   0.0603214   0.9146170  -0.4675740   0.0672820   0.0000000   0.0000000   0.0000000   1.5000000  -0.0000000  -0.5620190   0.0000000   0.0000000   0.0000000
 1.1600000   0.3048700  -0.3569840   1.1036600   0.0000000   0.0000000   0.0606583   0.9221170  -0.4675740   0.0644470   0.0000000   0.0000000   0.0000000   1.5000000  -0.0000000  -0.5718750   0.0000000   0.0000000   0.0000000
 1.1650000   0.3095000  -0.3593220   1.1039700   0.0000000   0.0000000   0.0609952   0.9296170  -0.4675740   0.0615645   0.0000000   0.0000000   0.0000000   1.5000000  -0.0000000  -0.5809820   0.0000000   0.0000000   0.0000000
 1.1700000   0.3141660  -0.3616600   1.1042700   0.0000000   0.0000000   0.0613320   0.9371170  -0.4675730   0.0586384   0.0000000   0.0000000   0.0000000   1.5000000   0.0003367  -0.5893380   0.0000000   0.0000000   0.0000000
 1.1750000   0.3188710  -0.3639980   1.1045600   0.0000000   0.0000000   0.0616689   0.9446170  -0.4675690   0.0556724   0.0000000   0.0000000   0.0000000   1.5000000   0.0014224  -0.5969450   0.0000000   0.0000000   0.0000000
 1.1800000   0.3236130  -0.3663360   1.1048300   0.0000000   0.0000000   0.0620056   0.9521170  -0.4675580   0.0526702   0.0000000   0.0000000   0.0000000   1.5000000   0.0032581  -0.6038010   0.0000000   0.0000000   0.0000000
 1.1850000   0.3283920  -0.3686730   1.1050900   0.0000000   0.0000000   0.0623422   0.9596170  -0.4675350   0.0496357   0.0000000   0.0000000   0.0000000   1.5000000   0.0058438  -0.6099070   0.0000000   0.0000000   0.0000000
 1.1900000   0.3332090  -0.3710110   1.1053300   0.0000000   0.0000000   0.0626786   0.9671170  -0.4674980   0.0465724   0.0000000   0.0000000   0.0000000   1.5000000   0.0091795  -0.6152640   0.0000000   0.0000000   0.0000000
 1.1950000   0.3380630  -0.3733480   1.1055500   0.0000000   0.0000000   0.0630147   0.9746170  -0.4674420   0.0434843   0.0000000   0.0000000   0.0000000   1.5000000   0.0132652  -0.6198700   0.0000000   0.0000000   0.0000000
 1.2000000   0.3429550  -0.3756850   1.1057600   0.0000000   0.0000000   0.0633505   0.9821170  -0.4673640   0.0403750   0.0000000   0.0000000   0.0000000   1.5000000   0.0181009  -0.6237270   0.0000000   0.0000000   0.0000000
 1.2050000   0.3478840  -0.3780220   1.1059600   0.0000000   0.0000000   0.0636859   0.9896170  -0.4672600   0.0372482   0.0000000   0.0000000   0.0000000   1.5000000   0.0236866  -0.6268330   0.0000000   0.0000000   0.0000000
 1.2100000   0.3528510  -0.3803580   1.1061400   0.0000000   0.0000000   0.0640208   0.9971170  -0.4671260   0.0341079   0.0000000   0.0000000   0.0000000   1.5000000   0.0300223  -0.6291900   0.0000000   0.0000000   0.0000000
 1.2150000   0.3578550  -0.3826930   1.1063000   0.0000000   0.0000000   0.0643550   1.0046200  -0.4669590   0.0309576   0.0000000   0.0000000   0.0000000   1.5000000   0.0371080  -0.6307960   0.0000000   0.0000000   0.0000000
 1.2200000   0.3628970  -0.3850270   1.1064400   0.0000000   0.0000000   0.0646885   1.0121200  -0.4667540   0.0278012   0.0000000   0.0000000   0.0000000   1.5000000   0.0449437  -0.6316520   0.0000000   0.0000000   0.0000000
 1.2250000   0.3679770  -0.3873610   1.1065800   0.0000000   0.0000000   0.0650211   1.0196200  -0.4665080   0.0246423   0.0000000   0.0000000   0.0000000   1.5000000   0.0535294  -0.6317590   0.0000000   0.0000000   0.0000000
 1.2300000   0.3730930  -0.3896920   1.1066900   0.0000000   0.0000000   0.0653528   1.0271200  -0.4662170   0.0214848   0.0000000   0.0000000   0.0000000   1.5000000   0.0628651  -0.6311150   0.0000000   0.0000000   0.0000000
 1.2350000   0.3782480  -0.3920230   1.1067900   0.0000000   0.0000000   0.0656832   1.0346200  -0.4658780   0.0183324   0.0000000   0.0000000   0.0000000   1.4999300   0.0729508  -0.6297220   0.0000000   0.0000000   0.0000000
 1.2400000   0.3834400  -0.3943510   1.1068700   0.0000000   0.0000000   0.0660124   1.0421200  -0.4654860   0.0151889   0.0000000   0.0000000   0.0000000   1.4992400   0.0837865  -0.6275780   0.0000000   0.0000000   0.0000000
 1.2450000   0.3886690  -0.3966770   1.1069400   0.0000000   0.0000000   0.0663400   1.0496100  -0.4650390   0.0120579   0.0000000   0.0000000   0.0000000   1.4978000   0.0953722  -0.6246850   0.0000000   0.0000000   0.0000000
 1.2500000   0.3939360  -0.3990010   1.1070000   0.0000000   0.0000000   0.0666661   1.0570900  -0.4645310   0.0089433   0.0000000   0.0000000   0.0000000   1.4956100   0.1077080  -0.6210410   0.0000000   0.0000000   0.0000000
 1.2550000   0.3992400  -0.4013230   1.1070300   0.0000000   0.0000000   0.0669903   1.0645600  -0.4639610   0.0058487   0.0000000   0.0000000   0.0000000   1.4926700   0.1207940  -0.6166470   0.0000000   0.0000000   0.0000000
 1.2600000   0.4045810  -0.4036410   1.1070500   0.0000000   0.0000000   0.0673124   1.0720200  -0.4633220   0.0027780   0.0000000   0.0000000   0.0000000   1.4889800   0.1346290  -0.6115040   0.0000000   0.0000000   0.0000000
 1.2650000   0.4099600  -0.4059560   1.1070600   0.0000000   0.0000000   0.0676323   1.0794500  -0.4626130  -0.0002651   0.0000000   0.0000000   0.0000000   1.4845400   0.1492150  -0.6056100   0.0000000   0.0000000   0.0000000
 1.2700000   0.4153760  -0.4082670   1.1070500   0.0000000   0.0000000   0.0679497   1.0868600  -0.4618290  -0.0032768   0.0000000   0.0000000   0.0000000   1.4793600   0.1645510  -0.5989670   0.0000000   0.0000000   0.0000000
 1.2750000   0.4208290  -0.4105740   1.1070300   0.0000000   0.0000000   0.0682645   1.0942400  -0.4609660  -0.0062535   0.0000000   0.0000000   0.0000000   1.4734200   0.1806360  -0.5915730   0.0000000   0.0000000   0.0000000
 1.2800000   0.4263180  -0.4128760   1.1069900   0.0000000   0.0000000   0.0685763   1.1015900  -0.4600210  -0.0091913   0.0000000   0.0000000   0.0000000   1.4667300   0.1974720  -0.5834300   0.0000000   0.0000000   0.0000000
 1.2850000   0.4318440  -0.4151740   1.1069400   0.0000000   0.0000000   0.0688850   1.1089100  -0.4589900  -0.0120865   0.0000000   0.0000000   0.0000000   1.4592900   0.2150580  -0.5745360   0.0000000   0.0000000   0.0000000
 1.2900000   0.4374070  -0.4174660   1.1068700   0.0000000   0.0000000   0.0691902   1.1161900  -0.4578690  -0.0149354   0.0000000   0.0000000   0.0000000   1.4511000   0.2333930  -0.5648920   0.0000000   0.0000000   0.0000000
 1.2950000   0.4430060  -0.4197520   1.1067900   0.0000000   0.0000000   0.0694918   1.1234200  -0.4566550  -0.0177342   0.0000000   0.0000000   0.0000000   1.4421600   0.2524790  -0.5544990   0.0000000   0.0000000   0.0000000
 1.3000000   0.4486410  -0.4220320   1.1066900   0.0000000   0.0000000   0.0697895   1.1306100  -0.4553430  -0.0204791   0.0000000   0.0000000   0.0000000   1.4324700   0.2723150  -0.5433550   0.0000000   0.0000000   0.0000000
 1.3050000   0.4543120  -0.4243060   1.1065800   0.0000000   0.0000000   0.0700832   1.1377400  -0.4539310  -0.0231665   0.0000000   0.0000000   0.0000000   1.4220300   0.2929010  -0.5314620   0.0000000   0.0000000   0.0000000
 1.3100000   0.4600190  -0.4265720   1.1064600   0.0000000   0.0000000   0.0703725   1.1448300  -0.4524130  -0.0257925   0.0000000   0.0000000   0.0000000   1.4108400   0.3142360  -0.5188180   0.0000000   0.0000000   0.0000000
 1.3150000   0.4657600  -0.4288300   1.1063200   0.0000000   0.0000000   0.0706574   1.1518500  -0.4507870  -0.0283534   0.0000000   0.0000000   0.0000000   1.3989000   0.3363220  -0.5054250   0.0000000   0.0000000   0.0000000
