ts fx fy fz tx ty tz exfx exfy exfz extx exty extz xd yd zd rolld pitchd yawd vxd vyd vzd wxd wyd wzd axd ayd azd e_x e_y e_z e_vx e_vy e_vz e_rx e_ry e_rz e_wx e_wy e_wz
1701448681.595895000  0  0  12.1162  -0.0500279  -0.0156902  0.00834573  nan  nan  nan  nan  nan  nan  -2  -1  1.5  -0.0216839  -0.00765966  0.000166116  0  0  0  0  0  0  0  0  0  0.00504722  -0.0160979  -0.0266384  -0.000899977  0.00657962  -0.00335874  0.0185692  0.00573337  -0.0119265  -0.0707807  -0.0213666  0.0149434 
1701448681.600921000  0  0  12.1344  -0.0570349  -0.0157313  0.00822822  nan  nan  nan  nan  nan  nan  -2  -1  1.5  -0.0218354  -0.00736443  0.00016083  0  0  0  0  0  0  0  0  0  0.00503251  -0.0161513  -0.0266748  -0.00125005  0.00645048  -0.00479055  0.0185137  0.00539144  -0.0118406  -0.0562558  -0.0181386  0.0155532 
1701448681.604930000  0  0  12.1464  -0.0632878  -0.00738671  0.00832933  nan  nan  nan  nan  nan  nan  -2  -1  1.5  -0.0213646  -0.00727668  0.000155485  0  0  0  0  0  0  0  0  0  0.00502747  -0.0161227  -0.026702  -0.00134764  0.00699313  -0.00574021  0.0180312  0.0050622  -0.011796  -0.0393115  -0.0317989  0.0138434 
1701448681.610899000  0  0  12.137  -0.0468306  -0.0150813  0.00831248  nan  nan  nan  nan  nan  nan  -2  -1  1.5  -0.021447  -0.00747933  0.000160432  0  0  0  0  0  0  0  0  0  0.00501791  -0.0161665  -0.0267313  -0.00106067  0.007002  -0.00488571  0.0175265  0.00524821  -0.0117209  -0.0675823  -0.0181208  0.0133026 
1701448681.614903000  0  0  12.1522  -0.055141  -0.0184491  0.00874072  nan  nan  nan  nan  nan  nan  -2  -1  1.5  -0.0212791  -0.00728283  0.000154994  0  0  0  0  0  0  0  0  0  0.00501147  -0.0161395  -0.0267624  -0.00129923  0.00713239  -0.00608696  0.0173039  0.00507901  -0.0117248  -0.0489142  -0.00982865  0.00798949 
1701448681.620854000  0  0  12.1683  -0.0734702  -0.018504  0.00933686  nan  nan  nan  nan  nan  nan  -2  -1  1.5  -0.0212713  -0.00740953  0.000157633  0  0  0  0  0  0  0  0  0  0.0049972  -0.0161764  -0.0268108  -0.00108312  0.00718689  -0.00732713  0.0174941  0.00513996  -0.0117813  -0.0140058  -0.0102796  0.00110186 
1701448681.625902000  0  0  12.1432  -0.0613524  -0.0246428  0.0089905  nan  nan  nan  nan  nan  nan  -2  -1  1.5  -0.021635  -0.00744131  0.000161017  0  0  0  0  0  0  0  0  0  0.004983  -0.0162227  -0.0268285  -0.00102928  0.00685852  -0.00519041  0.0174806  0.00527581  -0.0117358  -0.0381166  0.000748187  0.00497638 
1701448681.630913000  0  0  12.1499  -0.0877152  -0.0225933  0.00899747  nan  nan  nan  nan  nan  nan  -2  -1  1.5  -0.0214311  -0.00732658  0.00015704  0  0  0  0  0  0  0  0  0  0.00497621  -0.0161883  -0.0268614  -0.00116359  0.0070411  -0.00568978  0.0176685  0.00514336  -0.01171  0.0128802  -0.00213226  0.00463114 
1701448681.635890000  0  0  12.1591  -0.0906038  -0.0241105  0.00921312  nan  nan  nan  nan  nan  nan  -2  -1  1.5  -0.0216452  -0.00752145  0.000162827  0  0  0  0  0  0  0  0  0  0.00496768  -0.0162366  -0.0268986  -0.000873643  0.00683706  -0.00638029  0.0179952  0.00534726  -0.0117266  0.0156522  -0.000973731  0.00210229 
1701448681.640923000  0  0  12.145  -0.086074  -0.0347487  0.00902977  nan  nan  nan  nan  nan  nan  -2  -1  1.5  -0.022172  -0.00754408  0.000167293  0  0  0  0  0  0  0  0  0  0.00495673  -0.0162896  -0.0269138  -0.000830356  0.00627785  -0.00517038  0.0184246  0.00561885  -0.0116979  0.00264175  0.017804  0.00410641 
1701448681.645887000  0  0  12.1492  -0.110684  -0.0330434  0.00966247  nan  nan  nan  nan  nan  nan  -2  -1  1.5  -0.0219134  -0.00727335  0.000159408  0  0  0  0  0  0  0  0  0  0.00494881  -0.0162567  -0.0269441  -0.00117481  0.00654303  -0.00547265  0.0187697  0.0054242  -0.0117625  0.0486859  0.0161842  -0.00315597 
1701448681.650886000  0  0  12.1322  -0.104775  -0.0332317  0.00947275  nan  nan  nan  nan  nan  nan  -2  -1  1.5  -0.0223657  -0.00763207  0.000170723  0  0  0  0  0  0  0  0  0  0.00494485  -0.0163076  -0.0269599  -0.000695795  0.00608782  -0.00401957  0.0192895  0.00583335  -0.0117662  0.0320868  0.0127965  -0.000747353 
1701448681.655896000  0  0  12.1387  -0.10402  -0.0377663  0.00922749  nan  nan  nan  nan  nan  nan  -2  -1  1.5  -0.0223338  -0.00756835  0.000169057  0  0  0  0  0  0  0  0  0  0.00493994  -0.0162779  -0.0269881  -0.000765298  0.00604848  -0.00451072  0.0193686  0.00593507  -0.0117293  0.0298497  0.0209299  0.00194989 
1701448681.660924000  0  0  12.1414  -0.128893  -0.0289307  0.00983093  nan  nan  nan  nan  nan  nan  -2  -1  1.5  -0.0225331  -0.00740691  0.000166927  0  0  0  0  0  0  0  0  0  0.0049312  -0.0163323  -0.0270132  -0.0009613  0.00589326  -0.0046942  0.0202673  0.00571802  -0.0118096  0.0713264  0.00525553  -0.00479061 
1701448681.665894000  0  0  12.1115  -0.112596  -0.0301902  0.00931112  nan  nan  nan  nan  nan  nan  -2  -1  1.5  -0.0228913  -0.00765179  0.000175188  0  0  0  0  0  0  0  0  0  0.00492937  -0.0163927  -0.0270113  -0.000652042  0.00562038  -0.00220103  0.0205739  0.00599855  -0.01177  0.035912  0.00519371  0.00131096 
1701448681.670897000  0  0  12.1226  -0.11345  -0.031138  0.00924923  nan  nan  nan  nan  nan  nan  -2  -1  1.5  -0.0228418  -0.00744227  0.000170023  0  0  0  0  0  0  0  0  0  0.00492331  -0.0163656  -0.0270366  -0.000911403  0.00559838  -0.00308303  0.0206809  0.00585971  -0.0117514  0.0366349  0.00836668  0.0018984 
1701448681.675846000  0  0  12.1344  -0.125714  -0.0264757  0.00916694  nan  nan  nan  nan  nan  nan  -2  -1  1.5  -0.0229898  -0.00740207  0.000170201  0  0  0  0  0  0  0  0  0  0.00492033  -0.0164243  -0.0270578  -0.000949145  0.00549896  -0.00402611  0.0212742  0.00577329  -0.0117379  0.0557041  -0.000162933  0.00279211 
1701448681.679897000  0  0  12.1116  -0.102097  -0.0281636  0.00821714  nan  nan  nan  nan  nan  nan  -2  -1  1.5  -0.0229655  -0.00765425  0.000175813  0  0  0  0  0  0  0  0  0  0.00491972  -0.0164025  -0.0270564  -0.000627072  0.00554173  -0.00212478  0.020977  0.00602776  -0.0116072  0.0112055  0.00087185  0.0133581 
1701448681.685907000  0  0  12.1367  -0.101608  -0.0284097  0.00791398  nan  nan  nan  nan  nan  nan  -2  -1  1.5  -0.02305  -0.00705137  0.000162561  0  0  0  0  0  0  0  0  0  0.00490599  -0.0164597  -0.0270871  -0.0013886  0.00549083  -0.00415054  0.0210882  0.00552686  -0.0114851  0.00920517  0.00597228  0.0159262 
1701448681.690893000  0  0  12.1147  -0.100754  -0.0179753  0.00798595  nan  nan  nan  nan  nan  nan  -2  -1  1.5  -0.0231952  -0.00727867  0.000168859  0  0  0  0  0  0  0  0  0  0.00490542  -0.0165198  -0.0270878  -0.00109837  0.00548498  -0.00231675  0.0212824  0.00554585  -0.0114338  0.00570911  -0.0150712  0.0145136 
1701448681.695895000  0  0  12.1103  -0.0821471  -0.024607  0.00806284  nan  nan  nan  nan  nan  nan  -2  -1  1.5  -0.0228781  -0.00731403  0.000167359  0  0  0  0  0  0  0  0  0  0.00490067  -0.0164908  -0.0270982  -0.00104396  0.00585897  -0.00192572  0.0206016  0.00564234  -0.0113759  -0.0252407  -0.0026955  0.0129739 
1701448681.700924000  0  0  12.1246  -0.0892739  -0.0248909  0.00888839  nan  nan  nan  nan  nan  nan  -2  -1  1.5  -0.0229444  -0.00686961  0.000157646  0  0  0  0  0  0  0  0  0  0.00488915  -0.0165517  -0.0271155  -0.00160574  0.00586858  -0.00307924  0.0207151  0.00528026  -0.0114368  -0.0120306  0.00120335  0.00326321 
1701448681.704921000  0  0  12.0925  -0.0866777  -0.0129213  0.00909054  nan  nan  nan  nan  nan  nan  -2  -1  1.5  -0.0227749  -0.00711085  0.000161976  0  0  0  0  0  0  0  0  0  0.00488638  -0.016528  -0.0271048  -0.0012999  0.00612558  -0.000422787  0.0204727  0.00524659  -0.0114553  -0.0149935  -0.0224261  0.000920922 
1701448681.710966000  0  0  12.0966  -0.0684363  -0.0182453  0.00933292  nan  nan  nan  nan  nan  nan  -2  -1  1.5  -0.0226012  -0.00693295  0.000156718  0  0  0  0  0  0  0  0  0  0.00487505  -0.0165761  -0.0271093  -0.00151082  0.00645592  -0.000752746  0.019796  0.00506441  -0.0114861  -0.0452504  -0.010102  -0.00180012 
1701448681.715887000  0  0  12.0906  -0.0729428  -0.0127083  0.00964334  nan  nan  nan  nan  nan  nan  -2  -1  1.5  -0.0227225  -0.00691349  0.000157118  0  0  0  0  0  0  0  0  0  0.0048661  -0.0166271  -0.0271081  -0.00152173  0.00642139  -0.000245754  0.0197975  0.00490976  -0.0115402  -0.0362514  -0.0197533  -0.00513949 
1701448681.720910000  0  0  12.0523  -0.0634078  -0.00291301  0.0101649  nan  nan  nan  nan  nan  nan  -2  -1  1.5  -0.0224783  -0.0070378  0.000158223  0  0  0  0  0  0  0  0  0  0.00486023  -0.0165944  -0.0270844  -0.00137175  0.00677299  0.00290301  0.0192188  0.00470674  -0.0116414  -0.049997  -0.037476  -0.0106476 
1701448681.725889000  0  0  12.1017  -0.0524089  -0.0113406  0.00999922  nan  nan  nan  nan  nan  nan  -2  -1  1.5  -0.0221506  -0.00662745  0.000146825  0  0  0  0  0  0  0  0  0  0.00484688  -0.0166391  -0.0271145  -0.0018556  0.00718962  -0.00114896  0.018449  0.00436076  -0.0116671  -0.064913  -0.0174377  -0.00831939 
1701448681.729892000  0  0  12.098  -0.0568314  -0.00708601  0.00999263  nan  nan  nan  nan  nan  nan  -2  -1  1.5  -0.0218958  -0.00657902  0.000144075  0  0  0  0  0  0  0  0  0  0.00483984  -0.0166108  -0.0271133  -0.00190798  0.00747876  -0.000835751  0.0180815  0.00416749  -0.0116923  -0.0526867  -0.0241689  -0.00798513 
1701448681.735887000  0  0  12.0832  -0.0552989  -0.00217788  0.0101458  nan  nan  nan  nan  nan  nan  -2  -1  1.5  -0.0220477  -0.00676468  0.000149168  0  0  0  0  0  0  0  0  0  0.00482952  -0.0166467  -0.0271114  -0.00164649  0.00739079  0.00040068  0.017916  0.00409383  -0.0117773  -0.0542291  -0.0333075  -0.00904898 
1701448681.740858000  0  0  12.1555  -0.0580325  -0.0170936  0.00977803  nan  nan  nan  nan  nan  nan  -2  -1  1.5  -0.0218089  -0.00629258  0.000137255  6e-07  6e-07  -6e-07  0  0  0  0.000375  0.000375  -0.000375  0.00481313  -0.0166851  -0.0271705  -0.00214523  0.00766981  -0.00553915  0.0175177  0.00384989  -0.0117731  -0.0450975  -0.00123188  -0.0044942 
1701448681.745904000  0  0  12.1203  -0.0619009  -0.00879523  0.00970506  nan  nan  nan  nan  nan  nan  -2  -1  1.5  -0.0217089  -0.00622285  0.000135111  5e-06  5e-06  -5e-06  0  0  0  0.0015  0.0015  -0.0015  0.00480365  -0.0166468  -0.0271609  -0.0020974  0.00795028  -0.00273422  0.0173118  0.00360893  -0.011783  -0.0354668  -0.0156117  -0.003483 
1701448681.750904000  0  0  12.1127  -0.0620621  -0.00795385  0.0093987  nan  nan  nan  nan  nan  nan  -2  -1  1.5  -0.0220815  -0.00615903  0.000136022  1.69e-05  1.69e-05  -1.69e-05  0  0  0  0.003375  0.003375  -0.003375  0.00479215  -0.0166849  -0.0271823  -0.00192065  0.00779404  -0.00223121  0.017499  0.00346896  -0.0117699  -0.0368662  -0.0160068  0.000215359 
1701448681.754903000  0  0  12.1528  -0.0658808  -0.0197363  0.00903843  nan  nan  nan  nan  nan  nan  -2  -1  1.5  -0.0218654  -0.00568685  0.000124464  4e-05  4e-05  -4e-05  0  0  0  0.006  0.006  -0.006  0.00478246  -0.0166513  -0.027222  -0.00217037  0.00825184  -0.00574713  0.0172518  0.00322308  -0.0117165  -0.0269548  0.00982022  0.00418416 
1701448681.760903000  0  0  12.1121  -0.0764849  -0.0138908  0.00887366  nan  nan  nan  nan  nan  nan  -2  -1  1.5  -0.0225012  -0.00557785  0.000125829  7.81e-05  7.81e-05  -7.81e-05  0  0  0  0.009375  0.009375  -0.009375  0.00477035  -0.01668  -0.0272362  -0.00187963  0.00799486  -0.00264739  0.0179192  0.00310123  -0.0116754  -0.0118873  -0.000749711  0.00583326 
1701448681.765902000  0  0  12.1215  -0.0849419  -0.010804  0.00851723  nan  nan  nan  nan  nan  nan  -2  -0.999999  1.5  -0.0231625  -0.0051245  0.000119217  0.000135  0.000135  -0.000135  0  0  0  0.0135  0.0135  -0.0135  0.00475825  -0.0167209  -0.0272766  -0.0019245  0.00770437  -0.00374699  0.0186626  0.00262597  -0.0116043  -0.00181185  -0.00255086  0.00957751 
1701448681.770902000  0  0  12.1525  -0.0930576  -0.0230752  0.00810475  nan  nan  nan  nan  nan  nan  -2  -0.999998  1.5  -0.023147  -0.00440164  0.000102902  0.0002144  0.0002144  -0.0002144  0  0  0  0.018375  0.018375  -0.018375  0.00474685  -0.0166793  -0.0273228  -0.00222801  0.0081825  -0.00671299  0.0188197  0.00223932  -0.0114948  0.0129736  0.0255487  0.0136383 
1701448681.775882000  0  0  12.109  -0.101119  -0.0125373  0.0087202  nan  nan  nan  nan  nan  nan  -2  -0.999997  1.5  -0.0242692  -0.00409496  0.000101101  0.00032  0.00032  -0.00032  0  0  0  0.024  0.024  -0.024  0.00474041  -0.0167241  -0.0273429  -0.00192059  0.0076103  -0.00359247  0.0200752  0.00188784  -0.0115239  0.0175453  0.0077065  0.00623699 
1701448681.780901000  0  0  12.1411  -0.104669  -0.0150225  0.00825183  nan  nan  nan  nan  nan  nan  -1.99999  -0.999995  1.49999  -0.0246666  -0.00321757  8.20827e-05  0.0004556  0.0004556  -0.0004556  0  0  0  0.030375  0.030375  -0.030375  0.00472042  -0.0166853  -0.0273824  -0.00222184  0.00772477  -0.00680463  0.0206029  0.00116416  -0.0114348  0.0197903  0.0193348  0.0111996 
1701448681.785883000  0  0  12.1367  -0.11317  -0.0226345  0.00802113  nan  nan  nan  nan  nan  nan  -1.99999  -0.999992  1.49999  -0.0255376  -0.00245358  6.68721e-05  0.000625  0.000625  -0.000625  0  0  0  0.0375  0.0375  -0.0375  0.00471313  -0.016729  -0.0274351  -0.00231707  0.00757918  -0.00702307  0.0216758  0.000774399  -0.0113502  0.026923  0.0381445  0.0132377 
1701448681.790882000  0  0  12.0718  -0.122443  -0.00623076  0.00861542  nan  nan  nan  nan  nan  nan  -1.99999  -0.999989  1.49999  -0.0269574  -0.00183766  5.56504e-05  0.0008319  0.0008319  -0.0008319  0  0  0  0.045375  0.045375  -0.045375  0.00471047  -0.016781  -0.0274445  -0.0021376  0.00699102  -0.00235656  0.0232954  6.5526e-05  -0.0113797  0.0305679  0.0118587  0.00610469 
1701448681.795885000  0  0  12.0963  -0.127474  -0.00661119  0.00925583  nan  nan  nan  nan  nan  nan  -1.99998  -0.999984  1.49998  -0.0276633  -0.000686213  2.75878e-05  0.00108  0.00108  -0.00108  0  0  0  0.054  0.054  -0.054  0.00469188  -0.0167457  -0.0274848  -0.00252515  0.00700412  -0.00515727  0.0241898  -0.000911838  -0.0114247  0.0324019  0.0216113  -0.0014507 
1701448681.800898000  0  0  12.0754  -0.136254  -0.00707493  0.00967067  nan  nan  nan  nan  nan  nan  -1.99998  -0.999978  1.49998  -0.0288707  0.0002654  4.23558e-06  0.0013731  0.0013731  -0.0013731  0  0  0  0.063375  0.063375  -0.063375  0.00469116  -0.0167966  -0.0275267  -0.00259124  0.00677173  -0.00423604  0.0256328  -0.00161555  -0.0114812  0.0366852  0.0290129  -0.00607182 
1701448681.804902000  0  0  12.0197  -0.13623  0.00582056  0.00929532  nan  nan  nan  nan  nan  nan  -1.99997  -0.99997  1.49997  -0.0301007  0.00143876  -2.73207e-05  0.001715  0.001715  -0.001715  0  0  0  0.0735  0.0735  -0.0735  0.00467684  -0.0167724  -0.0275104  -0.00281756  0.00656115  -0.000608006  0.0268931  -0.00283142  -0.0114443  0.0250438  0.014408  -0.00174853 
1701448681.810885000  0  0  12.0417  -0.138934  0.00170313  0.00892479  nan  nan  nan  nan  nan  nan  -1.99996  -0.99996  1.49996  -0.0314059  0.0029787  -7.24793e-05  0.0021094  0.0021094  -0.0021094  0  0  0  0.084375  0.084375  -0.084375  0.00466062  -0.0168205  -0.0275669  -0.00344189  0.00625224  -0.00337457  0.0282714  -0.00401627  -0.0113906  0.0177715  0.0335435  0.00234598 
1701448681.814890000  0  0  12.0264  -0.144773  0.00632978  0.0086703  nan  nan  nan  nan  nan  nan  -1.99995  -0.999949  1.49995  -0.0325043  0.00414709  -0.000107546  0.00256  0.00256  -0.00256  0  0  0  0.096  0.096  -0.096  0.00464928  -0.0167956  -0.0275798  -0.0034722  0.00628336  -0.00319987  0.0294618  -0.00502962  -0.0113329  0.0184971  0.0336129  0.00495041 
1701448681.820900000  0  0  11.9892  -0.137278  0.0146705  0.00849076  nan  nan  nan  nan  nan  nan  -1.99993  -0.999935  1.49993  -0.0342402  0.00576967  -0.000162831  0.0030706  0.0030706  -0.0030706  0  0  0  0.108375  0.108375  -0.108375  0.00462936  -0.01685  -0.0275892  -0.00397573  0.00582347  -0.00127527  0.0309882  -0.00647332  -0.0112708  -0.0105358  0.0302135  0.00657326 
1701448681.825885000  0  0  11.9879  -0.136054  0.0171099  0.00867106  nan  nan  nan  nan  nan  nan  -1.99992  -0.999918  1.49992  -0.0359661  0.00750441  -0.000226318  0.003645  0.003645  -0.003645  0  0  0  0.1215  0.1215  -0.1215  0.0046194  -0.0169139  -0.0276288  -0.0045705  0.00536617  -0.0023394  0.0324912  -0.00790576  -0.0112504  -0.026811  0.0385131  0.0041153 
1701448681.829904000  0  0  11.9604  -0.139306  0.0271126  0.0090511  nan  nan  nan  nan  nan  nan  -1.9999  -0.999898  1.4999  -0.037503  0.00906897  -0.000285969  0.0042869  0.0042869  -0.0042869  0  0  0  0.135375  0.135375  -0.135375  0.00459933  -0.0168961  -0.027628  -0.00479239  0.00518562  -0.00138338  0.033865  -0.0093747  -0.0112667  -0.0329463  0.032022  -0.000471593 
1701448681.835880000  0  0  11.9464  -0.133944  0.0225818  0.00897388  nan  nan  nan  nan  nan  nan  -1.99988  -0.999875  1.49988  -0.0393058  0.0109633  -0.000364433  0.005  0.005  -0.005  0  0  0  0.15  0.15  -0.15  0.00458039  -0.0169481  -0.0276611  -0.00536506  0.00485533  -0.0015378  0.0351923  -0.010785  -0.0112351  -0.0558805  0.0540584  0.000177086 
1701448681.840922000  0  0  11.9304  -0.134166  0.0254036  0.00931322  nan  nan  nan  nan  nan  nan  -1.99985  -0.999848  1.49985  -0.0413101  0.0127748  -0.000447013  0.0057881  0.0057881  -0.0057881  0  0  0  0.165375  0.165375  -0.165375  0.00455831  -0.0170121  -0.027683  -0.00571602  0.00439616  -0.0016211  0.0367862  -0.0121791  -0.0112526  -0.0701017  0.061241  -0.00388898 
1701448681.845884000  0  0  11.9013  -0.127635  0.0283433  0.00956104  nan  nan  nan  nan  nan  nan  -1.99982  -0.999817  1.49982  -0.0429671  0.014693  -0.000534081  0.006655  0.006655  -0.006655  0  0  0  0.1815  0.1815  -0.1815  0.00453176  -0.0169891  -0.027686  -0.00607372  0.00437105  -0.000715163  0.0378442  -0.0136871  -0.0112746  -0.0928976  0.0692349  -0.00676651 
1701448681.850882000  0  0  11.8987  -0.123338  0.0251679  0.00975024  nan  nan  nan  nan  nan  nan  -1.99978  -0.999781  1.49978  -0.0450447  0.0169319  -0.000646572  0.0076044  0.0076044  -0.0076044  0  0  0  0.198375  0.198375  -0.198375  0.00450121  -0.0170536  -0.0277121  -0.00678811  0.00396064  -0.00202849  0.039218  -0.0152883  -0.0112991  -0.11413  0.0903163  -0.0088865 
1701448681.854884000  0  0  11.8677  -0.125262  0.0294207  0.00995948  nan  nan  nan  nan  nan  nan  -1.99974  -0.999741  1.49974  -0.0470064  0.0192839  -0.00076888  0.00864  0.00864  -0.00864  0  0  0  0.216  0.216  -0.216  0.00446598  -0.017044  -0.0277063  -0.00748357  0.00378545  -0.00112022  0.0406394  -0.0171492  -0.0113152  -0.123358  0.0989312  -0.0113413 
1701448681.860920000  0  0  11.8604  -0.107212  0.0256798  0.00960695  nan  nan  nan  nan  nan  nan  -1.99969  -0.999695  1.49969  -0.0491966  0.0212573  -0.000883751  0.0097656  0.0097656  -0.0097656  0  0  0  0.234375  0.234375  -0.234375  0.00443984  -0.0170943  -0.0277462  -0.00764328  0.00342576  -0.00212122  0.0415404  -0.0182746  -0.011292  -0.167747  0.116767  -0.00716674 
1701448681.865879000  0  0  11.8509  -0.111035  0.0218026  0.00954414  nan  nan  nan  nan  nan  nan  -1.99964  -0.999643  1.49964  -0.051522  0.0239821  -0.00104618  0.010985  0.010985  -0.0109839  0  0  0  0.2535  0.2535  -0.252793  0.00441414  -0.0171542  -0.0277901  -0.00869184  0.00302237  -0.00294425  0.042975  -0.0200787  -0.0112617  -0.173301  0.141119  -0.00668483 
1701448681.870881000  0  0  11.8093  -0.10504  0.0247722  0.00960141  nan  nan  nan  nan  nan  nan  -1.99958  -0.999585  1.49958  -0.0537986  0.0261219  -0.00118512  0.0123019  0.0123019  -0.0122923  0  0  0  0.273375  0.273375  -0.270462  0.00437462  -0.0171385  -0.027786  -0.00874247  0.00280979  -0.00110677  0.0441496  -0.021405  -0.0112508  -0.196096  0.147382  -0.00750934 
1701448681.875878000  0  0  11.8189  -0.0932706  0.0152431  0.0098525  nan  nan  nan  nan  nan  nan  -1.99952  -0.99952  1.49952  -0.0562638  0.0287277  -0.00136181  0.01372  0.01372  -0.0136872  0  0  0  0.294  0.294  -0.287381  0.00434674  -0.0171954  -0.0278427  -0.00947787  0.00231237  -0.00330235  0.0452492  -0.0228614  -0.0112598  -0.229751  0.179838  -0.0105583 
1701448681.879889000  0  0  11.8048  -0.103046  0.0174285  0.00982426  nan  nan  nan  nan  nan  nan  -1.99945  -0.999447  1.49945  -0.0588284  0.0319032  -0.00158416  0.0152431  0.0152431  -0.0151649  0  0  0  0.315375  0.315375  -0.30355  0.00429254  -0.017201  -0.0278466  -0.0107333  0.00181739  -0.00357784  0.046958  -0.025095  -0.0112107  -0.225921  0.196017  -0.0106966 
1701448681.885880000  0  0  11.7523  -0.109258  0.0267108  0.0098438  nan  nan  nan  nan  nan  nan  -1.99937  -0.999367  1.49937  -0.0617168  0.0341163  -0.00177082  0.016875  0.016875  -0.0167215  0  0  0  0.3375  0.3375  -0.318969  0.00427171  -0.0172463  -0.0278735  -0.0105465  0.00135487  -0.000498845  0.0485042  -0.0261779  -0.0112138  -0.227721  0.187415  -0.010909 
1701448681.890878000  0  0  11.7786  -0.102577  0.0119851  0.00938009  nan  nan  nan  nan  nan  nan  -1.99928  -0.999278  1.49928  -0.0644138  0.0369759  -0.00200081  0.0186194  0.0186194  -0.0183533  0  0  0  0.360375  0.360375  -0.333638  0.00423412  -0.0173077  -0.027927  -0.0113678  0.000748158  -0.003832  0.049756  -0.0275673  -0.0111131  -0.252601  0.229649  -0.00611993 
1701448681.895876000  0  0  11.7673  -0.112201  0.00922117  0.00919864  nan  nan  nan  nan  nan  nan  -1.99918  -0.999181  1.49918  -0.0672096  0.0402675  -0.00227481  0.02048  0.02048  -0.0200566  0  0  0  0.384  0.384  -0.347557  0.00417144  -0.017304  -0.0279418  -0.0124563  0.000231882  -0.00403371  0.0513625  -0.0293977  -0.0110106  -0.248134  0.252017  -0.0048765 
1701448681.900922000  0  0  11.709  -0.119502  0.0205802  0.00901468  nan  nan  nan  nan  nan  nan  -1.99907  -0.999073  1.49908  -0.0708215  0.0429493  -0.00255518  0.0224606  0.0224606  -0.0218276  0  0  0  0.408375  0.408375  -0.360726  0.00413928  -0.0173697  -0.0279478  -0.0124895  -0.000724994  -0.000254755  0.0536546  -0.0308674  -0.0109035  -0.254618  0.24282  -0.00364832 
1701448681.904925000  0  0  11.7288  -0.12029  0.0121241  0.00898493  nan  nan  nan  nan  nan  nan  -1.99896  -0.998956  1.49897  -0.0738765  0.0464658  -0.00288644  0.024565  0.024565  -0.0236626  0  0  0  0.4335  0.4335  -0.373145  0.00406961  -0.0173955  -0.0279612  -0.0137972  -0.00153954  -0.00287457  0.0555256  -0.0329815  -0.0107849  -0.270255  0.279181  -0.00446237 
1701448681.910830000  0  0  11.7401  -0.130536  0.00485969  0.00909289  nan  nan  nan  nan  nan  nan  -1.99883  -0.998828  1.49884  -0.0770412  0.0497363  -0.00322084  0.0267969  0.0267969  -0.0255578  0  0  0  0.459375  0.459375  -0.384814  0.00404045  -0.0174492  -0.0280233  -0.0147447  -0.00227411  -0.00456249  0.0571516  -0.0341922  -0.0106966  -0.264723  0.304849  -0.00669545 
1701448681.915877000  0  0  11.6975  -0.13865  0.0182698  0.00959225  nan  nan  nan  nan  nan  nan  -1.99869  -0.998688  1.49871  -0.0811172  0.0526821  -0.00359321  0.02916  0.02916  -0.0275095  0  0  0  0.486  0.486  -0.395732  0.00402212  -0.0175316  -0.0280427  -0.0148959  -0.00356237  -0.00177213  0.0597999  -0.0357055  -0.0106609  -0.272859  0.291951  -0.0132946 
1701448681.919886000  0  0  11.7248  -0.143268  0.0119373  0.00981807  nan  nan  nan  nan  nan  nan  -1.99854  -0.998536  1.49857  -0.0843895  0.0566812  -0.00402848  0.0316581  0.0316581  -0.0295139  0  0  0  0.513375  0.513375  -0.405901  0.00392913  -0.0175745  -0.0280549  -0.0165693  -0.00440777  -0.00474077  0.0618821  -0.0381443  -0.0105673  -0.28278  0.327053  -0.0170525 
1701448681.925880000  0  0  11.7053  -0.148264  0.0108872  0.00996125  nan  nan  nan  nan  nan  nan  -1.99837  -0.998371  1.49842  -0.0881023  0.0599494  -0.00444716  0.034295  0.034295  -0.0315673  0  0  0  0.5415  0.5415  -0.41532  0.00391341  -0.0176332  -0.0281188  -0.0170708  -0.00525203  -0.00355519  0.0637826  -0.0391995  -0.010519  -0.290272  0.338861  -0.0193261 
1701448681.929882000  0  0  11.6628  -0.163796  0.0296095  0.00981592  nan  nan  nan  nan  nan  nan  -1.99819  -0.998193  1.49825  -0.092634  0.0641392  -0.00502247  0.0370744  0.0370744  -0.0336659  0  0  0  0.570375  0.570375  -0.423989  0.0038082  -0.0176931  -0.0280723  -0.0183238  -0.00680625  -0.000642076  0.067163  -0.0421439  -0.0103409  -0.290307  0.328505  -0.0192902 
1701448681.935879000  0  0  11.7264  -0.160913  0.0181469  0.00934591  nan  nan  nan  nan  nan  nan  -1.998  -0.998  1.49808  -0.0957162  0.0675295  -0.00545397  0.04  0.04  -0.0358059  0  0  0  0.6  0.6  -0.431908  0.00379121  -0.0177524  -0.0281895  -0.019375  -0.00746499  -0.0060623  0.0682912  -0.0431561  -0.0102162  -0.306453  0.360742  -0.0146615 
1701448681.940919000  0  0  11.6727  -0.164186  0.0285922  0.00894825  nan  nan  nan  nan  nan  nan  -1.99779  -0.997792  1.49789  -0.100238  0.0714814  -0.00606017  0.0430756  0.0430756  -0.0379837  0  0  0  0.630375  0.630306  -0.439077  0.00373544  -0.0178269  -0.0281979  -0.0201234  -0.00862163  -0.00186418  0.0709986  -0.0452548  -0.00998505  -0.324814  0.35916  -0.0120027 
1701448681.945948000  0  0  11.6695  -0.166699  0.0391368  0.00874781  nan  nan  nan  nan  nan  nan  -1.99757  -0.997569  1.4977  -0.104472  0.0756227  -0.00669472  0.0463048  0.0463022  -0.0401954  0  0  0  0.661272  0.660227  -0.445496  0.00363779  -0.0178728  -0.0282179  -0.0213397  -0.0100423  -0.00173537  0.0733844  -0.0475896  -0.00976168  -0.341738  0.359551  -0.0117309 
1701448681.950879000  0  0  11.7231  -0.163186  0.0338538  0.00874649  nan  nan  nan  nan  nan  nan  -1.99733  -0.997329  1.49749  -0.107811  0.0796194  -0.00727095  0.0496872  0.0496766  -0.0424374  0  0  0  0.691571  0.689397  -0.451165  0.00355756  -0.0179557  -0.0282826  -0.0229735  -0.0109814  -0.00612874  0.0747591  -0.0494547  -0.0095872  -0.361412  0.387276  -0.0134591 
1701448681.955882000  0  0  11.6788  -0.156645  0.0441735  0.00848556  nan  nan  nan  nan  nan  nan  -1.99707  -0.997072  1.49727  -0.112143  0.0839812  -0.00799309  0.0532192  0.053195  -0.0447058  0  0  0  0.721119  0.717818  -0.456084  0.00344042  -0.0180117  -0.0282727  -0.0242558  -0.0121867  -0.00241896  0.076875  -0.0518522  -0.00934282  -0.393961  0.388693  -0.0126413 
1701448681.960919000  0  0  11.6856  -0.158096  0.0479475  0.00855511  nan  nan  nan  nan  nan  nan  -1.9968  -0.996797  1.49704  -0.116211  0.0878613  -0.00866777  0.0568972  0.0568535  -0.046997  0  0  0  0.749918  0.745488  -0.460253  0.00336413  -0.0181157  -0.0283108  -0.0255562  -0.013653  -0.00276656  0.0787266  -0.0536378  -0.00913931  -0.408093  0.397573  -0.0155458 
1701448681.964922000  0  0  11.7188  -0.159817  0.0513692  0.00854861  nan  nan  nan  nan  nan  nan  -1.9965  -0.996503  1.4968  -0.119958  0.0922668  -0.00940176  0.0607172  0.0606486  -0.0493071  0  0  0  0.777966  0.772409  -0.463672  0.00319319  -0.0182287  -0.0283021  -0.0277181  -0.0151256  -0.00533896  0.0806518  -0.0562718  -0.0089219  -0.422363  0.414962  -0.0176386 
1701448681.970882000  0  0  11.687  -0.135658  0.0403851  0.00854026  nan  nan  nan  nan  nan  nan  -1.99619  -0.99619  1.49655  -0.123747  0.0956358  -0.0100388  0.0646756  0.0645764  -0.0516324  0  0  0  0.805265  0.79858  -0.466341  0.00316087  -0.0183276  -0.0283571  -0.0282353  -0.0159026  -0.00216983  0.0812115  -0.056783  -0.00876612  -0.475829  0.441633  -0.019092 
1701448681.975881000  0  0  11.7057  -0.140707  0.0438849  0.0094199  nan  nan  nan  nan  nan  nan  -1.99586  -0.995857  1.49629  -0.127624  0.0992478  -0.0107354  0.0687686  0.0686331  -0.0539693  0  0  0  0.831813  0.824  -0.46826  0.00308172  -0.0184694  -0.0283799  -0.0296192  -0.0174795  -0.0032245  0.0826138  -0.0581096  -0.00870083  -0.478632  0.446838  -0.0307404 
1701448681.979888000  0  0  11.7163  -0.14247  0.0487296  0.00973113  nan  nan  nan  nan  nan  nan  -1.9955  -0.995504  1.49601  -0.131448  0.10355  -0.0115396  0.0729924  0.0728151  -0.0563138  0  0  0  0.857612  0.848671  -0.469428  0.00288486  -0.0186085  -0.0283415  -0.031682  -0.0189737  -0.00366161  0.0843507  -0.0605153  -0.00856137  -0.491086  0.459282  -0.0360253 
1701448681.985883000  0  0  11.7085  -0.107848  0.0196126  0.00976028  nan  nan  nan  nan  nan  nan  -1.99513  -0.995129  1.49572  -0.134703  0.106416  -0.012115  0.0773434  0.0771186  -0.0586623  0  0  0  0.88266  0.872591  -0.469847  0.00282969  -0.018692  -0.0283979  -0.0320064  -0.0196683  -0.00215496  0.0837974  -0.0599366  -0.00854316  -0.55524  0.512192  -0.0365719 
1701448681.990882000  0  0  11.734  -0.116601  0.0210208  0.00992115  nan  nan  nan  nan  nan  nan  -1.99473  -0.994732  1.49543  -0.13781  0.110348  -0.0128339  0.0818178  0.0815398  -0.061011  0  0  0  0.906958  0.895762  -0.469516  0.00266086  -0.0187911  -0.0284327  -0.0340047  -0.0207209  -0.00343373  0.0842438  -0.0612092  -0.00847307  -0.541841  0.521083  -0.0392837 
1701448681.995878000  0  0  11.7408  -0.105865  0.0135619  0.00963334  nan  nan  nan  nan  nan  nan  -1.99431  -0.994313  1.49511  -0.141074  0.113354  -0.0134589  0.0864118  0.086075  -0.0633562  0  0  0  0.930507  0.918183  -0.468435  0.00256599  -0.0189458  -0.0284459  -0.0348219  -0.0216869  -0.00312561  0.0844757  -0.0614195  -0.00839673  -0.565447  0.537936  -0.0364494 
1701448682.000920000  0  0  11.7646  -0.0785944  -0.00844197  0.0085848  nan  nan  nan  nan  nan  nan  -1.99386  -0.993871  1.49479  -0.144293  0.11626  -0.0140777  0.0911216  0.0907204  -0.0656941  0  0  0  0.953305  0.939853  -0.466604  0.00243493  -0.0190701  -0.0285046  -0.0357379  -0.0230126  -0.00396472  0.0840753  -0.0611104  -0.00818225  -0.616303  0.5791  -0.0254876 
1701448682.004929000  0  0  11.7764  -0.0956768  -0.00560961  0.00868251  nan  nan  nan  nan  nan  nan  -1.9934  -0.993406  1.49446  -0.147998  0.120532  -0.0149709  0.0959436  0.0954722  -0.068021  0  0  0  0.975354  0.960774  -0.464023  0.00220033  -0.0192553  -0.0284605  -0.0382344  -0.0247331  -0.00398059  0.0854863  -0.062964  -0.00795718  -0.59512  0.590488  -0.0289596 
1701448682.010894000  0  0  11.7875  -0.0786038  -0.0159215  0.00848149  nan  nan  nan  nan  nan  nan  -1.9929  -0.992916  1.49411  -0.150013  0.122734  -0.0153644  0.100874  0.100327  -0.0703331  0  0  0  0.996652  0.980944  -0.460692  0.00212411  -0.0193274  -0.0285562  -0.0383394  -0.0246194  -0.00359052  0.0836897  -0.0615427  -0.00797018  -0.612737  0.598036  -0.0263167 
1701448682.015885000  0  0  11.8106  -0.0600864  -0.0293682  0.00819821  nan  nan  nan  nan  nan  nan  -1.99239  -0.992402  1.49375  -0.152978  0.125493  -0.0159672  0.105909  0.10528  -0.0726267  0  0  0  1.0172  1.00036  -0.456611  0.0019937  -0.0194657  -0.0285952  -0.0393752  -0.0258807  -0.0041562  0.0830672  -0.0610437  -0.00782943  -0.644046  0.620338  -0.0241833 
1701448682.020922000  0  0  11.8421  -0.0787686  -0.0304367  0.00929544  nan  nan  nan  nan  nan  nan  -1.99184  -0.991864  1.49339  -0.155546  0.128651  -0.0165903  0.111045  0.110329  -0.074898  0  0  0  1.037  1.01904  -0.45178  0.00178756  -0.0195922  -0.0286376  -0.0410057  -0.0268963  -0.0053881  0.0828359  -0.0610547  -0.00787932  -0.604553  0.622577  -0.0373998 
1701448682.025888000  0  0  11.8091  -0.0660168  -0.0296567  0.00979305  nan  nan  nan  nan  nan  nan  -1.99128  -0.991299  1.49301  -0.158802  0.131321  -0.0172391  0.116278  0.11547  -0.0771432  0  0  0  1.05605  1.03696  -0.446199  0.00165328  -0.0197497  -0.028633  -0.0413296  -0.0277338  -0.00127844  0.0827098  -0.060681  -0.0078654  -0.628897  0.617579  -0.0437591 
1701448682.029888000  0  0  11.8344  -0.0584574  -0.032945  0.0101923  nan  nan  nan  nan  nan  nan  -1.99068  -0.990709  1.49261  -0.16222  0.134971  -0.0180805  0.121604  0.120698  -0.0793587  0  0  0  1.07435  1.05413  -0.439868  0.00135876  -0.019982  -0.0285661  -0.0435812  -0.0296918  -0.00197936  0.0832872  -0.0617175  -0.00778355  -0.649328  0.633691  -0.0495685 
1701448682.036015000  0  0  11.8709  -0.0687271  -0.0381104  0.0109765  nan  nan  nan  nan  nan  nan  -1.99006  -0.990092  1.49221  -0.163756  0.136644  -0.0183509  0.12702  0.12601  -0.0815406  0  0  0  1.09189  1.07055  -0.432787  0.00129227  -0.020059  -0.0286905  -0.0438848  -0.0299063  -0.00326698  0.0812873  -0.0595611  -0.00810374  -0.610389  0.624183  -0.0561694 
1701448682.040910000  0  0  11.8428  -0.057221  -0.0342643  0.0105196  nan  nan  nan  nan  nan  nan  -1.98941  -0.989448  1.4918  -0.166948  0.139463  -0.019046  0.132522  0.131402  -0.0836853  0  0  0  1.10869  1.08622  -0.424955  0.00106695  -0.0202203  -0.0286678  -0.0445525  -0.0309858  0.000653975  0.0811789  -0.0594678  -0.00805839  -0.632404  0.615633  -0.0509107 
1701448682.045886000  0  0  11.9002  -0.0612472  -0.045409  0.00994574  nan  nan  nan  nan  nan  nan  -1.98873  -0.988778  1.49138  -0.169017  0.141731  -0.0194966  0.138105  0.13687  -0.0857889  0  0  0  1.12474  1.10114  -0.416374  0.000896619  -0.0204156  -0.0287028  -0.0460007  -0.0322115  -0.00234747  0.0801905  -0.0584957  -0.0080671  -0.615259  0.628978  -0.0436508 
1701448682.050886000  0  0  11.9276  -0.071543  -0.0440966  0.00965154  nan  nan  nan  nan  nan  nan  -1.98803  -0.98808  1.49094  -0.171323  0.144081  -0.0199996  0.143768  0.142412  -0.0878478  0  0  0  1.14004  1.11531  -0.407043  0.000721023  -0.0206072  -0.0287153  -0.0472031  -0.0333136  -0.00285909  0.0796485  -0.0578053  -0.00806128  -0.589681  0.620002  -0.0400315 
1701448682.055886000  0  0  11.8944  -0.0632125  -0.0370716  0.00952327  nan  nan  nan  nan  nan  nan  -1.9873  -0.987354  1.4905  -0.174259  0.146583  -0.0206286  0.149505  0.148022  -0.0898581  0  0  0  1.15459  1.12873  -0.396962  0.000494842  -0.0207735  -0.0286903  -0.0476351  -0.0342328  0.00167135  0.0793985  -0.0574592  -0.00801851  -0.604041  0.602768  -0.0388558 
1701448682.060914000  0  0  11.9616  -0.0676404  -0.046431  0.00918416  nan  nan  nan  nan  nan  nan  -1.98653  -0.986599  1.49004  -0.175805  0.148846  -0.0210118  0.155312  0.153698  -0.0918162  0  0  0  1.16839  1.1414  -0.386131  0.000282189  -0.0209563  -0.028721  -0.0494737  -0.0353285  -0.00194815  0.0780558  -0.0565569  -0.00805168  -0.582832  0.613185  -0.0342852 
1701448682.065859000  0  0  11.9761  -0.0729792  -0.0377132  0.00840442  nan  nan  nan  nan  nan  nan  -1.98574  -0.985816  1.48958  -0.177975  0.15092  -0.0214589  0.161187  0.159435  -0.0937182  0  0  0  1.18144  1.15332  -0.37455  7.93923e-05  -0.0211676  -0.0287231  -0.0503462  -0.0362853  -0.00123415  0.0774556  -0.0558866  -0.0079506  -0.566633  0.589584  -0.0255493 
1701448682.070908000  0  0  11.9674  -0.0666774  -0.0274333  0.00880289  nan  nan  nan  nan  nan  nan  -1.98492  -0.985005  1.48911  -0.180313  0.152965  -0.0219307  0.167125  0.16523  -0.0955604  0  0  0  1.19373  1.16449  -0.362219  -0.000160881  -0.021343  -0.0287109  -0.0508098  -0.0371855  0.00143924  0.0767962  -0.0553033  -0.00800442  -0.57317  0.563657  -0.0299919 
1701448682.075902000  0  0  12.0281  -0.0745206  -0.0363902  0.00909334  nan  nan  nan  nan  nan  nan  -1.98407  -0.984164  1.48862  -0.181845  0.15487  -0.0222519  0.173123  0.171079  -0.0973391  0  0  0  1.20528  1.17491  -0.349138  -0.000378911  -0.0215608  -0.0287246  -0.0523933  -0.0384148  -0.00149919  0.075674  -0.0543089  -0.00811528  -0.54716  0.572423  -0.0325139 
1701448682.079891000  0  0  12.0133  -0.0847992  -0.0203252  0.00883141  nan  nan  nan  nan  nan  nan  -1.98319  -0.983294  1.48813  -0.184918  0.157867  -0.0230234  0.179177  0.176978  -0.0990506  0  0  0  1.21608  1.18458  -0.335307  -0.00076328  -0.0218893  -0.0286052  -0.0539766  -0.0399754  0.00168543  0.0766176  -0.0553417  -0.00796394  -0.535284  0.549794  -0.0307532 
1701448682.085886000  0  0  12.0124  -0.0698807  -0.0187956  0.00877539  nan  nan  nan  nan  nan  nan  -1.98228  -0.982394  1.48763  -0.185773  0.158621  -0.0230241  0.185283  0.182923  -0.100691  0  0  0  1.22613  1.1935  -0.320726  -0.000859697  -0.0219829  -0.028667  -0.0533544  -0.0396251  0.00387894  0.074138  -0.0531107  -0.00819484  -0.542308  0.52621  -0.0277439 
1701448682.090900000  0  0  12.0857  -0.0697608  -0.0282862  0.00898404  nan  nan  nan  nan  nan  nan  -1.98134  -0.981465  1.48713  -0.186792  0.160116  -0.0231849  0.191437  0.188912  -0.102257  0  0  0  1.23543  1.20167  -0.305395  -0.00110028  -0.0222352  -0.028689  -0.0548698  -0.0407177  5.30732e-05  0.072573  -0.051868  -0.00838174  -0.52815  0.533758  -0.0284831 
1701448682.095903000  0  0  12.0732  -0.0708825  -0.0217465  0.00946405  nan  nan  nan  nan  nan  nan  -1.98037  -0.980505  1.48661  -0.188466  0.161925  -0.0235108  0.197636  0.194939  -0.103744  0  0  0  1.24398  1.20909  -0.289314  -0.00136722  -0.0224362  -0.0286498  -0.0553511  -0.0411235  0.00324354  0.0717076  -0.0512406  -0.00855292  -0.517945  0.514906  -0.0327715 
1701448682.101037000  0  0  12.1123  -0.0648458  -0.0194146  0.00990611  nan  nan  nan  nan  nan  nan  -1.97936  -0.979515  1.48609  -0.189392  0.163137  -0.0235975  0.203876  0.201001  -0.105148  0  0  0  1.25177  1.21576  -0.272482  -0.00161332  -0.0226859  -0.0286396  -0.056067  -0.041635  0.00222781  0.0700008  -0.0500074  -0.00882898  -0.514315  0.498897  -0.0355366 
1701448682.104904000  0  0  12.1526  -0.0686036  -0.0220056  0.00961609  nan  nan  nan  nan  nan  nan  -1.97833  -0.978495  1.48556  -0.191467  0.165758  -0.0241444  0.210152  0.207095  -0.106467  0  0  0  1.25882  1.22169  -0.254901  -0.00206513  -0.0230805  -0.028519  -0.0584536  -0.0433886  0.00119965  0.0701006  -0.0506086  -0.00882512  -0.507718  0.50961  -0.03195 
1701448682.110843000  0  0  12.1331  -0.0633298  -0.0218023  0.010378  nan  nan  nan  nan  nan  nan  -1.97726  -0.977444  1.48502  -0.192009  0.166054  -0.0239844  0.216463  0.213217  -0.107696  0  0  0  1.26512  1.22686  -0.23657  -0.00218959  -0.0231963  -0.0285421  -0.0572779  -0.0427327  0.00503589  0.0677703  -0.0481279  -0.00924134  -0.496827  0.486381  -0.0373118 
1701448682.115913000  0  0  12.1811  -0.0599952  -0.0270597  0.0112278  nan  nan  nan  nan  nan  nan  -1.97616  -0.976363  1.48448  -0.192336  0.167157  -0.0239363  0.222802  0.219362  -0.108833  0  0  0  1.27067  1.23128  -0.218113  -0.00247055  -0.0233979  -0.0285442  -0.0582169  -0.0430758  0.00338527  0.0657685  -0.0467618  -0.00971389  -0.48508  0.484328  -0.0432085 
1701448682.120918000  0  0  12.2059  -0.0534654  -0.039307  0.0119621  nan  nan  nan  nan  nan  nan  -1.97503  -0.975251  1.48394  -0.193107  0.168106  -0.0239302  0.229168  0.225528  -0.109879  0  0  0  1.27547  1.23495  -0.2004  -0.00275127  -0.0236816  -0.0285154  -0.058633  -0.0434427  0.00352451  0.0641374  -0.0451392  -0.010114  -0.483134  0.493894  -0.0483869 
1701448682.125886000  0  0  12.2076  -0.0554368  -0.0349481  0.0116493  nan  nan  nan  nan  nan  nan  -1.97387  -0.974107  1.48338  -0.194448  0.16901  -0.0240103  0.235556  0.231711  -0.110838  0  0  0  1.27952  1.23787  -0.183438  -0.00304909  -0.0239859  -0.0284333  -0.0586478  -0.0441385  0.00538707  0.0631894  -0.0438793  -0.0103237  -0.470469  0.473586  -0.0423798 
1701448682.129887000  0  0  12.2606  -0.0631524  -0.0380627  0.0113152  nan  nan  nan  nan  nan  nan  -1.97268  -0.972933  1.48283  -0.195804  0.170833  -0.0242687  0.241962  0.237906  -0.111714  0  0  0  1.28282  1.24004  -0.167225  -0.00352469  -0.0244009  -0.0283302  -0.0606197  -0.0457493  0.00305377  0.0628681  -0.0437495  -0.0104791  -0.452081  0.47862  -0.0366489 
1701448682.135887000  0  0  12.2694  -0.0498796  -0.0545368  0.0110231  nan  nan  nan  nan  nan  nan  -1.97145  -0.971728  1.48227  -0.195074  0.170455  -0.0237255  0.248383  0.24411  -0.112511  0  0  0  1.28536  1.24146  -0.151762  -0.00364467  -0.0245201  -0.028374  -0.0594803  -0.0445572  0.00406544  0.0595687  -0.0403907  -0.0109708  -0.448273  0.480668  -0.0280804 
1701448682.139886000  0  0  12.2586  -0.0581819  -0.0406886  0.0102787  nan  nan  nan  nan  nan  nan  -1.97019  -0.970492  1.4817  -0.196971  0.172329  -0.024081  0.254814  0.250319  -0.113233  0  0  0  1.28716  1.24213  -0.137049  -0.00413488  -0.0249468  -0.0282179  -0.0604972  -0.0456993  0.00671507  0.0597906  -0.0406529  -0.0109673  -0.43371  0.455384  -0.0188101 
1701448682.145888000  0  0  12.3228  -0.0545325  -0.0576194  0.00982903  nan  nan  nan  nan  nan  nan  -1.9689  -0.969225  1.48113  -0.195755  0.171639  -0.0233767  0.261253  0.25653  -0.113883  0  0  0  1.28821  1.24205  -0.123086  -0.00424778  -0.0250763  -0.0282873  -0.060186  -0.0452556  0.00300003  0.0563965  -0.037172  -0.0114355  -0.409783  0.457222  -0.00850821 
1701448682.150885000  0  0  12.309  -0.054899  -0.0583994  0.0093602  nan  nan  nan  nan  nan  nan  -1.96758  -0.967927  1.48056  -0.19634  0.17211  -0.0232133  0.267695  0.262738  -0.114465  0  0  0  1.28851  1.24122  -0.109873  -0.00456888  -0.0253916  -0.0282055  -0.0597094  -0.0451447  0.00555659  0.0550973  -0.0355148  -0.0115581  -0.397098  0.443535  -0.00142192 
1701448682.154888000  0  0  12.3001  -0.0660011  -0.0466868  0.00932837  nan  nan  nan  nan  nan  nan  -1.96623  -0.966598  1.47999  -0.197783  0.173621  -0.0234023  0.274137  0.268941  -0.114983  0  0  0  1.28806  1.23964  -0.0974106  -0.00507168  -0.0258372  -0.0280559  -0.060509  -0.0460196  0.00770762  0.0551801  -0.0355264  -0.0116309  -0.375655  0.420217  -0.000295972 
1701448682.160919000  0  0  12.3498  -0.0552532  -0.0685512  0.00979197  nan  nan  nan  nan  nan  nan  -1.96484  -0.965238  1.47941  -0.196223  0.172589  -0.0225485  0.280575  0.275134  -0.115441  0  0  0  1.28686  1.23731  -0.0856977  -0.00518536  -0.0259329  -0.0281134  -0.059727  -0.0452193  0.00478004  0.0516174  -0.0317983  -0.0121794  -0.364374  0.429647  -0.000605515 
1701448682.165886000  0  0  12.3078  -0.0595784  -0.0589405  0.0105852  nan  nan  nan  nan  nan  nan  -1.96342  -0.963847  1.47884  -0.196853  0.172975  -0.0223586  0.287004  0.281313  -0.115841  0  0  0  1.2849  1.23423  -0.0747349  -0.00551387  -0.0262691  -0.0280046  -0.0588711  -0.044834  0.00928724  0.0507024  -0.0304395  -0.012466  -0.347305  0.397924  -0.00765475 
1701448682.170888000  0  0  12.3172  -0.0608603  -0.0572248  0.0115279  nan  nan  nan  nan  nan  nan  -1.96197  -0.962425  1.47826  -0.196044  0.173027  -0.0218397  0.293422  0.287475  -0.116189  0  0  0  1.2822  1.2304  -0.0645221  -0.00580733  -0.0264887  -0.0279635  -0.0586575  -0.0440345  0.00943609  0.048535  -0.0286696  -0.0130538  -0.324802  0.37821  -0.0135598 
1701448682.175884000  0  0  12.3351  -0.0528032  -0.0662857  0.0119459  nan  nan  nan  nan  nan  nan  -1.96049  -0.960972  1.47767  -0.195924  0.172982  -0.021419  0.299825  0.293615  -0.116488  0  0  0  1.27875  1.22582  -0.0550592  -0.00613356  -0.0268178  -0.0278736  -0.0585243  -0.0441798  0.00882417  0.0468563  -0.0267084  -0.013467  -0.325472  0.378289  -0.0146538 
1701448682.179911000  0  0  12.3295  -0.0603854  -0.0505437  0.0125425  nan  nan  nan  nan  nan  nan  -1.95897  -0.959488  1.47709  -0.196573  0.174014  -0.0213402  0.306209  0.299732  -0.116741  0  0  0  1.27455  1.22049  -0.0463464  -0.0066679  -0.0272835  -0.0277177  -0.059101  -0.0445706  0.0101288  0.0464305  -0.0265325  -0.0138256  -0.30639  0.345186  -0.0185252 
1701448682.185851000  0  0  12.3397  -0.0545127  -0.0541483  0.0125062  nan  nan  nan  nan  nan  nan  -1.95742  -0.957975  1.47651  -0.1947  0.172883  -0.0203809  0.312569  0.305819  -0.116953  0  0  0  1.2696  1.21441  -0.0383835  -0.00679011  -0.0273759  -0.0277264  -0.0578958  -0.0430459  0.00975052  0.0431449  -0.0236047  -0.014495  -0.287908  0.32546  -0.0113776 
1701448682.190901000  0  0  12.3303  -0.0519596  -0.0542356  0.0124624  nan  nan  nan  nan  nan  nan  -1.95585  -0.95643  1.47592  -0.194415  0.172761  -0.0198973  0.318903  0.311874  -0.117126  0  0  0  1.2639  1.20759  -0.0311707  -0.00712378  -0.0277026  -0.0276058  -0.0574034  -0.0427098  0.0109854  0.0416081  -0.022016  -0.0148725  -0.278875  0.311018  -0.00705567 
1701448682.195911000  0  0  12.316  -0.0526515  -0.0422515  0.0125849  nan  nan  nan  nan  nan  nan  -1.95424  -0.954856  1.47534  -0.193236  0.172203  -0.0191638  0.325207  0.317894  -0.117265  0  0  0  1.25745  1.20001  -0.0247079  -0.00740322  -0.0279078  -0.0275475  -0.056406  -0.0415012  0.0124369  0.0394102  -0.0202532  -0.0154506  -0.25727  0.270832  -0.00280529 
1701448682.200905000  0  0  12.3247  -0.0475471  -0.0460904  0.012514  nan  nan  nan  nan  nan  nan  -1.95259  -0.953251  1.47475  -0.192624  0.172179  -0.0186285  0.331477  0.323873  -0.117374  0  0  0  1.25024  1.19168  -0.018995  -0.00777566  -0.0282584  -0.0274233  -0.0564949  -0.0412589  0.0120038  0.037683  -0.0189734  -0.0158557  -0.251589  0.266736  0.00213133 
1701448682.204910000  0  0  12.3213  -0.057214  -0.0365663  0.012739  nan  nan  nan  nan  nan  nan  -1.95092  -0.951617  1.47416  -0.192896  0.172694  -0.0183477  0.337708  0.329809  -0.117457  0  0  0  1.24229  1.1826  -0.0140322  -0.00833028  -0.02875  -0.0272517  -0.0568252  -0.0416828  0.0125626  0.0372722  -0.0186114  -0.0161975  -0.228476  0.244358  0.00273739 
1701448682.210907000  0  0  12.309  -0.0521211  -0.0394562  0.0130189  nan  nan  nan  nan  nan  nan  -1.94922  -0.949953  1.47357  -0.19026  0.170722  -0.0170703  0.343898  0.335698  -0.117516  0  0  0  1.23359  1.17277  -0.0098193  -0.00836083  -0.0287639  -0.0272339  -0.0547201  -0.0394205  0.0132598  0.033785  -0.0154098  -0.0169752  -0.20658  0.220683  0.00701562 
1701448682.215892000  0  0  12.2993  -0.0453814  -0.0457884  0.013006  nan  nan  nan  nan  nan  nan  -1.94748  -0.94826  1.47299  -0.189528  0.170503  -0.0164594  0.350043  0.341536  -0.117556  0  0  0  1.22414  1.16219  -0.0063565  -0.00872968  -0.0291051  -0.0271127  -0.0544924  -0.0389736  0.0140175  0.0321602  -0.0140838  -0.0173769  -0.205111  0.221148  0.0111939 
1701448682.220907000  0  0  12.2939  -0.0509515  -0.0318934  0.0134071  nan  nan  nan  nan  nan  nan  -1.94572  -0.946538  1.4724  -0.187653  0.169214  -0.015442  0.356138  0.347319  -0.117581  0  0  0  1.21394  1.15086  -0.0036437  -0.00898691  -0.0292914  -0.0270422  -0.0531922  -0.0376316  0.0140928  0.0297775  -0.0120951  -0.0180544  -0.17205  0.175062  0.0129551 
1701448682.225910000  0  0  12.285  -0.0442209  -0.035689  0.0132188  nan  nan  nan  nan  nan  nan  -1.94392  -0.944787  1.47181  -0.186742  0.168921  -0.0147757  0.362181  0.353043  -0.117594  0  0  0  1.20299  1.13878  -0.0016808  -0.00939035  -0.0296739  -0.0268773  -0.0529966  -0.0370812  0.0144978  0.0281901  -0.0110543  -0.0184334  -0.170907  0.173078  0.0190987 
1701448682.230988000  0  0  12.2734  -0.0491764  -0.0391134  0.0137386  nan  nan  nan  nan  nan  nan  -1.94209  -0.943008  1.47122  -0.185264  0.167839  -0.0138595  0.368167  0.358705  -0.117599  0  0  0  1.19128  1.12595  -0.000468  -0.00968854  -0.0299455  -0.0267555  -0.0519915  -0.0361292  0.0149072  0.0262908  -0.00915504  -0.0189944  -0.143523  0.162453  0.0182122 
1701448682.236035000  0  0  12.2634  -0.0449762  -0.0354137  0.0144067  nan  nan  nan  nan  nan  nan  -1.94024  -0.9412  1.47063  -0.18268  0.166261  -0.0126607  0.374093  0.364301  -0.1176  0  0  0  1.17883  1.11237  -5.1e-06  -0.00992337  -0.0301039  -0.0266842  -0.0505539  -0.0341435  0.0149585  0.0233773  -0.0069579  -0.0197906  -0.125118  0.13484  0.0178231 
1701448682.240905000  0  0  12.2591  -0.0316999  -0.0453349  0.0135908  nan  nan  nan  nan  nan  nan  -1.93835  -0.939365  1.47005  -0.181476  0.165612  -0.0118655  0.379954  0.369828  -0.1176  0  0  0  1.16563  1.09804  -0  -0.0103377  -0.0304605  -0.0265461  -0.0502265  -0.0336791  0.0147418  0.0216074  -0.00559195  -0.0201553  -0.135388  0.142116  0.0316681 
1701448682.245908000  0  0  12.2398  -0.0397598  -0.0464047  0.0139893  nan  nan  nan  nan  nan  nan  -1.93644  -0.937502  1.46946  -0.179063  0.163777  -0.0106494  0.385748  0.37528  -0.1176  0  0  0  1.15168  1.08296  -0  -0.010577  -0.0306235  -0.0264642  -0.0484753  -0.0319357  0.0154541  0.019128  -0.00313602  -0.0208327  -0.0964583  0.121661  0.0334611 
1701448682.250909000  0  0  12.2392  -0.0389912  -0.0431559  0.0145002  nan  nan  nan  nan  nan  nan  -1.9345  -0.935612  1.46887  -0.177068  0.162594  -0.00962083  0.39147  0.380656  -0.1176  0  0  0  1.13698  1.06713  -0  -0.0109505  -0.0309394  -0.026319  -0.0477682  -0.0308289  0.0146924  0.0170768  -0.001664  -0.0214156  -0.0791242  0.101621  0.0329034 
1701448682.254910000  0  0  12.2296  -0.0252423  -0.0561067  0.0141031  nan  nan  nan  nan  nan  nan  -1.93252  -0.933696  1.46828  -0.17603  0.162209  -0.00888957  0.397116  0.385951  -0.1176  0  0  0  1.12153  1.05055  -0  -0.0115438  -0.0314448  -0.0261373  -0.0476145  -0.0304314  0.0148726  0.0156611  -0.000584875  -0.0218216  -0.0935978  0.117594  0.0419277 
1701448682.260909000  0  0  12.2136  -0.0370254  -0.0598618  0.0141373  nan  nan  nan  nan  nan  nan  -1.93053  -0.931753  1.46769  -0.17231  0.158812  -0.00719049  0.402684  0.39116  -0.1176  0  0  0  1.10533  1.03322  -0  -0.0114858  -0.0313808  -0.0261036  -0.0447621  -0.027922  0.0149497  0.0122661  0.00323944  -0.0225438  -0.038797  0.0899208  0.0487216 
1701448682.265893000  0  0  12.215  -0.0310978  -0.0654173  0.0134851  nan  nan  nan  nan  nan  nan  -1.9285  -0.929784  1.46711  -0.170113  0.157402  -0.00609087  0.408168  0.396282  -0.1176  0  0  0  1.08837  1.01514  -0  -0.011886  -0.0317126  -0.0259598  -0.0440328  -0.0268523  0.0139463  0.0102009  0.0049426  -0.022937  -0.0316526  0.0853628  0.0608061 
1701448682.270910000  0  0  12.2117  -0.0149428  -0.08434  0.0130279  nan  nan  nan  nan  nan  nan  -1.92644  -0.92779  1.46652  -0.166964  0.15487  -0.00465265  0.413566  0.40131  -0.1176  0  0  0  1.07067  0.996314  -0  -0.0121013  -0.0318382  -0.0258924  -0.0421988  -0.0250482  0.0131587  0.00699109  0.0081564  -0.023483  -0.0344325  0.0936411  0.0719811 
1701448682.275858000  0  0  12.1875  -0.0361476  -0.0761168  0.0139268  nan  nan  nan  nan  nan  nan  -1.92436  -0.925771  1.46593  -0.16484  0.153131  -0.00351474  0.418874  0.406243  -0.1176  0  0  0  1.05222  0.976735  -0  -0.012446  -0.0321508  -0.0257429  -0.0409211  -0.0238466  0.0141819  0.00557838  0.00992781  -0.024008  0.0209742  0.0608978  0.065995 
1701448682.279908000  0  0  12.2021  -0.0304587  -0.078693  0.0144397  nan  nan  nan  nan  nan  nan  -1.92225  -0.923728  1.46534  -0.162776  0.151733  -0.00244277  0.424087  0.411077  -0.1176  0  0  0  1.03302  0.956405  -0  -0.0130145  -0.0326348  -0.0255888  -0.0403619  -0.0231276  0.0121145  0.0037987  0.0115406  -0.0245831  0.0259693  0.0512129  0.0653348 
1701448682.285910000  0  0  12.1839  -0.0177561  -0.0963713  0.0151001  nan  nan  nan  nan  nan  nan  -1.92012  -0.921661  1.46475  -0.158487  0.147855  -0.000637268  0.429203  0.415806  -0.1176  0  0  0  1.01307  0.935326  -0  -0.0129352  -0.0325148  -0.0255621  -0.0374371  -0.0204369  0.0122262  -3.22898e-05  0.015715  -0.0253397  0.0358093  0.0481648  0.0646458 
1701448682.291032000  0  0  12.1617  -0.0385793  -0.0776892  0.0157846  nan  nan  nan  nan  nan  nan  -1.91796  -0.91957  1.46417  -0.155883  0.145681  0.000627965  0.434217  0.420429  -0.1176  0  0  0  0.992366  0.913497  -0  -0.0132542  -0.0327665  -0.0254237  -0.0359932  -0.0190879  0.012984  -0.00153374  0.0174134  -0.0259036  0.091269  -0.0048246  0.0617292 
1701448682.295860000  0  0  12.1546  -0.0215398  -0.0901091  0.0159438  nan  nan  nan  nan  nan  nan  -1.91578  -0.917457  1.46358  -0.152324  0.14265  0.00215765  0.439125  0.42494  -0.1176  0  0  0  0.970915  0.890917  -0  -0.013495  -0.032927  -0.0253423  -0.0339207  -0.0170763  0.0123474  -0.0045774  0.020486  -0.0266061  0.0851917  -0.00825332  0.0667634 
1701448682.300906000  0  0  12.1424  -0.0346113  -0.0888663  0.0161274  nan  nan  nan  nan  nan  nan  -1.91357  -0.915321  1.46299  -0.149569  0.140262  0.00346113  0.443924  0.429336  -0.1176  0  0  0  0.948713  0.867588  -0  -0.0137849  -0.0331943  -0.0252066  -0.0326352  -0.015863  0.0122538  -0.00623581  0.0225085  -0.027155  0.126592  -0.0293454  0.0699568 
1701448682.304910000  0  0  12.1376  -0.0489118  -0.080883  0.0166089  nan  nan  nan  nan  nan  nan  -1.91134  -0.913163  1.4624  -0.147235  0.138518  0.00460364  0.448611  0.433615  -0.1176  0  0  0  0.925762  0.843508  -0  -0.0143582  -0.0336872  -0.0250408  -0.0318051  -0.0148955  0.0116733  -0.00746751  0.0238944  -0.0277631  0.166525  -0.0580621  0.0700203 
1701448682.310908000  0  0  12.1062  -0.0355525  -0.0799037  0.0164865  nan  nan  nan  nan  nan  nan  -1.90909  -0.910985  1.46181  -0.142694  0.1341  0.00643192  0.453181  0.43777  -0.1176  0  0  0  0.90206  0.818679  -0  -0.0142479  -0.0335317  -0.0250052  -0.0286289  -0.0122099  0.0127841  -0.0107612  0.0274438  -0.0284073  0.170108  -0.0926755  0.0779917 
1701448682.315909000  0  0  12.1002  -0.0582232  -0.0704482  0.0163124  nan  nan  nan  nan  nan  nan  -1.90681  -0.908786  1.46123  -0.139883  0.132022  0.00767066  0.45763  0.4418  -0.1176  0  0  0  0.877609  0.793099  -0  -0.0146131  -0.0338436  -0.0248577  -0.0280151  -0.0111895  0.0122565  -0.0118403  0.0285728  -0.0288531  0.225377  -0.121973  0.084626 
1701448682.320879000  0  0  12.0857  -0.0584315  -0.0704944  0.0162484  nan  nan  nan  nan  nan  nan  -1.90451  -0.906567  1.46064  -0.135594  0.128168  0.00933901  0.461956  0.4457  -0.1176  0  0  0  0.852407  0.76677  -0  -0.0147607  -0.033908  -0.0247906  -0.025512  -0.00878085  0.0120922  -0.0145611  0.0315694  -0.0295079  0.250826  -0.14945  0.0919738 
1701448682.325907000  0  0  12.0588  -0.052922  -0.0652417  0.0154523  nan  nan  nan  nan  nan  nan  -1.90219  -0.904329  1.46005  -0.132085  0.125065  0.0107823  0.466153  0.449467  -0.1176  0  0  0  0.826455  0.739691  -0  -0.0150346  -0.0341096  -0.0246563  -0.0236747  -0.00697997  0.0130601  -0.0165656  0.0334846  -0.0298873  0.258248  -0.177575  0.105719 
1701448682.329912000  0  0  12.0686  -0.0625761  -0.0617335  0.015135  nan  nan  nan  nan  nan  nan  -1.89985  -0.902073  1.45946  -0.129139  0.122986  0.0120084  0.470219  0.453096  -0.1176  0  0  0  0.799754  0.711861  -0  -0.0155995  -0.0345873  -0.0245008  -0.0231595  -0.00591975  0.0112321  -0.0179973  0.0347051  -0.0303471  0.290727  -0.19582  0.114283 
1701448682.335889000  0  0  12.0335  -0.0593732  -0.0589118  0.015172  nan  nan  nan  nan  nan  nan  -1.89749  -0.899798  1.45887  -0.123838  0.117966  0.01388  0.474149  0.456584  -0.1176  0  0  0  0.772302  0.683282  -0  -0.0154319  -0.0343378  -0.0244773  -0.0199026  -0.00286343  0.012615  -0.021096  0.0379805  -0.0308285  0.312829  -0.231597  0.118635 
1701448682.340910000  0  0  12.0452  -0.0553555  -0.0485876  0.0153024  nan  nan  nan  nan  nan  nan  -1.89511  -0.897507  1.45829  -0.119717  0.114476  0.0153858  0.477941  0.459927  -0.1176  0  0  0  0.744101  0.653952  -0  -0.015657  -0.0345005  -0.0243822  -0.0185153  -0.00115733  0.0104383  -0.0233553  0.039758  -0.0312844  0.325579  -0.268598  0.121564 
1701448682.345886000  0  0  12.0581  -0.0575358  -0.0522215  0.015742  nan  nan  nan  nan  nan  nan  -1.89271  -0.895199  1.4577  -0.114838  0.110468  0.0170132  0.481589  0.463122  -0.1176  0  0  0  0.715149  0.623873  -0  -0.0157639  -0.0345156  -0.02434  -0.016831  0.00113293  0.00809819  -0.0261644  0.0422667  -0.0318905  0.355784  -0.284411  0.12213 
1701448682.350889000  0  0  12.0056  -0.0611931  -0.0365887  0.0160937  nan  nan  nan  nan  nan  nan  -1.89029  -0.892876  1.45711  -0.110986  0.106508  0.0184913  0.485091  0.466166  -0.1176  0  0  0  0.685448  0.593663  -0  -0.0159904  -0.0346911  -0.0242041  -0.0142588  0.0032748  0.011158  -0.0278221  0.0440994  -0.032315  0.37835  -0.332537  0.121979 
1701448682.354887000  0  0  12.0279  -0.0559403  -0.038955  0.0166085  nan  nan  nan  nan  nan  nan  -1.88786  -0.890538  1.45652  -0.107447  0.103492  0.019811  0.488442  0.46906  -0.1176  0  0  0  0.654996  0.564197  -0  -0.0165338  -0.035146  -0.024066  -0.01322  0.00478011  0.00819992  -0.0297055  0.0456819  -0.0328644  0.385171  -0.342364  0.121038 
1701448682.360922000  0  0  12.0181  -0.0514092  -0.0462752  0.0158052  nan  nan  nan  nan  nan  nan  -1.88541  -0.888186  1.45593  -0.102351  0.0984991  0.0214754  0.49164  0.471809  -0.1176  0  0  0  0.624115  0.535481  -0  -0.0163169  -0.0348633  -0.024058  -0.0109771  0.0072258  0.0077596  -0.0321756  0.0483085  -0.033131  0.398834  -0.351887  0.133745 
1701448682.365883000  0  0  11.9792  -0.0567092  -0.0263076  0.0163368  nan  nan  nan  nan  nan  nan  -1.88294  -0.88582  1.45535  -0.098345  0.0941777  0.0229257  0.494685  0.474416  -0.1176  0  0  0  0.593893  0.507515  -0  -0.0165438  -0.0350078  -0.023945  -0.00824758  0.00962407  0.00979183  -0.0337752  0.0500507  -0.0335261  0.42415  -0.407851  0.131051 
1701448682.370899000  0  0  12.0195  -0.0367861  -0.0458196  0.015804  nan  nan  nan  nan  nan  nan  -1.88046  -0.883442  1.45476  -0.0934135  0.0897402  0.0244421  0.49758  0.476885  -0.1176  0  0  0  0.564421  0.480298  -0  -0.0165822  -0.0349514  -0.0239357  -0.00653903  0.0120252  0.00533041  -0.0367022  0.0525872  -0.0338805  0.411232  -0.392163  0.141255 
1701448682.375861000  0  0  12.014  -0.0369717  -0.0532485  0.0158335  nan  nan  nan  nan  nan  nan  -1.87797  -0.881052  1.45417  -0.0897924  0.086234  0.0257243  0.50033  0.47922  -0.1176  0  0  0  0.535699  0.453832  -0  -0.0168282  -0.0351008  -0.0238406  -0.00501365  0.0137713  0.00482015  -0.038018  0.0540078  -0.034114  0.423709  -0.390375  0.143221 
1701448682.379840000  0  0  11.9763  -0.0536013  -0.0304733  0.0166591  nan  nan  nan  nan  nan  nan  -1.87546  -0.87865  1.45358  -0.0865164  0.0825105  0.0269774  0.502938  0.481425  -0.1176  0  0  0  0.507727  0.428116  -0  -0.0173502  -0.0355301  -0.0236748  -0.00220022  0.0161162  0.006876  -0.039084  0.0554778  -0.0345636  0.466776  -0.449449  0.137397 
1701448682.385850000  0  0  12.0333  -0.0175499  -0.0640658  0.0163139  nan  nan  nan  nan  nan  nan  -1.87294  -0.876237  1.45299  -0.0811235  0.077815  0.0284586  0.505409  0.483503  -0.1176  0  0  0  0.480505  0.40315  -0  -0.0170338  -0.0351304  -0.0237514  -0.0007829  0.0186279  0.00122159  -0.0421754  0.0578076  -0.0347817  0.423113  -0.403698  0.143894 
1701448682.390901000  0  0  11.9979  -0.0423574  -0.0531537  0.0169489  nan  nan  nan  nan  nan  nan  -1.8704  -0.873815  1.45241  -0.0778216  0.0738307  0.029686  0.507745  0.485458  -0.1176  0  0  0  0.454033  0.378934  -0  -0.0172229  -0.0352195  -0.0236774  0.00177379  0.0204448  0.00334656  -0.0426217  0.0591882  -0.0350276  0.476835  -0.438224  0.138415 
1701448682.395854000  0  0  11.9835  -0.0455649  -0.0423378  0.017653  nan  nan  nan  nan  nan  nan  -1.86786  -0.871383  1.45182  -0.0730847  0.0685824  0.0310863  0.50995  0.487293  -0.1176  0  0  0  0.428311  0.355468  -0  -0.0172218  -0.0351322  -0.0236467  0.00542619  0.0237085  0.00351489  -0.0446941  0.0616217  -0.0354517  0.502315  -0.482244  0.133855 
1701448682.401029000  0  0  12.0378  -0.025864  -0.0823749  0.0163134  nan  nan  nan  nan  nan  nan  -1.8653  -0.868942  1.45123  -0.0695256  0.0652031  0.0322381  0.512029  0.489014  -0.1176  0  0  0  0.403339  0.332751  -0  -0.0173043  -0.0351179  -0.0236423  0.00641869  0.0250739  -0.0016483  -0.0459381  0.0631458  -0.0354985  0.474359  -0.416192  0.151068 
1701448682.405851000  0  0  11.9948  -0.0554858  -0.0520425  0.0165443  nan  nan  nan  nan  nan  nan  -1.86274  -0.866493  1.45064  -0.0666712  0.0616065  0.0333427  0.513985  0.490622  -0.1176  0  0  0  0.379117  0.310785  -0  -0.0175683  -0.0352922  -0.0235505  0.00892077  0.0268343  0.00128731  -0.0457735  0.0637839  -0.0356491  0.532087  -0.482727  0.149687 
1701448682.410887000  0  0  11.9911  -0.0575182  -0.0521204  0.015861  nan  nan  nan  nan  nan  nan  -1.86017  -0.864036  1.45005  -0.0621717  0.0567433  0.0346075  0.515821  0.492123  -0.1176  0  0  0  0.355645  0.289569  -0  -0.0174943  -0.0351326  -0.023548  0.0120886  0.0298692  0.000804883  -0.0473499  0.0658694  -0.0357948  0.550656  -0.501758  0.159686 
