ts fx fy fz tx ty tz exfx exfy exfz extx exty extz xd yd zd rolld pitchd yawd vxd vyd vzd wxd wyd wzd axd ayd azd e_x e_y e_z e_vx e_vy e_vz e_rx e_ry e_rz e_wx e_wy e_wz
1704190824.994638000  0  0  12.015  -0.0259892  -0.0903117  0.0232633  nan  nan  nan  nan  nan  nan  -2.5  -0.3  1  -0.00708451  -0.0102634  7.2711e-05  0  0  0  0  0  0  0  0  0  0.0133673  -0.00464741  -0.031777  -0.0160018  0.000869646  -0.00232816  0.00390517  0.0155512  -0.0293805  0.0160509  0.0375522  0.00301268 
1704190824.998676000  0  0  11.9377  -0.0239157  -0.0854599  0.023438  nan  nan  nan  nan  nan  nan  -2.5  -0.3  1  -0.00559569  -0.0107448  6.01239e-05  0  0  0  0  0  0  0  0  0  0.0133072  -0.00462388  -0.0317175  -0.0153177  0.00285305  0.00398241  0.00262392  0.0159398  -0.0294217  0.0236914  0.0242739  0.00124275 
1704190825.003675000  0  0  11.9546  0.000599334  -0.133748  0.0188484  nan  nan  nan  nan  nan  nan  -2.5  -0.3  1  -0.0071327  -0.0124947  8.91204e-05  0  0  0  0  0  0  0  0  0  0.0133329  -0.00468138  -0.0316622  -0.0130291  0.000928617  0.00243604  0.00348735  0.018737  -0.0287896  -0.0332823  0.0951151  0.0522915 
1704190825.008686000  0  0  12.0418  -0.0429201  -0.103587  0.0219154  nan  nan  nan  nan  nan  nan  -2.5  -0.3  1  -0.00767757  -0.0108849  8.35694e-05  0  0  0  0  0  0  0  0  0  0.0133218  -0.00472475  -0.0316997  -0.0150379  0.000226735  -0.00474338  0.00481477  0.0171217  -0.0289499  0.0415443  0.0496537  0.0155564 
1704190825.013683000  0  0  11.9197  -0.0378003  -0.0890435  0.0232416  nan  nan  nan  nan  nan  nan  -2.5  -0.3  1  -0.00660074  -0.0112463  7.42333e-05  0  0  0  0  0  0  0  0  0  0.0132467  -0.0047055  -0.0316158  -0.01454  0.00171441  0.00525784  0.0039801  0.0172564  -0.0290794  0.0389838  0.0193282  0.000274121 
1704190825.018672000  0  0  11.9659  -0.041895  -0.143351  0.0208348  nan  nan  nan  nan  nan  nan  -2.5  -0.3  1  -0.0108183  -0.0158182  0.000171125  0  0  0  0  0  0  0  0  0  0.0138276  -0.0052056  -0.0313994  -0.00969033  -0.00281584  0.000906343  0.00836924  0.0229385  -0.0289438  0.00679292  0.0756671  0.0290036 
1704190825.026633000  0  0  12.0608  -0.0537222  -0.143004  0.0209367  nan  nan  nan  nan  nan  nan  -2.5  -0.3  1  -0.0118256  -0.0154364  0.000182545  0  0  0  0  0  0  0  0  0  0.0137407  -0.00523634  -0.0314637  -0.0098416  -0.00421187  -0.00687864  0.00963899  0.0231405  -0.028761  0.0187657  0.0731159  0.0259011 
1704190825.031717000  0  0  11.9935  -0.0306192  -0.172542  0.0196265  nan  nan  nan  nan  nan  nan  -2.5  -0.3  1  -0.0132366  -0.0198828  0.00026318  0  0  0  0  0  0  0  0  0  0.0137937  -0.00529518  -0.0313899  -0.00414429  -0.00587256  -0.00145276  0.0102417  0.0280722  -0.0284975  -0.0329852  0.0868194  0.0396437 
1704190825.035643000  0  0  12.1345  -0.0531779  -0.165258  0.0204945  nan  nan  nan  nan  nan  nan  -2.5  -0.3  1  -0.0155102  -0.0192548  0.00029865  0  0  0  0  0  0  0  0  0  0.0142355  -0.00568326  -0.0313277  -0.00566009  -0.00828369  -0.0133367  0.0130969  0.0276406  -0.0287825  -0.014136  0.0762222  0.0316432 
1704190825.041417000  0  0  12.0049  -0.0748985  -0.0873513  0.0244724  nan  nan  nan  nan  nan  nan  -2.5  -0.3  1  -0.01402  -0.018069  0.000253331  0  0  0  0  0  0  0  0  0  0.0143571  -0.00574393  -0.0311967  -0.00779252  -0.00593718  -0.00277002  0.0123668  0.0248334  -0.0293826  0.0360228  -0.0537646  -0.0120792 
1704190825.046672000  0  0  11.9917  -0.0462474  -0.113  0.0236303  nan  nan  nan  nan  nan  nan  -2.5  -0.3  1  -0.0147759  -0.0204489  0.000302151  2e-07  2e-07  2e-07  0  0  0  0.000125  0.000125  0.000125  0.0143468  -0.005784  -0.0312022  -0.0046063  -0.00681828  -0.00165609  0.0125135  0.0272185  -0.0293353  -0.0226293  -0.0244102  -0.00202559 
1704190825.051675000  0  0  12.0936  -0.053488  -0.103296  0.0232321  nan  nan  nan  nan  nan  nan  -2.5  -0.3  1  -0.0161525  -0.0192786  0.000311405  1.7e-06  1.7e-06  1.7e-06  0  0  0  0.0005  0.0005  0.0005  0.0146233  -0.00610114  -0.03092  -0.00651458  -0.00808344  -0.0106818  0.0137806  0.0257062  -0.029589  -0.019806  -0.0299061  0.00548928 
1704190825.056674000  0  0  11.9852  -0.0578925  -0.0415221  0.0255354  nan  nan  nan  nan  nan  nan  -2.5  -0.3  1  -0.0153265  -0.0184522  0.000282814  5.6e-06  5.6e-06  5.6e-06  0  0  0  0.001125  0.001125  0.001125  0.0145813  -0.00612698  -0.0308736  -0.00767725  -0.00665161  -0.00164694  0.0130811  0.0234002  -0.0298951  -0.00456141  -0.132237  -0.0202411 
1704190825.061743000  0  0  12.0066  -0.00979482  -0.0731112  0.0213761  nan  nan  nan  nan  nan  nan  -2.5  -0.3  1  -0.0158185  -0.0200098  0.000316431  1.33e-05  1.33e-05  1.33e-05  0  0  0  0.002  0.002  0.002  0.0146296  -0.00617331  -0.0308359  -0.00555061  -0.00712969  -0.00340632  0.0123904  0.0247449  -0.0295879  -0.0944022  -0.0814306  0.0286782 
1704190825.065677000  0  0  12.075  -0.010778  -0.058489  0.0210739  nan  nan  nan  nan  nan  nan  -2.5  -0.3  1  -0.0157219  -0.0182766  0.000287051  2.6e-05  2.6e-05  2.6e-05  0  0  0  0.003125  0.003125  0.003125  0.01459  -0.0061996  -0.0308941  -0.00749518  -0.00691956  -0.008863  0.0120264  0.0225918  -0.0294298  -0.0890869  -0.0908662  0.030875 
1704190825.071691000  0  0  11.9948  -0.0215089  -0.00398899  0.0236045  nan  nan  nan  nan  nan  nan  -2.5  -0.3  1  -0.0147008  -0.0167706  0.000246047  4.5e-05  4.5e-05  4.5e-05  0  0  0  0.0045  0.0045  0.0045  0.0145668  -0.00621202  -0.0308191  -0.00944227  -0.00521622  -0.00216369  0.0108698  0.019292  -0.0297784  -0.0569843  -0.169509  0.00272839 
1704190825.076673000  0  0  11.9949  0.0178043  -0.0292588  0.0211505  nan  nan  nan  nan  nan  nan  -2.5  -0.299999  1  -0.0147522  -0.0177461  0.0002608  7.15e-05  7.15e-05  7.15e-05  0  0  0  0.006125  0.006125  0.006125  0.0145541  -0.00624029  -0.0307946  -0.00790743  -0.00501532  -0.00204579  0.00976769  0.0198047  -0.029575  -0.125471  -0.123685  0.0313682 
1704190825.081667000  0  0  12.1032  0.020147  -0.0218953  0.0213508  nan  nan  nan  nan  nan  nan  -2.5  -0.299999  1  -0.0143663  -0.0155289  0.0002214  0.0001067  0.0001067  0.0001067  0  0  0  0.008  0.008  0.008  0.0144941  -0.0062621  -0.0308847  -0.0103064  -0.00438816  -0.0106933  0.00884322  0.0171289  -0.0294266  -0.121652  -0.113795  0.0273804 
1704190825.086760000  0  0  12.0218  0.0251311  -0.00666963  0.0235525  nan  nan  nan  nan  nan  nan  -2.5  -0.299998  1  -0.0140168  -0.0150582  0.000208374  0.0001519  0.0001519  0.0001519  0  0  0  0.010125  0.010125  0.010125  0.014464  -0.00629192  -0.0308435  -0.0107401  -0.00345549  -0.00377552  0.00784163  0.0157292  -0.0296331  -0.122405  -0.13137  0.00192432 
1704190825.091675000  0  0  12.0269  0.055326  -0.0222145  0.0231732  nan  nan  nan  nan  nan  nan  -2.5  -0.299997  1  -0.0138727  -0.0157541  0.000214356  0.0002083  0.0002083  0.0002083  0  0  0  0.0125  0.0125  0.0125  0.0144276  -0.00630834  -0.030867  -0.00941975  -0.00293279  -0.0039102  0.00651274  0.0160797  -0.0295666  -0.170569  -0.103504  0.00600015 
1704190825.096636000  0  0  12.1317  0.0568816  -0.0393703  0.0231996  nan  nan  nan  nan  nan  nan  -2.5  -0.299996  1  -0.01347  -0.0144078  0.000187978  0.0002773  0.0002773  0.0002773  0  0  0  0.015125  0.015125  0.015125  0.014369  -0.00631013  -0.0309871  -0.0105889  -0.00221509  -0.0121427  0.00540906  0.0148559  -0.029545  -0.163527  -0.0579334  0.00545493 
1704190825.101679000  0  0  12.0568  0.039701  -0.0129365  0.0242758  nan  nan  nan  nan  nan  nan  -2.49999  -0.299995  1.00001  -0.0133563  -0.0124271  0.000157386  0.00036  0.00036  0.00036  0  0  0  0.018  0.018  0.018  0.0143121  -0.00632986  -0.030968  -0.0128723  -0.0015428  -0.00565769  0.00492946  0.012167  -0.0296969  -0.124753  -0.0860634  -0.00647829 
1704190825.106687000  0  0  12.0628  0.0504428  -0.0296935  0.0255779  nan  nan  nan  nan  nan  nan  -2.49999  -0.299993  1.00001  -0.0134609  -0.013831  0.000174283  0.0004577  0.0004577  0.0004577  0  0  0  0.021125  0.021125  0.021125  0.0142765  -0.00633911  -0.0309984  -0.0105069  -0.00127468  -0.00578796  0.00420442  0.0133551  -0.0299115  -0.139566  -0.0634802  -0.0206087 
1704190825.111686000  0  0  12.1765  0.059526  -0.0670094  0.022324  nan  nan  nan  nan  nan  nan  -2.49999  -0.29999  1.00001  -0.0133174  -0.012331  0.000148222  0.0005717  0.0005717  0.0005717  0  0  0  0.0245  0.0245  0.0245  0.0142304  -0.00635471  -0.0310905  -0.0118316  -0.000788552  -0.0147593  0.00325578  0.0125208  -0.029567  -0.149005  0.0188272  0.0166199 
1704190825.115676000  0  0  12.117  0.0340366  -0.0345259  0.0225  nan  nan  nan  nan  nan  nan  -2.49999  -0.299987  1.00001  -0.0138104  -0.010085  0.000118185  0.0007031  0.0007031  0.0007031  0  0  0  0.028125  0.028125  0.028125  0.0141643  -0.0063616  -0.0310849  -0.0143312  -0.000889794  -0.00945798  0.00374304  0.00989203  -0.0295011  -0.102509  -0.0219548  0.0137615 
1704190825.121690000  0  0  12.1242  0.0217564  -0.0548571  0.0259769  nan  nan  nan  nan  nan  nan  -2.49998  -0.299983  1.00002  -0.0139505  -0.0120255  0.000140469  0.0008533  0.0008533  0.0008533  0  0  0  0.0319374  0.032  0.032  0.0141421  -0.00637812  -0.0311269  -0.0111762  -0.000561293  -0.00959711  0.00356034  0.0117936  -0.0299895  -0.0762679  0.00121347  -0.024816 
1704190825.126776000  0  0  12.1914  0.0260034  -0.0898827  0.021377  nan  nan  nan  nan  nan  nan  -2.49998  -0.299978  1.00002  -0.0143662  -0.00953478  0.000102186  0.0010221  0.0010235  0.0010235  0  0  0  0.0355621  0.036125  0.036125  0.0140848  -0.00639494  -0.0311973  -0.0138739  -0.000668844  -0.0146636  0.00347324  0.0103619  -0.0295073  -0.0839605  0.0844356  0.0278601 
1704190825.130777000  0  0  12.1409  -0.0257707  -0.0472311  0.0244771  nan  nan  nan  nan  nan  nan  -2.49997  -0.299973  1.00003  -0.01504  -0.0084983  8.41226e-05  0.0012085  0.001215  0.001215  0  0  0  0.0389369  0.0405  0.0405  0.0140191  -0.006401  -0.0312111  -0.0147523  -0.000929076  -0.00999733  0.00482716  0.00888742  -0.0297549  0.00713156  0.0126979  -0.00841476 
1704190825.136695000  0  0  12.1792  -0.0134476  -0.0916979  0.0256925  nan  nan  nan  nan  nan  nan  -2.49997  -0.299966  1.00003  -0.0147159  -0.0109195  0.000106398  0.0014111  0.001429  0.001429  0  0  0  0.0420616  0.045125  0.045125  0.0140601  -0.00636605  -0.0312744  -0.0111341  -4.58768e-05  -0.0126327  0.00422667  0.0119971  -0.0301031  -0.0119901  0.0730222  -0.0201256 
1704190825.140691000  0  0  12.2519  0.00307378  -0.128348  0.0208162  nan  nan  nan  nan  nan  nan  -2.49996  -0.299958  1.00004  -0.0154507  -0.00900804  7.24898e-05  0.0016287  0.0016667  0.0016667  0  0  0  0.0449364  0.05  0.05  0.0139908  -0.0063723  -0.0313713  -0.0131301  -0.000533621  -0.0180228  0.00452811  0.0113509  -0.0295149  -0.0478062  0.152268  0.034947 
1704190825.146682000  0  0  12.1961  -0.0532379  -0.0735675  0.025208  nan  nan  nan  nan  nan  nan  -2.49995  -0.299949  1.00005  -0.0164289  -0.00711876  3.59628e-05  0.00186  0.0019294  0.0019294  0  0  0  0.0475611  0.055125  0.055125  0.0139235  -0.00640069  -0.0313924  -0.0152647  -0.00105077  -0.0128298  0.00649738  0.00918442  -0.0299536  0.0466999  0.0626382  -0.0155634 
1704190825.151698000  0  0  12.2597  -0.0280899  -0.12434  0.0243714  nan  nan  nan  nan  nan  nan  -2.49994  -0.299939  1.00006  -0.0162248  -0.0091002  5.016e-05  0.0021039  0.0022183  0.0022183  0  0  0  0.0499359  0.0605  0.0605  0.0138853  -0.00638628  -0.0315649  -0.0121289  -0.000239961  -0.0172809  0.00599951  0.0124258  -0.0299668  0.000984353  0.134362  -0.00497418 
1704190825.156687000  0  0  12.307  -0.0284885  -0.128028  0.0213085  nan  nan  nan  nan  nan  nan  -2.49993  -0.299927  1.00007  -0.0175413  -0.0067724  2.60788e-06  0.002359  0.0025348  0.0025348  0  0  0  0.0520606  0.066125  0.066125  0.0137986  -0.0063983  -0.0316692  -0.0148032  -0.00138592  -0.0204577  0.00720482  0.0111284  -0.0294813  -0.00930732  0.153674  0.0284567 
1704190825.161775000  0  0  12.2128  -0.0819742  -0.0724836  0.0277825  nan  nan  nan  nan  nan  nan  -2.49992  -0.299914  1.00009  -0.0178785  -0.00658465  -1.96649e-05  0.0026241  0.00288  0.00288  0  0  0  0.0539354  0.072  0.072  0.0137842  -0.00642642  -0.0316622  -0.0148596  -0.000852843  -0.0120654  0.008693  0.0103398  -0.0302525  0.0839727  0.0498413  -0.044756 
1704190825.165691000  0  0  12.2312  -0.0548477  -0.10028  0.0262282  nan  nan  nan  nan  nan  nan  -2.4999  -0.299898  1.0001  -0.0178854  -0.00718888  -3.26111e-05  0.0028979  0.0032552  0.0032552  0  0  0  0.0555601  0.078125  0.078125  0.0137284  -0.00642734  -0.0317225  -0.0136955  -0.000120659  -0.0128946  0.0084376  0.0116081  -0.0301999  0.0320694  0.093765  -0.0258535 
1704190825.171696000  0  0  12.2862  -0.05653  -0.10508  0.0237372  nan  nan  nan  nan  nan  nan  -2.49989  -0.299881  1.00012  -0.019624  -0.00546689  -8.04044e-05  0.0031792  0.0036617  0.0036617  0  0  0  0.0569349  0.0845  0.0845  0.0136759  -0.00647731  -0.0318092  -0.0157126  -0.00168459  -0.0166826  0.0101482  0.0108162  -0.0299012  0.019697  0.110651  0.00229686 
1704190825.176696000  0  0  12.2375  -0.084992  -0.0635506  0.0278798  nan  nan  nan  nan  nan  nan  -2.49987  -0.299862  1.00014  -0.0195882  -0.00589366  -0.00010144  0.0034668  0.0041006  0.0041006  0  0  0  0.0580596  0.091125  0.091125  0.0138016  -0.00648989  -0.0317641  -0.0152992  -0.000662109  -0.0120912  0.0108592  0.0107513  -0.0305599  0.0700789  0.0281895  -0.0428993 
1704190825.180685000  0  0  12.218  -0.0408498  -0.0947988  0.0242681  nan  nan  nan  nan  nan  nan  -2.49985  -0.29984  1.00016  -0.0197772  -0.00671263  -0.000116327  0.0037594  0.0045733  0.0045733  0  0  0  0.0589343  0.098  0.098  0.0137499  -0.00649177  -0.0317984  -0.0139748  -9.84112e-07  -0.009744  0.0103467  0.0122311  -0.0302217  -0.01349  0.0770718  -0.00113478 
1704190825.186691000  0  0  12.2997  -0.0486183  -0.0885869  0.0222618  nan  nan  nan  nan  nan  nan  -2.49983  -0.299816  1.00018  -0.0215333  -0.00547668  -0.000166351  0.0040558  0.005081  0.005081  0  0  0  0.0595591  0.105125  0.105125  0.0136899  -0.0065381  -0.0318845  -0.0153922  -0.00157445  -0.0156709  0.0119479  0.0115084  -0.029842  -0.0126842  0.071297  0.0201477 
1704190825.190683000  0  0  12.28  -0.0647643  -0.0522381  0.0257616  nan  nan  nan  nan  nan  nan  -2.49981  -0.299789  1.00021  -0.0211015  -0.00416695  -0.000234558  0.0043546  0.005625  0.005625  0  0  0  0.0599338  0.1125  0.1125  0.0136143  -0.00653353  -0.0319275  -0.0169775  -1.30083e-05  -0.0132365  0.0119205  0.0097887  -0.0302036  0.0198597  0.0144201  -0.019984 
1704190825.196677000  0  0  12.2219  -0.0157719  -0.0888107  0.0223277  nan  nan  nan  nan  nan  nan  -2.49979  -0.299759  1.00024  -0.0229864  -0.00669824  -0.000209906  0.0046547  0.0062065  0.0062065  0  0  0  0.0600586  0.120125  0.120125  0.0137676  -0.0067028  -0.03183  -0.0138919  -0.00109511  -0.00786023  0.012498  0.012865  -0.0298826  -0.0834382  0.0592634  0.0197306 
1704190825.201682000  0  0  12.3604  -0.0399789  -0.0770608  0.0232512  nan  nan  nan  nan  nan  nan  -2.49977  -0.299727  1.00027  -0.0237256  -0.00521247  -0.000284908  0.0049548  0.0068267  0.0068267  0  0  0  0.0599333  0.128  0.128  0.0137146  -0.00672901  -0.0319422  -0.0157301  -0.00140748  -0.0184077  0.0133073  0.0115282  -0.0298552  -0.0424691  0.0480618  0.00791242 
1704190825.206671000  0  0  12.2791  -0.0376652  -0.0558179  0.0249902  nan  nan  nan  nan  nan  nan  -2.49974  -0.299691  1.00031  -0.0235132  -0.00397122  -0.000363107  0.0052536  0.0074869  0.0074869  0  0  0  0.0595581  0.136125  0.136125  0.0136194  -0.00672139  -0.0319533  -0.0173091  0.000110615  -0.0108262  0.012938  0.0101241  -0.0300284  -0.0436993  0.0184939  -0.0120928 
1704190825.211689000  0  0  12.2429  -0.0192602  -0.0829685  0.0241353  nan  nan  nan  nan  nan  nan  -2.49971  -0.299652  1.00035  -0.025962  -0.00681748  -0.000330666  0.0055499  0.0081883  0.0081883  0  0  0  0.0589328  0.1445  0.144461  0.0137455  -0.00688793  -0.0318687  -0.0138134  -0.00169662  -0.00717102  0.0144578  0.0132619  -0.0300084  -0.0944917  0.0439277  -0.00160659 
1704190825.215687000  0  0  12.361  -0.0211347  -0.0930806  0.024978  nan  nan  nan  nan  nan  nan  -2.49968  -0.299609  1.00039  -0.0263351  -0.00561806  -0.000414314  0.0058425  0.0089323  0.0089312  0  0  0  0.0580576  0.153125  0.15264  0.0136683  -0.00689966  -0.031986  -0.0153137  -0.00143005  -0.0159807  0.0145181  0.0125577  -0.0300598  -0.0912969  0.0706301  -0.0116272 
1704190825.221682000  0  0  12.2521  -0.0248926  -0.0620653  0.0258569  nan  nan  nan  nan  nan  nan  -2.49965  -0.299563  1.00044  -0.0268192  -0.00446001  -0.000500658  0.0061301  0.00972  0.0097143  0  0  0  0.0569323  0.162  0.160568  0.013597  -0.00690137  -0.0319505  -0.0169456  -0.000640593  -0.00620355  0.0145611  0.0111503  -0.0302067  -0.0841769  0.0215473  -0.0211449 
1704190825.226680000  0  0  12.2746  -0.00876435  -0.09162  0.026433  nan  nan  nan  nan  nan  nan  -2.49962  -0.299512  1.00049  -0.0280109  -0.00683805  -0.000490012  0.0064114  0.0105527  0.0105364  0  0  0  0.0555571  0.171125  0.168246  0.0135758  -0.0069209  -0.0319747  -0.0138196  -0.00113541  -0.00729371  0.0148189  0.0139502  -0.0303654  -0.118805  0.0548984  -0.0267584 
1704190825.231691000  0  0  12.3712  0.00309922  -0.10304  0.0240196  nan  nan  nan  nan  nan  nan  -2.49959  -0.299457  1.00054  -0.0281905  -0.00466358  -0.000614897  0.0066853  0.0114317  0.0113963  0  0  0  0.0539318  0.1805  0.175674  0.013478  -0.00691969  -0.0320771  -0.0167285  -0.000495228  -0.014398  0.0142328  0.0125356  -0.0300801  -0.13714  0.0907523  0.00055565 
1704190825.236671000  0  0  12.2601  -0.0223089  -0.0713413  0.0259186  nan  nan  nan  nan  nan  nan  -2.49956  -0.299398  1.0006  -0.0301805  -0.00581107  -0.000639067  0.0069503  0.0123581  0.0122928  0  0  0  0.0520566  0.190125  0.182852  0.0135952  -0.00703417  -0.0319484  -0.0157241  -0.00138515  -0.00469262  0.0158506  0.0131454  -0.0303524  -0.101208  0.0217454  -0.0204584 
1704190825.240699000  0  0  12.2951  -0.00584443  -0.100496  0.0271048  nan  nan  nan  nan  nan  nan  -2.49952  -0.299333  1.00067  -0.0308693  -0.00785127  -0.000643563  0.0072054  0.0133333  0.0132244  0  0  0  0.0499313  0.2  0.189781  0.0135445  -0.00704941  -0.0320126  -0.0130726  -0.00116098  -0.00682166  0.0157192  0.0156572  -0.0305377  -0.132928  0.0569452  -0.0334324 
1704190825.246686000  0  0  12.3753  0.0133344  -0.122355  0.0235078  nan  nan  nan  nan  nan  nan  -2.49948  -0.299264  1.00073  -0.0311955  -0.00669761  -0.000751799  0.0074492  0.0143585  0.0141901  0  0  0  0.0475561  0.210125  0.196459  0.0135525  -0.00708633  -0.0320087  -0.0149129  -0.000517974  -0.0128526  0.0148453  0.0153378  -0.0301676  -0.163246  0.103601  0.00782835 
1704190825.251693000  0  0  12.2911  -0.0240899  -0.0775708  0.0274508  nan  nan  nan  nan  nan  nan  -2.49945  -0.29919  1.00081  -0.0326772  -0.00743856  -0.000795845  0.0076806  0.015435  0.0151886  0  0  0  0.0449308  0.2205  0.202887  0.0135253  -0.00709174  -0.0319872  -0.0142397  -0.000923976  -0.00524307  0.0161951  0.0154543  -0.0306152  -0.100815  0.0129617  -0.0369832 
1704190825.255691000  0  0  12.3567  0.00995987  -0.112358  0.0264486  nan  nan  nan  nan  nan  nan  -2.49941  -0.29911  1.00089  -0.0327337  -0.00869997  -0.00083552  0.0078981  0.016564  0.0162186  0  0  0  0.0420556  0.231125  0.209065  0.0134722  -0.00710051  -0.0320723  -0.0127027  0.00012442  -0.00994239  0.0151385  0.0173436  -0.0305631  -0.159194  0.0651544  -0.0249759 
1704190825.261690000  0  0  12.3922  0.0251328  -0.117543  0.0231065  nan  nan  nan  nan  nan  nan  -2.49937  -0.299024  1.00097  -0.0340883  -0.00778225  -0.000939616  0.0081007  0.0177467  0.0172788  0  0  0  0.0389303  0.242  0.214994  0.0135128  -0.0071566  -0.0320516  -0.0144252  -0.000365779  -0.0123326  0.0150756  0.0169078  -0.0301682  -0.188961  0.0795337  0.0128516 
1704190825.266370000  0  0  12.364  -0.0191096  -0.0877037  0.0273846  nan  nan  nan  nan  nan  nan  -2.49933  -0.298932  1.00106  -0.0352058  -0.00834555  -0.00099887  0.008287  0.0189844  0.0183681  0  0  0  0.0355551  0.253125  0.220672  0.0134381  -0.0071397  -0.0321426  -0.0139421  -0.000423456  -0.00923619  0.0162364  0.0172275  -0.0305746  -0.111155  0.0169143  -0.036561 
1704190825.270694000  0  0  12.3865  0.0162227  -0.112824  0.0251413  nan  nan  nan  nan  nan  nan  -2.49928  -0.298834  1.00115  -0.0354579  -0.00926363  -0.001055  0.0084558  0.0202783  0.0194851  0  0  0  0.0319298  0.2645  0.2261  0.0133728  -0.0071441  -0.0322024  -0.0129761  0.00059139  -0.0104572  0.0152706  0.0186361  -0.0303525  -0.172935  0.0541954  -0.0107417 
1704190825.275645000  0  0  12.4287  0.0194074  -0.117824  0.0221729  nan  nan  nan  nan  nan  nan  -2.49924  -0.298729  1.00125  -0.0370277  -0.00889865  -0.00114766  0.0086059  0.0216298  0.0206287  0  0  0  0.0281174  0.276125  0.231278  0.0133331  -0.00716165  -0.0322406  -0.0138392  -0.000230659  -0.0133619  0.015836  0.0186663  -0.0298905  -0.184506  0.0639184  0.0217445 
1704190825.280692000  0  0  12.4069  -0.0219918  -0.0842345  0.0262099  nan  nan  nan  nan  nan  nan  -2.4992  -0.298618  1.00136  -0.0385952  -0.00855493  -0.00124366  0.0087374  0.02304  0.0217975  0  0  0  0.0244929  0.288  0.236207  0.0132597  -0.00716568  -0.0322807  -0.014639  -0.000787319  -0.0109414  0.0173242  0.0179279  -0.0302534  -0.115399  0.00353242  -0.0250905 
1704190825.285642000  0  0  12.4024  0.00631753  -0.103224  0.0246955  nan  nan  nan  nan  nan  nan  -2.49915  -0.298499  1.00147  -0.039127  -0.01014  -0.00127646  0.0088513  0.0245102  0.0229903  0  0  0  0.0211184  0.300125  0.240885  0.0132397  -0.00716874  -0.0322794  -0.0128458  3.88705e-05  -0.010116  0.0167194  0.0196528  -0.0301345  -0.166453  0.0256418  -0.0073487 
1704190825.290696000  0  0  12.468  0.00135189  -0.112401  0.0225485  nan  nan  nan  nan  nan  nan  -2.49911  -0.298372  1.00159  -0.0407223  -0.00963589  -0.00138289  0.008949  0.0260417  0.0242059  0  0  0  0.017994  0.3125  0.245313  0.0131693  -0.00717624  -0.0323759  -0.0137195  -0.000871187  -0.0149089  0.0174839  0.0195994  -0.0297369  -0.163556  0.0444872  0.015513 
1704190825.296692000  0  0  12.4276  -0.0398931  -0.076656  0.0262299  nan  nan  nan  nan  nan  nan  -2.49907  -0.298238  1.00171  -0.0418981  -0.00941173  -0.00148554  0.0090316  0.0276356  0.0254431  0  0  0  0.0151195  0.325125  0.249491  0.0131327  -0.00716149  -0.0323441  -0.0143639  -0.000744132  -0.0111643  0.0186399  0.0187245  -0.03011  -0.0917013  -0.0189532  -0.0267742 
1704190825.301686000  0  0  12.4499  -0.01308  -0.109399  0.0238262  nan  nan  nan  nan  nan  nan  -2.49902  -0.298096  1.00184  -0.0428455  -0.0109139  -0.00151921  0.0091006  0.0292933  0.0267004  0  0  0  0.012495  0.338  0.253419  0.0130482  -0.00711528  -0.0325046  -0.012413  -0.000634282  -0.0122986  0.018459  0.0208172  -0.0298004  -0.143663  0.0272792  0.000176276 
1704190825.306695000  0  0  12.5072  -0.0295655  -0.100331  0.022544  nan  nan  nan  nan  nan  nan  -2.49897  -0.297945  1.00198  -0.0447633  -0.00921032  -0.00168375  0.009157  0.031016  0.0279768  0  0  0  0.0101205  0.351125  0.257098  0.012956  -0.0071275  -0.0326068  -0.0148213  -0.00187798  -0.0164365  0.0199106  0.0193239  -0.0294692  -0.124047  0.0228826  0.0128924 
1704190825.311693000  0  0  12.474  -0.0570213  -0.0661264  0.0275333  nan  nan  nan  nan  nan  nan  -2.49893  -0.297786  1.00212  -0.0450154  -0.00963304  -0.00177378  0.0092022  0.032805  0.029271  0  0  0  0.007996  0.3645  0.260526  0.0129059  -0.00701625  -0.0327848  -0.0144339  -0.000615663  -0.0129578  0.0198646  0.0192285  -0.0300285  -0.0687118  -0.0446498  -0.0438812 
1704190825.315692000  0  0  12.4847  -0.0327194  -0.10033  0.0254253  nan  nan  nan  nan  nan  nan  -2.49888  -0.297617  1.00227  -0.0470249  -0.0112652  -0.00179078  0.0092374  0.0346615  0.0305817  0  0  0  0.0061215  0.378125  0.263704  0.0128541  -0.00705682  -0.0328709  -0.0122892  -0.00164568  -0.0133163  0.0208833  0.0212742  -0.029836  -0.126688  0.00493718  -0.0194561 
1704190825.321683000  0  0  12.5723  -0.0441835  -0.0863348  0.0238577  nan  nan  nan  nan  nan  nan  -2.49884  -0.297439  1.00243  -0.0481705  -0.00893311  -0.00200526  0.0092638  0.0365867  0.0319076  0  0  0  0.004497  0.391986  0.266632  0.0127381  -0.00698659  -0.0330705  -0.0154023  -0.00209609  -0.0198484  0.0212839  0.0192094  -0.0295345  -0.107445  -0.00405665  -0.0028753 
1704190825.326685000  0  0  12.4968  -0.0669692  -0.0604865  0.0279882  nan  nan  nan  nan  nan  nan  -2.49879  -0.297251  1.00259  -0.0488209  -0.00945215  -0.00209068  0.0092828  0.0385811  0.0332476  0  0  0  0.0031225  0.40574  0.269311  0.0126358  -0.00693719  -0.0331038  -0.014711  -0.00096358  -0.01321  0.0216175  0.0192904  -0.0300451  -0.0649427  -0.0564983  -0.0494016 
1704190825.331689000  0  0  12.5533  -0.0233708  -0.122458  0.0231167  nan  nan  nan  nan  nan  nan  -2.49874  -0.297053  1.00276  -0.0505101  -0.0103119  -0.00214911  0.0092955  0.0406436  0.0346003  0  0  0  0.001998  0.419245  0.271739  0.0125704  -0.00694715  -0.0332137  -0.0134612  -0.00189644  -0.0174033  0.0218561  0.0211682  -0.0295068  -0.154335  0.0501691  0.00610869 
1704190825.336685000  0  0  12.6144  -0.0518333  -0.0815523  0.0250148  nan  nan  nan  nan  nan  nan  -2.4987  -0.296844  1.00294  -0.0519576  -0.00839454  -0.00235305  0.0093032  0.0427731  0.0359646  0  0  0  0.0011235  0.4325  0.273917  0.0124845  -0.00694362  -0.0333999  -0.0160173  -0.00258931  -0.0218169  0.0229542  0.0190031  -0.0295692  -0.107512  -0.0117244  -0.0169922 
1704190825.340694000  0  0  12.5441  -0.0695393  -0.0650584  0.0279748  nan  nan  nan  nan  nan  nan  -2.49865  -0.296625  1.00312  -0.0534142  -0.00899639  -0.00242891  0.0093071  0.0449682  0.0373391  0  0  0  0.000499  0.445505  0.275845  0.0124173  -0.00698836  -0.0334547  -0.0151846  -0.00246892  -0.0156175  0.0242653  0.0191529  -0.0299352  -0.0841624  -0.04609  -0.0503332 
1704190825.346680000  0  0  12.5824  -0.0190371  -0.12459  0.0227765  nan  nan  nan  nan  nan  nan  -2.4986  -0.296395  1.00331  -0.0545674  -0.00996088  -0.00248703  0.0093086  0.0472277  0.0387226  0  0  0  0.0001245  0.45826  0.277524  0.0123376  -0.00694139  -0.0335112  -0.0136792  -0.00279957  -0.0184714  0.0233376  0.0213721  -0.0293941  -0.176631  0.0525573  0.00923398 
1704190825.351685000  0  0  12.6063  -0.0512841  -0.0900686  0.0258984  nan  nan  nan  nan  nan  nan  -2.49856  -0.296153  1.00351  -0.0559556  -0.00870903  -0.00266528  0.0093088  0.0495504  0.0401139  0  0  0  0  0.470764  0.278952  0.01227  -0.00696463  -0.0336507  -0.0152902  -0.00324746  -0.0199593  0.0244477  0.019786  -0.029624  -0.122351  -0.00189388  -0.0274894 
1704190825.355687000  0  0  12.5469  -0.0512341  -0.0904944  0.026857  nan  nan  nan  nan  nan  nan  -2.49851  -0.295899  1.00371  -0.0573694  -0.00947424  -0.00273168  0.0093088  0.051935  0.0415117  0  0  0  0  0.483019  0.28013  0.0122069  -0.00702124  -0.0337168  -0.014152  -0.00317397  -0.0147138  0.0252832  0.0204779  -0.0297594  -0.130137  -0.00740793  -0.0381187 
1704190825.361679000  0  0  12.5781  -0.0154611  -0.127463  0.0229964  nan  nan  nan  nan  nan  nan  -2.49846  -0.295633  1.00392  -0.0589799  -0.0101827  -0.00279784  0.0093088  0.0543802  0.0429148  0  0  0  0  0.495024  0.281058  0.0121545  -0.00701645  -0.0338181  -0.0130267  -0.00411549  -0.0169326  0.0250909  0.0219578  -0.0292496  -0.199914  0.0529153  0.00504044 
1704190825.365681000  0  0  12.6318  -0.0410034  -0.101956  0.0253926  nan  nan  nan  nan  nan  nan  -2.49842  -0.295355  1.00414  -0.0602635  -0.00912407  -0.00297229  0.0093088  0.0568848  0.0443219  0  0  0  0  0.506779  0.281736  0.0120856  -0.00708537  -0.0339659  -0.0143186  -0.00462183  -0.0209626  0.0260977  0.0206929  -0.0294199  -0.158092  0.0135367  -0.0232087 
1704190825.371686000  0  0  12.5438  -0.0246866  -0.103555  0.0249113  nan  nan  nan  nan  nan  nan  -2.49837  -0.295064  1.00437  -0.0616521  -0.0098079  -0.00304146  0.0093088  0.0594476  0.0457317  0  0  0  0  0.518283  0.282165  0.0120317  -0.00706453  -0.0340069  -0.0133471  -0.00455802  -0.013432  0.026094  0.0213468  -0.029388  -0.190691  0.0107184  -0.0175113 
1704190825.376685000  0  0  12.5926  -0.0189513  -0.115548  0.0246593  nan  nan  nan  nan  nan  nan  -2.49832  -0.294761  1.0046  -0.0632004  -0.0107338  -0.00309203  0.0093088  0.0620672  0.0471431  0  0  0  0  0.529538  0.282343  0.0119951  -0.00711434  -0.0341406  -0.0119321  -0.00552543  -0.0171165  0.0263934  0.0225036  -0.0293009  -0.204917  0.0240628  -0.0152324 
1704190825.381688000  0  0  12.6086  -0.0158666  -0.105829  0.0247799  nan  nan  nan  nan  nan  nan  -2.49828  -0.294444  1.00484  -0.0639211  -0.00936175  -0.00329678  0.0093088  0.0647425  0.0485547  0  0  0  0  0.540543  0.282271  0.0119213  -0.00713364  -0.0342369  -0.0136912  -0.00520192  -0.0181883  0.0261119  0.0211906  -0.0292637  -0.208496  0.0167045  -0.0171116 
1704190825.386684000  0  0  12.5427  -0.0148278  -0.0968736  0.0256606  nan  nan  nan  nan  nan  nan  -2.49823  -0.294113  1.00509  -0.0663196  -0.0104305  -0.00332805  0.0093088  0.0674722  0.0499654  0  0  0  0  0.551298  0.281949  0.0118857  -0.00718701  -0.034314  -0.0122072  -0.00659855  -0.0124483  0.02722  0.0220593  -0.0293343  -0.220769  -0.00919784  -0.0274149 
1704190825.390689000  0  0  12.6018  -0.0150911  -0.112469  0.0264312  nan  nan  nan  nan  nan  nan  -2.49818  -0.293769  1.00534  -0.0673165  -0.0111782  -0.003392  0.0093088  0.0702551  0.0513738  0  0  0  0  0.561803  0.281378  0.0118317  -0.0072765  -0.0344567  -0.0109865  -0.00690391  -0.0170687  0.0273035  0.02302  -0.0294313  -0.22101  0.0131529  -0.0360772 
1704190825.396685000  0  0  12.5995  0.00844373  -0.105311  0.0229976  nan  nan  nan  nan  nan  nan  -2.49814  -0.29341  1.0056  -0.0679805  -0.00940472  -0.00363028  0.0093088  0.0730898  0.0527788  0  0  0  0  0.572057  0.280556  0.0117766  -0.00725403  -0.0345012  -0.0133728  -0.00655308  -0.0167659  0.0262143  0.0213969  -0.028993  -0.258059  0.0137697  0.00245988 
1704190825.401679000  0  0  12.5595  -0.0171833  -0.0843245  0.0263451  nan  nan  nan  nan  nan  nan  -2.49809  -0.293038  1.00587  -0.0701342  -0.0111902  -0.00360951  0.0093088  0.0759752  0.054179  0  0  0  0  0.582062  0.279484  0.0117581  -0.00730846  -0.0345529  -0.0108952  -0.00787659  -0.0133263  0.0275153  0.0226348  -0.0293476  -0.218774  -0.0395916  -0.0358377 
1704190825.406685000  0  0  12.6183  0.0110201  -0.116628  0.0241542  nan  nan  nan  nan  nan  nan  -2.49805  -0.292651  1.00614  -0.0699325  -0.010816  -0.00376309  0.0093088  0.07891  0.0555732  0  0  0  0  0.591817  0.278162  0.0117028  -0.00733186  -0.0346646  -0.0112391  -0.00675947  -0.0180763  0.0257567  0.0227976  -0.0291118  -0.259002  0.0235186  -0.0108096 
1704190825.411686000  0  0  12.5975  0.00706598  -0.0842349  0.0225062  nan  nan  nan  nan  nan  nan  -2.498  -0.292249  1.00642  -0.0720866  -0.00945138  -0.00396321  0.0093088  0.081893  0.0569602  0  0  0  0  0.601322  0.276591  0.0116527  -0.00739504  -0.0347309  -0.0130924  -0.00825574  -0.0161982  0.0266088  0.0210439  -0.0287749  -0.258933  -0.0251337  0.00642163 
1704190825.415690000  0  0  12.5824  -0.0297382  -0.0663253  0.0263672  nan  nan  nan  nan  nan  nan  -2.49795  -0.291832  1.00671  -0.0742037  -0.0110756  -0.00394735  0.0093088  0.0849228  0.0583387  0  0  0  0  0.610577  0.274769  0.0116095  -0.00751543  -0.0348406  -0.010757  -0.00966356  -0.014782  0.0283244  0.02207  -0.0291812  -0.201108  -0.0703939  -0.0377783 
1704190825.421680000  0  0  12.6304  0.0202481  -0.106302  0.0216896  nan  nan  nan  nan  nan  nan  -2.49791  -0.291399  1.00701  -0.0737414  -0.0103793  -0.00412894  0.0093088  0.0879983  0.0597074  0  0  0  0  0.619581  0.272697  0.0115834  -0.00748388  -0.0349236  -0.0116336  -0.00833151  -0.0187615  0.0257466  0.0219204  -0.0286378  -0.277365  0.0109366  0.0152577 
1704190825.426683000  0  0  12.5813  -0.0156204  -0.0586  0.0232346  nan  nan  nan  nan  nan  nan  -2.49786  -0.290952  1.00731  -0.0765347  -0.00979539  -0.00426966  0.0093088  0.0911182  0.0610652  0  0  0  0  0.628336  0.270375  0.0115545  -0.0075625  -0.0349729  -0.0124725  -0.0105416  -0.0146094  0.0277496  0.0204884  -0.0286315  -0.224055  -0.0712935  -0.00411773 
1704190825.431702000  0  0  12.5903  -0.0243036  -0.0707671  0.0277646  nan  nan  nan  nan  nan  nan  -2.49781  -0.290488  1.00762  -0.0773052  -0.0112753  -0.00427244  0.0093088  0.0942813  0.0624108  0  0  0  0  0.636841  0.267804  0.0115091  -0.00760704  -0.0350577  -0.0103021  -0.0105274  -0.0153686  0.0276402  0.0217196  -0.0292212  -0.205682  -0.0582863  -0.0548455 
1704190825.436696000  0  0  12.6094  0.0135779  -0.099085  0.0225449  nan  nan  nan  nan  nan  nan  -2.49777  -0.290009  1.00793  -0.0781564  -0.0101535  -0.00447564  0.0093088  0.0974862  0.0637428  0  0  0  0  0.645096  0.264982  0.0114751  -0.00766862  -0.0351637  -0.0118003  -0.0106893  -0.0169042  0.0266492  0.0211259  -0.0286036  -0.272328  0.00381156  0.00422419 
1704190825.440702000  0  0  12.5689  -0.0330846  -0.0563686  0.0250255  nan  nan  nan  nan  nan  nan  -2.49772  -0.289513  1.00825  -0.0812693  -0.00991458  -0.00458838  0.0093088  0.100732  0.0650602  0  0  0  0  0.653101  0.26191  0.0114128  -0.00782572  -0.0352596  -0.0120734  -0.0133165  -0.0134371  0.0294382  0.020092  -0.0287912  -0.204663  -0.0721088  -0.0249057 
1704190825.446690000  0  0  12.6199  -0.0279261  -0.0758023  0.0270828  nan  nan  nan  nan  nan  nan  -2.49767  -0.289001  1.00858  -0.0808355  -0.0112703  -0.00460789  0.0093088  0.104017  0.0663615  0  0  0  0  0.660855  0.258588  0.0114061  -0.00780528  -0.0353482  -0.0101079  -0.0122398  -0.0178097  0.0279237  0.0213044  -0.0292172  -0.201046  -0.0443958  -0.0463635 
1704190825.451694000  0  0  12.5843  -0.00567311  -0.0907911  0.021761  nan  nan  nan  nan  nan  nan  -2.49763  -0.288473  1.00892  -0.0829178  -0.0107622  -0.00475149  0.0093088  0.10734  0.0676456  0  0  0  0  0.66836  0.255016  0.0113968  -0.00791542  -0.0354238  -0.0108713  -0.0136263  -0.0148624  0.0283723  0.0210688  -0.0285367  -0.249679  -0.0122506  0.0133539 
1704190825.455691000  0  0  12.5986  -0.0490192  -0.0595682  0.0249471  nan  nan  nan  nan  nan  nan  -2.49758  -0.287928  1.00926  -0.085371  -0.0105653  -0.00486685  0.0093088  0.1107  0.0689113  0  0  0  0  0.675615  0.251195  0.011339  -0.00808935  -0.0355607  -0.0110338  -0.0158827  -0.0159707  0.0305841  0.0202552  -0.0287873  -0.183335  -0.0672114  -0.0239663 
1704190825.461686000  0  0  12.6055  -0.0212886  -0.0848763  0.0240353  nan  nan  nan  nan  nan  nan  -2.49753  -0.287366  1.00961  -0.085081  -0.0117403  -0.00489473  0.0093088  0.114096  0.0701572  0  0  0  0  0.68262  0.247123  0.0113481  -0.00809215  -0.0356121  -0.00940687  -0.014654  -0.0168077  0.0287908  0.0214931  -0.0287525  -0.222299  -0.0279835  -0.0129161 
1704190825.465687000  0  0  12.6012  -0.0160185  -0.0989257  0.0203876  nan  nan  nan  nan  nan  nan  -2.49749  -0.286787  1.00996  -0.0872993  -0.0114981  -0.00501469  0.0093088  0.117526  0.0713821  0  0  0  0  0.689374  0.242801  0.011303  -0.00827407  -0.0357395  -0.00968245  -0.0164529  -0.0164287  0.0298505  0.021525  -0.0281801  -0.242588  -0.000178351  0.0269559 
1704190825.471693000  0  0  12.6225  -0.0573593  -0.0691665  0.0247235  nan  nan  nan  nan  nan  nan  -2.49744  -0.286191  1.01032  -0.0879973  -0.0110467  -0.00517152  0.0093088  0.120989  0.0725848  0  0  0  0  0.695879  0.238229  0.0112976  -0.00829913  -0.0357876  -0.0103009  -0.0167524  -0.0184584  0.0301289  0.0204613  -0.028506  -0.162467  -0.0499106  -0.0239841 
1704190825.476693000  0  0  12.57  -0.0264009  -0.100938  0.023335  nan  nan  nan  nan  nan  nan  -2.49739  -0.285577  1.01069  -0.0894773  -0.0129698  -0.00510753  0.0093088  0.124484  0.073764  0  0  0  0  0.702134  0.233408  0.0113253  -0.00843072  -0.035843  -0.00775111  -0.0172321  -0.0143253  0.030044  0.0226806  -0.0283505  -0.223603  -0.0067847  -0.00818219 
1704190825.481675000  0  0  12.6206  -0.0317002  -0.111502  0.0221534  nan  nan  nan  nan  nan  nan  -2.49735  -0.284946  1.01106  -0.0907678  -0.0122995  -0.00527665  0.0093088  0.12801  0.0749184  0  0  0  0  0.708139  0.228336  0.011281  -0.0085265  -0.035959  -0.00855215  -0.0185629  -0.0186575  0.0303038  0.022344  -0.0280537  -0.215395  0.017439  0.00361982 
1704190825.485687000  0  0  12.6055  -0.0570843  -0.0842457  0.0251743  nan  nan  nan  nan  nan  nan  -2.4973  -0.284297  1.01144  -0.0924293  -0.0119356  -0.00541478  0.0093088  0.131565  0.0760469  0  0  0  0  0.713894  0.223014  0.0112952  -0.00877634  -0.0360984  -0.00914353  -0.0194474  -0.0174892  0.0315772  0.0215656  -0.0283258  -0.176342  -0.0299124  -0.0314209 
1704190825.490700000  0  0  12.5553  -0.0418771  -0.110132  0.0245229  nan  nan  nan  nan  nan  nan  -2.49725  -0.28363  1.01182  -0.0940808  -0.0141713  -0.00530905  0.0093088  0.135148  0.0771481  0  0  0  0  0.719398  0.217442  0.0112736  -0.00887545  -0.036146  -0.00605191  -0.0203328  -0.013628  0.0319147  0.0239911  -0.0283098  -0.209861  -0.000453595  -0.0234379 
1704190825.496689000  0  0  12.6086  -0.0333785  -0.12358  0.0223077  nan  nan  nan  nan  nan  nan  -2.49721  -0.282945  1.01221  -0.0942536  -0.0131071  -0.00553218  0.0093088  0.138759  0.0782209  0  0  0  0  0.724653  0.211621  0.0113015  -0.00892638  -0.0362029  -0.00755069  -0.0203412  -0.0184341  0.0307542  0.0234426  -0.0279395  -0.216182  0.0314876  0.000549488 
1704190825.501690000  0  0  12.5292  -0.0494425  -0.091387  0.0252787  nan  nan  nan  nan  nan  nan  -2.49716  -0.282242  1.0126  -0.0953829  -0.0130453  -0.00564814  0.0093088  0.142395  0.0792639  0  0  0  0  0.729658  0.205549  0.0112555  -0.0090215  -0.0362301  -0.00767069  -0.0202317  -0.0122525  0.0311523  0.0228021  -0.0282305  -0.187716  -0.0270054  -0.033679 
1704190825.506696000  0  0  12.5371  -0.0256111  -0.133315  0.0242476  nan  nan  nan  nan  nan  nan  -2.49711  -0.281521  1.013  -0.0969267  -0.0153218  -0.0055315  0.0093088  0.146055  0.080276  0  0  0  0  0.734413  0.199227  0.011326  -0.0091964  -0.0363057  -0.00465581  -0.02149  -0.0132292  0.0311436  0.0256703  -0.0281596  -0.235299  0.0304632  -0.0214981 
1704190825.511694000  0  0  12.5847  -0.0193273  -0.120018  0.0228831  nan  nan  nan  nan  nan  nan  -2.49707  -0.280782  1.0134  -0.0971598  -0.0134184  -0.00583849  0.0093088  0.149738  0.0812558  0  0  0  0  0.738918  0.192655  0.0113459  -0.00935958  -0.036405  -0.00731813  -0.0213748  -0.0175295  0.0301943  0.0238777  -0.0278973  -0.239133  0.02036  -0.00706572 
1704190825.515704000  0  0  12.5036  -0.0324306  -0.0882896  0.0248949  nan  nan  nan  nan  nan  nan  -2.49702  -0.280024  1.01381  -0.0989898  -0.0136281  -0.00591787  0.0093088  0.153444  0.0822021  0  0  0  0  0.743172  0.185833  0.0113053  -0.00959264  -0.0364948  -0.00708195  -0.02198  -0.0110908  0.0312463  0.0234803  -0.0280849  -0.222605  -0.0394401  -0.0303369 
1704190825.521688000  0  0  12.5112  0.00624379  -0.135182  0.0232501  nan  nan  nan  nan  nan  nan  -2.49697  -0.279247  1.01423  -0.0994251  -0.0154496  -0.0058552  0.0093088  0.15717  0.0831137  0  0  0  0  0.747177  0.178762  0.0113443  -0.00961024  -0.0365494  -0.00463176  -0.0221352  -0.0122244  0.0295712  0.0259768  -0.0279166  -0.284542  0.0313774  -0.0114601 
1704190825.526697000  0  0  12.5291  0.00342862  -0.104175  0.0232951  nan  nan  nan  nan  nan  nan  -2.49693  -0.278452  1.01464  -0.099609  -0.01375  -0.00614727  0.0093088  0.160915  0.0839893  0  0  0  0  0.750932  0.17144  0.0113861  -0.00978902  -0.0366099  -0.00709503  -0.0216943  -0.0141981  0.0285607  0.0239979  -0.0278022  -0.269616  -0.0124306  -0.0131677 
1704190825.531679000  0  0  12.4506  -0.000127599  -0.09616  0.0253349  nan  nan  nan  nan  nan  nan  -2.49688  -0.277638  1.01506  -0.101067  -0.0150442  -0.00612079  0.0093088  0.164679  0.0848277  0  0  0  0  0.754437  0.163868  0.0113638  -0.00990249  -0.0366239  -0.00538817  -0.0221513  -0.00823246  0.0287121  0.0248878  -0.0280554  -0.263897  -0.0366482  -0.0361327 
1704190825.536688000  0  0  12.4782  0.0219803  -0.119995  0.0225283  nan  nan  nan  nan  nan  nan  -2.49683  -0.276805  1.01549  -0.101725  -0.0155885  -0.00618023  0.0093088  0.168459  0.0856276  0  0  0  0  0.757692  0.156046  0.0114163  -0.0100791  -0.0367094  -0.004725  -0.0225703  -0.0110092  0.027661  0.0257985  -0.0277242  -0.298442  0.00264386  -0.00436178 
1704190825.540696000  0  0  12.484  0.00999931  -0.0932011  0.0222642  nan  nan  nan  nan  nan  nan  -2.49679  -0.275953  1.01592  -0.10217  -0.0140099  -0.00646016  0.0093088  0.172255  0.0863877  0  0  0  0  0.760696  0.147975  0.0113745  -0.0103302  -0.0368471  -0.00684773  -0.0222941  -0.0118803  0.0272646  0.02383  -0.0275661  -0.270833  -0.0328335  -0.00264096 
1704190825.546689000  0  0  12.4211  -0.00111124  -0.0990908  0.0238897  nan  nan  nan  nan  nan  nan  -2.49674  -0.275083  1.01635  -0.104465  -0.0166041  -0.0062807  0.0093088  0.176065  0.0871069  0  0  0  0  0.763451  0.139661  0.0116296  -0.0105507  -0.0369208  -0.00394169  -0.0239254  -0.0071098  0.028245  0.0263192  -0.0277329  -0.257631  -0.043955  -0.021292 
1704190825.551688000  0  0  12.4362  0.00719776  -0.110966  0.0229647  nan  nan  nan  nan  nan  nan  -2.4967  -0.274193  1.01679  -0.105539  -0.0178317  -0.00625765  0.0093088  0.179889  0.0877845  0  0  0  0  0.765956  0.13143  0.0117939  -0.0108365  -0.0370902  -0.00260017  -0.0246388  -0.0086831  0.0280086  0.0277394  -0.027571  -0.272074  -0.0332706  -0.0113488 
1704190825.556690000  0  0  12.4256  0.00409811  -0.0963918  0.0222237  nan  nan  nan  nan  nan  nan  -2.49665  -0.273284  1.01723  -0.105515  -0.0170286  -0.00646821  0.0093088  0.183725  0.0884216  0  0  0  0  0.768211  0.123448  0.0117658  -0.0109518  -0.0371359  -0.00369302  -0.0239292  -0.00842016  0.0268818  0.0265437  -0.0273819  -0.255509  -0.0514181  -0.00397724 
1704190825.561681000  0  0  12.3813  -0.0104581  -0.098604  0.0227272  nan  nan  nan  nan  nan  nan  -2.4966  -0.272356  1.01768  -0.108234  -0.0186427  -0.00637103  0.0093088  0.187571  0.0890194  0  0  0  0  0.770215  0.115717  0.0119703  -0.0112394  -0.0369183  -0.00203315  -0.0262622  -0.00569114  0.0285704  0.0277977  -0.0273918  -0.241931  -0.0585312  -0.0101716 
1704190825.565684000  0  0  12.3977  -0.0152859  -0.0969133  0.0244622  nan  nan  nan  nan  nan  nan  -2.49656  -0.271408  1.01812  -0.10902  -0.0190628  -0.00643523  0.0093088  0.191426  0.0895792  0  0  0  0  0.77197  0.108235  0.0119636  -0.0115296  -0.0370429  -0.00142881  -0.026674  -0.00740576  0.028487  0.0279393  -0.0275577  -0.231508  -0.0632148  -0.0302003 
1704190825.571688000  0  0  12.3883  0.00101613  -0.103663  0.0221309  nan  nan  nan  nan  nan  nan  -2.49651  -0.270441  1.01857  -0.108536  -0.0185097  -0.00662982  0.0093088  0.19529  0.0901022  0  0  0  0  0.773475  0.101004  0.0120519  -0.0116075  -0.0370998  -0.00242659  -0.0255246  -0.00719519  0.0266435  0.0274503  -0.0272454  -0.247153  -0.0452158  -0.0041818 
1704190825.576689000  0  0  12.3758  -0.0263136  -0.0894062  0.0245176  nan  nan  nan  nan  nan  nan  -2.49646  -0.269455  1.01902  -0.110672  -0.0199393  -0.00655608  0.0093088  0.199161  0.0905897  0  0  0  0  0.77473  0.0940222  0.0121059  -0.011818  -0.0371693  -0.000628735  -0.0276891  -0.00647468  0.0280622  0.0283752  -0.0274773  -0.205545  -0.0822399  -0.0316966 
1704190825.581683000  0  0  12.4181  -0.0120879  -0.103138  0.0243  nan  nan  nan  nan  nan  nan  -2.49642  -0.26845  1.01948  -0.109538  -0.0200013  -0.00669714  0.0093088  0.203037  0.0910428  0  0  0  0  0.775735  0.0872908  0.0121084  -0.0119399  -0.0372483  -0.000468475  -0.0262497  -0.0105221  0.025836  0.0282816  -0.0274978  -0.213516  -0.0539144  -0.0287724 
1704190825.586683000  0  0  12.3982  0.00132432  -0.0917219  0.0209027  nan  nan  nan  nan  nan  nan  -2.49637  -0.267425  1.01993  -0.110129  -0.0186741  -0.0069569  0.0093088  0.206918  0.091463  0  0  0  0  0.776489  0.0808093  0.0121253  -0.0121398  -0.0373208  -0.00241477  -0.0262634  -0.0092391  0.0252012  0.0267248  -0.0270004  -0.2345  -0.0624243  0.00871967 
1704190825.590706000  0  0  12.3818  -0.0352787  -0.0711179  0.0240666  nan  nan  nan  nan  nan  nan  -2.49632  -0.26638  1.02039  -0.112372  -0.0198221  -0.00691007  0.0093088  0.210801  0.0918513  0  0  0  0  0.776994  0.0745778  0.0121179  -0.0124636  -0.0374366  -0.000879746  -0.0283662  -0.00800718  0.0270983  0.0271445  -0.0272953  -0.178747  -0.107494  -0.0278799 
1704190825.596682000  0  0  12.4552  -0.0084184  -0.102989  0.0213553  nan  nan  nan  nan  nan  nan  -2.49628  -0.265317  1.02085  -0.110425  -0.0202042  -0.00703179  0.0093088  0.214687  0.0922092  0  0  0  0  0.777249  0.0685964  0.0122186  -0.0125226  -0.0375131  -0.000418967  -0.0264366  -0.0146525  0.0240143  0.0276772  -0.0269939  -0.204095  -0.0486529  0.00299827 
1704190825.601678000  0  0  12.3942  -0.0139638  -0.0728293  0.0202571  nan  nan  nan  nan  nan  nan  -2.49623  -0.264234  1.02131  -0.112003  -0.0191142  -0.00724709  0.0093088  0.218574  0.0925377  0  0  0  0  0.777254  0.0628649  0.0122461  -0.012738  -0.0375406  -0.00215725  -0.02736  -0.00989674  0.0246912  0.0259803  -0.0266755  -0.199231  -0.0933598  0.013541 
1704190825.606696000  0  0  12.4173  -0.0520184  -0.0644591  0.0255457  nan  nan  nan  nan  nan  nan  -2.49618  -0.263131  1.02178  -0.112645  -0.0209955  -0.00714688  0.0093088  0.222459  0.0928382  0  0  0  0  0.777009  0.0573834  0.0122566  -0.0128786  -0.0376167  0.000454526  -0.0282693  -0.0120989  0.0251688  0.0270206  -0.0272862  -0.127516  -0.119672  -0.0464601 
1704190825.611688000  0  0  12.4431  0.00127969  -0.106053  0.0198275  nan  nan  nan  nan  nan  nan  -2.49614  -0.262009  1.02224  -0.111371  -0.0200263  -0.00740743  0.0093088  0.226343  0.093112  0  0  0  0  0.776513  0.052152  0.0122807  -0.0130386  -0.0376598  -0.000899194  -0.0265329  -0.0147311  0.0223297  0.0264838  -0.0265885  -0.207992  -0.031546  0.0180414 
1704190825.615695000  0  0  12.3911  -0.0113123  -0.0707773  0.0197723  nan  nan  nan  nan  nan  nan  -2.49609  -0.260868  1.02271  -0.113097  -0.0187207  -0.00764571  0.0093088  0.230224  0.0933602  0  0  0  0  0.775768  0.0471705  0.0122473  -0.0133761  -0.0377715  -0.0027828  -0.0275838  -0.0104573  0.0233956  0.0244865  -0.0263802  -0.192615  -0.0837215  0.0166486 
1704190825.621682000  0  0  12.4026  -0.0366842  -0.0793669  0.0263539  nan  nan  nan  nan  nan  nan  -2.49604  -0.259707  1.02318  -0.112787  -0.0208341  -0.00753726  0.0093088  0.2341  0.0935841  0  0  0  0  0.774773  0.0424391  0.0123108  -0.0133724  -0.0377199  1.53322e-05  -0.027461  -0.011988  0.0226798  0.0260005  -0.0271926  -0.135286  -0.0804707  -0.0574973 
1704190825.626689000  0  0  12.4065  0.0086476  -0.114282  0.0217036  nan  nan  nan  nan  nan  nan  -2.496  -0.258527  1.02364  -0.112318  -0.0202059  -0.00774308  0.0093088  0.237971  0.093785  0  0  0  0  0.773528  0.0379576  0.012332  -0.0135494  -0.0377733  -0.000910673  -0.026624  -0.0126442  0.0207136  0.0258626  -0.026693  -0.20786  -0.00937235  -0.00436531 
1704190825.631695000  0  0  12.3388  -0.0249817  -0.0721563  0.0238407  nan  nan  nan  nan  nan  nan  -2.49595  -0.257327  1.02411  -0.113518  -0.0196277  -0.00790942  0.0093088  0.241835  0.0939641  0  0  0  0  0.772033  0.0337261  0.0123147  -0.0136891  -0.0377875  -0.00184723  -0.02729  -0.00726623  0.0215651  0.0244124  -0.0268543  -0.148436  -0.0802818  -0.0294655 
1704190825.636688000  0  0  12.3936  -0.0142695  -0.109346  0.025532  nan  nan  nan  nan  nan  nan  -2.4959  -0.256108  1.02458  -0.112838  -0.0211671  -0.00787354  0.0093088  0.245691  0.0941227  0  0  0  0  0.770287  0.0297447  0.0123701  -0.0138759  -0.037837  0.000265163  -0.0268732  -0.0121384  0.0200883  0.026199  -0.0271667  -0.156273  -0.0223394  -0.0474831 
1704190825.640682000  0  0  12.3765  0.0203125  -0.132601  0.0214851  nan  nan  nan  nan  nan  nan  -2.49586  -0.25487  1.02506  -0.113247  -0.0207111  -0.00804161  0.0093088  0.249538  0.094262  0  0  0  0  0.768292  0.0260132  0.0123601  -0.0142254  -0.0379734  -0.000406371  -0.0266918  -0.0107379  0.0191465  0.0262078  -0.0266731  -0.216773  0.0240891  -0.00183257 
1704190825.646683000  0  0  12.364  -0.0115248  -0.0945402  0.0239184  nan  nan  nan  nan  nan  nan  -2.49581  -0.253613  1.02553  -0.112954  -0.0203208  -0.00821714  0.0093088  0.253374  0.0943832  0  0  0  0  0.766047  0.0225317  0.0124073  -0.014272  -0.0379643  -0.00109577  -0.0263091  -0.0100528  0.0185737  0.0252345  -0.0268394  -0.147829  -0.0430771  -0.0305864 
1704190825.651671000  0  0  12.3518  0.00942723  -0.125272  0.0238035  nan  nan  nan  nan  nan  nan  -2.49576  -0.252336  1.026  -0.112764  -0.0218446  -0.00817354  0.0093088  0.257198  0.0944877  0  0  0  0  0.763552  0.0193003  0.0124637  -0.0144644  -0.0379642  0.000841432  -0.0258048  -0.00936574  0.017305  0.0270695  -0.0268812  -0.178061  0.00150438  -0.0287312 
1704190825.656681000  0  0  12.3693  0.0212938  -0.132992  0.0216792  nan  nan  nan  nan  nan  nan  -2.49572  -0.251041  1.02647  -0.11215  -0.0213384  -0.0083691  0.0093088  0.261009  0.0945766  0  0  0  0  0.760807  0.0163188  0.0124656  -0.0145891  -0.0380242  0.000164217  -0.0252516  -0.0110255  0.015665  0.0267895  -0.0265657  -0.186706  0.0195218  -0.00533248 
1704190825.661673000  0  0  12.361  -0.00120423  -0.107889  0.0249228  nan  nan  nan  nan  nan  nan  -2.49567  -0.249726  1.02694  -0.11252  -0.0212154  -0.00850011  0.0093088  0.264805  0.0946513  0  0  0  0  0.757811  0.0135873  0.0125909  -0.0149549  -0.0380812  -0.000326725  -0.0252209  -0.0104307  0.015857  0.0264169  -0.0269066  -0.143476  -0.0272568  -0.0424692 
1704190825.665677000  0  0  12.3378  0.00227099  -0.120063  0.0247589  nan  nan  nan  nan  nan  nan  -2.49562  -0.248393  1.02742  -0.113413  -0.0226432  -0.00844333  0.0093088  0.268587  0.0947129  0  0  0  0  0.754566  0.0111059  0.0125952  -0.0153249  -0.0382062  0.0015537  -0.0257581  -0.00838917  0.0160483  0.0278694  -0.0269432  -0.152186  -0.0162734  -0.0400547 
1704190825.671687000  0  0  12.3548  0.0079264  -0.140929  0.0231292  nan  nan  nan  nan  nan  nan  -2.49558  -0.247041  1.02789  -0.113311  -0.0233131  -0.00849445  0.0093088  0.272351  0.0947628  0  0  0  0  0.751071  0.0088744  0.0128526  -0.0155093  -0.0378812  0.00193018  -0.0258786  -0.0106969  0.0151741  0.028867  -0.0268104  -0.155454  0.016282  -0.0210101 
1704190825.676688000  0  0  12.3195  -0.00728209  -0.113235  0.0243576  nan  nan  nan  nan  nan  nan  -2.49553  -0.245669  1.02837  -0.11323  -0.022993  -0.00865787  0.0093088  0.276097  0.0948021  0  0  0  0  0.747326  0.0068929  0.0130532  -0.0158233  -0.0376864  0.000937138  -0.0250976  -0.00835999  0.0148924  0.0279768  -0.0269609  -0.122446  -0.030917  -0.0348607 
1704190825.681678000  0  0  12.2958  -0.0076358  -0.132706  0.0245145  nan  nan  nan  nan  nan  nan  -2.49549  -0.24428  1.02884  -0.113532  -0.0248699  -0.00856188  0.0093088  0.279824  0.0948321  0  0  0  0  0.74333  0.0051615  0.0130887  -0.0159594  -0.0377067  0.00336041  -0.0254402  -0.00648497  0.0145768  0.0299117  -0.0270619  -0.118835  -0.0097751  -0.0358121 
1704190825.686688000  0  0  12.3598  0.00119063  -0.141337  0.0222082  nan  nan  nan  nan  nan  nan  -2.49544  -0.242871  1.02931  -0.112008  -0.0233736  -0.00889351  0.0093088  0.28353  0.0948541  0  0  0  0  0.739085  0.00368  0.0131123  -0.0161512  -0.0377588  0.00140537  -0.0242636  -0.0119741  0.0126334  0.0287179  -0.0267723  -0.118609  0.0184693  -0.00987942 
1704190825.690699000  0  0  12.3483  -0.00288872  -0.111915  0.0221936  nan  nan  nan  nan  nan  nan  -2.49539  -0.241444  1.02979  -0.111817  -0.022053  -0.00917127  0.0093088  0.287214  0.0948693  0  0  0  0  0.73459  0.0024485  0.0130906  -0.0165244  -0.0378881  -0.000417005  -0.0235836  -0.0108651  0.0121572  0.0269186  -0.026678  -0.106068  -0.0238212  -0.0106402 
1704190825.696688000  0  0  12.3054  -0.0100434  -0.122318  0.0240854  nan  nan  nan  nan  nan  nan  -2.49535  -0.239999  1.03026  -0.111504  -0.0245492  -0.00902396  0.0093088  0.290875  0.094879  0  0  0  0  0.729845  0.0014671  0.0131694  -0.0164127  -0.037766  0.00272964  -0.0235083  -0.00768962  0.0114415  0.02912  -0.0269129  -0.0851751  -0.023269  -0.0319376 
1704190825.701681000  0  0  12.3879  0.00666367  -0.118753  0.0212602  nan  nan  nan  nan  nan  nan  -2.4953  -0.238536  1.03074  -0.108757  -0.0216265  -0.00953623  0.0093088  0.294512  0.0948844  0  0  0  0  0.72485  0.0007356  0.0131741  -0.016552  -0.0378303  -0.00110188  -0.0210566  -0.0147223  0.00831199  0.0262333  -0.0265128  -0.0897976  -0.00384009  -0.000623906 
1704190825.706691000  0  0  12.2914  -0.00426512  -0.0721053  0.0225571  nan  nan  nan  nan  nan  nan  -2.49525  -0.237054  1.03121  -0.108566  -0.0213791  -0.00969238  0.0093088  0.298123  0.0948868  0  0  0  0  0.719604  0.0002541  0.0131627  -0.0166523  -0.0378125  -0.00165303  -0.0200687  -0.00680132  0.00796841  0.0248953  -0.0265666  -0.0647791  -0.0848264  -0.0162972 
1704190825.711688000  0  0  12.3153  -0.00863484  -0.103252  0.0231896  nan  nan  nan  nan  nan  nan  -2.49521  -0.235554  1.03169  -0.109802  -0.0239921  -0.00950275  0.0093088  0.301708  0.0948874  0  0  0  0  0.714109  2.27e-05  0.0133972  -0.0170322  -0.0376437  0.00144425  -0.0219309  -0.00903391  0.00905623  0.0274965  -0.0266739  -0.0660476  -0.0464643  -0.023131 
1704190825.715691000  0  0  12.3631  0.00435436  -0.097524  0.021401  nan  nan  nan  nan  nan  nan  -2.49516  -0.234037  1.03216  -0.108789  -0.0219302  -0.00987749  0.0093088  0.305264  0.0948874  0  0  0  0  0.708364  0  0.0133648  -0.017412  -0.0378001  -0.00121989  -0.0209879  -0.0127593  0.0076732  0.0253032  -0.0263809  -0.0793021  -0.0377411  -0.00370363 
1704190825.721682000  0  0  12.246  -0.0123492  -0.0541381  0.0231162  nan  nan  nan  nan  nan  nan  -2.49511  -0.232502  1.03264  -0.108066  -0.0221024  -0.00999983  0.0093088  0.308791  0.0948874  0  0  0  0  0.702369  0  0.0134193  -0.0173203  -0.0376187  -0.00138473  -0.0195598  -0.00347678  0.00703341  0.0241247  -0.0265137  -0.0400089  -0.113671  -0.0238159 
1704190825.726688000  0  0  12.305  -0.00646792  -0.0801138  0.0238054  nan  nan  nan  nan  nan  nan  -2.49507  -0.230949  1.03311  -0.107651  -0.0231272  -0.0100234  0.0093088  0.312287  0.0948874  0  0  0  0  0.696124  0  0.0134777  -0.017517  -0.0376088  1.9736e-05  -0.0200764  -0.00842894  0.00645714  0.0250381  -0.0266485  -0.0464698  -0.0701233  -0.0310833 
1704190825.731689000  0  0  12.3081  0.0077461  -0.0605267  0.0217339  nan  nan  nan  nan  nan  nan  -2.49502  -0.229379  1.03358  -0.105046  -0.0209749  -0.0104363  0.0093088  0.315752  0.0948874  0  0  0  0  0.689628  0  0.0134474  -0.017595  -0.0376473  -0.00284993  -0.0171898  -0.00885663  0.00363052  0.0222967  -0.0263576  -0.048893  -0.0840766  -0.008098 
1704190825.736689000  0  0  12.2663  -0.00567575  -0.0515516  0.0229769  nan  nan  nan  nan  nan  nan  -2.49497  -0.227792  1.03406  -0.104921  -0.0213848  -0.0105208  0.0093089  0.319183  0.0948874  0  0  0  0.0001052  0.682883  0  0.0134596  -0.0177197  -0.0376315  -0.00240993  -0.0171182  -0.00542338  0.0035898  0.0220027  -0.0264445  -0.0216747  -0.0993217  -0.0227671 
1704190825.740682000  0  0  12.2991  -0.00473052  -0.0631935  0.0229591  nan  nan  nan  nan  nan  nan  -2.49493  -0.226187  1.03453  -0.105001  -0.0217952  -0.0106008  0.0093103  0.32258  0.0948874  0  0  0  0.0004596  0.675888  0  0.0134554  -0.0181174  -0.0377697  -0.00173716  -0.0176219  -0.00784282  0.00356474  0.0222533  -0.0264202  -0.0233346  -0.078343  -0.0227866 
1704190825.746679000  0  0  12.3017  0.0113968  -0.0621242  0.0215358  nan  nan  nan  nan  nan  nan  -2.49488  -0.224566  1.03501  -0.101496  -0.0204439  -0.0109407  0.0093139  0.325942  0.0948874  0  0  0  0.001064  0.668643  0  0.0134768  -0.017966  -0.0376691  -0.00352662  -0.0141238  -0.00862404  7.74814e-05  0.0204606  -0.0262244  -0.0235065  -0.0639887  -0.00695342 
1704190825.751674000  0  0  12.2742  -0.000342009  -0.0565899  0.0227058  nan  nan  nan  nan  nan  nan  -2.49483  -0.222928  1.03548  -0.101641  -0.0204143  -0.0110657  0.0093213  0.329266  0.0948874  0  0  0  0.0019184  0.661148  0  0.0135175  -0.0181577  -0.0376093  -0.00362811  -0.0145362  -0.00644276  0.000429185  0.0199636  -0.0263045  -0.00326448  -0.0704852  -0.0207771 
1704190825.756676000  0  0  12.3047  -0.00236646  -0.0670756  0.0244317  nan  nan  nan  nan  nan  nan  -2.49479  -0.221273  1.03596  -0.10017  -0.0212085  -0.0111413  0.0093335  0.332553  0.0948874  0  0  0  0.0030228  0.653402  0  0.0135208  -0.0182307  -0.0376704  -0.00233374  -0.0137153  -0.00899038  -0.000863489  0.0205136  -0.0265244  0.012677  -0.054574  -0.0401521 
1704190825.761673000  0  0  12.3373  0.0223567  -0.0878211  0.0216918  nan  nan  nan  nan  nan  nan  -2.49474  -0.219602  1.03643  -0.0975365  -0.0198088  -0.0114597  0.0093519  0.3358  0.0948874  0  0  0  0.0043771  0.645407  0  0.0135178  -0.0183279  -0.0377016  -0.00398793  -0.0112667  -0.011904  -0.00364718  0.0193842  -0.0262067  -0.0111594  -0.0026925  -0.00908143 
1704190825.765671000  0  0  12.2856  0.0116686  -0.0691945  0.0220691  nan  nan  nan  nan  nan  nan  -2.49469  -0.217915  1.03691  -0.0979978  -0.0190196  -0.011653  0.0093777  0.339006  0.0948874  0  0  0  0.0059815  0.637162  0  0.0134828  -0.0187171  -0.0378017  -0.0049204  -0.011503  -0.00735865  -0.00304604  0.0182663  -0.0261617  0.00468637  -0.0296608  -0.0142461 
1704190825.771694000  0  0  12.3049  0.00974785  -0.0855037  0.025239  nan  nan  nan  nan  nan  nan  -2.49465  -0.216212  1.03738  -0.0954691  -0.0204869  -0.0116861  0.0094122  0.342171  0.0948874  0  0  0  0.0078359  0.628667  0  0.0135259  -0.0184845  -0.0377364  -0.00270322  -0.0098948  -0.00935307  -0.00517453  0.0195763  -0.0266267  0.0281099  -0.00909435  -0.049221 
1704190825.776695000  0  0  12.3185  0.0329522  -0.113665  0.0205924  nan  nan  nan  nan  nan  nan  -2.4946  -0.214494  1.03785  -0.0944655  -0.0190541  -0.0119676  0.0094565  0.345292  0.0948874  0  0  0  0.0099403  0.619921  0  0.0136359  -0.0188086  -0.0376436  -0.00462192  -0.00904285  -0.0107902  -0.00623719  0.0188021  -0.026114  -0.00852227  0.05435  0.00373475 
1704190825.781689000  0  0  12.252  0.000580252  -0.0773762  0.0240932  nan  nan  nan  nan  nan  nan  -2.49455  -0.21276  1.03833  -0.0938602  -0.0189719  -0.0121121  0.009512  0.34837  0.0948874  0  0  0  0.0122947  0.610926  0  0.0136127  -0.0188613  -0.037647  -0.00452273  -0.00854716  -0.0053107  -0.00613777  0.0181141  -0.0264251  0.055307  -0.0118976  -0.0369144 
1704190825.786695000  0  0  12.3118  0.00979983  -0.105905  0.0256708  nan  nan  nan  nan  nan  nan  -2.4945  -0.21101  1.0388  -0.0920123  -0.0204438  -0.0121366  0.0095799  0.351401  0.0948874  0  0  0  0.014899  0.601681  0  0.0136573  -0.0189724  -0.0376909  -0.00213564  -0.0076103  -0.010374  -0.00768932  0.0198981  -0.026731  0.0511421  0.0287483  -0.0535754 
1704190825.791695000  0  0  12.3102  0.0355242  -0.130302  0.0199116  nan  nan  nan  nan  nan  nan  -2.49446  -0.209246  1.03928  -0.0901543  -0.017868  -0.0125327  0.0096614  0.354386  0.0948874  0  0  0  0.0177534  0.592186  0  0.0136702  -0.0191022  -0.0377215  -0.00532862  -0.00594217  -0.0103817  -0.00953721  0.0182341  -0.0260841  0.0166939  0.09285  0.0119463 
1704190825.796677000  0  0  12.2705  -0.0130179  -0.0874472  0.025272  nan  nan  nan  nan  nan  nan  -2.49441  -0.207466  1.03975  -0.0893136  -0.0181502  -0.0126477  0.0097578  0.357323  0.0948874  0  0  0  0.0208578  0.582441  0  0.0136515  -0.0191452  -0.037736  -0.00458202  -0.00554808  -0.00711703  -0.00918218  0.0178631  -0.0266364  0.110512  0.0105539  -0.0495363 
