ts fx fy fz tx ty tz exfx exfy exfz extx exty extz xd yd zd rolld pitchd yawd vxd vyd vzd wxd wyd wzd axd ayd azd e_x e_y e_z e_vx e_vy e_vz e_rx e_ry e_rz e_wx e_wy e_wz
1701769593.207177000  0  0  11.8951  -0.0631636  -0.0793879  0.0121591  nan  nan  nan  nan  nan  nan  -2  -1  1.5  -0.0159517  -0.0261298  0.000416802  0  0  0  0  0  0  0  0  0  0.00862921  -0.0192943  -0.0190379  0.015368  0.0218034  -0.000619537  0.00729697  0.0208507  -0.0184981  0.059195  -0.0330506  0.0329916 
1701769593.211309000  0  0  11.8861  -0.050594  -0.088837  0.0117283  nan  nan  nan  nan  nan  nan  -2  -1  1.5  -0.0162403  -0.0265056  0.000430445  0  0  0  0  0  0  0  0  0  0.00872519  -0.0193543  -0.0190324  0.0156253  0.0215721  0.000124474  0.00752895  0.0213126  -0.0183481  0.0319217  -0.0184019  0.0368781 
1701769593.215139000  0  0  11.8373  -0.048568  -0.0819206  0.0117503  nan  nan  nan  nan  nan  nan  -2  -1  1.5  -0.0158537  -0.0269284  0.000426899  0  0  0  0  0  0  0  0  0  0.00878721  -0.0192715  -0.0189984  0.0158999  0.0219845  0.00411939  0.00724084  0.0214814  -0.0182217  0.0305203  -0.0337878  0.0353386 
1701769593.221115000  0  0  11.8599  -0.0458823  -0.0778201  0.011448  nan  nan  nan  nan  nan  nan  -2  -1  1.5  -0.0154781  -0.0271422  0.000420091  0  0  0  0  0  0  0  0  0  0.00892692  -0.0192885  -0.0189823  0.0159385  0.0224775  0.00220624  0.00701109  0.0213652  -0.0180076  0.0272626  -0.0409199  0.0369763 
1701769593.226163000  0  0  11.8549  -0.0290673  -0.0837949  0.0112293  nan  nan  nan  nan  nan  nan  -2  -1  1.5  -0.0155233  -0.0274691  0.000426392  0  0  0  0  0  0  0  0  0  0.00903936  -0.0193186  -0.0189698  0.0161043  0.0224938  0.00260152  0.00678754  0.0216637  -0.017832  -0.00431075  -0.0317163  0.0379537 
1701769593.230169000  0  0  11.8245  -0.033159  -0.0680638  0.011463  nan  nan  nan  nan  nan  nan  -2  -1  1.5  -0.0149893  -0.0277846  0.000416448  0  0  0  0  0  0  0  0  0  0.00910539  -0.0192277  -0.018939  0.0162786  0.0230458  0.00507947  0.00637472  0.0214777  -0.0177278  0.00767049  -0.0614669  0.0339905 
1701769593.236306000  0  0  11.8822  -0.0216122  -0.0764364  0.0111387  nan  nan  nan  nan  nan  nan  -2  -1  1.5  -0.0143278  -0.0274576  0.000393383  0  0  0  0  0  0  0  0  0  0.00922798  -0.019223  -0.0189621  0.0157517  0.0238122  0.000316294  0.00560155  0.0210078  -0.0175071  -0.00830992  -0.0403993  0.0358372 
1701769593.241338000  0  0  11.8407  -0.017178  -0.0653187  0.0115757  nan  nan  nan  nan  nan  nan  -2  -1  1.5  -0.0146035  -0.0279103  0.000407563  0  0  0  0  0  0  0  0  0  0.00933872  -0.019245  -0.0189255  0.0159747  0.023565  0.00371419  0.00569769  0.0210517  -0.0174275  -0.0180628  -0.0630378  0.0295778 
1701769593.246124000  0  0  11.8594  -0.0238799  -0.0524325  0.0116464  nan  nan  nan  nan  nan  nan  -2  -1  1.5  -0.0135912  -0.0278961  0.000379117  0  0  0  0  0  0  0  0  0  0.00941475  -0.0191276  -0.0189252  0.0158441  0.0246069  0.00215572  0.00486184  0.0204585  -0.017304  0.00303081  -0.0833531  0.0274603 
1701769593.251190000  0  0  11.9187  -0.0136796  -0.0651487  0.0108382  nan  nan  nan  nan  nan  nan  -2  -1  1.5  -0.0133672  -0.0276859  0.000370059  0  0  0  0  0  0  0  0  0  0.00953597  -0.0191392  -0.0189483  0.0154798  0.0248397  -0.00273822  0.00448527  0.0201703  -0.0170955  -0.0139053  -0.055269  0.0354766 
1701769593.256195000  0  0  11.8626  -0.0117728  -0.048983  0.0108922  nan  nan  nan  nan  nan  nan  -2  -1  1.5  -0.0129918  -0.0279568  0.000363183  0  0  0  0  0  0  0  0  0  0.00961507  -0.0190176  -0.0189079  0.0154879  0.0251477  0.00186139  0.00402225  0.0198191  -0.0169349  -0.013459  -0.0843702  0.0331969 
1701769593.261351000  0  0  11.9246  -0.0290028  -0.0416525  0.0108589  nan  nan  nan  nan  nan  nan  -2  -1  1.5  -0.0124975  -0.027771  0.000347041  0  0  0  0  0  0  0  0  0  0.00971603  -0.0190129  -0.0189575  0.0152094  0.0257023  -0.00319836  0.00392666  0.0190563  -0.0168116  0.0218803  -0.0920131  0.03238 
1701769593.265171000  0  0  11.9518  -0.0216212  -0.0508444  0.010138  nan  nan  nan  nan  nan  nan  -2  -1  1.5  -0.0119911  -0.0275318  0.000330111  0  0  0  0  0  0  0  0  0  0.00977238  -0.0189155  -0.0189807  0.0148497  0.0261202  -0.00541517  0.00340242  0.0187055  -0.0166014  0.0119401  -0.0704016  0.0392898 
1701769593.271187000  0  0  11.8863  -0.0312882  -0.0372731  0.0102357  nan  nan  nan  nan  nan  nan  -2  -1  1.5  -0.0122743  -0.0280355  0.000344089  0  0  0  0  0  0  0  0  0  0.00989996  -0.0188983  -0.0189454  0.0150313  0.0257958  -1.8929e-05  0.00392546  0.0185001  -0.0164488  0.0264621  -0.0956543  0.0365414 
1701769593.276118000  0  0  11.951  -0.044852  -0.041733  0.00984415  nan  nan  nan  nan  nan  nan  -2  -1  1.5  -0.0120848  -0.0277872  0.000335775  -6e-07  -6e-07  6e-07  0  0  0  -0.000375  -0.000375  0.000375  0.0100058  -0.0189012  -0.0189948  0.0146189  0.0259171  -0.00526423  0.00422243  0.0179223  -0.0162742  0.0508576  -0.0814188  0.0396898 
1701769593.280180000  0  0  11.9647  -0.035612  -0.0561813  0.00934483  nan  nan  nan  nan  nan  nan  -2  -1  1.5  -0.0115557  -0.0277335  0.000320455  -5e-06  -5e-06  5e-06  0  0  0  -0.0015  -0.0015  0.0014996  0.0100642  -0.0187968  -0.0190177  0.0143143  0.0262242  -0.0062559  0.00373329  0.0178893  -0.0160563  0.0368778  -0.0522194  0.0437527 
1701769593.286171000  0  0  11.9225  -0.0520505  -0.0428787  0.00992912  nan  nan  nan  nan  nan  nan  -2  -1  1.5  -0.0116206  -0.0284023  0.000330022  -1.69e-05  -1.69e-05  1.55e-05  0  0  0  -0.003375  -0.003375  0.0025892  0.0101868  -0.0187792  -0.0190095  0.0145555  0.0259115  -0.00263528  0.00436623  0.0179071  -0.01595  0.0639317  -0.0789881  0.035386 
1701769593.291283000  0  0  11.9868  -0.0526057  -0.0585438  0.00952676  nan  nan  nan  nan  nan  nan  -2  -1  1.5  -0.010636  -0.0280956  0.000298897  -4e-05  -4e-05  2.96e-05  0  0  0  -0.006  -0.006  0.0029289  0.0102558  -0.0186444  -0.0190725  0.013857  0.0265  -0.00784397  0.00382607  0.0175693  -0.0157283  0.0700115  -0.0445498  0.0381986 
1701769593.296413000  0  0  11.9482  -0.0575568  -0.0617557  0.0096623  nan  nan  nan  nan  nan  nan  -2  -1  1.5  -0.0106026  -0.0287836  0.000305351  -7.81e-05  -7.81e-05  4.36e-05  0  0  0  -0.009375  -0.009375  0.0025185  0.0103584  -0.0186482  -0.0190745  0.0139858  0.0261627  -0.00464821  0.00421507  0.01807  -0.0156026  0.0763351  -0.0427322  0.0352473 
1701769593.301128000  0  0  11.9382  -0.0704024  -0.0545856  0.0101047  nan  nan  nan  nan  nan  nan  -2  -1  1.5  -0.01044  -0.0295061  0.00030841  -0.000135  -0.000135  5.36e-05  0  0  0  -0.0135  -0.0135  0.0013619  0.0104503  -0.018662  -0.0190905  0.0141749  0.0258881  -0.00388701  0.00468464  0.0183703  -0.0155513  0.0977062  -0.0598359  0.0292034 
1701769593.305129000  0  0  11.9836  -0.0627031  -0.0752869  0.0100633  nan  nan  nan  nan  nan  nan  -2  -1  1.5  -0.00932663  -0.0296195  0.000276818  -0.0002144  -0.0002144  5.74e-05  0  0  0  -0.018375  -0.018375  0.0003076  0.0105026  -0.0185566  -0.0191418  0.0137284  0.0264526  -0.00767645  0.00387795  0.0186741  -0.0154284  0.0897291  -0.0212283  0.0284925 
1701769593.311165000  0  0  11.9567  -0.0663993  -0.0806651  0.00987989  nan  nan  nan  nan  nan  nan  -2  -1  1.5  -0.00911128  -0.0305237  0.000278874  -0.00032  -0.00032  5.79e-05  0  0  0  -0.024  -0.024  -3.3e-06  0.0106133  -0.018545  -0.0191589  0.0138686  0.0260143  -0.00542045  0.0042375  0.0195422  -0.0152773  0.0938135  -0.0184578  0.0292739 
1701769593.316174000  0  0  11.9444  -0.0722539  -0.0746792  0.00986398  nan  nan  nan  nan  nan  nan  -2.00001  -1.00001  1.5  -0.00868623  -0.0313656  0.000273411  -0.0004549  -0.0004556  5.71e-05  0  0  0  -0.0298319  -0.030375  -0.0004491  0.0107187  -0.0185504  -0.0191708  0.0139564  0.025779  -0.00440375  0.00444288  0.0200413  -0.0151824  0.103633  -0.0350215  0.028524 
1701769593.321182000  0  0  11.9802  -0.0557596  -0.0984858  0.00844732  nan  nan  nan  nan  nan  nan  -2.00001  -1.00001  1.5  -0.00729289  -0.0315737  0.000231429  -0.0006171  -0.000625  5.22e-05  0  0  0  -0.0349304  -0.0375  -0.0016448  0.0107824  -0.0184214  -0.019224  0.0135572  0.0263906  -0.00739595  0.00329141  0.0205924  -0.0148351  0.0812383  0.00752149  0.0427592 
1701769593.326168000  0  0  11.9191  -0.0670214  -0.0843646  0.00847686  nan  nan  nan  nan  nan  nan  -2.00001  -1.00001  1.5  -0.00681913  -0.0325528  0.000223346  -0.0008029  -0.0008318  3.94e-05  0  0  0  -0.0392789  -0.0452796  -0.0035905  0.0108748  -0.0184417  -0.0192058  0.0138726  0.0261072  -0.00252284  0.00347516  0.0211987  -0.0146804  0.102071  -0.0262991  0.0408436 
1701769593.331190000  0  0  11.9255  -0.0600921  -0.0814639  0.00833575  nan  nan  nan  nan  nan  nan  -2.00002  -1.00002  1.5  -0.00535814  -0.0328978  0.000177941  -0.0010086  -0.0010769  1.5e-05  0  0  0  -0.0428774  -0.0526197  -0.0062863  0.0109487  -0.018303  -0.0192316  0.0137232  0.0267799  -0.00325931  0.00249692  0.0212704  -0.0144576  0.0972125  -0.0327603  0.040379 
1701769593.336170000  0  0  11.9391  -0.0498253  -0.0984701  0.0074273  nan  nan  nan  nan  nan  nan  -2.00002  -1.00002  1.5  -0.00545037  -0.0328196  0.000180848  -0.0012224  -0.0013394  -1.7e-05  0  0  0  -0.0425024  -0.0522447  -0.0066612  0.0110327  -0.0183241  -0.0192534  0.013531  0.0267451  -0.00438877  0.00279504  0.021463  -0.0141859  0.0739363  -0.000519518  0.0490175 
1701769593.341168000  0  0  11.8738  -0.069977  -0.0732886  0.00755933  nan  nan  nan  nan  nan  nan  -2.00003  -1.00003  1.5  -0.00562096  -0.0330544  0.000188065  -0.0014324  -0.0015981  -5.29e-05  0  0  0  -0.0413774  -0.0511197  -0.0077862  0.0111293  -0.0183333  -0.0192202  0.0135331  0.0267257  0.000888008  0.00374385  0.0211183  -0.014024  0.105511  -0.0477112  0.0457488 
1701769593.346172000  0  0  11.9031  -0.0544989  -0.0732216  0.00720378  nan  nan  nan  nan  nan  nan  -2.00004  -1.00004  1.5  -0.00516257  -0.0325915  0.000170928  -0.0016349  -0.0018493  -9.62e-05  0  0  0  -0.0395024  -0.0492447  -0.0096612  0.0111967  -0.0181975  -0.0192499  0.0131206  0.0272535  -0.00167954  0.00349362  0.0204505  -0.0137664  0.0768566  -0.0417016  0.0476172 
1701769593.351118000  0  0  11.8805  -0.0505698  -0.0711642  0.00713085  nan  nan  nan  nan  nan  nan  -2.00004  -1.00005  1.5  -0.00558156  -0.032362  0.000183901  -0.0018262  -0.0020893  -0.0001507  0  0  0  -0.0368774  -0.0466197  -0.0122863  0.0112719  -0.0182106  -0.0192424  0.0129079  0.0270821  -6.61863e-05  0.00414203  0.0200451  -0.0135892  0.0630329  -0.0420866  0.0467563 
1701769593.355119000  0  0  11.8299  -0.0665226  -0.0424337  0.00732582  nan  nan  nan  nan  nan  nan  -2.00005  -1.00006  1.5  -0.00523352  -0.0320782  0.000171754  -0.0020024  -0.0023142  -0.0002203  0  0  0  -0.0335024  -0.0432447  -0.0156613  0.0113251  -0.0180985  -0.0192143  0.0126701  0.0277575  0.00377076  0.0044079  0.0190086  -0.0134511  0.0924924  -0.0900121  0.0429387 
1701769593.361161000  0  0  11.8742  -0.048236  -0.0492236  0.00681713  nan  nan  nan  nan  nan  nan  -2.00006  -1.00007  1.5  -0.00570608  -0.0311014  0.00018214  -0.0021599  -0.0025205  -0.0003086  0  0  0  -0.0293774  -0.0391197  -0.0197863  0.0114095  -0.0180831  -0.0192414  0.0118841  0.0276074  -0.000265395  0.00497222  0.0177779  -0.0131853  0.0507277  -0.0651096  0.0466391 
1701769593.366182000  0  0  11.8363  -0.0583145  -0.0303275  0.00758428  nan  nan  nan  nan  nan  nan  -2.00008  -1.00008  1.5  -0.00648915  -0.0306295  0.000204531  -0.0022949  -0.0027042  -0.0004194  0  0  0  -0.0245024  -0.0342447  -0.0246613  0.0114911  -0.0180945  -0.0192228  0.011581  0.0272576  0.00238113  0.00612624  0.0166872  -0.013132  0.0602676  -0.0928673  0.0365168 
1701769593.371182000  0  0  11.8007  -0.0702298  -0.00833177  0.00786146  nan  nan  nan  nan  nan  nan  -2.00009  -1.0001  1.49999  -0.00629872  -0.0297209  0.000194278  -0.0024037  -0.0028617  -0.0005564  0  0  0  -0.0188774  -0.0286197  -0.0302863  0.0115441  -0.0179488  -0.0191864  0.0108769  0.0279356  0.00472125  0.00654003  0.0149368  -0.013019  0.0802913  -0.120755  0.0319221 
1701769593.376176000  0  0  11.8539  -0.0540644  -0.0177371  0.00735462  nan  nan  nan  nan  nan  nan  -2.0001  -1.00011  1.49999  -0.00725377  -0.0285515  0.000215982  -0.0024825  -0.0029891  -0.0007235  0  0  0  -0.0125024  -0.0222447  -0.0366613  0.011602  -0.0179628  -0.0192245  0.0102079  0.027496  -0.000262929  0.00742332  0.0135635  -0.0128552  0.0398342  -0.0893103  0.0366196 
1701769593.381178000  0  0  11.8155  -0.0807179  0.00809287  0.00710185  nan  nan  nan  nan  nan  nan  -2.00011  -1.00013  1.49999  -0.00829953  -0.027527  0.000239437  -0.0025275  -0.0030829  -0.0009243  0  0  0  -0.0053774  -0.0151197  -0.0437863  0.0116525  -0.0179628  -0.019214  0.00955003  0.0270751  0.00220806  0.00915  0.0116913  -0.0127148  0.0772558  -0.123746  0.0383748 
1701769593.386177000  0  0  11.7928  -0.0833365  0.0145347  0.00632755  nan  nan  nan  nan  nan  nan  -2.00012  -1.00014  1.49998  -0.00870109  -0.0262789  0.000242435  -0.002535  -0.0031391  -0.0011626  0  0  0  0.0024976  -0.0072447  -0.0516613  0.0116952  -0.0178329  -0.0191904  0.00876809  0.0272988  0.00326855  0.00996925  0.00983752  -0.012453  0.0749558  -0.119575  0.0454353 
1701769593.391347000  0  0  11.834  -0.0786181  -0.00247875  0.00561163  nan  nan  nan  nan  nan  nan  -2.00014  -1.00016  1.49998  -0.00983373  -0.0250123  0.000263047  -0.0025013  -0.0031541  -0.0014422  0  0  0  0.0111226  0.0013803  -0.0602863  0.0117492  -0.0178274  -0.0192392  0.00821815  0.0268721  -0.000920513  0.0112384  0.00853084  -0.0121892  0.0538425  -0.0735262  0.0517463 
1701769593.396187000  0  0  11.7826  -0.097853  0.016515  0.00546831  nan  nan  nan  nan  nan  nan  -2.00015  -1.00018  1.49997  -0.0104625  -0.0237336  0.000269598  -0.0024225  -0.003124  -0.0017667  0  0  0  0.0204976  0.0107553  -0.0696613  0.0117855  -0.0176925  -0.0192067  0.0075323  0.0270165  0.00236734  0.0124707  0.00665792  -0.0119585  0.0809757  -0.0942829  0.0512312 
1701769593.401176000  0  0  11.7796  -0.09882  0.0101177  0.00531248  nan  nan  nan  nan  nan  nan  -2.00016  -1.00019  1.49996  -0.0118674  -0.022226  0.000290056  -0.002295  -0.0030453  -0.00214  0  0  0  0.0306226  0.0208803  -0.0797863  0.0118234  -0.0177063  -0.0192248  0.00677651  0.02652  0.00164263  0.0141908  0.00499623  -0.0117684  0.0670846  -0.0662006  0.0512778 
1701769593.405125000  0  0  11.7893  -0.0942279  -0.0031581  0.00581051  nan  nan  nan  nan  nan  nan  -2.00017  -1.00021  1.49995  -0.0128549  -0.0208002  0.000299781  -0.002115  -0.002914  -0.0025658  0  0  0  0.0414976  0.0317553  -0.0906613  0.0118518  -0.017595  -0.0192359  0.00627588  0.0263712  -0.000226519  0.0152238  0.00377495  -0.011664  0.0483966  -0.0284133  0.0440084 
1701769593.411156000  0  0  11.7488  -0.122478  0.00573775  0.00648479  nan  nan  nan  nan  nan  nan  -2.00018  -1.00022  1.49993  -0.0143656  -0.0192572  0.000316343  -0.0018788  -0.0027265  -0.0030479  0  0  0  0.0531226  0.0433803  -0.102286  0.0118899  -0.0175836  -0.0192326  0.00558711  0.0259328  0.00196713  0.0175446  0.00205734  -0.0115794  0.0835455  -0.030403  0.0347344 
1701769593.416168000  0  0  11.7295  -0.112498  -0.0107346  0.00640131  nan  nan  nan  nan  nan  nan  -2.00019  -1.00023  1.49992  -0.0161182  -0.0175281  0.000330831  -0.0015826  -0.0024789  -0.00359  0  0  0  0.0654976  0.0557553  -0.114661  0.0119199  -0.0176006  -0.0192522  0.0048262  0.0253153  0.00238064  0.0193298  0.000716419  -0.0114703  0.0471621  0.0148781  0.0346866 
1701769593.421176000  0  0  11.7497  -0.11059  -0.0233903  0.00660332  nan  nan  nan  nan  nan  nan  -2.0002  -1.00024  1.4999  -0.0174552  -0.0157856  0.000333856  -0.0012226  -0.0021677  -0.0041958  0  0  0  0.0786226  0.0688803  -0.127786  0.0119471  -0.0174785  -0.0192706  0.00422716  0.0249569  -0.000566786  0.0206886  -0.00046635  -0.0113486  0.0308446  0.051071  0.0309444 
1701769593.426169000  0  0  11.6927  -0.135436  -0.0172355  0.00691155  nan  nan  nan  nan  nan  nan  -2.0002  -1.00025  1.49987  -0.0193163  -0.0141151  0.000342775  -0.0007951  -0.0017889  -0.0048691  0  0  0  0.0924976  0.0827553  -0.141661  0.0119697  -0.017491  -0.0192596  0.00370099  0.0244684  0.00277386  0.0231173  -0.00187763  -0.0112963  0.0581925  0.0517452  0.0265687 
1701769593.430141000  0  0  11.6917  -0.121535  -0.0350657  0.00622991  nan  nan  nan  nan  nan  nan  -2.00021  -1.00026  1.49985  -0.0206095  -0.0122385  0.000335958  -0.0002963  -0.0013388  -0.0056136  0  0  0  0.107123  0.0973803  -0.156286  0.0119919  -0.0173887  -0.019267  0.00310276  0.0244511  0.00142538  0.02423  -0.00300654  -0.0111183  0.0201537  0.0977917  0.0333089 
1701769593.436177000  0  0  11.6921  -0.116753  -0.043079  0.00604623  nan  nan  nan  nan  nan  nan  -2.00021  -1.00027  1.49982  -0.0229448  -0.0102112  0.00033373  0.0002774  -0.0008138  -0.0064332  0  0  0  0.122498  0.112755  -0.171661  0.0120183  -0.017387  -0.0193038  0.00239869  0.0233965  -4.61991e-05  0.0262924  -0.00404419  -0.0109495  -0.00838341  0.123365  0.0339172 
1701769593.441183000  0  0  11.6399  -0.134668  -0.030752  0.0061686  nan  nan  nan  nan  nan  nan  -2.0002  -1.00027  1.49978  -0.0251479  -0.00819651  0.000323467  0.0009299  -0.00021  -0.0073315  0  0  0  0.138623  0.12888  -0.187786  0.0120395  -0.0174062  -0.0192983  0.00177094  0.0228032  0.00269376  0.0286984  -0.0055665  -0.0108588  0.00531003  0.112716  0.0314808 
1701769593.445280000  0  0  11.6442  -0.105983  -0.0546359  0.00514824  nan  nan  nan  nan  nan  nan  -2.0002  -1.00027  1.49974  -0.0267555  -0.00596754  0.000297402  0.0016649  0.0004762  -0.0083123  0  0  0  0.155498  0.145755  -0.204661  0.0120515  -0.017311  -0.0193031  0.00104461  0.0226778  0.000698268  0.0296027  -0.00666944  -0.0106045  -0.0603784  0.170631  0.0416923 
1701769593.451276000  0  0  11.6086  -0.118896  -0.0485605  0.00526271  nan  nan  nan  nan  nan  nan  -2.00019  -1.00027  1.4997  -0.0290583  -0.00366798  0.000267315  0.0024861  0.0012488  -0.0093793  0  0  0  0.173123  0.16338  -0.222286  0.0120604  -0.0173026  -0.0193377  0.000312158  0.0220685  0.00201129  0.0316018  -0.00788741  -0.0104011  -0.0529459  0.169685  0.0382271 
1701769593.455180000  0  0  11.5673  -0.125254  -0.0383431  0.00560399  nan  nan  nan  nan  nan  nan  -2.00017  -1.00026  1.49965  -0.0312714  -0.00103389  0.000219042  0.0033973  0.0021113  -0.0105364  0  0  0  0.191498  0.181755  -0.240661  0.0120508  -0.0172215  -0.0193104  -0.000695856  0.0215471  0.00359501  0.0335829  -0.00986929  -0.0103027  -0.0584548  0.167484  0.0329774 
1701769593.461179000  0  0  11.5859  -0.100264  -0.0568622  0.00460904  nan  nan  nan  nan  nan  nan  -2.00015  -1.00024  1.49959  -0.0333442  0.00156413  0.000163626  0.0044023  0.0030676  -0.0117872  0  0  0  0.210623  0.20088  -0.259786  0.0120542  -0.0172126  -0.0193733  -0.00157658  0.0212632  0.000353523  0.0345371  -0.0108233  -0.00997245  -0.117213  0.213299  0.0421115 
1701769593.466186000  0  0  11.5639  -0.111744  -0.0433719  0.00454978  nan  nan  nan  nan  nan  nan  -2.00013  -1.00023  1.49953  -0.0359856  0.00422922  9.58435e-05  0.0055048  0.0041213  -0.0131355  0  0  0  0.230498  0.220755  -0.279661  0.0120605  -0.017216  -0.0194108  -0.00244579  0.020522  0.000342985  0.0366285  -0.0125118  -0.00977152  -0.113495  0.201852  0.040843 
1701769593.471153000  0  0  11.5196  -0.10197  -0.0371782  0.00414306  nan  nan  nan  nan  nan  nan  -2.0001  -1.0002  1.49946  -0.0382645  0.00739317  8.6898e-07  0.0067086  0.0052764  -0.0145851  0  0  0  0.251123  0.24138  -0.300286  0.0120443  -0.0171208  -0.0193924  -0.00377808  0.0202322  0.00201433  0.0379948  -0.0145953  -0.00950543  -0.145613  0.208633  0.0432661 
1701769593.476192000  0  0  11.5114  -0.0948449  -0.0351699  0.00448455  nan  nan  nan  nan  nan  nan  -2.00006  -1.00017  1.49939  -0.04111  0.0102994  -0.000100341  0.0080173  0.0065364  -0.0161396  0  0  0  0.272498  0.262755  -0.321661  0.0120375  -0.0171312  -0.0194583  -0.00471663  0.0194092  0.000809126  0.0397374  -0.016235  -0.00934269  -0.175895  0.219702  0.03737 
1701769593.481179000  0  0  11.4781  -0.102939  -0.017655  0.0049873  nan  nan  nan  nan  nan  nan  -2.00002  -1.00014  1.4993  -0.0440655  0.0134394  -0.000226079  0.0094348  0.0079052  -0.0178029  0  0  0  0.294623  0.28488  -0.343786  0.0120332  -0.0171356  -0.019494  -0.00582193  0.0186566  0.00155347  0.0417879  -0.0184179  -0.00922253  -0.178571  0.204755  0.029884 
1701769593.486185000  0  0  11.4472  -0.0906767  -0.0112639  0.00452807  nan  nan  nan  nan  nan  nan  -1.99997  -1.00009  1.49921  -0.0465608  0.0169825  -0.000377653  0.0109648  0.0093864  -0.0195787  0  0  0  0.317498  0.307755  -0.366661  0.0120011  -0.0170478  -0.0194896  -0.00726419  0.0183935  0.00196978  0.042988  -0.0208206  -0.00898609  -0.214136  0.214078  0.03326 
1701769593.491183000  0  0  11.4043  -0.0910608  0.00443114  0.00488393  nan  nan  nan  nan  nan  nan  -1.99991  -1.00004  1.4991  -0.0495298  0.0206523  -0.000558969  0.012611  0.010984  -0.0214708  0  0  0  0.341123  0.33138  -0.390286  0.0119608  -0.0169575  -0.0194652  -0.00870279  0.0177039  0.00327961  0.0447127  -0.0234649  -0.00883424  -0.229235  0.207015  0.0272933 
1701769593.496176000  0  0  11.3821  -0.107021  0.0230363  0.0053105  nan  nan  nan  nan  nan  nan  -1.99984  -0.999984  1.49899  -0.0526427  0.0241861  -0.000754172  0.0143772  0.0127015  -0.0234829  0  0  0  0.365498  0.355755  -0.414661  0.0119364  -0.0169708  -0.0195128  -0.00993137  0.0170664  0.00293477  0.0468435  -0.0260937  -0.00873524  -0.216919  0.19399  0.0209711 
1701769593.501182000  0  0  11.3574  -0.0990008  0.0223694  0.00492678  nan  nan  nan  nan  nan  nan  -1.99976  -0.999916  1.49887  -0.0557871  0.0280846  -0.00098838  0.0162672  0.0145428  -0.0256187  0  0  0  0.390623  0.38088  -0.439786  0.0118805  -0.0168878  -0.019508  -0.0114312  0.0163064  0.00265972  0.048543  -0.0287025  -0.00851299  -0.248594  0.219324  0.0235451 
1701769593.506169000  0  0  11.3146  -0.117655  0.0332129  0.00510491  nan  nan  nan  nan  nan  nan  -1.99968  -0.999838  1.49874  -0.0602847  0.0319172  -0.00128233  0.0182847  0.0165116  -0.027882  0  0  0  0.416498  0.406755  -0.465661  0.0118765  -0.0170154  -0.019595  -0.0127884  0.0145431  0.00402159  0.0518583  -0.0312951  -0.00835885  -0.241786  0.221489  0.0197772 
1701769593.511178000  0  0  11.2954  -0.129921  0.0397158  0.00467896  nan  nan  nan  nan  nan  nan  -1.99958  -0.99975  1.49859  -0.0634617  0.0359661  -0.00157264  0.0204335  0.0186116  -0.0302763  0  0  0  0.443123  0.43338  -0.492044  0.0118082  -0.0169416  -0.0195854  -0.0142347  0.0139653  0.00317437  0.0539173  -0.0340946  -0.00812462  -0.236198  0.234238  0.0227592 
1701769593.516178000  0  0  11.2677  -0.121347  0.0313044  0.00386047  nan  nan  nan  nan  nan  nan  -1.99947  -0.999652  1.49843  -0.0670771  0.0402174  -0.00191538  0.0227172  0.0208466  -0.0328013  0  0  0  0.470498  0.460755  -0.517817  0.011733  -0.0168732  -0.0195711  -0.0157723  0.0130289  0.00313551  0.0559198  -0.0366754  -0.00779061  -0.271768  0.274805  0.0296502 
1701769593.521182000  0  0  11.2272  -0.138609  0.0384582  0.00423574  nan  nan  nan  nan  nan  nan  -1.99935  -0.999542  1.49826  -0.0709317  0.0446861  -0.00231052  0.0251397  0.0232204  -0.0354532  0  0  0  0.498623  0.48888  -0.542839  0.0116514  -0.0168099  -0.0195493  -0.0173882  0.0120266  0.00422357  0.0585423  -0.0395795  -0.0075584  -0.261371  0.287215  0.0226373 
1701769593.526184000  0  0  11.2097  -0.14784  0.0407685  0.0049071  nan  nan  nan  nan  nan  nan  -1.99922  -0.999419  1.49808  -0.0752831  0.0487488  -0.00272944  0.0277047  0.0257367  -0.0382284  0  0  0  0.527498  0.517755  -0.567112  0.0116375  -0.016867  -0.0195774  -0.018643  0.010615  0.00359904  0.0615321  -0.0419989  -0.00744198  -0.270416  0.304853  0.0130811 
1701769593.531174000  0  0  11.2058  -0.137801  0.0229487  0.00459241  nan  nan  nan  nan  nan  nan  -1.99908  -0.999284  1.49788  -0.0790791  0.0532193  -0.00318191  0.0304159  0.0283992  -0.0411231  0  0  0  0.557123  0.54738  -0.590635  0.011548  -0.0168144  -0.0195759  -0.0202057  0.00965715  0.00192411  0.0634995  -0.0442483  -0.00716852  -0.308593  0.361187  0.01428 
1701769593.536171000  0  0  11.1568  -0.158964  0.0242175  0.00414255  nan  nan  nan  nan  nan  nan  -1.99892  -0.999135  1.49767  -0.0842031  0.0575746  -0.00373113  0.0332772  0.0312117  -0.0441335  0  0  0  0.587498  0.577755  -0.613407  0.0115096  -0.0168807  -0.0195864  -0.0213668  0.00783039  0.00410567  0.0671942  -0.0465514  -0.00685082  -0.30026  0.379838  0.0167264 
1701769593.541177000  0  0  11.1534  -0.161081  0.0190757  0.00389531  nan  nan  nan  nan  nan  nan  -1.99874  -0.998972  1.49744  -0.0887216  0.0620588  -0.00429404  0.0362921  0.034178  -0.0472559  0  0  0  0.618623  0.60888  -0.63543  0.0114453  -0.0169457  -0.0196351  -0.0228015  0.00646301  0.00269305  0.0699613  -0.0487625  -0.006545  -0.321482  0.410464  0.0167587 
1701769593.546181000  0  0  11.1541  -0.150566  0.000114652  0.00355929  nan  nan  nan  nan  nan  nan  -1.99855  -0.998793  1.49719  -0.0929664  0.0667342  -0.00489248  0.0394646  0.0373018  -0.0504865  0  0  0  0.650498  0.640755  -0.656702  0.0113304  -0.0169149  -0.0196341  -0.0242927  0.00529457  0.00098216  0.0720733  -0.0506932  -0.00617455  -0.361943  0.466148  0.0172544 
1701769593.551180000  0  0  11.095  -0.168605  0.00455482  0.00428862  nan  nan  nan  nan  nan  nan  -1.99835  -0.998598  1.49693  -0.0985852  0.0713384  -0.00561798  0.0427984  0.0405868  -0.0538217  0  0  0  0.683123  0.67338  -0.677225  0.0112677  -0.0170047  -0.0196478  -0.0252656  0.00344243  0.00436507  0.07584  -0.0528014  -0.00588252  -0.360519  0.476664  0.00521737 
1701769593.556161000  0  0  11.1068  -0.163174  -0.0105869  0.00430325  nan  nan  nan  nan  nan  nan  -1.99812  -0.998387  1.49666  -0.102576  0.0763585  -0.0063087  0.0462971  0.0440368  -0.0572575  0  0  0  0.716498  0.706755  -0.696998  0.0111298  -0.016984  -0.0196606  -0.0270171  0.00272657  0.00196772  0.0776903  -0.0548942  -0.0055852  -0.388403  0.5262  0.00206145 
1701769593.561183000  0  0  11.1049  -0.149327  -0.026383  0.00416675  nan  nan  nan  nan  nan  nan  -1.99788  -0.998158  1.49636  -0.107823  0.0808858  -0.00708512  0.0499643  0.0476554  -0.0607904  0  0  0  0.750312  0.740692  -0.71602  0.0110534  -0.0170768  -0.0197057  -0.0281427  0.000948237  0.000961143  0.0802618  -0.0561987  -0.00521751  -0.439754  0.569794  9.07488e-05 
1701769593.566180000  0  0  11.0539  -0.165175  -0.01753  0.00474158  nan  nan  nan  nan  nan  nan  -1.99762  -0.99791  1.49605  -0.113407  0.0856169  -0.00795711  0.053799  0.0514426  -0.0644165  0  0  0  0.783471  0.774066  -0.734293  0.011  -0.0171747  -0.0197178  -0.0292073  -0.000682398  0.00402568  0.0835806  -0.058087  -0.00491756  -0.438591  0.56946  -0.0100942 
1701769593.571185000  0  0  11.0674  -0.149157  -0.0328134  0.00416808  nan  nan  nan  nan  nan  nan  -1.99735  -0.997643  1.49572  -0.117568  0.090391  -0.00875272  0.0577977  0.0553948  -0.0681321  0  0  0  0.81588  0.806689  -0.751815  0.0108609  -0.0171762  -0.0197246  -0.0308039  -0.00163534  0.00187148  0.0849644  -0.0595437  -0.00454975  -0.483359  0.613429  -0.00660354 
1701769593.576335000  0  0  11.0549  -0.128722  -0.0454682  0.003654  nan  nan  nan  nan  nan  nan  -1.99705  -0.997356  1.49537  -0.122556  0.0946299  -0.00959778  0.0619566  0.0595083  -0.0719334  0  0  0  0.847539  0.838563  -0.768588  0.0108158  -0.0172712  -0.0198024  -0.031795  -0.00314224  0.00218247  0.0866606  -0.060217  -0.00416495  -0.539833  0.644933  -0.00402549 
1701769593.581157000  0  0  11.0176  -0.140334  -0.0275658  0.00355395  nan  nan  nan  nan  nan  nan  -1.99673  -0.997048  1.495  -0.127388  0.0998286  -0.0105878  0.0662719  0.0637792  -0.0758167  0  0  0  0.878448  0.869686  -0.784611  0.0106495  -0.017297  -0.0197634  -0.0335349  -0.00432882  0.0043462  0.0888519  -0.062542  -0.00375226  -0.536769  0.630518  -0.0069018 
1701769593.586133000  0  0  11.0221  -0.124786  -0.0277095  0.00328351  nan  nan  nan  nan  nan  nan  -1.99638  -0.996718  1.49461  -0.131972  0.104587  -0.0115396  0.0707398  0.0682039  -0.0797783  0  0  0  0.908607  0.90006  -0.799883  0.0105275  -0.0173937  -0.0198335  -0.0353634  -0.0057018  0.00344195  0.0901039  -0.0640044  -0.00335445  -0.579383  0.644259  -0.0074994 
1701769593.591177000  0  0  11.0035  -0.100781  -0.0351008  0.00257456  nan  nan  nan  nan  nan  nan  -1.99602  -0.996365  1.4942  -0.136677  0.108825  -0.0124732  0.0753567  0.0727786  -0.0838143  0  0  0  0.938016  0.929683  -0.814406  0.0104164  -0.017484  -0.0198859  -0.0363911  -0.00697539  0.00454989  0.0910297  -0.0647137  -0.00289579  -0.63591  0.665568  -0.00322408 
1701769593.596160000  0  0  10.9779  -0.099507  -0.02275  0.00291499  nan  nan  nan  nan  nan  nan  -1.99563  -0.99599  1.49377  -0.141044  0.113723  -0.0134974  0.0801187  0.0774995  -0.0879211  0  0  0  0.966675  0.958557  -0.828179  0.0102308  -0.0175181  -0.0198537  -0.0380664  -0.00790808  0.00613016  0.0919871  -0.0664891  -0.00255027  -0.647268  0.6572  -0.0109348 
1701769593.601183000  0  0  11.0016  -0.0729571  -0.0312041  0.00325356  nan  nan  nan  nan  nan  nan  -1.99522  -0.99559  1.49332  -0.144528  0.118142  -0.0143846  0.0850222  0.0823629  -0.0920948  0  0  0  0.994584  0.98668  -0.841201  0.0101098  -0.0175962  -0.019962  -0.0399828  -0.00851347  0.00404626  0.0914821  -0.0673369  -0.00232688  -0.695721  0.681907  -0.0174008 
1701769593.605187000  0  0  10.9861  -0.0719885  -0.0218122  0.00385548  nan  nan  nan  nan  nan  nan  -1.99478  -0.995166  1.49285  -0.149804  0.12325  -0.0156256  0.0900633  0.087365  -0.0963318  0  0  0  1.02174  1.01405  -0.853474  0.00986076  -0.01772  -0.0198539  -0.042134  -0.010656  0.00484956  0.0935846  -0.0697464  -0.0019678  -0.717001  0.685292  -0.0285155 
1701769593.611153000  0  0  10.9931  -0.0645081  -0.020299  0.00461945  nan  nan  nan  nan  nan  nan  -1.99432  -0.994716  1.49236  -0.15291  0.126643  -0.0163711  0.0952384  0.0925022  -0.100628  0  0  0  1.04815  1.04068  -0.864996  0.00981761  -0.017737  -0.019995  -0.0429142  -0.0108582  0.00441322  0.0922442  -0.0692287  -0.00197841  -0.719631  0.677502  -0.0379591 
1701769593.616157000  0  0  11.0143  -0.0496078  -0.0284527  0.0037951  nan  nan  nan  nan  nan  nan  -1.99383  -0.994241  1.49184  -0.156454  0.131172  -0.0173698  0.100544  0.0977706  -0.104981  0  0  0  1.07381  1.06655  -0.875769  0.00959755  -0.0177904  -0.0199868  -0.0450556  -0.0118217  0.00261503  0.0917754  -0.0701458  -0.00166772  -0.745118  0.702247  -0.0307615 
1701769593.621183000  0  0  10.9877  -0.0484831  -0.0156617  0.00332383  nan  nan  nan  nan  nan  nan  -1.99331  -0.993738  1.49131  -0.161152  0.135098  -0.0184599  0.105975  0.103166  -0.109385  0  0  0  1.09872  1.09167  -0.885792  0.00947384  -0.0179133  -0.0200025  -0.0460969  -0.0133037  0.00492593  0.0924022  -0.0708358  -0.0013119  -0.753135  0.683012  -0.0284289 
1701769593.626105000  0  0  11.0065  -0.0539679  -0.0130807  0.00370738  nan  nan  nan  nan  nan  nan  -1.99277  -0.993209  1.49075  -0.164843  0.138981  -0.0194338  0.11153  0.108686  -0.113837  0  0  0  1.12288  1.11605  -0.895064  0.00932187  -0.018026  -0.0200703  -0.0477787  -0.014474  0.00362122  0.0923214  -0.0714434  -0.00113947  -0.741421  0.683441  -0.0349476 
1701769593.631153000  0  0  11.0145  -0.0354486  -0.0265606  0.00386062  nan  nan  nan  nan  nan  nan  -1.99219  -0.992651  1.49017  -0.16824  0.143241  -0.0204533  0.117203  0.114326  -0.118334  0  0  0  1.14629  1.13967  -0.903587  0.0090749  -0.0180924  -0.020064  -0.0496359  -0.0152597  0.00322129  0.0914932  -0.0719379  -0.000958547  -0.77084  0.71495  -0.0386723 
1701769593.636179000  0  0  11.0114  -0.0439941  -0.0119439  0.00398775  nan  nan  nan  nan  nan  nan  -1.99159  -0.992065  1.48957  -0.172405  0.147011  -0.0215308  0.122991  0.120082  -0.122872  0  0  0  1.16895  1.16254  -0.911359  0.00889723  -0.0181984  -0.0201476  -0.0510035  -0.0167946  0.00398108  0.0917369  -0.0724862  -0.000738902  -0.755991  0.690761  -0.0424579 
1701769593.641183000  0  0  11.0598  -0.048481  -0.0166313  0.00358859  nan  nan  nan  nan  nan  nan  -1.99096  -0.99145  1.48894  -0.17538  0.150515  -0.0224064  0.128891  0.12595  -0.127446  0  0  0  1.19086  1.18467  -0.918382  0.00871043  -0.0183029  -0.0202408  -0.0529362  -0.017971  0.000548777  0.0909533  -0.0725255  -0.000593926  -0.739808  0.700497  -0.0389181 
1701769593.646133000  0  0  11.0479  -0.0416026  -0.0256149  0.00255384  nan  nan  nan  nan  nan  nan  -1.99031  -0.990806  1.48829  -0.179059  0.154769  -0.0235453  0.134898  0.131927  -0.132054  0  0  0  1.21202  1.20604  -0.924655  0.00845014  -0.018396  -0.0202132  -0.0547632  -0.018922  0.00202342  0.0906596  -0.0731344  -0.00020352  -0.750863  0.724067  -0.0298878 
1701769593.651192000  0  0  11.0504  -0.0589064  -0.0180533  0.00264523  nan  nan  nan  nan  nan  nan  -1.98962  -0.990131  1.48762  -0.18278  0.158438  -0.0246135  0.14101  0.138009  -0.136692  0  0  0  1.23242  1.22667  -0.930177  0.00818187  -0.0184878  -0.0202074  -0.0562009  -0.0203211  0.00237435  0.0908243  -0.0734074  6.58688e-05  -0.717771  0.711454  -0.033724 
1701769593.655154000  0  0  11.0962  -0.0680447  -0.01296  0.00260935  nan  nan  nan  nan  nan  nan  -1.98889  -0.989425  1.48692  -0.187043  0.162404  -0.0258526  0.147221  0.144192  -0.141355  0  0  0  1.25208  1.24654  -0.93495  0.00784118  -0.0187598  -0.0201472  -0.0587899  -0.0229409  -0.000828964  0.0920572  -0.0746668  0.000441391  -0.710836  0.712855  -0.0370307 
1701769593.661185000  0  0  11.0799  -0.0516686  -0.0392504  0.00204529  nan  nan  nan  nan  nan  nan  -1.98814  -0.988689  1.48621  -0.189323  0.165118  -0.0265477  0.153529  0.150473  -0.14604  0  0  0  1.27099  1.26566  -0.938973  0.00771269  -0.0187947  -0.0203137  -0.0590921  -0.0225296  0.00157742  0.0896975  -0.0726886  0.000585281  -0.72188  0.747236  -0.0314189 
1701769593.666107000  0  0  11.075  -0.0612653  -0.031927  0.00220811  nan  nan  nan  nan  nan  nan  -1.98736  -0.98792  1.48546  -0.193341  0.168267  -0.0276377  0.15993  0.156848  -0.150743  0  0  0  1.28915  1.28404  -0.942245  0.00746623  -0.018959  -0.0203815  -0.0601136  -0.0242548  0.00295199  0.0901098  -0.072494  0.000870851  -0.706479  0.730799  -0.0363099 
1701769593.671184000  0  0  11.1492  -0.0643463  -0.0408239  0.00240238  nan  nan  nan  nan  nan  nan  -1.98654  -0.98712  1.4847  -0.195266  0.171178  -0.0283348  0.16642  0.163312  -0.155461  0  0  0  1.30656  1.30166  -0.944768  0.00716151  -0.0190705  -0.0204351  -0.0622128  -0.0253504  -0.00223335  0.0885954  -0.0716745  0.000878627  -0.686385  0.741053  -0.038816 
1701769593.676177000  0  0  11.1185  -0.0610579  -0.0562145  0.00192397  nan  nan  nan  nan  nan  nan  -1.9857  -0.986287  1.48391  -0.198889  0.174376  -0.0294037  0.172995  0.169863  -0.16019  0  0  0  1.32322  1.31853  -0.94654  0.00690477  -0.0192353  -0.0204601  -0.0629525  -0.0262179  0.00134753  0.088526  -0.0709625  0.00121195  -0.692323  0.765284  -0.0361692 
1701769593.680177000  0  0  11.0914  -0.0801341  -0.0397074  0.00205195  nan  nan  nan  nan  nan  nan  -1.98481  -0.985421  1.4831  -0.203752  0.178642  -0.0309397  0.179651  0.176496  -0.164925  0  0  0  1.33913  1.33466  -0.947563  0.00646913  -0.0195169  -0.0202776  -0.064903  -0.0284185  0.00436412  0.090572  -0.0725864  0.00169515  -0.672995  0.747209  -0.0426009 
1701769593.686162000  0  0  11.1924  -0.0678066  -0.0632494  0.00266717  nan  nan  nan  nan  nan  nan  -1.9839  -0.984522  1.48226  -0.204037  0.179448  -0.0309464  0.186385  0.183208  -0.169664  0  0  0  1.35429  1.35003  -0.947836  0.00633523  -0.0195601  -0.0205758  -0.0655196  -0.0287315  -0.00248443  0.086946  -0.0688149  0.00130805  -0.66429  0.759596  -0.0464202 
1701769593.691181000  0  0  11.1738  -0.0590105  -0.0762311  0.00266094  nan  nan  nan  nan  nan  nan  -1.98295  -0.983589  1.4814  -0.207134  0.182124  -0.0318633  0.193192  0.189995  -0.174402  0  0  0  1.3687  1.36465  -0.947358  0.00605127  -0.0197505  -0.0206417  -0.0660415  -0.0294574  0.000343408  0.0863495  -0.0675868  0.00147415  -0.676395  0.774261  -0.0480032 
1701769593.696182000  0  0  11.1591  -0.067648  -0.0660486  0.00267923  nan  nan  nan  nan  nan  nan  -1.98197  -0.982622  1.48052  -0.210131  0.184815  -0.0327801  0.20007  0.196854  -0.179137  0  0  0  1.38236  1.37853  -0.946131  0.0057279  -0.0198981  -0.0206245  -0.0666714  -0.0303308  0.00270502  0.0860481  -0.0668636  0.00161742  -0.656346  0.747242  -0.0496646 
1701769593.701159000  0  0  11.2332  -0.0545995  -0.088539  0.00244039  nan  nan  nan  nan  nan  nan  -1.98095  -0.98162  1.47961  -0.211661  0.186874  -0.0332938  0.207015  0.203779  -0.183863  0  0  0  1.39527  1.39165  -0.944153  0.00541528  -0.0201131  -0.0207254  -0.0683871  -0.0314385  -0.00195734  0.0840892  -0.0649598  0.00157784  -0.664421  0.774708  -0.0462832 
1701769593.706110000  0  0  11.2187  -0.0479899  -0.0973671  0.00251998  nan  nan  nan  nan  nan  nan  -1.9799  -0.980584  1.47868  -0.214141  0.189535  -0.0341277  0.214022  0.210769  -0.188577  0  0  0  1.40742  1.40402  -0.941426  0.00507278  -0.0202746  -0.0207003  -0.0691066  -0.0318437  0.000510814  0.0830777  -0.0637784  0.00166768  -0.668335  0.781496  -0.0481766 
1701769593.711180000  0  0  11.2154  -0.0574253  -0.0840622  0.00304492  nan  nan  nan  nan  nan  nan  -1.97881  -0.979513  1.47772  -0.216628  0.191085  -0.034736  0.221088  0.217818  -0.193276  0  0  0  1.41883  1.41565  -0.937949  0.00481115  -0.0204911  -0.0207246  -0.0689383  -0.0325757  0.00207489  0.0823645  -0.0620209  0.00162372  -0.642902  0.738717  -0.0542988 
1701769593.716177000  0  0  11.2836  -0.0384449  -0.105425  0.00186708  nan  nan  nan  nan  nan  nan  -1.97769  -0.978406  1.47674  -0.217946  0.192738  -0.0351399  0.228209  0.224924  -0.197955  0  0  0  1.42949  1.42652  -0.933721  0.00449196  -0.0207344  -0.0208229  -0.0703315  -0.0335889  -0.00194246  0.0801498  -0.0598122  0.00165736  -0.660489  0.761123  -0.0399121 
1701769593.721183000  0  0  11.2541  -0.0327845  -0.101268  0.00163572  nan  nan  nan  nan  nan  nan  -1.97653  -0.977263  1.47574  -0.220167  0.194978  -0.0358589  0.235381  0.232082  -0.202612  0  0  0  1.4394  1.43664  -0.928744  0.00414665  -0.0208967  -0.0207968  -0.0704644  -0.0336374  0.0018547  0.0789136  -0.0585424  0.00176645  -0.660436  0.741127  -0.0381111 
1701769593.726179000  0  0  11.262  -0.0329943  -0.0917448  0.0024291  nan  nan  nan  nan  nan  nan  -1.97533  -0.976085  1.47472  -0.222137  0.196589  -0.0363975  0.242602  0.239289  -0.207241  0  0  0  1.44856  1.44602  -0.923017  0.0038383  -0.0211463  -0.0208297  -0.0707864  -0.0342234  0.00270031  0.0776463  -0.0570004  0.00168904  -0.648357  0.707893  -0.0472542 
1701769593.730186000  0  0  11.2989  -0.0249888  -0.0932957  0.00243437  nan  nan  nan  nan  nan  nan  -1.9741  -0.97487  1.47367  -0.224628  0.19984  -0.037416  0.249866  0.246541  -0.21184  0  0  0  1.45697  1.45464  -0.916539  0.00330142  -0.0215266  -0.0206335  -0.0734895  -0.0358039  0.00107599  0.0771986  -0.0574634  0.0018395  -0.660249  0.715254  -0.0488245 
1701769593.736175000  0  0  11.282  -0.0199095  -0.0911848  0.00363597  nan  nan  nan  nan  nan  nan  -1.97283  -0.973619  1.4726  -0.225056  0.1999  -0.0372998  0.25717  0.253834  -0.216405  0  0  0  1.46463  1.46251  -0.909312  0.00315239  -0.0215859  -0.0208401  -0.0717085  -0.0346781  0.00406966  0.0739106  -0.0536866  0.00133727  -0.640159  0.676287  -0.0588224 
1701769593.741180000  0  0  11.2962  -0.0214984  -0.0880348  0.00449521  nan  nan  nan  nan  nan  nan  -1.97153  -0.972332  1.47151  -0.226248  0.201332  -0.0376514  0.264511  0.261165  -0.220932  0  0  0  1.47154  1.46964  -0.901334  0.00282445  -0.0218283  -0.0208393  -0.0721573  -0.0348119  0.00441174  0.0720836  -0.0520807  0.00102894  -0.620172  0.655212  -0.0664795 
1701769593.746181000  0  0  11.3308  -0.00957007  -0.0984687  0.00451436  nan  nan  nan  nan  nan  nan  -1.97019  -0.971008  1.47039  -0.226949  0.202671  -0.0378817  0.271884  0.26853  -0.225417  0  0  0  1.4777  1.47601  -0.892607  0.00246143  -0.0220039  -0.0208316  -0.0729378  -0.0351037  0.00312371  0.069639  -0.0500896  0.000715843  -0.621538  0.657762  -0.0635879 
1701769593.751157000  0  0  11.2787  -0.0273447  -0.0749913  0.00467719  nan  nan  nan  nan  nan  nan  -1.96881  -0.969647  1.46925  -0.229088  0.204267  -0.0384783  0.279286  0.275924  -0.229857  0  0  0  1.48311  1.48164  -0.88313  0.00210987  -0.0222861  -0.0207993  -0.0723014  -0.0348587  0.00895324  0.069026  -0.0492132  0.000643513  -0.58035  0.602744  -0.0649 
1701769593.755163000  0  0  11.2975  -0.038491  -0.0635925  0.00416834  nan  nan  nan  nan  nan  nan  -1.96739  -0.968248  1.46809  -0.231504  0.206876  -0.0393752  0.286714  0.283345  -0.234248  0  0  0  1.48776  1.48651  -0.872902  0.00152838  -0.0227087  -0.0205501  -0.0742042  -0.0363711  0.00889061  0.0691947  -0.0497552  0.000763611  -0.559609  0.584933  -0.0597403 
1701769593.761160000  0  0  11.3411  -0.0165716  -0.0826076  0.00352343  nan  nan  nan  nan  nan  nan  -1.96594  -0.966813  1.46691  -0.230566  0.206264  -0.0388121  0.294163  0.290788  -0.238585  0  0  0  1.49167  1.49063  -0.861925  0.00136693  -0.0227435  -0.02078  -0.0733437  -0.035722  0.00708548  0.0649494  -0.0455415  0.000241986  -0.564392  0.584197  -0.0464627 
1701769593.766106000  0  0  11.3084  -0.0353768  -0.0637746  0.00369734  nan  nan  nan  nan  nan  nan  -1.96445  -0.965341  1.46571  -0.232193  0.207633  -0.0392592  0.301629  0.29825  -0.242866  0  0  0  1.49483  1.49401  -0.850197  0.00100393  -0.0230493  -0.0207026  -0.0730954  -0.0355944  0.0113475  0.0642374  -0.0447273  0.000152491  -0.52023  0.539041  -0.0477417 
1701769593.771158000  0  0  11.369  -0.0325027  -0.0651967  0.00365407  nan  nan  nan  nan  nan  nan  -1.96293  -0.963831  1.46448  -0.231856  0.207973  -0.0390446  0.30911  0.305727  -0.247086  0  0  0  1.49724  1.49663  -0.83772  0.000652534  -0.0232181  -0.0206912  -0.0737016  -0.0359317  0.00794106  0.0615828  -0.0425259  -0.000281118  -0.501557  0.521631  -0.0428646 
1701769593.776157000  0  0  11.3734  -0.0340108  -0.0702514  0.0035393  nan  nan  nan  nan  nan  nan  -1.96136  -0.962283  1.46324  -0.232959  0.208679  -0.039228  0.316601  0.313215  -0.251241  0  0  0  1.4989  1.4985  -0.824493  0.00028047  -0.0235221  -0.0206317  -0.0736129  -0.0363604  0.00925388  0.0602948  -0.0407801  -0.000406812  -0.486691  0.51568  -0.0401731 
1701769593.780162000  0  0  11.351  -0.0632941  -0.0435546  0.00403694  nan  nan  nan  nan  nan  nan  -1.95976  -0.960698  1.46197  -0.235175  0.210886  -0.0400082  0.324098  0.32071  -0.255329  0  0  0  1.49981  1.49963  -0.810515  -0.00032821  -0.0239796  -0.0203168  -0.0744832  -0.0370768  0.012573  0.0610145  -0.0415625  -0.000365945  -0.434745  0.469484  -0.0468023 
1701769593.786155000  0  0  11.4141  -0.0466471  -0.0605733  0.00444931  nan  nan  nan  nan  nan  nan  -1.95812  -0.959076  1.46068  -0.233065  0.209486  -0.0389984  0.331597  0.32821  -0.259345  0  0  0  1.5  1.5  -0.795788  -0.000484382  -0.0240113  -0.0205336  -0.0735397  -0.0361435  0.00909514  0.0566304  -0.0373431  -0.00120378  -0.427705  0.464703  -0.0435785 
1701769593.791162000  0  0  11.4147  -0.052693  -0.0603747  0.00488007  nan  nan  nan  nan  nan  nan  -1.95644  -0.957416  1.45938  -0.233972  0.209895  -0.0390725  0.339097  0.33571  -0.263286  0  0  0  1.5  1.5  -0.780311  -0.000869557  -0.0243415  -0.0204563  -0.0731726  -0.0364774  0.01076  0.0556494  -0.0357039  -0.00144452  -0.406588  0.449225  -0.0465557 
1701769593.796169000  0  0  11.3993  -0.0730099  -0.0462143  0.00637446  nan  nan  nan  nan  nan  nan  -1.95473  -0.955719  1.45805  -0.233382  0.210028  -0.0387538  0.346597  0.34321  -0.267147  0  0  0  1.5  1.5  -0.764083  -0.00122063  -0.0245103  -0.020377  -0.0720641  -0.0350232  0.0134353  0.0538153  -0.0340393  -0.00211859  -0.349081  0.40559  -0.0584949 
1701769593.801178000  0  0  11.4643  -0.0518173  -0.0699814  0.00636615  nan  nan  nan  nan  nan  nan  -1.95298  -0.953984  1.4567  -0.233447  0.210074  -0.0385588  0.354097  0.35071  -0.270926  0  0  0  1.5  1.5  -0.747106  -0.00162607  -0.0248516  -0.020342  -0.0726457  -0.0359614  0.0100275  0.0519028  -0.031816  -0.00251212  -0.373871  0.43267  -0.0544557 
1701769593.806119000  0  0  11.4735  -0.0574913  -0.0686771  0.00686111  nan  nan  nan  nan  nan  nan  -1.95119  -0.952212  1.45534  -0.234302  0.210415  -0.0386063  0.361597  0.35821  -0.274617  0  0  0  1.5  1.5  -0.729378  -0.00206449  -0.0252245  -0.0202476  -0.0722815  -0.0363721  0.0111457  0.0511555  -0.0303261  -0.00280603  -0.355648  0.416354  -0.0577036 
1701769593.811170000  0  0  11.4656  -0.076999  -0.0613264  0.00681611  nan  nan  nan  nan  nan  nan  -1.94936  -0.950402  1.45396  -0.233123  0.210276  -0.0380948  0.369097  0.36571  -0.278218  0  0  0  1.5  1.5  -0.710901  -0.00240592  -0.0253767  -0.0201862  -0.0709955  -0.0344714  0.0132985  0.0490396  -0.028394  -0.00344273  -0.297166  0.383877  -0.050774 
1701769593.816169000  0  0  11.5199  -0.0463222  -0.088386  0.00572638  nan  nan  nan  nan  nan  nan  -1.9475  -0.948555  1.45256  -0.233419  0.210051  -0.0378878  0.376597  0.37321  -0.281772  0  0  0  1.5  1.5  -0.710526  -0.00279377  -0.0257177  -0.0201238  -0.071035  -0.0354548  0.00904968  0.0473659  -0.0259452  -0.00361536  -0.343122  0.415468  -0.0354261 
1701769593.821158000  0  0  11.4875  -0.0583727  -0.0826575  0.00649082  nan  nan  nan  nan  nan  nan  -1.9456  -0.94667  1.45114  -0.233343  0.2102  -0.0376857  0.384097  0.38071  -0.285322  0  0  0  1.5  1.5  -0.709401  -0.00314112  -0.025891  -0.0200423  -0.0695953  -0.034186  0.0116743  0.0460345  -0.0242646  -0.00404771  -0.306772  0.388549  -0.0406582 
1701769593.826161000  0  0  11.4905  -0.0651077  -0.0853401  0.00701689  nan  nan  nan  nan  nan  nan  -1.94366  -0.944748  1.4497  -0.233348  0.210255  -0.0374797  0.391597  0.38821  -0.288865  0  0  0  1.5  1.5  -0.707526  -0.00355527  -0.026224  -0.0199723  -0.0687319  -0.0335559  0.0115585  0.044924  -0.0226054  -0.00444052  -0.283085  0.37865  -0.043306 
1701769593.830173000  0  0  11.5204  -0.0430648  -0.102333  0.00644299  nan  nan  nan  nan  nan  nan  -1.94168  -0.942788  1.44825  -0.234743  0.211721  -0.0379088  0.399097  0.39571  -0.292396  0  0  0  1.5  1.5  -0.704901  -0.00422999  -0.0267515  -0.0196651  -0.0698167  -0.0346777  0.00941287  0.0446157  -0.0222494  -0.00442146  -0.324335  0.409361  -0.0363228 
1701769593.836168000  0  0  11.5116  -0.0477254  -0.103781  0.00717146  nan  nan  nan  nan  nan  nan  -1.93967  -0.940791  1.44678  -0.232781  0.210004  -0.0368575  0.406597  0.40321  -0.295912  0  0  0  1.5  1.5  -0.701526  -0.0043035  -0.0267361  -0.0198621  -0.0670252  -0.0323456  0.0102857  0.0414034  -0.0183737  -0.00522299  -0.28546  0.376601  -0.0374133 
1701769593.841175000  0  0  11.5021  -0.0451551  -0.105462  0.00736815  nan  nan  nan  nan  nan  nan  -1.93761  -0.938756  1.44529  -0.233045  0.209949  -0.0366831  0.414097  0.41071  -0.29941  0  0  0  1.5  1.5  -0.697401  -0.00469927  -0.0270865  -0.0197358  -0.0657824  -0.031691  0.0112853  0.0404362  -0.0167165  -0.0055241  -0.281703  0.364716  -0.0368608 
1701769593.846128000  0  0  11.5373  -0.0140126  -0.12964  0.0074551  nan  nan  nan  nan  nan  nan  -1.93553  -0.936684  1.44379  -0.232028  0.209422  -0.0361188  0.421597  0.41821  -0.302885  0  0  0  1.5  1.5  -0.692526  -0.00503686  -0.0272648  -0.0196958  -0.0650296  -0.0310306  0.00869513  0.0376722  -0.0139864  -0.0060431  -0.318559  0.387955  -0.0327577 
1701769593.851157000  0  0  11.4861  -0.0438383  -0.0994275  0.00789201  nan  nan  nan  nan  nan  nan  -1.9334  -0.934574  1.44226  -0.232075  0.20949  -0.0359255  0.429097  0.42571  -0.306334  0  0  0  1.5  1.5  -0.686901  -0.00542641  -0.0275504  -0.0195922  -0.0629814  -0.0292242  0.0131505  0.0369529  -0.0129599  -0.0063865  -0.25229  0.318086  -0.0347851 
1701769593.856162000  0  0  11.4707  -0.0350723  -0.101419  0.00808489  nan  nan  nan  nan  nan  nan  -1.93123  -0.932426  1.44072  -0.231148  0.209142  -0.035424  0.436597  0.43321  -0.309753  0  0  0  1.5  1.5  -0.680526  -0.00574112  -0.0276903  -0.0195212  -0.0613464  -0.0275027  0.0146663  0.0349126  -0.0111049  -0.00691525  -0.251051  0.305003  -0.0319086 
1701769593.861179000  0  0  11.5325  -0.0213119  -0.108315  0.00744188  nan  nan  nan  nan  nan  nan  -1.92903  -0.930242  1.43917  -0.230482  0.208648  -0.0349469  0.444097  0.44071  -0.313138  0  0  0  1.5  1.5  -0.673401  -0.00612068  -0.0279942  -0.0194877  -0.061198  -0.027646  0.0102154  0.0329486  -0.00914787  -0.00724382  -0.260504  0.300791  -0.0205853 
1701769593.866124000  0  0  11.5032  -0.0433901  -0.083859  0.00757153  nan  nan  nan  nan  nan  nan  -1.92679  -0.928019  1.43759  -0.230878  0.20904  -0.0349052  0.451597  0.44821  -0.316486  0  0  0  1.5  1.5  -0.665526  -0.00653625  -0.0283404  -0.0193293  -0.060047  -0.0266402  0.0131475  0.032704  -0.00881659  -0.00743047  -0.214096  0.248831  -0.0203394 
1701769593.871173000  0  0  11.494  -0.0317991  -0.0811607  0.00831509  nan  nan  nan  nan  nan  nan  -1.92452  -0.92576  1.436  -0.229714  0.208307  -0.0342663  0.459097  0.45571  -0.319792  0  0  0  1.5  1.5  -0.656901  -0.00680413  -0.028447  -0.0192723  -0.0581633  -0.0249063  0.014278  0.0305775  -0.00698266  -0.00801668  -0.217715  0.226562  -0.0237719 
1701769593.876169000  0  0  11.5455  -0.0363424  -0.0734357  0.00886099  nan  nan  nan  nan  nan  nan  -1.9222  -0.923462  1.43439  -0.229256  0.208031  -0.0338871  0.466597  0.46321  -0.323053  0  0  0  1.5  1.5  -0.647526  -0.00718156  -0.0287639  -0.0191694  -0.0580726  -0.0249917  0.0107731  0.0293469  -0.00594358  -0.00844406  -0.197307  0.201552  -0.0263218 
1701769593.881152000  0  0  11.5304  -0.0494824  -0.055  0.0100678  nan  nan  nan  nan  nan  nan  -1.91985  -0.921127  1.43277  -0.228004  0.207769  -0.0333401  0.474097  0.47071  -0.326266  0  0  0  1.5  1.5  -0.637401  -0.00747198  -0.0288863  -0.0190908  -0.0566119  -0.0229287  0.0125181  0.0277435  -0.00510722  -0.00913035  -0.156275  0.156986  -0.0345439 
1701769593.886155000  0  0  11.5289  -0.0403906  -0.0477778  0.00969769  nan  nan  nan  nan  nan  nan  -1.91746  -0.918755  1.43113  -0.228102  0.20753  -0.0330923  0.481597  0.47821  -0.329426  0  0  0  1.5  1.5  -0.626526  -0.00785939  -0.0291914  -0.018972  -0.0553468  -0.0224059  0.01344  0.027037  -0.00441181  -0.00936875  -0.167959  0.136144  -0.0275337 
1701769593.891170000  0  0  11.5718  -0.0613656  -0.0429767  0.00914892  nan  nan  nan  nan  nan  nan  -1.91503  -0.916345  1.42948  -0.227609  0.207654  -0.0327998  0.489097  0.48571  -0.33253  0  0  0  1.5  1.5  -0.614901  -0.00824152  -0.0295  -0.0188686  -0.0555638  -0.0222166  0.0108758  0.0263336  -0.00411235  -0.00968073  -0.119538  0.123787  -0.0175541 
1701769593.896167000  0  0  11.5612  -0.0698194  -0.0230506  0.00945347  nan  nan  nan  nan  nan  nan  -1.91257  -0.913898  1.42781  -0.226565  0.206993  -0.0322124  0.496597  0.49321  -0.335574  0  0  0  1.5  1.5  -0.602526  -0.00850785  -0.0296067  -0.0187933  -0.0537628  -0.0205852  0.0124452  0.0251605  -0.00329183  -0.0101737  -0.0918377  0.076386  -0.0164315 
1701769593.901169000  0  0  11.5503  -0.0696098  -0.0251043  0.00911583  nan  nan  nan  nan  nan  nan  -1.91007  -0.911413  1.42612  -0.227009  0.206595  -0.0320074  0.504097  0.50071  -0.338554  0  0  0  1.5  1.5  -0.589401  -0.00886817  -0.029937  -0.0186332  -0.0521591  -0.0202151  0.0142624  0.025238  -0.0026851  -0.010285  -0.0929702  0.0749115  -0.0110976 
1701769593.906173000  0  0  11.6056  -0.0789224  -0.0343734  0.00901197  nan  nan  nan  nan  nan  nan  -1.90753  -0.908891  1.42442  -0.225076  0.205831  -0.0312102  0.511597  0.50821  -0.341467  0  0  0  1.5  1.5  -0.575526  -0.00913515  -0.030036  -0.018599  -0.0516973  -0.0191323  0.0106324  0.0234005  -0.00133265  -0.0108505  -0.0574399  0.0810071  -0.00414424 
1701769593.911167000  0  0  11.6048  -0.0933426  -0.0168754  0.00912567  nan  nan  nan  nan  nan  nan  -1.90495  -0.906331  1.42271  -0.224897  0.205413  -0.0308704  0.519097  0.51571  -0.344308  0  0  0  1.5  1.5  -0.560901  -0.00948422  -0.0303153  -0.0184784  -0.050298  -0.0183728  0.0117452  0.0233792  -0.00103667  -0.0110848  -0.0284036  0.0432881  -0.00322294 
1701769593.916164000  0  0  11.6192  -0.092083  -0.017762  0.00913496  nan  nan  nan  nan  nan  nan  -1.90234  -0.903734  1.42098  -0.22483  0.20498  -0.0305527  0.526597  0.52321  -0.347075  0  0  0  1.5  1.5  -0.545526  -0.0098533  -0.0305762  -0.0183813  -0.0491855  -0.0181567  0.0117888  0.0232676  -0.000500657  -0.0112586  -0.0298958  0.04013  -0.00160076 
1701769593.921167000  0  0  11.6995  -0.0959765  -0.0371735  0.0102743  nan  nan  nan  nan  nan  nan  -1.89969  -0.901099  1.41924  -0.222329  0.203917  -0.0295788  0.534097  0.53071  -0.349762  0  0  0  1.5  1.5  -0.529401  -0.0101044  -0.0306638  -0.0183729  -0.0489051  -0.0170093  0.0062514  0.0211162  0.0012053  -0.0120442  -0.00231569  0.0632582  -0.00798715 
1701769593.926121000  0  0  11.678  -0.0989006  -0.0309115  0.0109026  nan  nan  nan  nan  nan  nan  -1.897  -0.898427  1.41748  -0.222819  0.20378  -0.0294497  0.541597  0.53821  -0.352367  0  0  0  1.5  1.5  -0.512526  -0.0104753  -0.0309996  -0.0182005  -0.047381  -0.0164132  0.00930833  0.0217091  0.00132742  -0.0122468  -0.00192291  0.0496107  -0.0138141 
1701769593.930157000  0  0  11.6992  -0.103593  -0.0215036  0.0120858  nan  nan  nan  nan  nan  nan  -1.89427  -0.895717  1.41571  -0.223768  0.204609  -0.0296341  0.549097  0.54571  -0.354886  0  0  0  1.5  1.5  -0.494901  -0.0111938  -0.0315893  -0.0178223  -0.0473298  -0.0167392  0.00888436  0.0226374  0.000552827  -0.0124497  -0.00107712  0.0379212  -0.0265755 
1701769593.936168000  0  0  11.7933  -0.0946667  -0.0485905  0.0131776  nan  nan  nan  nan  nan  nan  -1.89151  -0.89297  1.41393  -0.219863  0.201926  -0.0280167  0.556597  0.55321  -0.357315  0  0  0  1.5  1.5  -0.476526  -0.0110529  -0.0313356  -0.018108  -0.0460381  -0.0150756  0.00247988  0.0192783  0.00384898  -0.0136123  0.0119727  0.0617704  -0.0285969 
1701769593.941180000  0  0  11.7534  -0.094049  -0.0417799  0.0130566  nan  nan  nan  nan  nan  nan  -1.8887  -0.890185  1.41214  -0.219898  0.201276  -0.0276843  0.564097  0.56071  -0.35965  0  0  0  1.5  1.5  -0.457401  -0.0113664  -0.0316005  -0.0179535  -0.0435441  -0.0137001  0.00706877  0.019505  0.00449181  -0.0138846  0.0086521  0.0422352  -0.0243616 
1701769593.946184000  0  0  11.8162  -0.0868003  -0.0505224  0.0127251  nan  nan  nan  nan  nan  nan  -1.88587  -0.887363  1.41034  -0.217922  0.199751  -0.0267445  0.571597  0.56821  -0.361888  0  0  0  1.5  1.5  -0.437526  -0.0115741  -0.0316691  -0.0179536  -0.0423466  -0.01279  0.00330497  0.0177645  0.00635696  -0.014475  0.0101673  0.0425608  -0.014314 
1701769593.951169000  0  0  11.8553  -0.0859928  -0.0627969  0.0124815  nan  nan  nan  nan  nan  nan  -1.88299  -0.884503  1.40852  -0.217445  0.199571  -0.0264127  0.579097  0.57571  -0.364024  0  0  0  1.5  1.5  -0.416901  -0.011937  -0.0319879  -0.0178431  -0.0420961  -0.0124754  0.00182712  0.0174645  0.00684958  -0.0147434  0.0113124  0.0625777  -0.00858417 
1701769593.955185000  0  0  11.8198  -0.0921008  -0.0454803  0.0120924  nan  nan  nan  nan  nan  nan  -1.88007  -0.881605  1.4067  -0.21883  0.200209  -0.0266472  0.586597  0.58321  -0.366056  0  0  0  1.5  1.5  -0.395526  -0.0126704  -0.0326027  -0.0174376  -0.0405216  -0.0119795  0.0062786  0.0188555  0.00613895  -0.0146375  0.0107312  0.0344822  -0.00477985 
1701769593.961185000  0  0  11.8886  -0.0734391  -0.0649589  0.0118127  nan  nan  nan  nan  nan  nan  -1.87712  -0.878671  1.40486  -0.215058  0.196927  -0.0249707  0.594097  0.59071  -0.367978  0  0  0  1.5  1.5  -0.373401  -0.0124142  -0.0322788  -0.0177104  -0.0380825  -0.00998662  0.00211687  0.0154358  0.00978639  -0.0154469  0.00486847  0.039883  0.00680959 
1701769593.966180000  0  0  11.9377  -0.0600475  -0.0792987  0.0118948  nan  nan  nan  nan  nan  nan  -1.87413  -0.875698  1.40302  -0.213036  0.19579  -0.0241281  0.601597  0.59821  -0.369788  0  0  0  1.5  1.5  -0.350526  -0.012611  -0.0323304  -0.0177146  -0.0370826  -0.00863768  -0.000201498  0.0134764  0.0114236  -0.015944  -0.00388806  0.0535001  0.0107553 
1701769593.971173000  0  0  11.8916  -0.065799  -0.0532666  0.0126623  nan  nan  nan  nan  nan  nan  -1.87111  -0.872689  1.40116  -0.213361  0.195389  -0.0239228  0.609097  0.60571  -0.371482  0  0  0  1.5  1.5  -0.326901  -0.0129599  -0.0326403  -0.017557  -0.0347381  -0.00737789  0.00542516  0.0139831  0.0113057  -0.0160982  0.00295354  0.00252118  0.002703 
1701769593.976170000  0  0  11.9918  -0.0681777  -0.0671945  0.0135083  nan  nan  nan  nan  nan  nan  -1.86804  -0.869641  1.3993  -0.212477  0.194885  -0.0234526  0.616597  0.61321  -0.373056  0  0  0  1.5  1.5  -0.302526  -0.0133156  -0.0329618  -0.0174914  -0.035364  -0.0079553  -0.000635591  0.0134166  0.0119174  -0.0164946  0.0129222  0.024749  -0.00390772 
1701769593.980172000  0  0  12.0341  -0.0702472  -0.0654369  0.0140802  nan  nan  nan  nan  nan  nan  -1.86494  -0.866556  1.39743  -0.213132  0.19575  -0.0235856  0.624097  0.62071  -0.374506  0  0  0  1.5  1.5  -0.277401  -0.014076  -0.0336106  -0.0171234  -0.0357153  -0.00827729  -0.0020422  0.0140831  0.0112064  -0.0166244  0.0109299  0.0277751  -0.00975834 
1701769593.986178000  0  0  11.9895  -0.0706222  -0.0435875  0.015769  nan  nan  nan  nan  nan  nan  -1.8618  -0.863434  1.39556  -0.210456  0.193004  -0.0222865  0.631597  0.62821  -0.375829  0  0  0  1.5  1.5  -0.251526  -0.0138298  -0.0332737  -0.0173785  -0.0314972  -0.00492799  0.00349035  0.0119983  0.0133064  -0.0175343  0.0308599  -0.0352436  -0.0217697 
1701769593.991182000  0  0  12.0748  -0.0676671  -0.0540438  0.0156942  nan  nan  nan  nan  nan  nan  -1.85862  -0.860274  1.39367  -0.209469  0.192342  -0.0217715  0.639097  0.63571  -0.37702  0  0  0  1.5  1.5  -0.224901  -0.0141105  -0.0335106  -0.0173024  -0.0317253  -0.00519709  -0.0012421  0.01137  0.0138873  -0.0179507  0.0307303  -0.019676  -0.016671 
1701769593.996195000  0  0  12.0865  -0.062971  -0.0524929  0.0152016  nan  nan  nan  nan  nan  nan  -1.85541  -0.857077  1.39179  -0.207705  0.190722  -0.0209075  0.646597  0.64321  -0.378077  0  0  0  1.5  1.5  -0.197629  -0.0142466  -0.0335221  -0.0173014  -0.0293942  -0.0033859  -0.000210695  0.00991918  0.0153453  -0.018423  0.0346855  -0.0361912  -0.00579018 
1701769594.001183000  0  0  12.0807  -0.0788944  -0.0327723  0.014959  nan  nan  nan  nan  nan  nan  -1.85216  -0.853842  1.38989  -0.207089  0.190111  -0.0204836  0.654097  0.65071  -0.378997  0  0  0  1.5  1.5  -0.17081  -0.0145107  -0.0337415  -0.0171845  -0.027795  -0.00208088  0.00237654  0.0099608  0.0152182  -0.0186687  0.0661496  -0.0744633  -0.000301047 
1701769594.006169000  0  0  12.1517  -0.0668164  -0.0503814  0.015247  nan  nan  nan  nan  nan  nan  -1.84887  -0.85057  1.388  -0.205082  0.188803  -0.0196464  0.661597  0.65821  -0.379786  0  0  0  1.5  1.5  -0.144741  -0.0146652  -0.0337648  -0.0172088  -0.0270732  -0.00121551  -0.00139542  0.0083207  0.0165382  -0.0192096  0.0570824  -0.0513891  0.00150856 
1701769594.011184000  0  0  12.159  -0.0784939  -0.0360128  0.0154204  nan  nan  nan  nan  nan  nan  -1.84554  -0.84726  1.3861  -0.204859  0.188417  -0.0193503  0.669097  0.66571  -0.380446  0  0  0  1.5  1.5  -0.119421  -0.014992  -0.0340032  -0.0171278  -0.0259211  -0.000636585  0.000193015  0.00870119  0.0162025  -0.0194077  0.0769369  -0.0770375  0.00132212 
