ts x y z roll pitch yaw vx vy vz wx wy wz ax ay az dwx dwy dwz jx jy jz ddwx ddwy ddwz
1701272633.346344000  -1.5  0  1  0  0  0  -6e-07  6e-07  6e-07  0  0  0  -0.000375  0.000375  0.000375  0  0  0  0  0  0  0  0  0 
1701272633.351325000  -1.5  0  1  0  0  0  -5e-06  5e-06  5e-06  0  0  0  -0.0015  0.0014996  0.0015  0  0  0  0  0  0  0  0  0 
1701272633.356331000  -1.5  1e-07  1  0  0  0  -1.69e-05  1.55e-05  1.69e-05  0  0  0  -0.003375  0.0025892  0.003375  0  0  0  0  0  0  0  0  0 
1701272633.361321000  -1.5  2e-07  1  0  0  1e-07  -4e-05  2.96e-05  4e-05  0  0  0  -0.006  0.0029289  0.006  0  0  0  0  0  0  0  0  0 
1701272633.366323000  -1.5  4e-07  1  0  0  2e-07  -7.81e-05  4.36e-05  7.81e-05  0  0  0  -0.009375  0.0025185  0.009375  0  0  0  0  0  0  0  0  0 
1701272633.371337000  -1.5  6e-07  1  0  0  4e-07  -0.000135  5.36e-05  0.000135  0  0  0  -0.0135  0.0013619  0.0135  0  0  0  0  0  0  0  0  0 
1701272633.376343000  -1.5  9e-07  1  0  0  6e-07  -0.0002144  5.74e-05  0.0002144  0  0  0  -0.018375  0.0003076  0.018375  0  0  0  0  0  0  0  0  0 
1701272633.381333000  -1.5  1.2e-06  1  0  0  8e-07  -0.0003192  5.79e-05  0.00032  0  0  0  -0.0234272  -3.3e-06  0.024  0  0  0  0  0  0  0  0  0 
1701272633.386336000  -1.50001  1.5e-06  1.00001  0  0  1e-06  -0.0004474  5.71e-05  0.0004556  0  0  0  -0.0277414  -0.0004491  0.030375  0  0  0  0  0  0  0  0  0 
1701272633.391338000  -1.50001  1.7e-06  1.00001  0  0  1.2e-06  -0.0005953  5.22e-05  0.000625  0  0  0  -0.0313055  -0.0016448  0.0375  0  0  0  0  0  0  0  0  0 
1701272633.396355000  -1.50001  2e-06  1.00001  0  0  1.4e-06  -0.0007592  3.94e-05  0.0008313  0  0  0  -0.0341197  -0.0035905  0.0449212  0  0  0  0  0  0  0  0  0 
1701272633.401347000  -1.50002  2.1e-06  1.00002  0  0  1.6e-06  -0.0009353  1.5e-05  0.001073  0  0  0  -0.0361838  -0.0062863  0.0516294  0  0  0  0  0  0  0  0  0 
1701272633.406350000  -1.50002  2.1e-06  1.00002  0  0  1.7e-06  -0.0011198  -2.47e-05  0.0013463  0  0  0  -0.0374979  -0.009732  0.0575876  0  0  0  0  0  0  0  0  0 
1701272633.411347000  -1.50003  1.8e-06  1.00003  0  0  1.8e-06  -0.001309  -8.36e-05  0.0016476  0  0  0  -0.0380621  -0.0139277  0.0627958  0  0  0  0  0  0  0  0  0 
1701272633.416348000  -1.50003  1.2e-06  1.00004  0  0  1.7e-06  -0.0014992  -0.0001653  0.001973  0  0  0  -0.0378762  -0.0188734  0.0672541  0  0  0  0  0  0  0  0  0 
1701272633.421347000  -1.50004  1e-07  1.00005  0  0  1.4e-06  -0.0016865  -0.0002735  0.0023189  0  0  0  -0.0369404  -0.0245692  0.0709623  0  0  0  0  0  0  0  0  0 
1701272633.426332000  -1.50005  -1.6e-06  1.00006  0  0  9e-07  -0.0018673  -0.0004122  0.0026814  0  0  0  -0.0352545  -0.0310149  0.0739205  0  0  0  0  0  0  0  0  0 
1701272633.431341000  -1.50006  -4e-06  1.00008  0  0  0  -0.0020378  -0.0005849  0.0030568  0  0  0  -0.0328187  -0.0382106  0.0761287  0  0  0  0  0  0  0  0  0 
1701272633.436338000  -1.50007  -7.5e-06  1.00009  0  0  -1.3e-06  -0.0021943  -0.0007956  0.0034414  0  0  0  -0.0296328  -0.0461564  0.0775869  0  0  0  0  0  0  0  0  0 
1701272633.441331000  -1.50008  -1.21e-05  1.00011  0  0  -3.1e-06  -0.0023329  -0.0010478  0.0038315  0  0  0  -0.025697  -0.0548521  0.0782951  0  0  0  0  0  0  0  0  0 
1701272633.446326000  -1.50009  -1.8e-05  1.00013  0  0  -5.5e-06  -0.00245  -0.0013453  0.0042232  0  0  0  -0.0210111  -0.0642978  0.0782533  0  0  0  0  0  0  0  0  0 
1701272633.451334000  -1.50011  -2.56e-05  1.00015  0  0  -8.7e-06  -0.0025421  -0.001692  0.0046127  0  0  0  -0.0158651  -0.0744935  0.0774615  0  0  0  0  0  0  0  0  0 
1701272633.456352000  -1.50012  -3.5e-05  1.00018  0  0  -1.27e-05  -0.0026098  -0.0020915  0.0049965  0  0  0  -0.0113618  -0.0854393  0.0759198  0  0  0  0  0  0  0  0  0 
1701272633.461331000  -1.50013  -4.66e-05  1.0002  0  0  -1.78e-05  -0.0026569  -0.0025476  0.0053707  0  0  0  -0.0076086  -0.097135  0.073628  0  0  0  0  0  0  0  0  0 
1701272633.466342000  -1.50015  -6.06e-05  1.00023  0  0  -2.4e-05  -0.0026871  -0.0030641  0.0057316  0  0  0  -0.0046053  -0.109581  0.0705862  0  0  0  0  0  0  0  0  0 
1701272633.471343000  -1.50016  -7.74e-05  1.00026  0  0  -3.15e-05  -0.0027042  -0.0036447  0.0060753  0  0  0  -0.002352  -0.122776  0.0667944  0  0  0  0  0  0  0  0  0 
1701272633.476350000  -1.50017  -9.72e-05  1.00029  0  0  -4.05e-05  -0.0027119  -0.0042931  0.0063982  0  0  0  -0.0008487  -0.136722  0.0622526  0  0  0  0  0  0  0  0  0 
1701272633.481341000  -1.50019  -0.0001204  1.00032  0  0  -5.11e-05  -0.002714  -0.0050132  0.0066966  0  0  0  -9.54e-05  -0.151418  0.0569608  0  0  0  0  0  0  0  0  0 
1701272633.486339000  -1.5002  -0.0001474  1.00036  0  0  -6.35e-05  -0.002714  -0.0058085  0.0069666  0  0  0  -0  -0.166864  0.050919  0  0  0  0  0  0  0  0  0 
1701272633.491343000  -1.50021  -0.0001786  1.00039  0  0  -7.8e-05  -0.002714  -0.0066831  0.0072045  0  0  0  -0  -0.183059  0.0441273  0  0  0  0  0  0  0  0  0 
1701272633.496352000  -1.50023  -0.0002144  1.00043  0  0  -9.48e-05  -0.002714  -0.0076404  0.0074067  0  0  0  -0  -0.200005  0.0366689  0  0  0  0  0  0  0  0  0 
1701272633.501332000  -1.50024  -0.0002552  1.00047  0  0  -0.000114  -0.002714  -0.0086844  0.0075721  0  0  0  -0  -0.217701  0.0296275  0  0  0  0  0  0  0  0  0 
1701272633.506336000  -1.50025  -0.0003014  1.00051  0  0  -0.0001358  -0.002714  -0.0098186  0.0077042  0  0  0  -0  -0.236147  0.0233361  0  0  0  0  0  0  0  0  0 
1701272633.511331000  -1.50027  -0.0003535  1.00054  0  0  -0.0001606  -0.002714  -0.0110471  0.0078067  0  0  0  -0  -0.255342  0.0177946  0  0  0  0  0  0  0  0  0 
1701272633.516356000  -1.50028  -0.000412  1.00058  0  0  -0.0001886  -0.002714  -0.0123733  0.0078834  0  0  0  -0  -0.275288  0.0130032  0  0  0  0  0  0  0  0  0 
1701272633.521350000  -1.5003  -0.0004774  1.00062  0  0  -0.0002199  -0.002714  -0.0138012  0.007938  0  0  0  -0  -0.295984  0.0089618  0  0  0  0  0  0  0  0  0 
1701272633.526353000  -1.50031  -0.0005502  1.00066  0  0  -0.0002549  -0.002714  -0.0153344  0.0079743  0  0  0  -0  -0.317429  0.0056704  0  0  0  0  0  0  0  0  0 
1701272633.531329000  -1.50032  -0.000631  1.0007  0  0  -0.0002938  -0.002714  -0.0169767  0.0079959  0  0  0  -0  -0.339625  0.0031289  0  0  0  0  0  0  0  0  0 
1701272633.536333000  -1.50034  -0.0007202  1.00074  0  0  -0.0003368  -0.002714  -0.0187319  0.0080068  0  0  0  -0  -0.362571  0.0013375  0  0  0  0  0  0  0  0  0 
1701272633.541331000  -1.50035  -0.0008185  1.00078  0  0  -0.000384  -0.002714  -0.0206037  0.0080106  0  0  0  -0  -0.386267  0.0002961  0  0  0  0  0  0  0  0  0 
1701272633.546329000  -1.50036  -0.0009264  1.00082  0  0  -0.0004357  -0.002714  -0.0225958  0.008011  0  0  0  -0  -0.410712  -0  0  0  0  0  0  0  0  0  0 
1701272633.551337000  -1.50038  -0.0010446  1.00086  0  0  -0.0004921  -0.002714  -0.0247121  0.008011  0  0  0  -0  -0.435908  -4.54e-05  0  0  0  0  0  0  0  0  0 
1701272633.556349000  -1.50039  -0.0011738  1.0009  0  0  -0.0005532  -0.002714  -0.0269562  0.0080095  0  0  0  -0  -0.461854  -0.0006812  0  0  0  0  0  0  0  0  0 
1701272633.561339000  -1.5004  -0.0013144  1.00094  0  0  -0.0006194  -0.0027137  -0.0293319  0.0080029  0  0  0  0.0002681  -0.48855  -0.002067  0  0  0  0  0  0  0  0  0 
1701272633.566341000  -1.50042  -0.0014673  1.00098  0  0  -0.0006908  -0.0027101  -0.0318429  0.0079875  0  0  0  0.0012774  -0.515995  -0.0042029  0  0  0  0  0  0  0  0  0 
1701272633.571348000  -1.50043  -0.0016331  1.00102  0  0  -0.0007674  -0.0026996  -0.0344931  0.0079596  0  0  0  0.0030365  -0.544191  -0.0070887  0  0  0  0  0  0  0  0  0 
1701272633.576341000  -1.50044  -0.0018125  1.00106  0  0  -0.0008494  -0.0026785  -0.0372861  0.0079154  0  0  0  0.0055458  -0.573137  -0.0107245  0  0  0  0  0  0  0  0  0 
1701272633.581348000  -1.50046  -0.0020062  1.0011  0  0  -0.000937  -0.0026429  -0.0402257  0.0078511  0  0  0  0.008805  -0.602833  -0.0151104  0  0  0  0  0  0  0  0  0 
1701272633.586339000  -1.50047  -0.002215  1.00114  0  0  -0.0010303  -0.0025892  -0.0433156  0.0077631  0  0  0  0.0128142  -0.633278  -0.0202462  0  0  0  0  0  0  0  0  0 
1701272633.591340000  -1.50048  -0.0024396  1.00118  0  0  -0.0011293  -0.0025135  -0.0465597  0.0076474  0  0  0  0.0175734  -0.664474  -0.026132  0  0  0  0  0  0  0  0  0 
1701272633.596340000  -1.5005  -0.0026808  1.00122  0  0  -0.0012342  -0.0024122  -0.0499616  0.0075005  0  0  0  0.0230826  -0.69642  -0.0327679  0  0  0  0  0  0  0  0  0 
1701272633.601322000  -1.50051  -0.0029395  1.00126  0  0  -0.001345  -0.0022815  -0.0535252  0.0073185  0  0  0  0.0293418  -0.729115  -0.0401537  0  0  0  0  0  0  0  0  0 
1701272633.606340000  -1.50052  -0.0032164  1.00129  0  0  -0.0014619  -0.0021176  -0.057254  0.0070977  0  0  0  0.036351  -0.762457  -0.0482895  0  0  0  0  0  0  0  0  0 
1701272633.611329000  -1.50053  -0.0035123  1.00133  0  0  -0.0015848  -0.0019167  -0.0611488  0.0068344  0  0  0  0.0441102  -0.795343  -0.0571754  0  0  0  0  0  0  0  0  0 
1701272633.616345000  -1.50054  -0.0038281  1.00136  0  0  -0.0017139  -0.0016752  -0.0652062  0.0065247  0  0  0  0.0526194  -0.827479  -0.0668112  0  0  0  0  0  0  0  0  0 
1701272633.621329000  -1.50055  -0.0041646  1.00139  0  0  -0.0018491  -0.0013893  -0.0694223  0.006165  0  0  0  0.0618786  -0.858866  -0.077197  0  0  0  0  0  0  0  0  0 
1701272633.626321000  -1.50055  -0.0045226  1.00142  0  0  -0.0019905  -0.0010552  -0.0737936  0.0057515  0  0  0  0.0718878  -0.889502  -0.0883329  0  0  0  0  0  0  0  0  0 
1701272633.631327000  -1.50056  -0.0049028  1.00145  0  0  -0.0021382  -0.0006691  -0.0783161  0.0052804  0  0  0  0.082647  -0.919388  -0.100219  0  0  0  0  0  0  0  0  0 
1701272633.636347000  -1.50056  -0.005306  1.00147  0  0  -0.0022921  -0.0002274  -0.0829862  0.0047481  0  0  0  0.0941562  -0.948525  -0.112855  0  0  0  0  0  0  0  0  0 
1701272633.641326000  -1.50056  -0.0057329  1.0015  0  0  -0.0024523  0.0002737  -0.0878001  0.0041506  0  0  0  0.106415  -0.976911  -0.12624  0  0  0  0  0  0  0  0  0 
1701272633.646329000  -1.50056  -0.0061842  1.00151  0  0  -0.0026187  0.000838  -0.0927541  0.0034844  0  0  0  0.119425  -1.00455  -0.140376  0  0  0  0  0  0  0  0  0 
1701272633.651323000  -1.50055  -0.0066607  1.00153  0  0  -0.0027914  0.0014692  -0.0978443  0.0027456  0  0  0  0.133184  -1.03143  -0.155262  0  0  0  0  0  0  0  0  0 
1701272633.656337000  -1.50054  -0.0071629  1.00154  0  0  -0.0029703  0.002171  -0.103067  0.0019305  0  0  0  0.147693  -1.05757  -0.170898  0  0  0  0  0  0  0  0  0 
1701272633.661325000  -1.50053  -0.0076916  1.00155  0  0  -0.0031555  0.0029474  -0.108419  0.0010354  0  0  0  0.162952  -1.08296  -0.187284  0  0  0  0  0  0  0  0  0 
1701272633.666322000  -1.50051  -0.0082473  1.00155  0  0  -0.0033469  0.0038018  -0.113895  5.64e-05  0  0  0  0.178961  -1.10759  -0.20442  0  0  0  0  0  0  0  0  0 
1701272633.671323000  -1.50049  -0.0088307  1.00155  0  0  -0.0035446  0.0047382  -0.119493  -0.0010101  0  0  0  0.195721  -1.13148  -0.222305  0  0  0  0  0  0  0  0  0 
1701272633.676337000  -1.50046  -0.0094424  1.00154  0  0  -0.0037485  0.0057603  -0.125209  -0.0021679  0  0  0  0.21323  -1.15462  -0.240941  0  0  0  0  0  0  0  0  0 
1701272633.681323000  -1.50043  -0.010083  1.00153  0  0  -0.0039586  0.0068718  -0.131038  -0.0034207  0  0  0  0.231489  -1.177  -0.260327  0  0  0  0  0  0  0  0  0 
1701272633.686324000  -1.50039  -0.010753  1.00151  0  0  -0.004175  0.0080757  -0.136978  -0.0047724  0  0  0  0.249973  -1.19864  -0.280463  0  0  0  0  0  0  0  0  0 
1701272633.691323000  -1.50035  -0.011453  1.00148  0  0  -0.0043977  0.0093703  -0.143023  -0.0062266  0  0  0  0.267727  -1.21952  -0.301349  0  0  0  0  0  0  0  0  0 
1701272633.696342000  -1.5003  -0.0121834  1.00145  0  0  -0.0046266  0.0107517  -0.149172  -0.0077871  0  0  0  0.284731  -1.23966  -0.322985  0  0  0  0  0  0  0  0  0 
1701272633.701321000  -1.50024  -0.0129448  1.0014  0  0  -0.0048618  0.0122163  -0.155419  -0.0094577  0  0  0  0.300985  -1.25905  -0.34537  0  0  0  0  0  0  0  0  0 
1701272633.706323000  -1.50018  -0.0137377  1.00135  0  0  -0.0051032  0.0137603  -0.161761  -0.0112421  0  0  0  0.316489  -1.27768  -0.368506  0  0  0  0  0  0  0  0  0 
1701272633.711325000  -1.50011  -0.0145626  1.00129  0  0  -0.0053509  0.0153799  -0.168194  -0.013144  0  0  0  0.331242  -1.29557  -0.392392  0  0  0  0  0  0  0  0  0 
1701272633.716340000  -1.50002  -0.0154198  1.00122  0  0  -0.0056048  0.0170715  -0.174715  -0.0151673  0  0  0  0.345246  -1.31271  -0.417028  0  0  0  0  0  0  0  0  0 
1701272633.721324000  -1.49993  -0.0163099  1.00114  0  0  -0.005865  0.0188312  -0.18132  -0.0173155  0  0  0  0.3585  -1.32909  -0.442414  0  0  0  0  0  0  0  0  0 
1701272633.726321000  -1.49984  -0.0172332  1.00105  0  0  -0.0061314  0.0206552  -0.188005  -0.0195926  0  0  0  0.371004  -1.34473  -0.46855  0  0  0  0  0  0  0  0  0 
1701272633.731327000  -1.49973  -0.0181901  1.00094  0  0  -0.006404  0.02254  -0.194766  -0.0220023  0  0  0  0.382758  -1.35961  -0.495435  0  0  0  0  0  0  0  0  0 
1701272633.736346000  -1.49961  -0.019181  1.00083  0  0  -0.006683  0.0244816  -0.2016  -0.0245482  0  0  0  0.393762  -1.37375  -0.523059  0  0  0  0  0  0  0  0  0 
1701272633.741328000  -1.49948  -0.0202062  1.0007  0  0  -0.0069681  0.0264763  -0.208503  -0.0272325  0  0  0  0.404016  -1.38714  -0.550503  0  0  0  0  0  0  0  0  0 
1701272633.746321000  -1.49935  -0.0212661  1.00055  0  0  -0.0072595  0.0285205  -0.21547  -0.030052  0  0  0  0.41352  -1.39977  -0.577197  0  0  0  0  0  0  0  0  0 
1701272633.751321000  -1.4992  -0.022361  1.0004  0  0  -0.0075572  0.0306103  -0.222499  -0.0330032  0  0  0  0.422274  -1.41166  -0.603142  0  0  0  0  0  0  0  0  0 
1701272633.756345000  -1.49904  -0.0234912  1.00022  0  0  -0.0078611  0.032742  -0.229585  -0.0360822  0  0  0  0.430278  -1.4228  -0.628336  0  0  0  0  0  0  0  0  0 
1701272633.761328000  -1.49887  -0.0246569  1.00003  0  0  -0.0081713  0.0349118  -0.236726  -0.0392853  0  0  0  0.437531  -1.43318  -0.65278  0  0  0  0  0  0  0  0  0 
1701272633.766325000  -1.49869  -0.0258585  0.99983  0  0  -0.0084877  0.037116  -0.243916  -0.0426087  0  0  0  0.444035  -1.44282  -0.676474  0  0  0  0  0  0  0  0  0 
1701272633.771321000  -1.4985  -0.0270962  0.999608  0  0  -0.0088104  0.0393509  -0.251153  -0.0460488  0  0  0  0.449789  -1.45171  -0.699418  0  0  0  0  0  0  0  0  0 
1701272633.776334000  -1.4983  -0.0283701  0.999369  0  0  -0.0091393  0.0416127  -0.258432  -0.0496017  0  0  0  0.454793  -1.45984  -0.721613  0  0  0  0  0  0  0  0  0 
1701272633.781323000  -1.49808  -0.0296806  0.999112  0  0  -0.0094745  0.0438976  -0.26575  -0.0532637  0  0  0  0.459047  -1.46723  -0.743057  0  0  0  0  0  0  0  0  0 
1701272633.786323000  -1.49786  -0.0310277  0.998836  0  0  -0.0098159  0.0462019  -0.273103  -0.057031  0  0  0  0.462551  -1.47386  -0.763751  0  0  0  0  0  0  0  0  0 
1701272633.791322000  -1.49762  -0.0324116  0.998541  0  0  -0.0101635  0.0485218  -0.280487  -0.0608999  0  0  0  0.465305  -1.47975  -0.783695  0  0  0  0  0  0  0  0  0 
1701272633.796341000  -1.49737  -0.0338326  0.998227  0  0  -0.0105175  0.0508537  -0.287899  -0.0648667  0  0  0  0.467309  -1.48489  -0.802889  0  0  0  0  0  0  0  0  0 
1701272633.801321000  -1.49711  -0.0352907  0.997892  0  0  -0.0108776  0.0531937  -0.295335  -0.0689276  0  0  0  0.468563  -1.48927  -0.821334  0  0  0  0  0  0  0  0  0 
1701272633.806325000  -1.49684  -0.036786  0.997538  0  0  -0.011244  0.0555381  -0.302791  -0.0730788  0  0  0  0.469067  -1.49291  -0.839028  0  0  0  0  0  0  0  0  0 
1701272633.811324000  -1.49656  -0.0383186  0.997162  0  0  -0.0116167  0.0578831  -0.310263  -0.0773166  0  0  0  0.46882  -1.4958  -0.855972  0  0  0  0  0  0  0  0  0 
1701272633.816340000  -1.49626  -0.0398886  0.996764  0  0  -0.0119956  0.060225  -0.317747  -0.0816373  0  0  0  0.467824  -1.49793  -0.872166  0  0  0  0  0  0  0  0  0 
1701272633.821324000  -1.49595  -0.0414961  0.996345  0  0  -0.0123808  0.0625601  -0.325241  -0.086037  0  0  0  0.466078  -1.49932  -0.887611  0  0  0  0  0  0  0  0  0 
1701272633.826322000  -1.49564  -0.043141  0.995904  0  0  -0.0127722  0.0648846  -0.332739  -0.0905121  0  0  0  0.463582  -1.49995  -0.902305  0  0  0  0  0  0  0  0  0 
1701272633.831325000  -1.49531  -0.0448235  0.99544  0  0  -0.0131699  0.0671947  -0.340239  -0.0950588  0  0  0  0.460336  -1.5  -0.916249  0  0  0  0  0  0  0  0  0 
1701272633.836342000  -1.49496  -0.0465434  0.994953  0  0  -0.0135738  0.0694867  -0.347739  -0.0996733  0  0  0  0.45634  -1.5  -0.929443  0  0  0  0  0  0  0  0  0 
1701272633.841323000  -1.49461  -0.0483009  0.994443  0  0  -0.013984  0.0717568  -0.355239  -0.104352  0  0  0  0.451594  -1.5  -0.941887  0  0  0  0  0  0  0  0  0 
1701272633.846324000  -1.49425  -0.0500958  0.993909  0  0  -0.0144004  0.0740013  -0.362739  -0.109091  0  0  0  0.446098  -1.5  -0.953582  0  0  0  0  0  0  0  0  0 
1701272633.851321000  -1.49387  -0.0519283  0.993352  0  0  -0.014823  0.0762165  -0.370239  -0.113887  0  0  0  0.439852  -1.5  -0.964526  0  0  0  0  0  0  0  0  0 
1701272633.856342000  -1.49348  -0.0537982  0.99277  0  0  -0.015252  0.0783986  -0.377739  -0.118735  0  0  0  0.432856  -1.5  -0.97472  0  0  0  0  0  0  0  0  0 
1701272633.861321000  -1.49309  -0.0557057  0.992165  0  0  -0.0156871  0.0805438  -0.385239  -0.123633  0  0  0  0.425109  -1.5  -0.984164  0  0  0  0  0  0  0  0  0 
1701272633.866324000  -1.49268  -0.0576506  0.991534  0  0  -0.0161285  0.0826485  -0.392739  -0.128575  0  0  0  0.416613  -1.5  -0.992858  0  0  0  0  0  0  0  0  0 
1701272633.871325000  -1.49226  -0.0590171  0.990879  0  0  -0.0165762  0.0847087  -0.397871  -0.13356  0  0  0  0.407367  -1.5  -1.0008  0  0  0  0  0  0  0  0  0 
1701272633.876335000  -1.49183  -0.0590171  0.990198  0  0  -0.0168742  0.0867209  -0.397871  -0.138582  0  0  0  0.397371  -1.5  -1.008  0  0  0  0  0  0  0  0  0 
1701272633.881324000  -1.49139  -0.0590171  0.989493  0  0  -0.0168742  0.0886812  -0.397871  -0.143639  0  0  0  0.386625  -1.5  -1.01444  0  0  0  0  0  0  0  0  0 
1701272633.886320000  -1.49095  -0.0590171  0.988762  0  0  -0.0168742  0.0905859  -0.397871  -0.148725  0  0  0  0.375129  -1.5  -1.02014  0  0  0  0  0  0  0  0  0 
1701272633.891324000  -1.49049  -0.0590171  0.988006  0  0  -0.0168742  0.0924312  -0.397871  -0.153839  0  0  0  0.362883  -1.5  -1.02508  0  0  0  0  0  0  0  0  0 
1701272633.896323000  -1.49002  -0.0590171  0.987224  0  0  -0.0168742  0.0942135  -0.397871  -0.158975  0  0  0  0.349887  -1.5  -1.02927  0  0  0  0  0  0  0  0  0 
1701272633.901322000  -1.48955  -0.0590171  0.986416  0  0  -0.0168742  0.0959288  -0.397871  -0.16413  0  0  0  0.336141  -1.5  -1.03272  0  0  0  0  0  0  0  0  0 
1701272633.906323000  -1.48906  -0.0590171  0.985582  0  0  -0.0168742  0.0975736  -0.397871  -0.169301  0  0  0  0.321645  -1.5  -1.03541  0  0  0  0  0  0  0  0  0 
1701272633.911324000  -1.48857  -0.0590171  0.984723  0  0  -0.0168742  0.099144  -0.397871  -0.174483  0  0  0  0.306398  -1.5  -1.03736  0  0  0  0  0  0  0  0  0 
1701272633.916340000  -1.48807  -0.0590171  0.983837  0  0  -0.0168742  0.100636  -0.397871  -0.179673  0  0  0  0.290402  -1.5  -1.03855  0  0  0  0  0  0  0  0  0 
1701272633.921324000  -1.48756  -0.0590171  0.982926  0  0  -0.0168742  0.102047  -0.397871  -0.184867  0  0  0  0.273656  -1.5  -1.03899  0  0  0  0  0  0  0  0  0 
1701272633.926320000  -1.48705  -0.0590171  0.981989  0  0  -0.0168742  0.103372  -0.397871  -0.190062  0  0  0  0.25616  -1.5  -1.03869  0  0  0  0  0  0  0  0  0 
1701272633.931324000  -1.48653  -0.0590171  0.981025  0  0  -0.0168742  0.104607  -0.397871  -0.195253  0  0  0  0.237914  -1.5  -1.03763  0  0  0  0  0  0  0  0  0 
1701272633.936338000  -1.486  -0.0590171  0.980036  0  0  -0.0168742  0.10575  -0.397871  -0.200437  0  0  0  0.21945  -1.5  -1.03583  0  0  0  0  0  0  0  0  0 
1701272633.941325000  -1.48547  -0.0590171  0.979021  0  0  -0.0168742  0.106803  -0.397871  -0.20561  0  0  0  0.201718  -1.5  -1.03327  0  0  0  0  0  0  0  0  0 
1701272633.946323000  -1.48494  -0.0590171  0.97798  0  0  -0.0168742  0.107769  -0.397871  -0.210768  0  0  0  0.184736  -1.5  -1.02997  0  0  0  0  0  0  0  0  0 
1701272633.951321000  -1.4844  -0.0590171  0.976913  0  0  -0.0168742  0.108652  -0.397871  -0.215908  0  0  0  0.168504  -1.5  -1.02591  0  0  0  0  0  0  0  0  0 
1701272633.956343000  -1.48385  -0.0590171  0.975821  0  0  -0.0168742  0.109455  -0.397871  -0.221026  0  0  0  0.153022  -1.5  -1.0211  0  0  0  0  0  0  0  0  0 
1701272633.961323000  -1.4833  -0.0590171  0.974703  0  0  -0.0168742  0.110183  -0.397871  -0.226118  0  0  0  0.13829  -1.5  -1.01555  0  0  0  0  0  0  0  0  0 
1701272633.966323000  -1.48275  -0.0590171  0.97356  0  0  -0.0168742  0.110839  -0.397871  -0.23118  0  0  0  0.124307  -1.5  -1.00924  0  0  0  0  0  0  0  0  0 
1701272633.971321000  -1.48219  -0.0590171  0.972391  0  0  -0.0168742  0.111427  -0.397871  -0.236209  0  0  0  0.111075  -1.5  -1.00219  0  0  0  0  0  0  0  0  0 
1701272633.976336000  -1.48163  -0.0590171  0.971198  0  0  -0.0168742  0.111951  -0.397871  -0.241201  0  0  0  0.098593  -1.5  -0.994381  0  0  0  0  0  0  0  0  0 
1701272633.981323000  -1.48107  -0.0590171  0.969979  0  0  -0.0168742  0.112414  -0.397871  -0.246152  0  0  0  0.0868609  -1.5  -0.985825  0  0  0  0  0  0  0  0  0 
1701272633.986323000  -1.48051  -0.0590171  0.968736  0  0  -0.0168742  0.112821  -0.397871  -0.251058  0  0  0  0.0758787  -1.5  -0.976519  0  0  0  0  0  0  0  0  0 
1701272633.991323000  -1.47995  -0.0590171  0.967469  0  0  -0.0168742  0.113175  -0.397871  -0.255916  0  0  0  0.0656465  -1.5  -0.966568  0  0  0  0  0  0  0  0  0 
1701272633.996339000  -1.47938  -0.0590171  0.966177  0  0  -0.0168742  0.113479  -0.397871  -0.260725  0  0  0  0.0561643  -1.5  -0.957073  0  0  0  0  0  0  0  0  0 
1701272634.001323000  -1.47881  -0.0590171  0.964862  0  0  -0.0168742  0.113737  -0.397871  -0.265488  0  0  0  0.0474321  -1.5  -0.948328  0  0  0  0  0  0  0  0  0 
1701272634.006323000  -1.47824  -0.0590171  0.963523  0  0  -0.0168742  0.113954  -0.397871  -0.270209  0  0  0  0.03945  -1.5  -0.940333  0  0  0  0  0  0  0  0  0 
1701272634.011322000  -1.47767  -0.0590171  0.96216  0  0  -0.0168742  0.114133  -0.397871  -0.274892  0  0  0  0.0322178  -1.5  -0.933088  0  0  0  0  0  0  0  0  0 
1701272634.016339000  -1.4771  -0.0590171  0.960774  0  0  -0.0168742  0.114278  -0.397871  -0.279541  0  0  0  0.0257356  -1.5  -0.926593  0  0  0  0  0  0  0  0  0 
1701272634.021324000  -1.47653  -0.0590171  0.959364  0  0  -0.0168742  0.114392  -0.397871  -0.28416  0  0  0  0.0200034  -1.5  -0.920848  0  0  0  0  0  0  0  0  0 
1701272634.026323000  -1.47596  -0.0590171  0.957932  0  0  -0.0168742  0.114479  -0.397871  -0.288751  0  0  0  0.0150212  -1.5  -0.915853  0  0  0  0  0  0  0  0  0 
1701272634.031324000  -1.47538  -0.0590171  0.956477  0  0  -0.0168742  0.114543  -0.397871  -0.293319  0  0  0  0.010789  -1.5  -0.911608  0  0  0  0  0  0  0  0  0 
1701272634.036337000  -1.47481  -0.0590171  0.954999  0  0  -0.0168742  0.114588  -0.397871  -0.297868  0  0  0  0.0073069  -1.5  -0.908113  0  0  0  0  0  0  0  0  0 
1701272634.041324000  -1.47424  -0.0590171  0.953498  0  0  -0.0168742  0.114618  -0.397871  -0.302402  0  0  0  0.0045747  -1.5  -0.905368  0  0  0  0  0  0  0  0  0 
1701272634.046324000  -1.47366  -0.0590171  0.951975  0  0  -0.0168742  0.114635  -0.397871  -0.306923  0  0  0  0.0025925  -1.5  -0.903373  0  0  0  0  0  0  0  0  0 
1701272634.051321000  -1.47309  -0.0590171  0.950429  0  0  -0.0168742  0.114645  -0.397871  -0.311437  0  0  0  0.0013603  -1.5  -0.902128  0  0  0  0  0  0  0  0  0 
1701272634.056343000  -1.47252  -0.0590171  0.948861  0  0  -0.0168742  0.11465  -0.397871  -0.315946  0  0  0  0.0008781  -1.5  -0.901633  0  0  0  0  0  0  0  0  0 
1701272634.061323000  -1.4724  -0.0590171  0.948608  0  0  -0.0168742  0.114722  -0.397871  -0.316666  0  0  0  0.0008705  -1.5  -0.901623  0  0  0  0  0  0  0  0  0 
1701272634.066323000  -1.47182  -0.0610252  0.947014  0  0  -0.0173322  0.114727  -0.40537  -0.321173  0  0  0  0.0012455  -1.49962  -0.901248  0  0  0  0  0  0  0  0  0 
1701272634.071323000  -1.47125  -0.0630708  0.945397  0  0  -0.0177964  0.114736  -0.412866  -0.325677  0  0  0  0.0023705  -1.4985  -0.900123  0  0  0  0  0  0  0  0  0 
1701272634.076336000  -1.47067  -0.0651538  0.943757  0  0  -0.0182668  0.114752  -0.420354  -0.330173  0  0  0  0.0042455  -1.49662  -0.898248  0  0  0  0  0  0  0  0  0 
1701272634.081325000  -1.4701  -0.0672743  0.942095  0  0  -0.0187435  0.114779  -0.427831  -0.334658  0  0  0  0.0068705  -1.494  -0.895623  0  0  0  0  0  0  0  0  0 
1701272634.086322000  -1.46953  -0.0694321  0.94041  0  0  -0.0192265  0.114822  -0.435293  -0.339128  0  0  0  0.0102455  -1.49062  -0.892248  0  0  0  0  0  0  0  0  0 
1701272634.091321000  -1.46895  -0.0716272  0.938704  0  0  -0.0197156  0.114883  -0.442736  -0.343579  0  0  0  0.0143705  -1.4865  -0.888123  0  0  0  0  0  0  0  0  0 
1701272634.096341000  -1.46838  -0.0738594  0.936975  0  0  -0.0202111  0.114967  -0.450156  -0.348008  0  0  0  0.0192455  -1.48162  -0.883248  0  0  0  0  0  0  0  0  0 
1701272634.101321000  -1.4678  -0.0761287  0.935224  0  0  -0.0207128  0.115077  -0.457551  -0.352411  0  0  0  0.0248705  -1.476  -0.877623  0  0  0  0  0  0  0  0  0 
1701272634.106323000  -1.46723  -0.0784349  0.933451  0  0  -0.0212207  0.115217  -0.464915  -0.356783  0  0  0  0.0312455  -1.46962  -0.871248  0  0  0  0  0  0  0  0  0 
1701272634.111323000  -1.46665  -0.0807778  0.931656  0  0  -0.0217349  0.115391  -0.472246  -0.361122  0  0  0  0.0383705  -1.4625  -0.864123  0  0  0  0  0  0  0  0  0 
1701272634.116342000  -1.46607  -0.0831573  0.929839  0  0  -0.0222554  0.115602  -0.479539  -0.365423  0  0  0  0.0462455  -1.45462  -0.856248  0  0  0  0  0  0  0  0  0 
1701272634.121323000  -1.46549  -0.0855731  0.928002  0  0  -0.0227821  0.115854  -0.486791  -0.369683  0  0  0  0.0548705  -1.446  -0.847623  0  0  0  0  0  0  0  0  0 
1701272634.126321000  -1.46491  -0.0880251  0.926143  0  0  -0.023315  0.116152  -0.493998  -0.373898  0  0  0  0.0642455  -1.43662  -0.838248  0  0  0  0  0  0  0  0  0 
1701272634.131320000  -1.46433  -0.090513  0.924263  0  0  -0.0238542  0.116498  -0.501156  -0.378064  0  0  0  0.0743705  -1.4265  -0.828123  0  0  0  0  0  0  0  0  0 
1701272634.136341000  -1.46375  -0.0930366  0.922362  0  0  -0.0243996  0.116897  -0.508261  -0.382178  0  0  0  0.0852455  -1.41562  -0.817248  0  0  0  0  0  0  0  0  0 
1701272634.141323000  -1.46316  -0.0955955  0.920441  0  0  -0.0249513  0.117352  -0.515311  -0.386236  0  0  0  0.0968705  -1.404  -0.805623  0  0  0  0  0  0  0  0  0 
1701272634.146323000  -1.46258  -0.0981896  0.9185  0  0  -0.0255093  0.117867  -0.5223  -0.390233  0  0  0  0.109245  -1.39162  -0.793248  0  0  0  0  0  0  0  0  0 
1701272634.151321000  -1.46198  -0.100818  0.916539  0  0  -0.0260735  0.118445  -0.529226  -0.394167  0  0  0  0.12237  -1.3785  -0.780123  0  0  0  0  0  0  0  0  0 
1701272634.156342000  -1.46139  -0.103482  0.914558  0  0  -0.0266439  0.119092  -0.536084  -0.398033  0  0  0  0.136245  -1.36462  -0.766248  0  0  0  0  0  0  0  0  0 
1701272634.161324000  -1.46079  -0.106179  0.912559  0  0  -0.0272206  0.119809  -0.542871  -0.401828  0  0  0  0.15087  -1.35  -0.751623  0  0  0  0  0  0  0  0  0 
1701272634.166324000  -1.46019  -0.10891  0.91054  0  0  -0.0278035  0.120602  -0.549583  -0.405548  0  0  0  0.166245  -1.33462  -0.736248  0  0  0  0  0  0  0  0  0 
1701272634.171324000  -1.45959  -0.111675  0.908503  0  0  -0.0283925  0.121473  -0.556216  -0.409189  0  0  0  0.18237  -1.3185  -0.720123  0  0  0  0  0  0  0  0  0 
1701272634.176335000  -1.45898  -0.114472  0.906448  0  0  -0.0289878  0.122427  -0.562766  -0.412748  0  0  0  0.199245  -1.30162  -0.703248  0  0  0  0  0  0  0  0  0 
1701272634.181322000  -1.45836  -0.117302  0.904376  0  0  -0.0295891  0.123467  -0.569231  -0.416221  0  0  0  0.21687  -1.284  -0.685623  0  0  0  0  0  0  0  0  0 
1701272634.186323000  -1.45774  -0.120165  0.902286  0  0  -0.0301965  0.124597  -0.575605  -0.419603  0  0  0  0.235245  -1.26562  -0.667248  0  0  0  0  0  0  0  0  0 
1701272634.191323000  -1.45712  -0.123058  0.90018  0  0  -0.0308098  0.12582  -0.581886  -0.422892  0  0  0  0.25437  -1.2465  -0.648123  0  0  0  0  0  0  0  0  0 
1701272634.196339000  -1.45648  -0.125983  0.898058  0  0  -0.031429  0.127141  -0.588069  -0.426083  0  0  0  0.274245  -1.22662  -0.628248  0  0  0  0  0  0  0  0  0 
1701272634.201321000  -1.45585  -0.128939  0.895919  0  0  -0.032054  0.128563  -0.594151  -0.429173  0  0  0  0.294306  -1.206  -0.607623  0  0  0  0  0  0  0  0  0 
1701272634.206322000  -1.4552  -0.131925  0.893766  0  0  -0.0326847  0.130083  -0.600128  -0.432158  0  0  0  0.313631  -1.18462  -0.586248  0  0  0  0  0  0  0  0  0 
1701272634.211324000  -1.45454  -0.13494  0.891598  0  0  -0.0333209  0.131698  -0.605996  -0.435034  0  0  0  0.332205  -1.1625  -0.564123  0  0  0  0  0  0  0  0  0 
1701272634.216343000  -1.45388  -0.137984  0.889416  0  0  -0.0339627  0.133404  -0.611751  -0.437798  0  0  0  0.350029  -1.13962  -0.541248  0  0  0  0  0  0  0  0  0 
1701272634.221324000  -1.45321  -0.141057  0.88722  0  0  -0.0346098  0.135197  -0.617391  -0.440445  0  0  0  0.367103  -1.116  -0.517623  0  0  0  0  0  0  0  0  0 
1701272634.226319000  -1.45253  -0.144158  0.885012  0  0  -0.035262  0.137074  -0.62291  -0.442973  0  0  0  0.383427  -1.09162  -0.493248  0  0  0  0  0  0  0  0  0 
1701272634.231343000  -1.45184  -0.147286  0.882791  0  0  -0.0359193  0.13903  -0.628306  -0.445377  0  0  0  0.399001  -1.0665  -0.468123  0  0  0  0  0  0  0  0  0 
1701272634.236344000  -1.45114  -0.150441  0.880558  0  0  -0.0365815  0.141063  -0.633574  -0.447653  0  0  0  0.413826  -1.04062  -0.442248  0  0  0  0  0  0  0  0  0 
1701272634.241323000  -1.45043  -0.153622  0.878314  0  0  -0.0372484  0.143167  -0.638711  -0.449798  0  0  0  0.4279  -1.014  -0.415623  0  0  0  0  0  0  0  0  0 
1701272634.246324000  -1.44971  -0.156828  0.87606  0  0  -0.0379198  0.14534  -0.643713  -0.451808  0  0  0  0.441224  -0.986625  -0.388248  0  0  0  0  0  0  0  0  0 
1701272634.251321000  -1.44898  -0.160059  0.873797  0  0  -0.0385956  0.147578  -0.648576  -0.453679  0  0  0  0.453798  -0.9585  -0.360123  0  0  0  0  0  0  0  0  0 
1701272634.256342000  -1.44823  -0.163313  0.871524  0  0  -0.0392755  0.149877  -0.653296  -0.455408  0  0  0  0.465622  -0.929625  -0.331248  0  0  0  0  0  0  0  0  0 
1701272634.261324000  -1.44748  -0.166591  0.869243  0  0  -0.0399593  0.152233  -0.657871  -0.45699  0  0  0  0.476696  -0.9  -0.301623  0  0  0  0  0  0  0  0  0 
1701272634.266330000  -1.44671  -0.169892  0.866954  0  0  -0.0406468  0.154643  -0.662295  -0.458423  0  0  0  0.487021  -0.869625  -0.271248  0  0  0  0  0  0  0  0  0 
1701272634.271323000  -1.44593  -0.173214  0.864659  0  0  -0.0413378  0.157102  -0.666566  -0.459702  0  0  0  0.496595  -0.8385  -0.240123  0  0  0  0  0  0  0  0  0 
1701272634.276337000  -1.44514  -0.176557  0.862357  0  0  -0.0420321  0.159608  -0.670679  -0.460823  0  0  0  0.505419  -0.806625  -0.208248  0  0  0  0  0  0  0  0  0 
1701272634.281323000  -1.44433  -0.17992  0.860051  0  0  -0.0427293  0.162155  -0.674631  -0.461783  0  0  0  0.513493  -0.774  -0.175623  0  0  0  0  0  0  0  0  0 
1701272634.286324000  -1.44352  -0.183303  0.85774  0  0  -0.0434293  0.164741  -0.678418  -0.462578  0  0  0  0.520817  -0.740625  -0.142248  0  0  0  0  0  0  0  0  0 
1701272634.291324000  -1.44269  -0.186704  0.855425  0  0  -0.0441318  0.167362  -0.682036  -0.463204  0  0  0  0.527391  -0.7065  -0.108123  0  0  0  0  0  0  0  0  0 
1701272634.296337000  -1.44184  -0.190123  0.853108  0  0  -0.0448367  0.170014  -0.685481  -0.463658  0  0  0  0.533216  -0.671625  -0.073248  0  0  0  0  0  0  0  0  0 
1701272634.301322000  -1.44099  -0.193559  0.850789  0  0  -0.0455436  0.172693  -0.688751  -0.463935  0  0  0  0.53829  -0.636  -0.037623  0  0  0  0  0  0  0  0  0 
1701272634.306325000  -1.44012  -0.19701  0.848469  0  0  -0.0462524  0.175396  -0.69184  -0.464033  0  0  0  0.542614  -0.599625  -0.001248  0  0  0  0  0  0  0  0  0 
1701272634.311334000  -1.43923  -0.200477  0.846149  0  0  -0.0469629  0.178118  -0.694746  -0.463947  0  0  0  0.546188  -0.5625  0.035877  0  0  0  0  0  0  0  0  0 
1701272634.316342000  -1.43833  -0.203958  0.84383  0  0  -0.0476749  0.180856  -0.697464  -0.463673  0  0  0  0.549012  -0.524625  0.073752  0  0  0  0  0  0  0  0  0 
1701272634.321326000  -1.43742  -0.207451  0.841513  0  0  -0.0483883  0.183607  -0.699991  -0.463208  0  0  0  0.551086  -0.486  0.112377  0  0  0  0  0  0  0  0  0 
1701272634.326322000  -1.4365  -0.210957  0.839198  0  0  -0.0491029  0.186366  -0.702323  -0.462548  0  0  0  0.552411  -0.446625  0.151752  0  0  0  0  0  0  0  0  0 
1701272634.331322000  -1.43556  -0.214474  0.836887  0  0  -0.0498185  0.18913  -0.704456  -0.461689  0  0  0  0.552985  -0.4065  0.191869  0  0  0  0  0  0  0  0  0 
1701272634.336339000  -1.43461  -0.218001  0.834582  0  0  -0.050535  0.191894  -0.706386  -0.460629  0  0  0  0.552809  -0.365625  0.231842  0  0  0  0  0  0  0  0  0 
1701272634.341322000  -1.43364  -0.221538  0.832281  0  0  -0.0512523  0.194656  -0.708111  -0.459372  0  0  0  0.551883  -0.324  0.271065  0  0  0  0  0  0  0  0  0 
1701272634.346322000  -1.43266  -0.225082  0.829988  0  0  -0.0519703  0.197412  -0.709625  -0.45792  0  0  0  0.550207  -0.281625  0.309537  0  0  0  0  0  0  0  0  0 
1701272634.351323000  -1.43167  -0.228634  0.827703  0  0  -0.0526888  0.200157  -0.710926  -0.456278  0  0  0  0.547781  -0.2385  0.34726  0  0  0  0  0  0  0  0  0 
1701272634.356332000  -1.43066  -0.232191  0.825426  0  0  -0.0534078  0.202888  -0.712009  -0.454449  0  0  0  0.544606  -0.194625  0.384232  0  0  0  0  0  0  0  0  0 
1701272634.361323000  -1.42964  -0.235753  0.823158  0  0  -0.0541271  0.205602  -0.712871  -0.452437  0  0  0  0.54068  -0.15  0.420455  0  0  0  0  0  0  0  0  0 
1701272634.366323000  -1.4286  -0.239319  0.820902  0  0  -0.0548467  0.208294  -0.713508  -0.450245  0  0  0  0.536004  -0.104625  0.455928  0  0  0  0  0  0  0  0  0 
1701272634.371323000  -1.42755  -0.242888  0.818656  0  0  -0.0555665  0.210961  -0.713916  -0.447879  0  0  0  0.530578  -0.0585  0.49065  0  0  0  0  0  0  0  0  0 
1701272634.376336000  -1.42649  -0.246458  0.816423  0  0  -0.0562865  0.213599  -0.714091  -0.44534  0  0  0  0.524402  -0.011625  0.524623  0  0  0  0  0  0  0  0  0 
1701272634.381322000  -1.42542  -0.250029  0.814203  0  0  -0.0570065  0.216204  -0.714031  -0.442634  0  0  0  0.517476  0.0355731  0.557846  0  0  0  0  0  0  0  0  0 
1701272634.386322000  -1.42433  -0.253598  0.811997  0  0  -0.0577266  0.218772  -0.713737  -0.439763  0  0  0  0.509801  0.0820664  0.590318  0  0  0  0  0  0  0  0  0 
1701272634.391324000  -1.42323  -0.257166  0.809806  0  0  -0.0584468  0.2213  -0.713212  -0.436732  0  0  0  0.501375  0.12781  0.622041  0  0  0  0  0  0  0  0  0 
1701272634.396342000  -1.42212  -0.26073  0.80763  0  0  -0.059167  0.223785  -0.71246  -0.433544  0  0  0  0.492199  0.172803  0.653014  0  0  0  0  0  0  0  0  0 
1701272634.401321000  -1.42099  -0.26429  0.805471  0  0  -0.0598871  0.226221  -0.711485  -0.430203  0  0  0  0.482273  0.217046  0.683236  0  0  0  0  0  0  0  0  0 
1701272634.406323000  -1.41986  -0.267844  0.803328  0  0  -0.0606073  0.228606  -0.710291  -0.426713  0  0  0  0.471597  0.26054  0.712709  0  0  0  0  0  0  0  0  0 
1701272634.411324000  -1.41871  -0.271392  0.801204  0  0  -0.0613274  0.230936  -0.708881  -0.423077  0  0  0  0.460171  0.303283  0.741431  0  0  0  0  0  0  0  0  0 
1701272634.416341000  -1.41755  -0.274933  0.799098  0  0  -0.0620476  0.233207  -0.707259  -0.4193  0  0  0  0.447996  0.345276  0.769404  0  0  0  0  0  0  0  0  0 
1701272634.421323000  -1.41638  -0.278465  0.797011  0  0  -0.0627678  0.235415  -0.70543  -0.415384  0  0  0  0.43507  0.38652  0.796627  0  0  0  0  0  0  0  0  0 
1701272634.426321000  -1.41519  -0.281987  0.794944  0  0  -0.0634879  0.237556  -0.703395  -0.411335  0  0  0  0.421394  0.427013  0.823099  0  0  0  0  0  0  0  0  0 
1701272634.431324000  -1.414  -0.285498  0.792898  0  0  -0.0642081  0.239627  -0.701161  -0.407154  0  0  0  0.406968  0.466756  0.848822  0  0  0  0  0  0  0  0  0 
1701272634.436342000  -1.4128  -0.288998  0.790873  0  0  -0.0649282  0.241624  -0.698729  -0.402848  0  0  0  0.391792  0.50575  0.873795  0  0  0  0  0  0  0  0  0 
1701272634.441323000  -1.41158  -0.292485  0.788869  0  0  -0.0656484  0.243544  -0.696104  -0.398418  0  0  0  0.375866  0.543993  0.898017  0  0  0  0  0  0  0  0  0 
1701272634.446323000  -1.41036  -0.295959  0.786889  0  0  -0.0663686  0.245382  -0.69329  -0.393869  0  0  0  0.359191  0.581486  0.92149  0  0  0  0  0  0  0  0  0 
1701272634.451321000  -1.40913  -0.299418  0.784931  0  0  -0.0670887  0.247135  -0.690291  -0.389204  0  0  0  0.341765  0.61823  0.944213  0  0  0  0  0  0  0  0  0 
1701272634.456341000  -1.40789  -0.302861  0.782997  0  0  -0.0678089  0.248798  -0.687109  -0.384428  0  0  0  0.323589  0.654223  0.966185  0  0  0  0  0  0  0  0  0 
1701272634.461324000  -1.40664  -0.306289  0.781087  0  0  -0.0685291  0.250369  -0.68375  -0.379543  0  0  0  0.304663  0.689466  0.987408  0  0  0  0  0  0  0  0  0 
1701272634.466324000  -1.40539  -0.309699  0.779202  0  0  -0.0692492  0.251844  -0.680216  -0.374555  0  0  0  0.284987  0.72396  1.00788  0  0  0  0  0  0  0  0  0 
1701272634.471326000  -1.40412  -0.31309  0.777342  0  0  -0.0699694  0.253218  -0.676511  -0.369466  0  0  0  0.264814  0.757703  1.0276  0  0  0  0  0  0  0  0  0 
1701272634.476337000  -1.40285  -0.316463  0.775507  0  0  -0.0706895  0.254493  -0.67264  -0.36428  0  0  0  0.245259  0.790696  1.04658  0  0  0  0  0  0  0  0  0 
1701272634.481327000  -1.40158  -0.319817  0.773699  0  0  -0.0714097  0.255672  -0.668606  -0.359001  0  0  0  0.226453  0.82294  1.0648  0  0  0  0  0  0  0  0  0 
1701272634.486323000  -1.4003  -0.323149  0.771917  0  0  -0.0721299  0.256759  -0.664412  -0.353633  0  0  0  0.208398  0.854433  1.08227  0  0  0  0  0  0  0  0  0 
1701272634.491324000  -1.39901  -0.32646  0.770163  0  0  -0.07285  0.257757  -0.660063  -0.34818  0  0  0  0.191092  0.885176  1.09899  0  0  0  0  0  0  0  0  0 
1701272634.496342000  -1.39772  -0.32975  0.768436  0  0  -0.0735702  0.258671  -0.655561  -0.342645  0  0  0  0.174537  0.91517  1.11497  0  0  0  0  0  0  0  0  0 
1701272634.501321000  -1.39643  -0.333016  0.766736  0  0  -0.0742903  0.259504  -0.650912  -0.337032  0  0  0  0.158732  0.944413  1.13019  0  0  0  0  0  0  0  0  0 
1701272634.506324000  -1.39513  -0.336258  0.765065  0  0  -0.0750105  0.260259  -0.646119  -0.331344  0  0  0  0.143676  0.972906  1.14466  0  0  0  0  0  0  0  0  0 
1701272634.511324000  -1.39382  -0.339477  0.763423  0  0  -0.0757307  0.260942  -0.641184  -0.325586  0  0  0  0.129371  1.00065  1.15838  0  0  0  0  0  0  0  0  0 
1701272634.516341000  -1.39252  -0.34267  0.76181  0  0  -0.0764508  0.261554  -0.636113  -0.319762  0  0  0  0.115815  1.02764  1.17136  0  0  0  0  0  0  0  0  0 
1701272634.521323000  -1.39121  -0.345838  0.760226  0  0  -0.077171  0.262101  -0.630909  -0.313874  0  0  0  0.10301  1.05389  1.18358  0  0  0  0  0  0  0  0  0 
1701272634.526321000  -1.3899  -0.348979  0.758671  0  0  -0.0778912  0.262586  -0.625576  -0.307927  0  0  0  0.0909545  1.07938  1.19505  0  0  0  0  0  0  0  0  0 
1701272634.531321000  -1.38858  -0.352093  0.757146  0  0  -0.0786113  0.263012  -0.620117  -0.301925  0  0  0  0.0796491  1.10412  1.20577  0  0  0  0  0  0  0  0  0 
1701272634.536353000  -1.38727  -0.35518  0.755652  0  0  -0.0793315  0.263383  -0.614536  -0.29587  0  0  0  0.0690937  1.12812  1.21575  0  0  0  0  0  0  0  0  0 
1701272634.541319000  -1.38595  -0.358238  0.754188  0  0  -0.0800516  0.263704  -0.608837  -0.289768  0  0  0  0.0592883  1.15136  1.22497  0  0  0  0  0  0  0  0  0 
1701272634.546324000  -1.38463  -0.361268  0.752754  0  0  -0.0807718  0.263978  -0.603023  -0.283622  0  0  0  0.0502329  1.17385  1.23344  0  0  0  0  0  0  0  0  0 
1701272634.551326000  -1.38331  -0.364268  0.751352  0  0  -0.081492  0.264208  -0.597099  -0.277435  0  0  0  0.0419275  1.1956  1.24117  0  0  0  0  0  0  0  0  0 
1701272634.556340000  -1.38199  -0.367239  0.74998  0  0  -0.0822121  0.264398  -0.591069  -0.271212  0  0  0  0.0343721  1.21659  1.24814  0  0  0  0  0  0  0  0  0 
1701272634.561322000  -1.38066  -0.370179  0.74864  0  0  -0.0829323  0.264553  -0.584935  -0.264955  0  0  0  0.0275667  1.23683  1.25436  0  0  0  0  0  0  0  0  0 
1701272634.566323000  -1.37934  -0.373088  0.74733  0  0  -0.0836525  0.264675  -0.578702  -0.258669  0  0  0  0.0215113  1.25633  1.25983  0  0  0  0  0  0  0  0  0 
1701272634.571322000  -1.37802  -0.375966  0.746053  0  0  -0.0843726  0.264769  -0.572373  -0.252358  0  0  0  0.0162059  1.27507  1.26456  0  0  0  0  0  0  0  0  0 
1701272634.576338000  -1.37669  -0.378812  0.744807  0  0  -0.0850928  0.264838  -0.565952  -0.246025  0  0  0  0.0116505  1.29306  1.26853  0  0  0  0  0  0  0  0  0 
1701272634.581322000  -1.37537  -0.381625  0.743593  0  0  -0.0858129  0.264887  -0.559443  -0.239674  0  0  0  0.0078451  1.31031  1.27175  0  0  0  0  0  0  0  0  0 
1701272634.586325000  -1.37404  -0.384406  0.74241  0  0  -0.0865331  0.264918  -0.55285  -0.233309  0  0  0  0.0047897  1.3268  1.27422  0  0  0  0  0  0  0  0  0 
1701272634.591324000  -1.37272  -0.387154  0.74126  0  0  -0.0872533  0.264936  -0.546177  -0.226933  0  0  0  0.0024843  1.34254  1.27595  0  0  0  0  0  0  0  0  0 
1701272634.596342000  -1.3714  -0.389868  0.740141  0  0  -0.0879734  0.264944  -0.539426  -0.22055  0  0  0  0.0009289  1.35754  1.27692  0  0  0  0  0  0  0  0  0 
1701272634.601321000  -1.37007  -0.392548  0.739054  0  0  -0.0886936  0.264946  -0.532603  -0.214165  0  0  0  0.0001235  1.37178  1.27714  0  0  0  0  0  0  0  0  0 
1701272634.606323000  -1.36875  -0.395193  0.737999  0  0  -0.0894137  0.264947  -0.52571  -0.20778  0  0  0  -0  1.38527  1.27661  0  0  0  0  0  0  0  0  0 
1701272634.611325000  -1.36742  -0.397805  0.736976  0  0  -0.0901339  0.264947  -0.518751  -0.2014  0  0  0  -0  1.39802  1.27534  0  0  0  0  0  0  0  0  0 
1701272634.616342000  -1.3661  -0.400381  0.735985  0  0  -0.0908541  0.264947  -0.511731  -0.195028  0  0  0  -0  1.41001  1.27331  0  0  0  0  0  0  0  0  0 
1701272634.621322000  -1.36477  -0.402922  0.735026  0  0  -0.0915742  0.264947  -0.504652  -0.188668  0  0  0  -0  1.42125  1.27053  0  0  0  0  0  0  0  0  0 
1701272634.626323000  -1.36345  -0.405427  0.734098  0  0  -0.0922944  0.264947  -0.497519  -0.182324  0  0  0  -0  1.43175  1.267  0  0  0  0  0  0  0  0  0 
1701272634.631323000  -1.36212  -0.407897  0.733203  0  0  -0.0930146  0.264947  -0.490336  -0.175999  0  0  0  -0  1.44149  1.26273  0  0  0  0  0  0  0  0  0 
1701272634.636340000  -1.3608  -0.410331  0.732338  0  0  -0.0937347  0.264947  -0.483106  -0.169698  0  0  0  -0  1.45048  1.2577  0  0  0  0  0  0  0  0  0 
1701272634.641326000  -1.35947  -0.412728  0.731506  0  0  -0.0944549  0.264947  -0.475832  -0.163424  0  0  0  -0  1.45873  1.25192  0  0  0  0  0  0  0  0  0 
1701272634.646324000  -1.35815  -0.415089  0.730704  0  0  -0.095175  0.264947  -0.46852  -0.15718  0  0  0  -0  1.46622  1.2454  0  0  0  0  0  0  0  0  0 
1701272634.651321000  -1.35682  -0.417413  0.729934  0  0  -0.0958952  0.264947  -0.461172  -0.150971  0  0  0  -0  1.47296  1.23812  0  0  0  0  0  0  0  0  0 
1701272634.656343000  -1.3555  -0.4197  0.729194  0  0  -0.0966154  0.264947  -0.453791  -0.1448  0  0  0  -0  1.47896  1.23009  0  0  0  0  0  0  0  0  0 
1701272634.661324000  -1.35417  -0.421951  0.728486  0  0  -0.0973355  0.264947  -0.446383  -0.138671  0  0  0  -0  1.4842  1.22131  0  0  0  0  0  0  0  0  0 
1701272634.666325000  -1.35285  -0.424164  0.727808  0  0  -0.0980557  0.264947  -0.438951  -0.132588  0  0  0  -0  1.48869  1.21179  0  0  0  0  0  0  0  0  0 
1701272634.671324000  -1.35152  -0.42634  0.72716  0  0  -0.0987758  0.264947  -0.431498  -0.126555  0  0  0  -0  1.49244  1.20151  0  0  0  0  0  0  0  0  0 
1701272634.676337000  -1.3502  -0.428479  0.726542  0  0  -0.099496  0.264947  -0.424028  -0.120574  0  0  0  -0  1.49543  1.19048  0  0  0  0  0  0  0  0  0 
1701272634.681323000  -1.34888  -0.430581  0.725954  0  0  -0.100216  0.264947  -0.416544  -0.114651  0  0  0  -0  1.49767  1.1787  0  0  0  0  0  0  0  0  0 
1701272634.686321000  -1.34755  -0.432645  0.725395  0  0  -0.100936  0.264947  -0.409052  -0.108789  0  0  0  -0  1.49917  1.16618  0  0  0  0  0  0  0  0  0 
1701272634.691320000  -1.34623  -0.434671  0.724866  0  0  -0.101656  0.264947  -0.401554  -0.102991  0  0  0  -0  1.49991  1.1529  0  0  0  0  0  0  0  0  0 
1701272634.696342000  -1.3449  -0.43666  0.724365  0  0  -0.102377  0.264947  -0.394054  -0.097261  0  0  0  -0  1.5  1.13887  0  0  0  0  0  0  0  0  0 
1701272634.701321000  -1.34358  -0.438612  0.723893  0  0  -0.103097  0.264947  -0.386554  -0.0916032  0  0  0  -0  1.5  1.12409  0  0  0  0  0  0  0  0  0 
1701272634.706324000  -1.34225  -0.440526  0.723449  0  0  -0.103817  0.264947  -0.379054  -0.0860213  0  0  0  -0  1.5  1.10857  0  0  0  0  0  0  0  0  0 
1701272634.711321000  -1.34093  -0.442402  0.723033  0  0  -0.104537  0.264947  -0.371554  -0.0805188  0  0  0  -0  1.5  1.09229  0  0  0  0  0  0  0  0  0 
1701272634.716340000  -1.3396  -0.444241  0.722644  0  0  -0.105257  0.264947  -0.364054  -0.0750996  0  0  0  -0  1.5  1.07526  0  0  0  0  0  0  0  0  0 
1701272634.721323000  -1.33828  -0.446043  0.722282  0  0  -0.105977  0.264947  -0.356554  -0.0697674  0  0  0  -0  1.5  1.05748  0  0  0  0  0  0  0  0  0 
1701272634.726322000  -1.33695  -0.447807  0.721946  0  0  -0.106698  0.264947  -0.349054  -0.064526  0  0  0  -0  1.49998  1.03896  0  0  0  0  0  0  0  0  0 
1701272634.731324000  -1.33563  -0.449533  0.721636  0  0  -0.107418  0.264947  -0.341555  -0.0593791  0  0  0  -0  1.49946  1.01968  0  0  0  0  0  0  0  0  0 
1701272634.736339000  -1.3343  -0.451222  0.721352  0  0  -0.108138  0.264947  -0.334061  -0.0543305  0  0  0  -0  1.49818  0.999653  0  0  0  0  0  0  0  0  0 
1701272634.741324000  -1.33298  -0.452874  0.721093  0  0  -0.108858  0.264947  -0.326575  -0.0493838  0  0  0  -0  1.49615  0.978876  0  0  0  0  0  0  0  0  0 
1701272634.746324000  -1.33165  -0.454488  0.720858  0  0  -0.109578  0.264947  -0.319101  -0.044543  0  0  0  -0  1.49337  0.957348  0  0  0  0  0  0  0  0  0 
1701272634.751322000  -1.33033  -0.456065  0.720647  0  0  -0.110298  0.264947  -0.311642  -0.0398116  0  0  0  -0  1.48984  0.935071  0  0  0  0  0  0  0  0  0 
1701272634.756342000  -1.329  -0.457605  0.72046  0  0  -0.111019  0.264947  -0.304203  -0.0351935  0  0  0  -0  1.48556  0.912043  0  0  0  0  0  0  0  0  0 
1701272634.761325000  -1.32768  -0.459107  0.720295  0  0  -0.111739  0.264947  -0.296788  -0.0306924  0  0  0  -0  1.48053  0.888266  0  0  0  0  0  0  0  0  0 
1701272634.766324000  -1.32635  -0.460573  0.720153  0  0  -0.112459  0.264947  -0.289399  -0.0263121  0  0  0  -0  1.47476  0.863739  0  0  0  0  0  0  0  0  0 
1701272634.771321000  -1.32503  -0.462001  0.720032  0  0  -0.113179  0.264947  -0.282042  -0.0220563  0  0  0  -0  1.46823  0.838461  0  0  0  0  0  0  0  0  0 
1701272634.776336000  -1.32371  -0.463393  0.719932  0  0  -0.113899  0.264947  -0.274718  -0.0179287  0  0  0  -0  1.46095  0.812434  0  0  0  0  0  0  0  0  0 
1701272634.781322000  -1.32238  -0.464748  0.719852  0  0  -0.114619  0.264947  -0.267433  -0.0139332  0  0  0  -0  1.45292  0.785657  0  0  0  0  0  0  0  0  0 
1701272634.786324000  -1.32106  -0.466067  0.719792  0  0  -0.11534  0.264947  -0.26019  -0.0100734  0  0  0  -0  1.44414  0.758129  0  0  0  0  0  0  0  0  0 
1701272634.791324000  -1.31973  -0.46735  0.719751  0  0  -0.11606  0.264947  -0.252993  -0.0063531  0  0  0  -0  1.43461  0.729852  0  0  0  0  0  0  0  0  0 
1701272634.796342000  -1.31841  -0.468597  0.719729  0  0  -0.11678  0.264947  -0.245845  -0.0027761  0  0  0  -0  1.42434  0.700825  0  0  0  0  0  0  0  0  0 
1701272634.801322000  -1.31708  -0.469809  0.719723  0  0  -0.1175  0.264947  -0.238751  0.0006539  0  0  0  -0  1.41331  0.671047  0  0  0  0  0  0  0  0  0 
1701272634.806324000  -1.31576  -0.470985  0.719735  0  0  -0.11822  0.264947  -0.231714  0.0039331  0  0  0  -0  1.40153  0.64052  0  0  0  0  0  0  0  0  0 
1701272634.811325000  -1.31443  -0.472126  0.719762  0  0  -0.11894  0.264947  -0.224737  0.0070588  0  0  0  -0  1.389  0.609901  0  0  0  0  0  0  0  0  0 
1701272634.816341000  -1.31311  -0.473233  0.719805  0  0  -0.119661  0.264947  -0.217825  0.0100333  0  0  0  -0  1.37572  0.58003  0  0  0  0  0  0  0  0  0 
1701272634.821321000  -1.31178  -0.474304  0.719862  0  0  -0.120381  0.264947  -0.210981  0.0128604  0  0  0  -0  1.36169  0.550908  0  0  0  0  0  0  0  0  0 
1701272634.826322000  -1.31046  -0.475342  0.719933  0  0  -0.121101  0.264947  -0.204209  0.0155437  0  0  0  -0  1.34691  0.522537  0  0  0  0  0  0  0  0  0 
1701272634.831323000  -1.30913  -0.476347  0.720018  0  0  -0.121821  0.264947  -0.197513  0.018087  0  0  0  -0  1.33139  0.494915  0  0  0  0  0  0  0  0  0 
1701272634.836341000  -1.30781  -0.477318  0.720114  0  0  -0.122541  0.264947  -0.190897  0.0204941  0  0  0  -0  1.31511  0.468044  0  0  0  0  0  0  0  0  0 
1701272634.841320000  -1.30648  -0.478256  0.720222  0  0  -0.123261  0.264947  -0.184363  0.0227687  0  0  0  -0  1.29808  0.441922  0  0  0  0  0  0  0  0  0 
1701272634.846325000  -1.30516  -0.479161  0.720342  0  0  -0.123982  0.264947  -0.177917  0.0249145  0  0  0  -0  1.2803  0.416551  0  0  0  0  0  0  0  0  0 
1701272634.851322000  -1.30383  -0.480035  0.720471  0  0  -0.124702  0.264947  -0.171562  0.0269354  0  0  0  -0  1.26177  0.391929  0  0  0  0  0  0  0  0  0 
1701272634.856331000  -1.30251  -0.480877  0.720611  0  0  -0.125422  0.264947  -0.165301  0.0288351  0  0  0  -0  1.24249  0.368058  0  0  0  0  0  0  0  0  0 
1701272634.861320000  -1.30118  -0.481688  0.720759  0  0  -0.126142  0.264947  -0.159138  0.0306173  0  0  0  0.0001687  1.22246  0.344936  0  0  0  0  0  0  0  0  0 
1701272634.866324000  -1.29986  -0.482469  0.720917  0  0  -0.126862  0.264949  -0.153077  0.0322857  0  0  0  0.0010467  1.20169  0.322565  0  0  0  0  0  0  0  0  0 
1701272634.871322000  -1.29854  -0.483219  0.721082  0  0  -0.127582  0.264958  -0.147122  0.0338442  0  0  0  0.0026748  1.18016  0.300943  0  0  0  0  0  0  0  0  0 
1701272634.876335000  -1.29721  -0.48394  0.721255  0  0  -0.128302  0.264977  -0.141277  0.0352964  0  0  0  0.0050528  1.15788  0.280071  0  0  0  0  0  0  0  0  0 
1701272634.881324000  -1.29589  -0.484632  0.721435  0  0  -0.129023  0.26501  -0.135545  0.0366461  0  0  0  0.0081808  1.13485  0.25995  0  0  0  0  0  0  0  0  0 
1701272634.886319000  -1.29456  -0.485296  0.721621  0  0  -0.129743  0.265061  -0.12993  0.0378971  0  0  0  0.0120588  1.11107  0.240578  0  0  0  0  0  0  0  0  0 
1701272634.891353000  -1.29323  -0.485932  0.721814  0  0  -0.130463  0.265132  -0.124435  0.0390532  0  0  0  0.0166869  1.08654  0.221957  0  0  0  0  0  0  0  0  0 
1701272634.896367000  -1.29191  -0.48654  0.722012  0  0  -0.131183  0.265229  -0.119065  0.0401179  0  0  0  0.0220649  1.06127  0.204085  0  0  0  0  0  0  0  0  0 
1701272634.901339000  -1.29058  -0.487123  0.722215  0  0  -0.131903  0.265354  -0.113824  0.0410953  0  0  0  0.0281929  1.03524  0.186964  0  0  0  0  0  0  0  0  0 
1701272634.906335000  -1.28926  -0.487679  0.722422  0  0  -0.132623  0.265512  -0.108714  0.0419888  0  0  0  0.035071  1.00846  0.170592  0  0  0  0  0  0  0  0  0 
1701272634.911333000  -1.28793  -0.48821  0.722635  0  0  -0.133344  0.265706  -0.103741  0.0428024  0  0  0  0.042699  0.98093  0.154971  0  0  0  0  0  0  0  0  0 
1701272634.916342000  -1.2866  -0.488717  0.72285  0  0  -0.134064  0.26594  -0.0989063  0.0435398  0  0  0  0.051077  0.952652  0.140099  0  0  0  0  0  0  0  0  0 
1701272634.921333000  -1.28527  -0.489199  0.72307  0  0  -0.134784  0.266218  -0.0942153  0.0442047  0  0  0  0.060205  0.923623  0.125978  0  0  0  0  0  0  0  0  0 
1701272634.926374000  -1.28394  -0.489659  0.723292  0  0  -0.135504  0.266543  -0.0896713  0.0448008  0  0  0  0.0700831  0.893845  0.112606  0  0  0  0  0  0  0  0  0 
1701272634.931331000  -1.2826  -0.490096  0.723518  0  0  -0.136224  0.26692  -0.0852781  0.045332  0  0  0  0.0807111  0.863316  0.0999848  0  0  0  0  0  0  0  0  0 
1701272634.936343000  -1.28127  -0.490512  0.723746  0  0  -0.136944  0.267352  -0.0810394  0.0458019  0  0  0  0.0920891  0.832038  0.0881133  0  0  0  0  0  0  0  0  0 
1701272634.941329000  -1.27993  -0.490907  0.723976  0  0  -0.137665  0.267842  -0.0769589  0.0462144  0  0  0  0.104217  0.800009  0.0769918  0  0  0  0  0  0  0  0  0 
1701272634.946331000  -1.27859  -0.491282  0.724208  0  0  -0.138385  0.268395  -0.0730405  0.0465731  0  0  0  0.117095  0.767231  0.0666202  0  0  0  0  0  0  0  0  0 
1701272634.951321000  -1.27724  -0.491638  0.724441  0  0  -0.139105  0.269014  -0.0692877  0.0468818  0  0  0  0.130723  0.733877  0.0569987  0  0  0  0  0  0  0  0  0 
1701272634.956343000  -1.2759  -0.491975  0.724676  0  0  -0.139825  0.269704  -0.0657007  0.0471443  0  0  0  0.145101  0.701074  0.0481272  0  0  0  0  0  0  0  0  0 
1701272634.961319000  -1.27455  -0.492295  0.724913  0  0  -0.140545  0.270467  -0.0622757  0.0473643  0  0  0  0.160229  0.66902  0.0400057  0  0  0  0  0  0  0  0  0 
1701272634.966322000  -1.27319  -0.492598  0.72515  0  0  -0.141265  0.271307  -0.0590092  0.0475456  0  0  0  0.176107  0.637717  0.0326342  0  0  0  0  0  0  0  0  0 
1701272634.971321000  -1.27183  -0.492885  0.725388  0  0  -0.141986  0.272229  -0.0558973  0.0476919  0  0  0  0.192735  0.607163  0.0260127  0  0  0  0  0  0  0  0  0 
1701272634.976335000  -1.27047  -0.493157  0.725627  0  0  -0.142706  0.273236  -0.0529363  0.047807  0  0  0  0.210113  0.57736  0.0201411  0  0  0  0  0  0  0  0  0 
1701272634.981323000  -1.2691  -0.493415  0.725866  0  0  -0.143426  0.274331  -0.0501225  0.0478946  0  0  0  0.228241  0.548306  0.0150196  0  0  0  0  0  0  0  0  0 
1701272634.986326000  -1.26773  -0.493659  0.726106  0  0  -0.144146  0.275519  -0.047452  0.0479585  0  0  0  0.247119  0.520002  0.0106481  0  0  0  0  0  0  0  0  0 
1701272634.991321000  -1.26635  -0.49389  0.726346  0  0  -0.144866  0.276804  -0.0449212  0.0480023  0  0  0  0.266747  0.492449  0.0070266  0  0  0  0  0  0  0  0  0 
1701272634.996340000  -1.26496  -0.494108  0.726586  0  0  -0.145586  0.278188  -0.0425263  0.04803  0  0  0  0.287125  0.465645  0.0041551  0  0  0  0  0  0  0  0  0 
1701272635.001321000  -1.26356  -0.494315  0.726826  0  0  -0.146307  0.279676  -0.0402635  0.0480451  0  0  0  0.308254  0.439592  0.0020335  0  0  0  0  0  0  0  0  0 
1701272635.006323000  -1.26216  -0.494511  0.727066  0  0  -0.147027  0.281272  -0.0381291  0.0480516  0  0  0  0.330132  0.414288  0.000662  0  0  0  0  0  0  0  0  0 
1701272635.011324000  -1.26075  -0.494697  0.727306  0  0  -0.147747  0.282979  -0.0361194  0.048053  0  0  0  0.35276  0.389735  4.05e-05  0  0  0  0  0  0  0  0  0 
1701272635.016341000  -1.25933  -0.494872  0.727547  0  0  -0.148467  0.284801  -0.0342305  0.0480532  0  0  0  0.376138  0.365931  0.0001327  0  0  0  0  0  0  0  0  0 
1701272635.021324000  -1.2579  -0.495039  0.727787  0  0  -0.149187  0.286742  -0.0324588  0.0480556  0  0  0  0.400266  0.342878  0.0009537  0  0  0  0  0  0  0  0  0 
1701272635.026321000  -1.25646  -0.495197  0.728027  0  0  -0.149907  0.288805  -0.0308005  0.0480639  0  0  0  0.425144  0.320574  0.0025248  0  0  0  0  0  0  0  0  0 
1701272635.031324000  -1.25501  -0.495347  0.728268  0  0  -0.150627  0.290994  -0.0292518  0.0480821  0  0  0  0.450772  0.299021  0.0048459  0  0  0  0  0  0  0  0  0 
1701272635.036340000  -1.25355  -0.49549  0.728508  0  0  -0.151348  0.293314  -0.027809  0.0481137  0  0  0  0.47715  0.278217  0.007917  0  0  0  0  0  0  0  0  0 
1701272635.041322000  -1.25208  -0.495625  0.728749  0  0  -0.152068  0.295767  -0.0264684  0.0481625  0  0  0  0.504278  0.258163  0.0117381  0  0  0  0  0  0  0  0  0 
1701272635.046323000  -1.2506  -0.495755  0.72899  0  0  -0.152788  0.298358  -0.0252262  0.0482323  0  0  0  0.532156  0.23886  0.0163092  0  0  0  0  0  0  0  0  0 
1701272635.051322000  -1.2491  -0.495878  0.729231  0  0  -0.153508  0.30109  -0.0240786  0.0483268  0  0  0  0.560724  0.220306  0.0216303  0  0  0  0  0  0  0  0  0 
1701272635.056342000  -1.24759  -0.495996  0.729473  0  0  -0.154228  0.303964  -0.0230218  0.0484498  0  0  0  0.588928  0.202503  0.0277014  0  0  0  0  0  0  0  0  0 
1701272635.061324000  -1.24606  -0.496108  0.729716  0  0  -0.154948  0.306978  -0.0220523  0.0486051  0  0  0  0.616382  0.185449  0.0345224  0  0  0  0  0  0  0  0  0 
1701272635.066323000  -1.24452  -0.496216  0.729959  0  0  -0.155669  0.310127  -0.0211661  0.0487963  0  0  0  0.643085  0.169146  0.0420935  0  0  0  0  0  0  0  0  0 
1701272635.071322000  -1.24296  -0.49632  0.730204  0  0  -0.156389  0.313407  -0.0203596  0.0490273  0  0  0  0.669039  0.153592  0.0504146  0  0  0  0  0  0  0  0  0 
1701272635.076340000  -1.24138  -0.49642  0.730449  0  0  -0.157109  0.316816  -0.0196289  0.0493017  0  0  0  0.694243  0.138789  0.0594857  0  0  0  0  0  0  0  0  0 
1701272635.081322000  -1.23979  -0.496516  0.730697  0  0  -0.157829  0.320349  -0.0189704  0.0496234  0  0  0  0.718697  0.124735  0.0693068  0  0  0  0  0  0  0  0  0 
1701272635.086321000  -1.23818  -0.49661  0.730946  0  0  -0.158549  0.324002  -0.0183803  0.049996  0  0  0  0.742401  0.111432  0.0798779  0  0  0  0  0  0  0  0  0 
1701272635.091321000  -1.23655  -0.4967  0.731197  0  0  -0.159269  0.327771  -0.0178549  0.0504234  0  0  0  0.765355  0.098878  0.091199  0  0  0  0  0  0  0  0  0 
1701272635.096342000  -1.2349  -0.496788  0.73145  0  0  -0.15999  0.331654  -0.0173903  0.0509093  0  0  0  0.787559  0.0870744  0.10327  0  0  0  0  0  0  0  0  0 
1701272635.101322000  -1.23323  -0.496874  0.731706  0  0  -0.16071  0.335646  -0.0169829  0.0514574  0  0  0  0.809012  0.0760209  0.116091  0  0  0  0  0  0  0  0  0 
1701272635.106324000  -1.23154  -0.496958  0.731965  0  0  -0.16143  0.339743  -0.0166288  0.0520714  0  0  0  0.829716  0.0657173  0.129662  0  0  0  0  0  0  0  0  0 
1701272635.111323000  -1.22983  -0.497041  0.732227  0  0  -0.16215  0.343942  -0.0163245  0.0527552  0  0  0  0.84967  0.0561638  0.143983  0  0  0  0  0  0  0  0  0 
1701272635.116339000  -1.2281  -0.497122  0.732493  0  0  -0.162871  0.348238  -0.016066  0.0535125  0  0  0  0.868874  0.0473602  0.159054  0  0  0  0  0  0  0  0  0 
1701272635.121323000  -1.22635  -0.497201  0.732762  0  0  -0.163591  0.352629  -0.0158496  0.054347  0  0  0  0.887328  0.0393067  0.174875  0  0  0  0  0  0  0  0  0 
1701272635.126321000  -1.22458  -0.49728  0.733036  0  0  -0.164312  0.35711  -0.0156716  0.0552625  0  0  0  0.905032  0.0320032  0.191447  0  0  0  0  0  0  0  0  0 
1701272635.131324000  -1.22278  -0.497358  0.733315  0  0  -0.165033  0.361678  -0.0155283  0.0562627  0  0  0  0.921986  0.0254496  0.208768  0  0  0  0  0  0  0  0  0 
1701272635.136341000  -1.22096  -0.497436  0.733599  0  0  -0.165754  0.366329  -0.0154159  0.0573514  0  0  0  0.938189  0.0196461  0.226839  0  0  0  0  0  0  0  0  0 
