ts fx fy fz tx ty tz exfx exfy exfz extx exty extz xd yd zd rolld pitchd yawd vxd vyd vzd wxd wyd wzd axd ayd azd e_x e_y e_z e_vx e_vy e_vz e_rx e_ry e_rz e_wx e_wy e_wz
1701272633.264204000  0  0  15.824  -0.0163071  -0.028814  0.00412603  nan  nan  nan  nan  nan  nan  -1.5  0  1  -0.0147229  -0.00988866  0.000145598  0  0  0  0  0  0  0  0  0  0.00508464  -0.007747  -0.0386099  0.000940193  -0.000970697  0.00575947  0.00521973  0.004582  -0.00378056  -0.0310224  -0.00144967  0.00401435 
1701272633.268774000  0  0  15.8308  -0.016992  -0.0469421  0.00411783  nan  nan  nan  nan  nan  nan  -1.5  0  1  -0.0144474  -0.0102304  0.000147811  0  0  0  0  0  0  0  0  0  0.0051893  -0.00776777  -0.0386481  0.00114936  -0.000562237  0.00541547  0.00486183  0.00514712  -0.00377164  -0.025689  0.0242874  0.00397929 
1701272633.273179000  0  0  15.8174  -0.0160856  -0.0247362  0.00466887  nan  nan  nan  nan  nan  nan  -1.5  0  1  -0.0145648  -0.0107546  0.000156646  0  0  0  0  0  0  0  0  0  0.0052009  -0.00777259  -0.0386191  0.00180758  -0.000690268  0.00620255  0.00487518  0.00533318  -0.00384991  -0.0274544  -0.0173384  -0.00371023 
1701272633.278550000  0  0  15.7967  0.012627  -0.0292366  0.0045359  nan  nan  nan  nan  nan  nan  -1.5  0  1  -0.0139574  -0.0105764  0.000147626  0  0  0  0  0  0  0  0  0  0.00527742  -0.0077779  -0.0386  0.00136775  0.000154917  0.00746908  0.00363979  0.00504919  -0.00384541  -0.0643055  -0.00607031  -0.00157748 
1701272633.283130000  0  0  15.795  0.00246045  -0.0207864  0.00468711  nan  nan  nan  nan  nan  nan  -1.5  0  1  -0.0138488  -0.0104977  0.000145387  0  0  0  0  0  0  0  0  0  0.00528423  -0.00777827  -0.0385709  0.00124521  0.000302177  0.00751114  0.00345053  0.00482818  -0.00387524  -0.0440513  -0.018555  -0.00352638 
1701272633.288134000  0  0  15.8201  0.0168319  0.000782221  0.00484369  nan  nan  nan  nan  nan  nan  -1.5  0  1  -0.0137258  -0.0107896  0.000148102  0  0  0  0  0  0  0  0  0  0.00532894  -0.00777876  -0.0386056  0.00154843  0.0004379  0.00600079  0.00284136  0.00468991  -0.00388903  -0.0626018  -0.0553182  -0.00587429 
1701272633.293128000  0  0  15.828  0.0335853  -0.0122228  0.00457644  nan  nan  nan  nan  nan  nan  -1.5  0  1  -0.0129367  -0.010491  0.000135724  0  0  0  0  0  0  0  0  0  0.00537577  -0.00775213  -0.0387254  0.00104516  0.00141516  0.00576456  0.00142175  0.00453871  -0.00383502  -0.076069  -0.0304542  -0.00245436 
1701272633.298150000  0  0  15.8165  0.0275322  0.0203865  0.00473727  nan  nan  nan  nan  nan  nan  -1.5  0  1  -0.0130651  -0.0107833  0.000140889  0  0  0  0  0  0  0  0  0  0.00538679  -0.007749  -0.0386924  0.00139738  0.00124952  0.00642326  0.00132057  0.00408834  -0.00387663  -0.0641422  -0.0832611  -0.00433693 
1701272633.303296000  0  0  15.8379  0.039235  0.017296  0.00426717  nan  nan  nan  nan  nan  nan  -1.5  0  1  -0.0124723  -0.0101986  0.000127204  0  0  0  0  0  0  0  0  0  0.0054212  -0.00772549  -0.0387545  0.000554832  0.00195901  0.00520032  0.000192363  0.00327938  -0.00379936  -0.0719792  -0.0684637  0.00202086 
1701272633.308200000  0  0  15.8259  0.0256115  0.0284244  0.00424468  nan  nan  nan  nan  nan  nan  -1.5  0  1  -0.0124421  -0.0101885  0.000126771  0  0  0  0  0  0  0  0  0  0.00542628  -0.00771744  -0.0387248  0.00051885  0.00199243  0.0058961  9.52771e-05  0.00279014  -0.00379207  -0.0466377  -0.0826266  0.00225571 
1701272633.313205000  0  0  15.8443  0.0334291  0.0416965  0.00360577  nan  nan  nan  nan  nan  nan  -1.5  0  1  -0.0122421  -0.00999167  0.000122323  0  0  0  0  0  0  0  0  0  0.00544646  -0.00768716  -0.0387533  0.000223733  0.00216682  0.0047893  -0.000467556  0.00208056  -0.00367066  -0.054067  -0.0980676  0.0105802 
1701272633.318669000  0  0  15.8472  0.0339578  0.0219833  0.00316802  nan  nan  nan  nan  nan  nan  -1.5  0  1  -0.0117263  -0.00948166  0.000111188  0  0  0  0  0  0  0  0  0  0.00546217  -0.00764812  -0.0387875  -0.000491655  0.00275743  0.00467545  -0.00124968  0.00168075  -0.00352474  -0.0460138  -0.0584167  0.0150744 
1701272633.323188000  0  0  15.8577  0.0222942  0.0389868  0.00327691  nan  nan  nan  nan  nan  nan  -1.5  0  1  -0.0119532  -0.00979677  0.000117106  0  0  0  0  0  0  0  0  0  0.00546702  -0.00763987  -0.0387724  -7.45811e-05  0.00242477  0.00398486  -0.000994989  0.00141338  -0.00349644  -0.0282024  -0.0855778  0.012711 
1701272633.328211000  0  0  15.8646  0.0376008  0.0257802  0.00334528  nan  nan  nan  nan  nan  nan  -1.5  0  1  -0.0113812  -0.00955019  0.000108695  0  0  0  0  0  0  0  0  0  0.00551567  -0.00758828  -0.0388184  -0.000514998  0.00305702  0.00364127  -0.00193757  0.00102575  -0.00344265  -0.0445821  -0.0576368  0.0105325 
1701272633.333187000  0  0  15.8668  0.0223744  0.0257653  0.00406896  nan  nan  nan  nan  nan  nan  -1.5  0  1  -0.0113487  -0.00963092  0.000109302  0  0  0  0  0  0  0  0  0  0.00551676  -0.00757382  -0.0388019  -0.00040811  0.00306345  0.00346524  -0.00189938  0.000882051  -0.00351572  -0.0179458  -0.055958  -0.000139174 
1701272633.338184000  0  0  15.8939  0.0209345  0.0258749  0.00468279  nan  nan  nan  nan  nan  nan  -1.5  0  1  -0.0113705  -0.00996242  0.000113281  0  0  0  0  0  0  0  0  0  0.00555161  -0.00755057  -0.0388753  -2.66792e-05  0.00295261  0.00192039  -0.00203279  0.0009653  -0.00360408  -0.0138513  -0.0571101  -0.00868242 
1701272633.343834000  0  0  15.8955  0.0102713  0.00208401  0.00438756  nan  nan  nan  nan  nan  nan  -1.5  0  1  -0.0111975  -0.0099077  0.000110944  0  0  0  0  0  0  0  0  0  0.00558497  -0.00752852  -0.0389269  -0.000178765  0.00312945  0.00193439  -0.00216015  0.00114654  -0.00358687  0.00657433  -0.0168893  -0.00408595 
1701272633.348141000  0  0  15.8965  -0.0015818  0.0155589  0.00420648  nan  nan  nan  nan  nan  nan  -1.5  0  1  -0.0116896  -0.0104547  0.000122214  -6e-07  6e-07  6e-07  0  0  0  -0.000375  0.000375  0.000375  0.00559132  -0.00752057  -0.0389177  0.000491737  0.00249822  0.00189313  -0.00147317  0.00133003  -0.00357974  0.0197521  -0.0429601  -0.00120062 
1701272633.353135000  0  0  15.9073  -0.00199211  -0.00643765  0.00377297  nan  nan  nan  nan  nan  nan  -1.5  0  1  -0.0116513  -0.0104015  0.000121194  -5e-06  5e-06  5e-06  0  0  0  -0.0015  0.0014996  0.0015  0.00561889  -0.00749694  -0.0389616  0.000223672  0.00262205  0.00141511  -0.00148712  0.00152835  -0.00351125  0.0206421  -0.00612646  0.00471559 
1701272633.358186000  0  0  15.9046  -0.0329108  -0.00534015  0.00406476  nan  nan  nan  nan  nan  nan  -1.5  1e-07  1  -0.0121343  -0.0109579  0.00013297  -1.69e-05  1.55e-05  1.69e-05  0  0  0  -0.003375  0.0025892  0.003375  0.00562484  -0.00748725  -0.0389514  0.000718102  0.00209116  0.00175356  -0.000409753  0.00200371  -0.00354232  0.0632332  -0.013544  0.000443733 
1701272633.363184000  0  0  15.9297  -0.025992  -0.0143605  0.00448575  nan  nan  nan  nan  nan  nan  -1.5  2e-07  1  -0.012276  -0.0118023  0.000144989  -4e-05  2.96e-05  4e-05  0  0  0  -0.006  0.0029289  0.006  0.00572273  -0.00746285  -0.0390045  0.00131079  0.00185953  0.000535823  -0.000147652  0.00284044  -0.00361487  0.0479164  -0.00712531  -0.00518494 
1701272633.368707000  0  0  15.9395  -0.0371166  -0.0360631  0.00484392  nan  nan  nan  nan  nan  nan  -1.5  4e-07  1  -0.0121947  -0.012373  0.000151088  -7.81e-05  4.36e-05  7.81e-05  0  0  0  -0.009375  0.0025185  0.009375  0.00578167  -0.00746228  -0.0390496  0.00152385  0.00190611  0.000339189  0.000129763  0.00377992  -0.0036847  0.0645082  0.0206634  -0.00981761 
1701272633.373190000  0  0  15.938  -0.0458975  -0.0282065  0.00552337  nan  nan  nan  nan  nan  nan  -1.5  6e-07  1  -0.012785  -0.0134195  0.000171972  -0.000135  5.36e-05  0.000135  0  0  0  -0.0135  0.0013619  0.0135  0.00579548  -0.00746097  -0.0390422  0.00237879  0.000969634  0.000823688  0.00108345  0.00463459  -0.00384473  0.0691563  -0.0031346  -0.0180744 
1701272633.378834000  0  0  15.9398  -0.0352574  -0.0607095  0.0050295  nan  nan  nan  nan  nan  nan  -1.5  9e-07  1  -0.0126877  -0.0141089  0.000179614  -0.0002144  5.74e-05  0.0002144  0  0  0  -0.018375  0.0003076  0.018375  0.00586945  -0.00746146  -0.0391037  0.0025207  0.00096813  0.00130422  0.00108665  0.00596281  -0.00382587  0.0501994  0.0393892  -0.0101938 
1701272633.383206000  0  0  15.9358  -0.053729  -0.0514816  0.00490781  nan  nan  nan  nan  nan  nan  -1.5  1.2e-06  1  -0.0129183  -0.0151791  0.000196891  -0.0003192  5.79e-05  0.00032  0  0  0  -0.0234272  -3.3e-06  0.024  0.0058854  -0.00745885  -0.0390927  0.00328338  0.000618919  0.00207567  0.00182674  0.00693922  -0.00384835  0.0745354  0.011753  -0.007729 
1701272633.388208000  0  0  15.9499  -0.0345005  -0.063104  0.00390646  nan  nan  nan  nan  nan  nan  -1.50001  1.5e-06  1.00001  -0.0131263  -0.0166043  0.000218956  -0.0004474  5.71e-05  0.0004556  0  0  0  -0.0277414  -0.0004491  0.030375  0.0060476  -0.00745249  -0.0391341  0.00428696  0.000254285  0.00188683  0.00201347  0.00855617  -0.00370128  0.0381964  0.0138271  0.00615122 
1701272633.393750000  0  0  15.9539  -0.041773  -0.0770527  0.00347272  nan  nan  nan  nan  nan  nan  -1.50001  1.7e-06  1.00001  -0.0129951  -0.0174724  0.000228257  -0.0005953  5.22e-05  0.000625  0  0  0  -0.0313055  -0.0016448  0.0375  0.00612304  -0.00746581  -0.0391468  0.00483275  0.000309365  0.00233196  0.002127  0.00977848  -0.00356791  0.0498228  0.0245757  0.0108202 
1701272633.398193000  0  0  15.9709  -0.04474  -0.0508395  0.00338533  nan  nan  nan  nan  nan  nan  -1.50001  2e-06  1.00001  -0.0130408  -0.0180765  0.000237133  -0.0007592  3.94e-05  0.0008313  0  0  0  -0.0341197  -0.0035905  0.0449212  0.00614419  -0.00746668  -0.0391382  0.00526832  -1.04578e-05  0.00193618  0.00244413  0.009931  -0.00352623  0.0514521  -0.0237901  0.0114755 
1701272633.403184000  0  0  15.9439  -0.0220207  -0.0663432  0.00331615  nan  nan  nan  nan  nan  nan  -1.50002  2.1e-06  1.00002  -0.0126644  -0.0187198  0.000238675  -0.0009353  1.5e-05  0.001073  0  0  0  -0.0361838  -0.0062863  0.0516294  0.00629249  -0.00748143  -0.0391165  0.0054766  0.000223914  0.00422599  0.00195162  0.0107309  -0.00344721  0.0167161  -0.00541967  0.0111067 
1701272633.408191000  0  0  15.9391  -0.0333335  -0.0418665  0.00411685  nan  nan  nan  nan  nan  nan  -1.50002  2.1e-06  1.00002  -0.0124033  -0.0190786  0.000238337  -0.0011198  -2.47e-05  0.0013463  0  0  0  -0.0374979  -0.009732  0.0575876  0.00631739  -0.00748121  -0.0390879  0.00572642  0.000149763  0.00503358  0.0019954  0.0106088  -0.00352891  0.0363289  -0.0475389  -0.000684493 
1701272633.413180000  0  0  15.948  -0.011973  -0.0377565  0.00397537  nan  nan  nan  nan  nan  nan  -1.50003  1.8e-06  1.00003  -0.0120204  -0.0195624  0.000236944  -0.001309  -8.36e-05  0.0016476  0  0  0  -0.0380621  -0.0139277  0.0627958  0.00646008  -0.00749544  -0.0390714  0.00597632  0.000166137  0.00492205  0.00145015  0.0107803  -0.003499  0.00461551  -0.0568201  0.00110081 
1701272633.418701000  0  0  15.9559  -0.00991505  -0.0394184  0.00412461  nan  nan  nan  nan  nan  nan  -1.50003  1.2e-06  1.00004  -0.0111741  -0.0199043  0.000224107  -0.0014992  -0.0001653  0.001973  0  0  0  -0.0378762  -0.0188734  0.0672541  0.00656991  -0.00750224  -0.0390585  0.00620712  0.000694495  0.00480434  0.000681304  0.0108884  -0.00350354  0.0097968  -0.0551076  -0.00130305 
1701272633.423206000  0  0  15.9374  0.00622711  -0.00691271  0.00416938  nan  nan  nan  nan  nan  nan  -1.50004  1e-07  1.00005  -0.0106407  -0.0197739  0.000211801  -0.0016865  -0.0002735  0.0023189  0  0  0  -0.0369404  -0.0245692  0.0709623  0.00660083  -0.00750075  -0.0390253  0.0060429  0.000714127  0.00625398  -1.51247e-05  0.00994727  -0.00351306  -0.0108991  -0.102087  -0.00186684 
1701272633.428205000  0  0  15.9388  0.0211198  -0.00675247  0.00396013  nan  nan  nan  nan  nan  nan  -1.50005  -1.6e-06  1.00006  -0.00964992  -0.0191376  0.000185571  -0.0018673  -0.0004122  0.0026814  0  0  0  -0.0352545  -0.0310149  0.0739205  0.00665496  -0.00750943  -0.0390202  0.00527145  0.00125891  0.00641568  -0.00129461  0.00900917  -0.00345866  -0.0226689  -0.0915853  0.000577327 
1701272633.433153000  0  0  15.9414  0.0167189  0.0220505  0.00413401  nan  nan  nan  nan  nan  nan  -1.50006  -4e-06  1.00008  -0.00872685  -0.0188369  0.000164381  -0.0020378  -0.0005849  0.0030568  0  0  0  -0.0328187  -0.0382106  0.0761287  0.0066834  -0.00750302  -0.0389981  0.00510691  0.00158285  0.00639848  -0.00210849  0.00784203  -0.00348427  -0.00548469  -0.129382  -0.00183138 
1701272633.438207000  0  0  15.9296  0.0532842  0.026508  0.00369447  nan  nan  nan  nan  nan  nan  -1.50007  -7.5e-06  1.00009  -0.00760113  -0.0181203  0.00013643  -0.0021943  -0.0007956  0.0034414  0  0  0  -0.0296328  -0.0461564  0.0775869  0.00674921  -0.00749364  -0.0389659  0.00436611  0.00208746  0.00719202  -0.0037847  0.00653682  -0.00339969  -0.0512308  -0.1223  0.00387525 
1701272633.443280000  0  0  15.9332  0.0447813  0.0398732  0.0035791  nan  nan  nan  nan  nan  nan  -1.50008  -1.21e-05  1.00011  -0.00610576  -0.0174966  0.000103726  -0.0023329  -0.0010478  0.0038315  0  0  0  -0.025697  -0.0548521  0.0782951  0.00677069  -0.00747848  -0.0389362  0.00397382  0.00296953  0.00693999  -0.00520312  0.00521326  -0.00334688  -0.0198012  -0.130847  0.0047828 
1701272633.448211000  0  0  15.9519  0.0583232  0.0534955  0.00362801  nan  nan  nan  nan  nan  nan  -1.50009  -1.8e-05  1.00013  -0.00501556  -0.017147  8.04983e-05  -0.00245  -0.0013453  0.0042232  0  0  0  -0.0210111  -0.0642978  0.0782533  0.00684029  -0.00745813  -0.0389246  0.0039481  0.00319743  0.00571448  -0.00648096  0.00407118  -0.0033174  -0.0291879  -0.141938  0.00339785 
1701272633.453184000  0  0  15.9454  0.0636137  0.0525035  0.0041594  nan  nan  nan  nan  nan  nan  -1.50011  -2.56e-05  1.00015  -0.00339656  -0.016296  4.6648e-05  -0.0025421  -0.001692  0.0046127  0  0  0  -0.0158651  -0.0744935  0.0774615  0.00689419  -0.0074378  -0.0388959  0.00330838  0.00405281  0.00595673  -0.00818898  0.002683  -0.00335745  -0.0189556  -0.124212  -0.00470039 
1701272633.458183000  0  0  15.9506  0.0559818  0.0761696  0.00473258  nan  nan  nan  nan  nan  nan  -1.50012  -3.5e-05  1.00018  -0.00223333  -0.0158852  2.27754e-05  -0.0026098  -0.0020915  0.0049965  0  0  0  -0.0113618  -0.0854393  0.0759198  0.00691161  -0.00742042  -0.0388761  0.00328329  0.0042071  0.00541939  -0.00913365  0.00133841  -0.00345704  0.00547769  -0.150834  -0.0123485 
1701272633.463183000  0  0  15.96  0.082281  0.0670256  0.00458079  nan  nan  nan  nan  nan  nan  -1.50013  -4.66e-05  1.0002  -0.000907144  -0.0149484  -4.24011e-06  -0.0026569  -0.0025476  0.0053707  0  0  0  -0.0076086  -0.097135  0.073628  0.00694292  -0.00739654  -0.0388516  0.00243043  0.00447183  0.00452306  -0.0107699  -2.18879e-05  -0.00346833  -0.0224732  -0.118932  -0.00959709 
1701272633.468194000  0  0  15.9794  0.0600765  0.0698174  0.00494751  nan  nan  nan  nan  nan  nan  -1.50015  -6.06e-05  1.00023  0.000671659  -0.0145506  -3.37727e-05  -0.0026871  -0.0030641  0.0057316  0  0  0  -0.0046053  -0.109581  0.0705862  0.00696433  -0.00737263  -0.0388423  0.00224283  0.00498517  0.00296907  -0.0118863  -0.000920439  -0.00356009  0.0298485  -0.113565  -0.0139495 
1701272633.473184000  0  0  15.9703  0.0713137  0.0715607  0.00440309  nan  nan  nan  nan  nan  nan  -1.50016  -7.74e-05  1.00026  0.00198878  -0.0144292  -6.01955e-05  -0.0027042  -0.0036447  0.0060753  0  0  0  -0.002352  -0.122776  0.0667944  0.00699662  -0.00734765  -0.038821  0.0022718  0.00505096  0.00312607  -0.0130967  -0.00160011  -0.00351679  0.0237846  -0.108849  -0.00569621 
1701272633.478797000  0  0  15.9602  0.0705876  0.0510198  0.00413049  nan  nan  nan  nan  nan  nan  -1.50017  -9.72e-05  1.00029  0.00369246  -0.0138589  -9.16719e-05  -0.0027119  -0.0042931  0.0063982  0  0  0  -0.0008487  -0.136722  0.0622526  0.00701575  -0.00732189  -0.0388091  0.00163571  0.00553821  0.00328341  -0.0144847  -0.00225624  -0.00346571  0.0410349  -0.0647794  -0.00213065 
1701272633.483183000  0  0  15.9628  0.0471485  0.0602616  0.00445972  nan  nan  nan  nan  nan  nan  -1.50019  -0.0001204  1.00032  0.00497181  -0.0140328  -0.000120867  -0.002714  -0.0050132  0.0066966  0  0  0  -9.54e-05  -0.151418  0.0569608  0.00703615  -0.00729979  -0.0388004  0.00191735  0.0053738  0.00260612  -0.0150133  -0.00252486  -0.00351511  0.0887926  -0.0781241  -0.00667407 
1701272633.488194000  0  0  15.9561  0.0665743  0.0379052  0.00403518  nan  nan  nan  nan  nan  nan  -1.5002  -0.0001474  1.00036  0.00646524  -0.0137754  -0.000152559  -0.002714  -0.0058085  0.0069666  0  0  0  -0  -0.166864  0.050919  0.00707134  -0.00728585  -0.0388118  0.00149195  0.00541888  0.00247175  -0.0163032  -0.00271705  -0.0034555  0.0690822  -0.0361604  -0.000736368 
1701272633.493704000  0  0  15.9618  0.0428898  0.034046  0.00406493  nan  nan  nan  nan  nan  nan  -1.50021  -0.0001786  1.00039  0.00797446  -0.0142201  -0.000191396  -0.002714  -0.0066831  0.0072045  0  0  0  -0  -0.183059  0.0441273  0.00711609  -0.0072908  -0.038823  0.00198886  0.00544357  0.00150877  -0.0168839  -0.00237247  -0.00343363  0.117874  -0.0332601  -0.0016546 
1701272633.498183000  0  0  15.9557  0.051181  0.0294145  0.00411695  nan  nan  nan  nan  nan  nan  -1.50023  -0.0002144  1.00043  0.00937435  -0.0143614  -0.000229428  -0.002714  -0.0076404  0.0074067  0  0  0  -0  -0.200005  0.0366689  0.00713525  -0.00726815  -0.0388243  0.00212602  0.00515377  0.00119999  -0.0177823  -0.00233219  -0.0034261  0.113461  -0.0254876  -0.00266827 
1701272633.503185000  0  0  15.955  0.0504544  0.000574189  0.00440805  nan  nan  nan  nan  nan  nan  -1.50024  -0.0002552  1.00047  0.0112371  -0.0144373  -0.000276234  -0.002714  -0.0086844  0.0075721  0  0  0  -0  -0.217701  0.0296275  0.00716052  -0.00727217  -0.0388658  0.00216755  0.00545947  0.000678291  -0.0189877  -0.00176962  -0.00342844  0.128614  0.019327  -0.00748246 
1701272633.508194000  0  0  15.9424  0.0385838  0.00417999  0.00431252  nan  nan  nan  nan  nan  nan  -1.50025  -0.0003014  1.00051  0.0128618  -0.0148306  -0.000326551  -0.002714  -0.0098186  0.0077042  0  0  0  -0  -0.236147  0.0233361  0.00717252  -0.00724905  -0.0388609  0.00265234  0.00527368  0.000885031  -0.0196081  -0.00140374  -0.00341532  0.156856  0.00870816  -0.00614075 
1701272633.513186000  0  0  15.9209  0.0475909  -0.025199  0.00406446  nan  nan  nan  nan  nan  nan  -1.50027  -0.0003535  1.00054  0.0144133  -0.0148989  -0.000375349  -0.002714  -0.0110471  0.0078067  0  0  0  -0  -0.255342  0.0177946  0.00722472  -0.00727665  -0.0388686  0.00259298  0.00500437  0.0017535  -0.0205217  -0.000670308  -0.00336354  0.151344  0.0525162  -0.00299825 
1701272633.518701000  0  0  15.9374  0.0133764  -0.0290148  0.00460815  nan  nan  nan  nan  nan  nan  -1.50028  -0.000412  1.00058  0.0158979  -0.015747  -0.000438955  -0.002714  -0.0123733  0.0078834  0  0  0  -0  -0.275288  0.0130032  0.00727784  -0.00729976  -0.0388714  0.0036246  0.00458544  0.000301729  -0.0204713  0.000562753  -0.00341356  0.211605  0.045123  -0.0111096 
1701272633.523184000  0  0  15.924  0.0229712  -0.0357348  0.00414639  nan  nan  nan  nan  nan  nan  -1.5003  -0.0004774  1.00062  0.017778  -0.0157258  -0.000499491  -0.002714  -0.0138012  0.007938  0  0  0  -0  -0.295984  0.0089618  0.00730014  -0.00727633  -0.038869  0.00352716  0.00445238  0.000778194  -0.0214426  0.000803819  -0.00334788  0.205712  0.0543005  -0.00466771 
1701272633.528194000  0  0  15.8971  0.0112177  -0.0498839  0.00355722  nan  nan  nan  nan  nan  nan  -1.50031  -0.0005502  1.00066  0.0196713  -0.0163385  -0.000576327  -0.002714  -0.0153344  0.0079743  0  0  0  -0  -0.317429  0.0056704  0.00740736  -0.00731218  -0.0387736  0.00405587  0.00435872  0.00198931  -0.0218152  0.00187366  -0.0032444  0.230897  0.0671586  0.00317208 
1701272633.533184000  0  0  15.9014  -0.0030775  -0.0343862  0.00356779  nan  nan  nan  nan  nan  nan  -1.50032  -0.000631  1.0007  0.0217108  -0.0165634  -0.000653446  -0.002714  -0.0169767  0.0079959  0  0  0  -0  -0.339625  0.0031289  0.00742649  -0.00729338  -0.0387694  0.0043197  0.00428388  0.00150556  -0.0223177  0.00208791  -0.00319749  0.262095  0.0371372  0.00209127 
1701272633.538332000  0  0  15.8673  -0.000879997  -0.0539019  0.00316793  nan  nan  nan  nan  nan  nan  -1.50034  -0.0007202  1.00074  0.0236482  -0.0167458  -0.000732864  -0.002714  -0.0187319  0.0080068  0  0  0  -0  -0.362571  0.0013375  0.00753734  -0.00734272  -0.0386551  0.00425262  0.0040679  0.00326925  -0.0227868  0.00274227  -0.00309918  0.26358  0.0643155  0.00687088 
1701272633.543134000  0  0  15.8647  -0.0169472  -0.0422039  0.00339285  nan  nan  nan  nan  nan  nan  -1.50035  -0.0008185  1.00078  0.0253974  -0.017758  -0.000835079  -0.002714  -0.0206037  0.0080106  0  0  0  -0  -0.386267  0.0002961  0.00766492  -0.00740687  -0.0386077  0.00529706  0.00359776  0.00328612  -0.022788  0.00386001  -0.0030407  0.292164  0.0306619  0.00198865 
1701272633.548146000  0  0  15.856  0.00547697  -0.0384431  0.00305582  nan  nan  nan  nan  nan  nan  -1.50036  -0.0009264  1.00082  0.0278433  -0.0175505  -0.000924466  -0.002714  -0.0225958  0.008011  0  0  0  -0  -0.410712  -0  0.00768564  -0.00739094  -0.0385878  0.00496279  0.00375894  0.00379574  -0.0240436  0.00371579  -0.00292482  0.266728  0.0256328  0.00538066 
1701272633.553145000  0  0  15.8562  -0.00101745  -0.0489635  0.00303263  nan  nan  nan  nan  nan  nan  -1.50038  -0.0010446  1.00086  0.0302022  -0.018267  -0.00104394  -0.002714  -0.0247121  0.008011  0  0  0  -0  -0.435908  -4.54e-05  0.00785234  -0.00746944  -0.038542  0.00552443  0.00395441  0.00372986  -0.0248448  0.0045815  -0.00283108  0.287489  0.0343857  0.00396037 
1701272633.558185000  0  0  15.8423  0.0144669  -0.0289408  0.0033784  nan  nan  nan  nan  nan  nan  -1.50039  -0.0011738  1.0009  0.0327718  -0.018238  -0.00115107  -0.002714  -0.0269562  0.0080095  0  0  0  -0  -0.461854  -0.0006812  0.00787723  -0.00745423  -0.0385165  0.00541154  0.00407495  0.00454216  -0.0260716  0.00434808  -0.00279623  0.274061  0.00146557  -0.00248372 
1701272633.563189000  0  0  15.8112  0.0256765  -0.0323232  0.0034094  nan  nan  nan  nan  nan  nan  -1.5004  -0.0013144  1.00094  0.0356947  -0.0183307  -0.00127395  -0.0027137  -0.0293319  0.0080029  0  0  0  0.0002681  -0.48855  -0.002067  0.00800812  -0.0075048  -0.0384337  0.00521454  0.00467265  0.00625475  -0.0276144  0.0043838  -0.00274765  0.271868  0.00706931  -0.00393768 
1701272633.568194000  0  0  15.8229  0.0203923  -0.0163803  0.00349016  nan  nan  nan  nan  nan  nan  -1.50042  -0.0014673  1.00098  0.0391138  -0.0181137  -0.00139962  -0.0027101  -0.0318429  0.0079875  0  0  0  0.0012774  -0.515995  -0.0042029  0.00804177  -0.00747808  -0.0384157  0.00499902  0.00577612  0.00535002  -0.0293209  0.00395511  -0.00269149  0.300887  -0.0163507  -0.00636856 
1701272633.573147000  0  0  15.7891  0.0504724  -0.00442875  0.0030883  nan  nan  nan  nan  nan  nan  -1.50043  -0.0016331  1.00102  0.041948  -0.0180903  -0.00152665  -0.0026996  -0.0344931  0.0079596  0  0  0  0.0030365  -0.544191  -0.0070887  0.00817588  -0.00753025  -0.03834  0.00482363  0.00604266  0.00711151  -0.0310129  0.00349637  -0.00257112  0.266854  -0.0323281  -0.0019812 
1701272633.578152000  0  0  15.7709  0.0434321  0.00897622  0.00307225  nan  nan  nan  nan  nan  nan  -1.50044  -0.0018125  1.00106  0.045695  -0.0176698  -0.00165734  -0.0026785  -0.0372861  0.0079154  0  0  0  0.0055458  -0.573137  -0.0107245  0.00825525  -0.00755415  -0.0383044  0.00437297  0.00740248  0.00793574  -0.0330056  0.00272837  -0.00249091  0.302286  -0.0473338  -0.00325982 
1701272633.583203000  0  0  15.771  0.0738215  0.0259651  0.00282049  nan  nan  nan  nan  nan  nan  -1.50046  -0.0020062  1.0011  0.0490987  -0.0171279  -0.00177859  -0.0026429  -0.0402257  0.0078511  0  0  0  0.008805  -0.602833  -0.0151104  0.00828531  -0.00752199  -0.0382722  0.00400146  0.00814453  0.00752574  -0.035165  0.00171901  -0.00235911  0.273078  -0.0659371  -0.00159813 
1701272633.588203000  0  0  15.7445  0.0942645  0.0241013  0.0022734  nan  nan  nan  nan  nan  nan  -1.50047  -0.002215  1.00114  0.0527058  -0.0163735  -0.00189404  -0.0025892  -0.0433156  0.0077631  0  0  0  0.0128142  -0.633278  -0.0202462  0.00836099  -0.00756601  -0.0382052  0.0032962  0.00912994  0.00865512  -0.0375036  0.000784406  -0.00220202  0.263618  -0.0518763  0.00450558 
1701272633.593707000  0  0  15.7602  0.0785595  0.0443523  0.00210174  nan  nan  nan  nan  nan  nan  -1.50048  -0.0024396  1.00118  0.055931  -0.0158154  -0.00201476  -0.0025135  -0.0465597  0.0076474  0  0  0  0.0175734  -0.664474  -0.026132  0.00840154  -0.00760738  -0.0381909  0.00308808  0.00969035  0.00719232  -0.0388406  -0.000253681  -0.00205296  0.306918  -0.0759498  0.00449725 
1701272633.598199000  0  0  15.7601  0.12273  0.0383562  0.00176406  nan  nan  nan  nan  nan  nan  -1.5005  -0.0026808  1.00122  0.0602207  -0.0146473  -0.00211731  -0.0024122  -0.0499616  0.0075005  0  0  0  0.0230826  -0.69642  -0.0327679  0.00842078  -0.00753781  -0.0381692  0.0021979  0.0112395  0.00661954  -0.0422134  -0.00149569  -0.0018722  0.267156  -0.0510063  0.00664911 
1701272633.603206000  0  0  15.754  0.110877  0.0471033  0.00239811  nan  nan  nan  nan  nan  nan  -1.50051  -0.0029395  1.00126  0.0643068  -0.0138176  -0.00223476  -0.0022815  -0.0535252  0.0073185  0  0  0  0.0293418  -0.729115  -0.0401537  0.00847191  -0.00755859  -0.0381295  0.00176668  0.0126057  0.00636982  -0.0444684  -0.00258338  -0.00185843  0.314162  -0.0540534  -0.00420074 
1701272633.608198000  0  0  15.7674  0.122697  0.0560269  0.0027558  nan  nan  nan  nan  nan  nan  -1.50052  -0.0032164  1.00129  0.0680461  -0.0128507  -0.00233767  -0.0021176  -0.057254  0.0070977  0  0  0  0.036351  -0.762457  -0.0482895  0.00848146  -0.00750087  -0.0381028  0.00136905  0.0133522  0.00483274  -0.0465717  -0.0038604  -0.00182429  0.317329  -0.0552373  -0.0108299 
1701272633.613207000  0  0  15.7565  0.126453  0.0457456  0.0026011  nan  nan  nan  nan  nan  nan  -1.50053  -0.0035123  1.00133  0.07232  -0.0114802  -0.00241648  -0.0019167  -0.0611488  0.0068344  0  0  0  0.0441102  -0.795343  -0.0571754  0.00851763  -0.00748208  -0.0380523  0.000440138  0.014823  0.00472819  -0.0490684  -0.00510436  -0.00173956  0.33936  -0.0226516  -0.00988105 
1701272633.618724000  0  0  15.7491  0.108583  0.0653153  0.00271693  nan  nan  nan  nan  nan  nan  -1.50054  -0.0038281  1.00136  0.0757305  -0.0108256  -0.00253528  -0.0016752  -0.0652062  0.0065247  0  0  0  0.0526194  -0.827479  -0.0668112  0.00856955  -0.00748641  -0.0379783  0.000521463  0.0153044  0.00431706  -0.0500182  -0.0061035  -0.00169884  0.382057  -0.0459614  -0.0125998 
1701272633.623206000  0  0  15.7481  0.13206  0.0585206  0.00203677  nan  nan  nan  nan  nan  nan  -1.50055  -0.0041646  1.00139  0.0800731  -0.00930664  -0.0025959  -0.0013893  -0.0694223  0.006165  0  0  0  0.0618786  -0.858866  -0.077197  0.00857209  -0.00738213  -0.0379651  -0.000323055  0.0169032  0.0035452  -0.0527765  -0.00753143  -0.00153622  0.372027  -0.0174601  -0.00438114 
1701272633.628199000  0  0  15.7546  0.106425  0.0575821  0.0020197  nan  nan  nan  nan  nan  nan  -1.50055  -0.0045226  1.00142  0.0839251  -0.00809607  -0.00267156  -0.0010552  -0.0737936  0.0057515  0  0  0  0.0718878  -0.889502  -0.0883329  0.00859789  -0.00734096  -0.0379296  -0.000716174  0.0181403  0.00224248  -0.0540285  -0.00857743  -0.00145328  0.432007  -0.00376359  -0.00569534 
1701272633.633205000  0  0  15.7417  0.111634  0.0747239  0.00218395  nan  nan  nan  nan  nan  nan  -1.50056  -0.0049028  1.00145  0.0873779  -0.00678362  -0.00273245  -0.0006691  -0.0783161  0.0052804  0  0  0  0.082647  -0.919388  -0.100219  0.0086016  -0.00725719  -0.037916  -0.00111169  0.0187027  0.00211825  -0.055234  -0.0100755  -0.0013927  0.436605  -0.0170194  -0.00960517 
1701272633.638206000  0  0  15.7223  0.102428  0.0587786  0.00221105  nan  nan  nan  nan  nan  nan  -1.50056  -0.005306  1.00147  0.0910318  -0.00531059  -0.00277687  -0.0002274  -0.0829862  0.0047481  0  0  0  0.0941562  -0.948525  -0.112855  0.00862775  -0.00722352  -0.0378647  -0.00168016  0.0196862  0.00228709  -0.0562956  -0.0110933  -0.00135092  0.465182  0.0230374  -0.010863 
1701272633.643720000  0  0  15.7341  0.0694047  0.0639159  0.00239512  nan  nan  nan  nan  nan  nan  -1.50056  -0.0057329  1.0015  0.0934795  -0.00442752  -0.00286739  0.0002737  -0.0878001  0.0041506  0  0  0  0.106415  -0.976911  -0.12624  0.00867842  -0.00723828  -0.0378429  -0.00141748  0.0195075  0.000492992  -0.055501  -0.0117914  -0.00132928  0.514767  0.0219294  -0.014353 
1701272633.648203000  0  0  15.7045  0.0773451  0.0690084  0.00204479  nan  nan  nan  nan  nan  nan  -1.50056  -0.0061842  1.00151  0.0975156  -0.00263442  -0.00287641  0.000838  -0.0927541  0.0034844  0  0  0  0.119425  -1.00455  -0.140376  0.00867236  -0.00710424  -0.0378238  -0.00214164  0.0208495  0.00125579  -0.057186  -0.013389  -0.00123044  0.520023  0.0312438  -0.0104106 
1701272633.653204000  0  0  15.7135  0.0537792  0.0605009  0.00169668  nan  nan  nan  nan  nan  nan  -1.50055  -0.0066607  1.00153  0.101221  -0.00094722  -0.00288761  0.0014692  -0.0978443  0.0027456  0  0  0  0.133184  -1.03143  -0.155262  0.0086579  -0.00699686  -0.0378343  -0.00259999  0.0222144  -0.000370533  -0.057761  -0.014577  -0.00114294  0.56854  0.0600331  -0.00628656 
1701272633.658204000  0  0  15.7059  0.0433043  0.0588535  0.00195107  nan  nan  nan  nan  nan  nan  -1.50054  -0.0071629  1.00154  0.103754  0.000568388  -0.00291111  0.002171  -0.103067  0.0019305  0  0  0  0.147693  -1.05757  -0.170898  0.00868315  -0.00695181  -0.0378026  -0.00283779  0.0221246  -0.0011509  -0.0571908  -0.0155716  -0.00114247  0.580609  0.0743988  -0.0105422 
1701272633.663204000  0  0  15.6582  0.0252108  0.0537167  0.00202516  nan  nan  nan  nan  nan  nan  -1.50053  -0.0076916  1.00155  0.106927  0.00215859  -0.0029238  0.0029474  -0.108419  0.0010354  0  0  0  0.162952  -1.08296  -0.187284  0.00873374  -0.00690715  -0.0377687  -0.0031308  0.0226098  0.000577896  -0.0569992  -0.0164895  -0.00113078  0.610579  0.0940878  -0.0120043 
1701272633.668738000  0  0  15.6515  -0.0036938  0.0444831  0.00184863  nan  nan  nan  nan  nan  nan  -1.50051  -0.0082473  1.00155  0.108906  0.00344144  -0.00297062  0.0038018  -0.113895  5.64e-05  0  0  0  0.178961  -1.10759  -0.20442  0.00877752  -0.00695218  -0.0377224  -0.00290852  0.0221774  -0.000400207  -0.0551518  -0.0168673  -0.00108022  0.640736  0.11485  -0.0100324 
1701272633.673202000  0  0  15.6218  -0.00307926  0.0377591  0.0014374  nan  nan  nan  nan  nan  nan  -1.50049  -0.0088307  1.00155  0.112525  0.00536951  -0.00293784  0.0047382  -0.119493  -0.0010101  0  0  0  0.195721  -1.13148  -0.222305  0.0087649  -0.00679186  -0.037722  -0.00329508  0.0232963  0.000139247  -0.0558458  -0.0179841  -0.000988522  0.647622  0.139649  -0.00493561 
1701272633.678206000  0  0  15.6038  -0.0296505  0.0372425  0.00129571  nan  nan  nan  nan  nan  nan  -1.50046  -0.0094424  1.00154  0.115198  0.00690958  -0.002949  0.0057603  -0.125209  -0.0021679  0  0  0  0.21323  -1.15462  -0.240941  0.00882369  -0.00677912  -0.0377026  -0.00324607  0.0237058  -0.000166802  -0.0548755  -0.0186772  -0.00091865  0.683714  0.148537  -0.0039176 
1701272633.683204000  0  0  15.5765  -0.0249338  0.0314654  0.00102879  nan  nan  nan  nan  nan  nan  -1.50043  -0.010083  1.00153  0.118244  0.0093674  -0.00284579  0.0068718  -0.131038  -0.0034207  0  0  0  0.231489  -1.177  -0.260327  0.00880583  -0.0066625  -0.0377044  -0.00411943  0.0243562  9.95544e-05  -0.0546146  -0.0200766  -0.000858953  0.672327  0.174901  -0.000612853 
1701272633.688200000  0  0  15.5054  -0.0320682  0.0379634  0.00111088  nan  nan  nan  nan  nan  nan  -1.50039  -0.010753  1.00151  0.121021  0.0108996  -0.00284947  0.0080757  -0.136978  -0.0047724  0  0  0  0.249973  -1.19864  -0.280463  0.00886287  -0.00664971  -0.0376276  -0.00387353  0.0245281  0.00287995  -0.0539429  -0.0206837  -0.000819809  0.67729  0.170326  -0.00273782 
1701272633.693721000  0  0  15.4868  -0.0471985  0.0258735  0.00112451  nan  nan  nan  nan  nan  nan  -1.50035  -0.011453  1.00148  0.123206  0.012467  -0.00285391  0.0093703  -0.143023  -0.0062266  0  0  0  0.267727  -1.21952  -0.301349  0.00891712  -0.00667969  -0.0375371  -0.00379286  0.0246339  0.00225237  -0.0521485  -0.0209044  -0.000806582  0.683561  0.194363  -0.00322044 
1701272633.698207000  0  0  15.4479  -0.0235387  0.0231978  0.00102313  nan  nan  nan  nan  nan  nan  -1.5003  -0.0121834  1.00145  0.127071  0.0148494  -0.00272953  0.0107517  -0.149172  -0.0077871  0  0  0  0.284731  -1.23966  -0.322985  0.00889294  -0.00649152  -0.0375254  -0.00465402  0.0262825  0.00306608  -0.0532881  -0.0221628  -0.000757294  0.654593  0.21359  -0.00247839 
1701272633.703205000  0  0  15.3914  -0.0355964  0.0432634  0.00164465  nan  nan  nan  nan  nan  nan  -1.50024  -0.0129448  1.0014  0.129877  0.0160782  -0.00276189  0.0122163  -0.155419  -0.0094577  0  0  0  0.300985  -1.25905  -0.34537  0.00898871  -0.00649367  -0.0374062  -0.00434947  0.0268792  0.00464766  -0.05259  -0.0225519  -0.000780937  0.668007  0.182384  -0.0123977 
1701272633.708199000  0  0  15.3716  -0.0176158  0.0231405  0.00192182  nan  nan  nan  nan  nan  nan  -1.50018  -0.0137377  1.00135  0.133171  0.0183802  -0.00264106  0.0137603  -0.161761  -0.0112421  0  0  0  0.316489  -1.27768  -0.368506  0.00896877  -0.00635618  -0.0373935  -0.00530091  0.0282552  0.00412055  -0.0528547  -0.0234515  -0.00085641  0.639077  0.228511  -0.0155693 
1701272633.713204000  0  0  15.3156  -0.0202517  0.0220949  0.00196471  nan  nan  nan  nan  nan  nan  -1.50011  -0.0145626  1.00129  0.136278  0.0198227  -0.00263282  0.0153799  -0.168194  -0.013144  0  0  0  0.331242  -1.29557  -0.392392  0.00903679  -0.00629431  -0.0373198  -0.00536837  0.0292292  0.0056729  -0.0526803  -0.02355  -0.000875824  0.641759  0.231502  -0.015911 
1701272633.718205000  0  0  15.272  -0.0160636  0.0355182  0.00219836  nan  nan  nan  nan  nan  nan  -1.50002  -0.0154198  1.00122  0.139736  0.0218093  -0.00253751  0.0170715  -0.174715  -0.0151673  0  0  0  0.345246  -1.31271  -0.417028  0.00900147  -0.00614598  -0.0372911  -0.00599447  0.0306576  0.0065025  -0.0529341  -0.0245472  -0.000912044  0.63723  0.2191  -0.019113 
1701272633.723190000  0  0  15.2037  0.00605157  0.0080655  0.00164751  nan  nan  nan  nan  nan  nan  -1.49993  -0.0163099  1.00114  0.14271  0.0228571  -0.00258104  0.0188312  -0.18132  -0.0173155  0  0  0  0.3585  -1.32909  -0.442414  0.00912708  -0.00608885  -0.0371589  -0.00582313  0.0314541  0.0085427  -0.0530665  -0.0239973  -0.000918064  0.599428  0.261593  -0.00980141 
1701272633.728200000  0  0  15.1682  -0.0118382  0.00734505  0.0021721  nan  nan  nan  nan  nan  nan  -1.49984  -0.0172332  1.00105  0.145571  0.0231266  -0.00274118  0.0206552  -0.188005  -0.0195926  0  0  0  0.371004  -1.34473  -0.46855  0.00932185  -0.00604531  -0.0370583  -0.004956  0.0325904  0.00854598  -0.0525634  -0.0229524  -0.000982951  0.625454  0.250859  -0.0173076 
1701272633.733202000  0  0  15.1103  0.019684  0.00581827  0.00245086  nan  nan  nan  nan  nan  nan  -1.49973  -0.0181901  1.00094  0.148955  0.0254499  -0.00258525  0.02254  -0.194766  -0.0220023  0  0  0  0.382758  -1.35961  -0.495435  0.00928961  -0.00588272  -0.0370014  -0.00623516  0.0339175  0.00999603  -0.0533335  -0.0239016  -0.00107798  0.578257  0.264488  -0.0201288 
1701272633.738205000  0  0  15.0309  0.0326083  -0.00515785  0.00248351  nan  nan  nan  nan  nan  nan  -1.49961  -0.019181  1.00083  0.152454  0.026268  -0.00264749  0.0244816  -0.2016  -0.0245482  0  0  0  0.393762  -1.37375  -0.523059  0.00940527  -0.00577474  -0.0368537  -0.00596181  0.0352946  0.0125498  -0.0540577  -0.0231181  -0.00115475  0.563602  0.274996  -0.0191935 
1701272633.743205000  0  0  15  0.0377548  0.000615947  0.00274616  nan  nan  nan  nan  nan  nan  -1.49948  -0.0202062  1.0007  0.155714  0.0278133  -0.00260242  0.0264763  -0.208503  -0.0272325  0  0  0  0.404016  -1.38714  -0.550503  0.00937498  -0.00559588  -0.0368026  -0.00645703  0.0368824  0.0122879  -0.0545071  -0.0233858  -0.00122239  0.559618  0.267808  -0.0222738 
1701272633.748202000  0  0  14.9479  0.0562744  -0.0126768  0.00216531  nan  nan  nan  nan  nan  nan  -1.49935  -0.0212661  1.00055  0.158992  0.0291446  -0.00258701  0.0285205  -0.21547  -0.030052  0  0  0  0.41352  -1.39977  -0.577197  0.00945615  -0.00543584  -0.036642  -0.00698107  0.0383322  0.0131716  -0.0552346  -0.0230708  -0.00124059  0.535052  0.287822  -0.0122268 
1701272633.753204000  0  0  14.9068  0.0446886  0.00157803  0.00269254  nan  nan  nan  nan  nan  nan  -1.4992  -0.022361  1.0004  0.162468  0.029856  -0.00266418  0.0306103  -0.222499  -0.0330032  0  0  0  0.422274  -1.41166  -0.603142  0.00956162  -0.00526306  -0.0365454  -0.00688152  0.0402078  0.0136213  -0.0557694  -0.0226561  -0.00131728  0.561803  0.257707  -0.0195494 
1701272633.758206000  0  0  14.894  0.061006  0.00210689  0.00227835  nan  nan  nan  nan  nan  nan  -1.49904  -0.0234912  1.00022  0.165413  0.0317237  -0.00256615  0.032742  -0.229585  -0.0360822  0  0  0  0.430278  -1.4228  -0.628336  0.00952189  -0.00506069  -0.0364842  -0.00806323  0.0418149  0.0123984  -0.0561636  -0.0231992  -0.00128698  0.537321  0.263012  -0.0132193 
1701272633.763204000  0  0  14.8575  0.0568814  0.00212428  0.00239573  nan  nan  nan  nan  nan  nan  -1.49887  -0.0246569  1.00003  0.168564  0.033093  -0.00254067  0.0349118  -0.236726  -0.0392853  0  0  0  0.437531  -1.43318  -0.65278  0.00952532  -0.00485708  -0.0364087  -0.00873847  0.0434256  0.0127304  -0.0565968  -0.0231214  -0.00131094  0.549636  0.262086  -0.0147168 
1701272633.768198000  0  0  14.8277  0.0466692  0.0212412  0.00261374  nan  nan  nan  nan  nan  nan  -1.49869  -0.0258585  0.99983  0.171285  0.0346119  -0.00250182  0.037116  -0.243916  -0.0426087  0  0  0  0.444035  -1.44282  -0.676474  0.00948109  -0.00463936  -0.036352  -0.00959174  0.0446356  0.0127196  -0.0563583  -0.0236563  -0.001304  0.565054  0.234242  -0.0184899 
1701272633.773184000  0  0  14.7812  0.0638449  0.00844727  0.00192296  nan  nan  nan  nan  nan  nan  -1.4985  -0.0270962  0.999608  0.174119  0.0359872  -0.00248169  0.0393509  -0.251153  -0.0460488  0  0  0  0.449789  -1.45171  -0.699418  0.00949013  -0.00441706  -0.0362505  -0.0104269  0.0458106  0.0137307  -0.056752  -0.0234561  -0.00124627  0.539039  0.25469  -0.00807167 
1701272633.778181000  0  0  14.7778  0.0399606  0.0124375  0.00205807  nan  nan  nan  nan  nan  nan  -1.4983  -0.0283701  0.999369  0.177006  0.0367729  -0.002563  0.0416127  -0.258432  -0.0496017  0  0  0  0.454793  -1.45984  -0.721613  0.00951719  -0.00415883  -0.0361709  -0.0107713  0.0476703  0.0121995  -0.0565908  -0.0229011  -0.00122802  0.579656  0.241214  -0.010679 
1701272633.783182000  0  0  14.7581  0.0491446  0.014069  0.00200846  nan  nan  nan  nan  nan  nan  -1.49808  -0.0296806  0.999112  0.179129  0.0385476  -0.00249652  0.0438976  -0.26575  -0.0532637  0  0  0  0.459047  -1.46723  -0.743057  0.0094519  -0.00392324  -0.0361128  -0.0121859  0.0484878  0.0117184  -0.0560486  -0.0234398  -0.00117969  0.55709  0.244507  -0.0107826 
1701272633.788192000  0  0  14.6846  0.0499673  0.00892126  0.00226292  nan  nan  nan  nan  nan  nan  -1.49786  -0.0310277  0.998836  0.182121  0.039521  -0.00253969  0.0462019  -0.273103  -0.057031  0  0  0  0.462551  -1.47386  -0.763751  0.0094822  -0.00364886  -0.03602  -0.0127302  0.0495473  0.0146806  -0.0563228  -0.0230162  -0.00121692  0.55878  0.24879  -0.0143125 
1701272633.793720000  0  0  14.6818  0.0236097  0.0115485  0.00284576  nan  nan  nan  nan  nan  nan  -1.49762  -0.0324116  0.998541  0.183584  0.0398177  -0.00277245  0.0485218  -0.280487  -0.0608999  0  0  0  0.465305  -1.47975  -0.783695  0.00950798  -0.00347315  -0.0359852  -0.0127246  0.050112  0.0132829  -0.0544416  -0.0219238  -0.0012751  0.584018  0.231557  -0.0229203 
1701272633.798188000  0  0  14.6516  0.0355079  0.00569725  0.00219373  nan  nan  nan  nan  nan  nan  -1.49737  -0.0338326  0.998227  0.186271  0.0414315  -0.00271189  0.0508537  -0.287899  -0.0648667  0  0  0  0.467309  -1.48489  -0.802889  0.00941884  -0.00309816  -0.0358957  -0.0141006  0.0513739  0.0136593  -0.0547404  -0.0223171  -0.00117551  0.566297  0.246484  -0.0139559 
1701272633.803203000  0  0  14.6238  0.011334  0.0144538  0.00277003  nan  nan  nan  nan  nan  nan  -1.49711  -0.0352907  0.997892  0.188743  0.0418937  -0.00287771  0.0531937  -0.295335  -0.0689276  0  0  0  0.468563  -1.48927  -0.821334  0.00943424  -0.00279409  -0.0357928  -0.0143739  0.0526549  0.0139163  -0.0541278  -0.0215307  -0.00123886  0.602238  0.221871  -0.0223548 
1701272633.808201000  0  0  14.6067  0.0057103  0.0182739  0.00231758  nan  nan  nan  nan  nan  nan  -1.49684  -0.036786  0.997538  0.189945  0.0430244  -0.00297474  0.0555381  -0.302791  -0.0730788  0  0  0  0.469067  -1.49291  -0.839028  0.00936187  -0.00253515  -0.0357282  -0.015401  0.0527499  0.0135102  -0.0524056  -0.0216025  -0.00108598  0.592435  0.215903  -0.0177495 
1701272633.813207000  0  0  14.5564  -0.00161476  0.00623183  0.00273545  nan  nan  nan  nan  nan  nan  -1.49656  -0.0383186  0.997162  0.192111  0.0435155  -0.00315538  0.0578831  -0.310263  -0.0773166  0  0  0  0.46882  -1.4958  -0.855972  0.0093777  -0.00223737  -0.0356061  -0.0158095  0.0534799  0.0152199  -0.0517193  -0.0207291  -0.00114263  0.597569  0.227273  -0.023633 
1701272633.818207000  0  0  14.5431  -0.0285069  0.0114882  0.00321517  nan  nan  nan  nan  nan  nan  -1.49626  -0.0398886  0.996764  0.193374  0.0443051  -0.00332278  0.060225  -0.317747  -0.0816373  0  0  0  0.467824  -1.49793  -0.872166  0.00929386  -0.00196995  -0.0355384  -0.0165706  0.0538637  0.014725  -0.0496932  -0.020495  -0.00110779  0.622091  0.215235  -0.0323128 
1701272633.823208000  0  0  14.5154  -0.0183381  0.00143142  0.00256547  nan  nan  nan  nan  nan  nan  -1.49595  -0.0414961  0.996345  0.19463  0.0449483  -0.00352359  0.0625601  -0.325241  -0.086037  0  0  0  0.466078  -1.49932  -0.887611  0.0092433  -0.00168508  -0.03545  -0.0172672  0.0540565  0.0151226  -0.0483372  -0.019746  -0.00102613  0.588417  0.224505  -0.0230416 
1701272633.828201000  0  0  14.4964  -0.0447325  -0.00045943  0.00238333  nan  nan  nan  nan  nan  nan  -1.49564  -0.043141  0.995904  0.196553  0.0450788  -0.00379922  0.0648846  -0.332739  -0.0905121  0  0  0  0.463582  -1.49995  -0.902305  0.00923776  -0.00133878  -0.035382  -0.0175528  0.0551353  0.0151918  -0.0470673  -0.0186053  -0.00096025  0.620749  0.214752  -0.0212714 
1701272633.833205000  0  0  14.4867  -0.0468066  -0.00211875  0.00146479  nan  nan  nan  nan  nan  nan  -1.49531  -0.0448235  0.99544  0.19712  0.0457899  -0.0040285  0.0671947  -0.340239  -0.0950588  0  0  0  0.460336  -1.5  -0.916249  0.00914805  -0.00106814  -0.0353128  -0.0184859  0.0549852  0.0145651  -0.0447641  -0.0181949  -0.000686297  0.597954  0.212983  -0.0112199 
1701272633.838205000  0  0  14.4369  -0.0381973  -0.0170285  0.00114018  nan  nan  nan  nan  nan  nan  -1.49496  -0.0465434  0.994953  0.198915  0.0455233  -0.00440058  0.0694867  -0.347739  -0.0996733  0  0  0  0.45634  -1.5  -0.929443  0.0091748  -0.000738356  -0.0352324  -0.0184246  0.0555153  0.016601  -0.044068  -0.0166284  -0.000568795  0.574641  0.221483  -0.00806652 
1701272633.843206000  0  0  14.4223  -0.0561845  -0.016313  0.00134173  nan  nan  nan  nan  nan  nan  -1.49461  -0.0483009  0.994443  0.200074  0.0457363  -0.00471276  0.0717568  -0.355239  -0.104352  0  0  0  0.451594  -1.5  -0.941887  0.0090867  -0.00045789  -0.0351558  -0.0189041  0.0559732  0.0164656  -0.0422278  -0.0157958  -0.000388704  0.585466  0.210636  -0.0149033 
1701272633.848202000  0  0  14.4047  -0.0355282  -0.0342404  0.00112488  nan  nan  nan  nan  nan  nan  -1.49425  -0.0500958  0.993909  0.200982  0.0457558  -0.00508198  0.0740013  -0.362739  -0.109091  0  0  0  0.446098  -1.5  -0.953582  0.00903176  -0.000141205  -0.0350484  -0.0193059  0.055997  0.0164497  -0.0409319  -0.0144309  -0.000274944  0.533835  0.22682  -0.0134767 
1701272633.853205000  0  0  14.377  -0.0491772  -0.0353643  0.00206389  nan  nan  nan  nan  nan  nan  -1.49387  -0.0519283  0.993352  0.20287  0.0455949  -0.00544767  0.0762165  -0.370239  -0.113887  0  0  0  0.439852  -1.5  -0.964526  0.00897356  0.00020639  -0.0349334  -0.0195263  0.0569396  0.0172665  -0.0401193  -0.0131335  -0.000307482  0.548761  0.213901  -0.0285245 
1701272633.858206000  0  0  14.3728  -0.0413008  -0.04043  0.0024382  nan  nan  nan  nan  nan  nan  -1.49348  -0.0537982  0.99277  0.203562  0.0455141  -0.00586043  0.0783986  -0.377739  -0.118735  0  0  0  0.432856  -1.5  -0.97472  0.00887255  0.000490011  -0.0348545  -0.0199261  0.057009  0.0165836  -0.0384142  -0.0120024  -0.00024277  0.515148  0.209903  -0.0360206 
1701272633.863204000  0  0  14.3299  -0.0182669  -0.0606128  0.00214802  nan  nan  nan  nan  nan  nan  -1.49309  -0.0557057  0.992165  0.205287  0.0450463  -0.00631097  0.0805438  -0.385239  -0.123633  0  0  0  0.425109  -1.5  -0.984164  0.00884282  0.000828848  -0.03477  -0.0199671  0.0575151  0.0184871  -0.038292  -0.0101471  -0.000213386  0.472786  0.224458  -0.0317432 
1701272633.868751000  0  0  14.339  -0.038501  -0.0584424  0.00318339  nan  nan  nan  nan  nan  nan  -1.49268  -0.0576506  0.991534  0.206342  0.0436229  -0.00700046  0.0826485  -0.392739  -0.128575  0  0  0  0.416613  -1.5  -0.992858  0.00887069  0.00103293  -0.0347604  -0.0192505  0.0584324  0.0172893  -0.0369276  -0.00776224  -0.000354419  0.493077  0.193176  -0.0463076 
1701272633.873206000  0  0  14.3175  -0.0192339  -0.0713204  0.00248787  nan  nan  nan  nan  nan  nan  -1.49226  -0.0590171  0.990879  0.205004  0.0436647  -0.00750035  0.0847087  -0.397871  -0.13356  0  0  0  0.407367  -1.5  -1.0008  0.00873478  0.000892277  -0.0346166  -0.0199467  0.0568197  0.0173991  -0.0341582  -0.00675874  -0.000116836  0.426972  0.204537  -0.0392778 
1701272633.878205000  0  0  14.2578  -0.0838441  -0.0696413  0.00249543  nan  nan  nan  nan  nan  nan  -1.49183  -0.0590171  0.990198  0.197099  0.0431825  -0.00825392  0.0867209  -0.397871  -0.138582  0  0  0  0.397371  -1.5  -1.008  0.00866962  -0.00075885  -0.0345157  -0.0202212  0.0504326  0.019011  -0.024402  -0.00529565  0.000118021  0.429679  0.184728  -0.0439321 
1701272633.883189000  0  0  14.2129  -0.143504  -0.0636012  0.00244571  nan  nan  nan  nan  nan  nan  -1.49139  -0.0590171  0.989493  0.187713  0.0423843  -0.00882593  0.0886812  -0.397871  -0.143639  0  0  0  0.386625  -1.5  -1.01444  0.00856774  -0.00251199  -0.0344181  -0.0202687  0.0428599  0.0195174  -0.0130845  -0.00382844  0.000232062  0.40563  0.157116  -0.045301 
1701272633.888202000  0  0  14.1574  -0.175359  -0.0862139  0.00166338  nan  nan  nan  nan  nan  nan  -1.49095  -0.0590171  0.988762  0.179511  0.0417956  -0.00929217  0.0905859  -0.397871  -0.148725  0  0  0  0.375129  -1.5  -1.02014  0.00849266  -0.00418016  -0.0343178  -0.0207006  0.0363912  0.0209149  -0.00366155  -0.00205602  0.000269968  0.353924  0.176946  -0.0329723 
1701272633.893719000  0  0  14.1417  -0.272101  -0.0727843  0.00271807  nan  nan  nan  nan  nan  nan  -1.49049  -0.0590171  0.988006  0.170127  0.0401546  -0.00997812  0.0924312  -0.397871  -0.153839  0  0  0  0.362883  -1.5  -1.02508  0.00845749  -0.00609365  -0.034315  -0.020212  0.0297803  0.0198842  0.00783892  8.61226e-05  0.000216246  0.393711  0.128434  -0.0495425 
1701272633.898210000  0  0  14.119  -0.303143  -0.0766678  0.00271034  nan  nan  nan  nan  nan  nan  -1.49002  -0.0590171  0.987224  0.161314  0.0395713  -0.0104366  0.0942135  -0.397871  -0.158975  0  0  0  0.349887  -1.5  -1.02927  0.00831237  -0.00776326  -0.0341585  -0.0208159  0.0231849  0.0191164  0.0177734  0.00117709  0.000288452  0.334677  0.122795  -0.0508056 
1701272633.903195000  0  0  14.0484  -0.340334  -0.0849916  0.00350999  nan  nan  nan  nan  nan  nan  -1.48955  -0.0590171  0.986416  0.154612  0.0392859  -0.0107529  0.0959288  -0.397871  -0.16413  0  0  0  0.336141  -1.5  -1.03272  0.0081759  -0.00936109  -0.0340036  -0.0217252  0.018291  0.0217495  0.0256729  0.00228167  -1.21596e-05  0.309977  0.124895  -0.0583585 
1701272633.908200000  0  0  13.9783  -0.391488  -0.0544325  0.00536746  nan  nan  nan  nan  nan  nan  -1.48906  -0.0590171  0.985582  0.145075  0.0378571  -0.0113446  0.0975736  -0.397871  -0.169301  0  0  0  0.321645  -1.5  -1.03541  0.00806543  -0.0112807  -0.0338809  -0.0214818  0.010968  0.0240005  0.0364591  0.00355731  -0.000179928  0.276913  0.0558873  -0.0861308 
1701272633.913205000  0  0  13.9079  -0.389612  -0.0799828  0.00533862  nan  nan  nan  nan  nan  nan  -1.48857  -0.0590171  0.984723  0.137523  0.0369958  -0.0117553  0.099144  -0.397871  -0.174483  0  0  0  0.306398  -1.5  -1.03736  0.00796461  -0.0130573  -0.0337343  -0.0220207  0.0056846  0.0266518  0.0442097  0.00502332  -0.000433696  0.184456  0.0844636  -0.0807567 
1701272633.918676000  0  0  13.8689  -0.425565  -0.0773722  0.00667443  nan  nan  nan  nan  nan  nan  -1.48807  -0.0590171  0.983837  0.129832  0.0355292  -0.0122363  0.100636  -0.397871  -0.179673  0  0  0  0.290402  -1.5  -1.03855  0.00787057  -0.0149437  -0.0337296  -0.022066  0.000927443  0.0276767  0.0523874  0.00680598  -0.000943771  0.154355  0.0593233  -0.0932211 
1701272633.923203000  0  0  13.805  -0.424597  -0.0561604  0.00674284  nan  nan  nan  nan  nan  nan  -1.48756  -0.0590171  0.982926  0.121368  0.034159  -0.0127087  0.102047  -0.397871  -0.184867  0  0  0  0.273656  -1.5  -1.03899  0.00772017  -0.0167553  -0.0335136  -0.0221417  -0.00511565  0.0297808  0.0605017  0.0078192  -0.00104062  0.0593301  0.00995422  -0.0924958 
1701272633.928152000  0  0  13.7643  -0.422485  -0.0790006  0.00570501  nan  nan  nan  nan  nan  nan  -1.48705  -0.0590171  0.981989  0.114412  0.033628  -0.0130106  0.103372  -0.397871  -0.190062  0  0  0  0.25616  -1.5  -1.03869  0.0075502  -0.0185953  -0.0333956  -0.0232975  -0.00906616  0.0310322  0.0665563  0.00878371  -0.00120946  -0.0140435  0.0394779  -0.0719158 
1701272633.933188000  0  0  13.7034  -0.428476  -0.0438492  0.00713444  nan  nan  nan  nan  nan  nan  -1.48653  -0.0590171  0.981025  0.105702  0.0313833  -0.0135451  0.104607  -0.397871  -0.195253  0  0  0  0.237914  -1.5  -1.03763  0.00744241  -0.0206552  -0.0332372  -0.02269  -0.0146493  0.0332259  0.074359  0.0103336  -0.00146886  -0.0931096  -0.0408493  -0.0907762 
1701272633.938208000  0  0  13.6436  -0.383811  -0.0541407  0.0074149  nan  nan  nan  nan  nan  nan  -1.486  -0.0590171  0.980036  0.0994646  0.0298277  -0.013898  0.10575  -0.397871  -0.200437  0  0  0  0.21945  -1.5  -1.03583  0.00729865  -0.0225131  -0.0330462  -0.0228023  -0.017832  0.0358571  0.0784407  0.0116353  -0.00185866  -0.219468  -0.0375167  -0.0879426 
1701272633.943723000  0  0  13.6357  -0.373504  -0.0783757  0.00730109  nan  nan  nan  nan  nan  nan  -1.48547  -0.0590171  0.979021  0.0933877  0.0287878  -0.0141783  0.106803  -0.397871  -0.20561  0  0  0  0.201718  -1.5  -1.03327  0.00719101  -0.0245555  -0.0330022  -0.0236378  -0.0199223  0.0356999  0.0820609  0.0127085  -0.00227781  -0.279422  -0.00676299  -0.0779611 
1701272633.948200000  0  0  13.5762  -0.361414  -0.0435258  0.00833899  nan  nan  nan  nan  nan  nan  -1.48494  -0.0590171  0.97798  0.0863359  0.02698  -0.0145393  0.107769  -0.397871  -0.210768  0  0  0  0.184736  -1.5  -1.02997  0.00703905  -0.0264331  -0.0327251  -0.0232984  -0.0239015  0.0381751  0.0870101  0.0136355  -0.00255922  -0.357829  -0.0793917  -0.0898614 
1701272633.953198000  0  0  13.5882  -0.281722  -0.0628765  0.0072739  nan  nan  nan  nan  nan  nan  -1.4844  -0.0590171  0.976913  0.0827799  0.025903  -0.0147253  0.108652  -0.397871  -0.215908  0  0  0  0.168504  -1.5  -1.02591  0.00687993  -0.0281709  -0.032612  -0.0237818  -0.0237154  0.0372664  0.0867608  0.0142625  -0.00290155  -0.496671  -0.0521926  -0.0654813 
1701272633.958155000  0  0  13.5797  -0.255025  -0.0846632  0.00648846  nan  nan  nan  nan  nan  nan  -1.48385  -0.0590171  0.975821  0.0760834  0.0245401  -0.0150037  0.109455  -0.397871  -0.221026  0  0  0  0.153022  -1.5  -1.0211  0.00675013  -0.0302608  -0.0324248  -0.0239342  -0.0263931  0.0370737  0.0899819  0.0156208  -0.00299448  -0.581181  -0.0290695  -0.050578 
1701272633.963202000  0  0  13.5414  -0.196551  -0.0245287  0.00817244  nan  nan  nan  nan  nan  nan  -1.4833  -0.0590171  0.974703  0.0725639  0.0232505  -0.0151842  0.110183  -0.397871  -0.226118  0  0  0  0.13829  -1.5  -1.01555  0.00655599  -0.0320717  -0.0322597  -0.023806  -0.0263244  0.0394593  0.0891539  0.0154326  -0.00349808  -0.675638  -0.133836  -0.0689794 
1701272633.968655000  0  0  13.5448  -0.11857  -0.0260349  0.00771058  nan  nan  nan  nan  nan  nan  -1.48275  -0.0590171  0.97356  0.0687228  0.0221575  -0.0153492  0.110839  -0.397871  -0.23118  0  0  0  0.124307  -1.5  -1.00924  0.00642311  -0.0340724  -0.0322163  -0.0240436  -0.0259042  0.0396204  0.0873707  0.015448  -0.00382554  -0.793797  -0.131335  -0.0549559 
1701272633.973205000  0  0  13.5782  -0.0534288  -0.0459763  0.00658261  nan  nan  nan  nan  nan  nan  -1.48219  -0.0590171  0.972391  0.0641664  0.0215343  -0.0154906  0.111427  -0.397871  -0.236209  0  0  0  0.111075  -1.5  -1.00219  0.00625153  -0.0359896  -0.0319599  -0.0247016  -0.0263225  0.0373251  0.086999  0.0158593  -0.00383206  -0.905358  -0.100605  -0.0360008 
1701272633.978204000  0  0  13.595  0.00281325  0.0153076  0.00862  nan  nan  nan  nan  nan  nan  -1.48163  -0.0590171  0.971198  0.0620393  0.0204298  -0.0156052  0.111951  -0.397871  -0.241201  0  0  0  0.098593  -1.5  -0.994381  0.00602124  -0.0377  -0.0319348  -0.0244917  -0.0245951  0.0370661  0.0834624  0.0151461  -0.00434233  -0.9647  -0.201378  -0.0601731 
1701272633.983205000  0  0  13.6516  0.0948243  -0.0334778  0.00772328  nan  nan  nan  nan  nan  nan  -1.48107  -0.0590171  0.969979  0.0570391  0.019758  -0.0157461  0.112414  -0.397871  -0.246152  0  0  0  0.0868609  -1.5  -0.985825  0.00589229  -0.0398069  -0.0317755  -0.0250473  -0.0250004  0.0337452  0.0820257  0.015546  -0.00447784  -1.11179  -0.119227  -0.0425913 
1701272633.988188000  0  0  13.7205  0.113679  -0.0339563  0.0101221  nan  nan  nan  nan  nan  nan  -1.48051  -0.0590171  0.968736  0.0549403  0.0195669  -0.0157982  0.112821  -0.397871  -0.251058  0  0  0  0.0758787  -1.5  -0.976519  0.00567197  -0.0415565  -0.0316528  -0.0258047  -0.0229086  0.0301172  0.0784213  0.0151496  -0.00505848  -1.10388  -0.113818  -0.0714406 
1701272633.993203000  0  0  13.7326  0.12151  0.024063  0.0132159  nan  nan  nan  nan  nan  nan  -1.47995  -0.0590171  0.967469  0.0493896  0.0174198  -0.0160132  0.113175  -0.397871  -0.255916  0  0  0  0.0656465  -1.5  -0.966568  0.00556024  -0.0436723  -0.0314975  -0.0244402  -0.0242234  0.0296346  0.0784027  0.0153235  -0.00577156  -1.11759  -0.218986  -0.109338 
1701272633.998200000  0  0  13.842  0.220352  -0.034277  0.0122182  nan  nan  nan  nan  nan  nan  -1.47938  -0.0590171  0.966177  0.0482094  0.0175876  -0.0160257  0.113479  -0.397871  -0.260725  0  0  0  0.0561643  -1.5  -0.957073  0.00531854  -0.0453102  -0.0314843  -0.0254021  -0.0212268  0.0239145  0.0722888  0.0150546  -0.00619571  -1.22304  -0.112155  -0.0845045 
1701272634.003196000  0  0  13.8952  0.152331  -0.0159286  0.0141275  nan  nan  nan  nan  nan  nan  -1.47881  -0.0590171  0.964862  0.0426368  0.0161908  -0.0161835  0.113737  -0.397871  -0.265488  0  0  0  0.0474321  -1.5  -0.948328  0.00519282  -0.0474102  -0.0313718  -0.0247299  -0.0225049  0.0208078  0.0730157  0.0154644  -0.00678328  -1.11045  -0.149494  -0.105048 
1701272634.008187000  0  0  13.9084  0.178493  0.0112971  0.0148955  nan  nan  nan  nan  nan  nan  -1.47824  -0.0590171  0.963523  0.0392477  0.0154476  -0.0162676  0.113954  -0.397871  -0.270209  0  0  0  0.03945  -1.5  -0.940333  0.00499109  -0.0491743  -0.0313222  -0.0244446  -0.0222095  0.0206385  0.070562  0.0147033  -0.0073356  -1.12876  -0.189155  -0.10722 
1701272634.013190000  0  0  13.9983  0.245155  -0.0372821  0.0124246  nan  nan  nan  nan  nan  nan  -1.47767  -0.0590171  0.96216  0.0388283  0.0160591  -0.0162504  0.114133  -0.397871  -0.274892  0  0  0  0.0322178  -1.5  -0.933088  0.00470859  -0.0506513  -0.0315283  -0.0255006  -0.0188624  0.0164666  0.0643122  0.0139183  -0.00754789  -1.17543  -0.0937462  -0.0618788 
1701272634.018204000  0  0  14.0603  0.15814  0.0128871  0.0127123  nan  nan  nan  nan  nan  nan  -1.4771  -0.0590171  0.960774  0.0329867  0.0142754  -0.0164031  0.114278  -0.397871  -0.279541  0  0  0  0.0257356  -1.5  -0.926593  0.00459185  -0.0527465  -0.0314703  -0.0241068  -0.0205674  0.0127054  0.0658368  0.0141678  -0.00776641  -1.03823  -0.185825  -0.0624695 
1701272634.023202000  0  0  14.099  0.19624  -0.00567747  0.0104266  nan  nan  nan  nan  nan  nan  -1.47653  -0.0590171  0.959364  0.0281903  0.0140922  -0.0164768  0.114392  -0.397871  -0.28416  0  0  0  0.0200034  -1.5  -0.920848  0.00439824  -0.05459  -0.0314842  -0.0242745  -0.02173  0.0107557  0.0646961  0.0137127  -0.00765739  -1.09286  -0.147581  -0.0264145 
1701272634.028839000  0  0  14.1796  0.202479  -0.0174343  0.00897936  nan  nan  nan  nan  nan  nan  -1.47596  -0.0590171  0.957932  0.0259247  0.0149806  -0.0164858  0.114479  -0.397871  -0.288751  0  0  0  0.0150212  -1.5  -0.915853  0.00420675  -0.0564178  -0.031799  -0.0256289  -0.0198405  0.00703677  0.060644  0.0121607  -0.00754917  -1.05736  -0.10883  -0.00434274 
1701272634.033206000  0  0  14.2084  0.102653  0.0547708  0.0100892  nan  nan  nan  nan  nan  nan  -1.47538  -0.0590171  0.956477  0.0198508  0.0135083  -0.016606  0.114543  -0.397871  -0.293319  0  0  0  0.010789  -1.5  -0.911608  0.00402593  -0.0582541  -0.0315953  -0.0241163  -0.0226556  0.00482835  0.0637435  0.0117482  -0.00762854  -0.915496  -0.23248  -0.0213387 
1701272634.038190000  0  0  14.2915  0.139546  0.0119054  0.00795212  nan  nan  nan  nan  nan  nan  -1.47481  -0.0590171  0.954999  0.0160262  0.0140194  -0.0166495  0.114588  -0.397871  -0.297868  0  0  0  0.0073069  -1.5  -0.908113  0.00379601  -0.0599929  -0.0317848  -0.0247798  -0.0229322  0.000357648  0.0621111  0.0108676  -0.00737836  -0.962328  -0.146132  0.00951189 
1701272634.043205000  0  0  14.3255  0.0580727  0.0245852  0.00896434  nan  nan  nan  nan  nan  nan  -1.47424  -0.0590171  0.953498  0.00985391  0.0136723  -0.0167395  0.114618  -0.397871  -0.302402  0  0  0  0.0045747  -1.5  -0.905368  0.00367463  -0.062107  -0.0317888  -0.0245755  -0.0252578  -0.00175506  0.064701  0.0103581  -0.00740339  -0.847233  -0.16282  -0.0069026 
1701272634.048150000  0  0  14.3895  0.00215854  0.0817736  0.0101124  nan  nan  nan  nan  nan  nan  -1.47366  -0.0590171  0.951975  0.0048891  0.0130909  -0.0168102  0.114635  -0.397871  -0.306923  0  0  0  0.0025925  -1.5  -0.903373  0.00347195  -0.0639496  -0.0319325  -0.0238051  -0.0268052  -0.00542467  0.0663093  0.00899683  -0.0075138  -0.766301  -0.24886  -0.0239392 
1701272634.053206000  0  0  14.4181  0.0264682  0.00451896  0.00856348  nan  nan  nan  nan  nan  nan  -1.47309  -0.0590171  0.950429  -0.000140974  0.0135619  -0.0168761  0.114645  -0.397871  -0.311437  0  0  0  0.0013603  -1.5  -0.902128  0.00329557  -0.0659017  -0.0320857  -0.0242416  -0.0282027  -0.00679533  0.0666527  0.00868405  -0.00735426  -0.813476  -0.10789  -0.00115828 
