ts fx fy fz tx ty tz exfx exfy exfz extx exty extz xd yd zd rolld pitchd yawd vxd vyd vzd wxd wyd wzd axd ayd azd e_x e_y e_z e_vx e_vy e_vz e_rx e_ry e_rz e_wx e_wy e_wz
1704809382.472205000  0  0  11.3504  -0.0721934  -0.101221  0.027688  nan  nan  nan  nan  nan  nan  -2  -1  1.5  -0.020901  -0.019391  0.000405324  0  0  0  0  0  0  0  0  0  0.0201277  -0.0187459  -0.0281366  -0.0202595  0.0152992  0.0103677  0.0192033  0.0207883  -0.0351818  -0.0322835  0.0111892  0.00571855 
1704809382.476173000  0  0  11.3167  -0.0760492  -0.0972593  0.0304453  nan  nan  nan  nan  nan  nan  -2  -1  1.5  -0.0214969  -0.0190095  0.000408685  0  0  0  0  0  0  0  0  0  0.0200486  -0.0186928  -0.0280869  -0.0206361  0.0145101  0.013083  0.019698  0.0204299  -0.035555  -0.0291233  0.00656341  -0.0250153 
1704809382.481175000  0  0  11.5047  -0.076362  -0.113295  0.0320832  nan  nan  nan  nan  nan  nan  -2  -1  1.5  -0.0219949  -0.0203805  0.000448309  0  0  0  0  0  0  0  0  0  0.020101  -0.01885  -0.0282307  -0.0186005  0.0137743  -0.00228792  0.0200203  0.0220631  -0.0359378  -0.0314625  0.0236093  -0.0416617 
1704809382.485174000  0  0  11.4254  -0.0488736  -0.125346  0.0299382  nan  nan  nan  nan  nan  nan  -2  -1  1.5  -0.0205608  -0.0188791  0.000388202  0  0  0  0  0  0  0  0  0  0.0200089  -0.018774  -0.0281697  -0.0204847  0.0156194  0.00419337  0.0180629  0.0210005  -0.0357764  -0.0684316  0.0574871  -0.0164634 
1704809382.491170000  0  0  11.2369  -0.0597639  -0.0958179  0.0302186  nan  nan  nan  nan  nan  nan  -2  -1  1.5  -0.0230924  -0.0177778  0.000410584  0  0  0  0  0  0  0  0  0  0.0200106  -0.0189338  -0.0280414  -0.0222581  0.0132434  0.0196522  0.0202041  0.0197321  -0.0358887  -0.0663497  0.0101  -0.0188455 
1704809382.495609000  0  0  11.4328  -0.0643668  -0.110936  0.0346142  nan  nan  nan  nan  nan  nan  -2  -1  1.5  -0.0235825  -0.0202655  0.000477968  0  0  0  0  0  0  0  0  0  0.0200767  -0.0190937  -0.0281813  -0.018854  0.0124746  0.00361329  0.0204284  0.0223429  -0.0366529  -0.0592082  0.0163174  -0.0661481 
1704809382.501114000  0  0  11.4138  -0.00945962  -0.146325  0.0307635  nan  nan  nan  nan  nan  nan  -2  -1  1.5  -0.0207936  -0.0184309  0.000383278  0  0  0  0  0  0  0  0  0  0.0199458  -0.0189758  -0.0281461  -0.0209378  0.0157994  0.00512481  0.0163555  0.0215952  -0.0364241  -0.131551  0.0939754  -0.0203026 
1704809382.505168000  0  0  11.2504  -0.0216554  -0.095196  0.0284512  nan  nan  nan  nan  nan  nan  -2  -1  1.5  -0.0220195  -0.0167223  0.000368258  0  0  0  0  0  0  0  0  0  0.0198374  -0.0189185  -0.0280006  -0.0231683  0.0145165  0.0184599  0.0172435  0.019258  -0.0361683  -0.115329  0.0132186  0.00604246 
1704809382.511156000  0  0  11.4796  -0.039865  -0.124284  0.0367935  nan  nan  nan  nan  nan  nan  -2  -1  1.5  -0.0219647  -0.0204232  0.000448629  0  0  0  0  0  0  0  0  0  0.0199013  -0.0190649  -0.0281673  -0.01816  0.0143527  -0.000300382  0.0169727  0.0231601  -0.0374972  -0.076419  0.0354947  -0.0849464 
1704809382.516181000  0  0  11.4639  0.012897  -0.148999  0.027869  nan  nan  nan  nan  nan  nan  -2  -1  1.5  -0.0210229  -0.0176741  0.000371597  0  0  0  0  0  0  0  0  0  0.0198883  -0.0191919  -0.0281963  -0.0216721  0.0158717  0.00106902  0.0146583  0.0214541  -0.0366093  -0.16065  0.100621  0.0177302 
1704809382.520179000  0  0  11.2954  -3.20014e-05  -0.0856976  0.0254849  nan  nan  nan  nan  nan  nan  -2  -1  1.5  -0.0220181  -0.0163766  0.000360623  0  0  0  0  0  0  0  0  0  0.0197785  -0.0191294  -0.0280565  -0.0233886  0.0148775  0.0148577  0.0152265  0.0192039  -0.0361951  -0.14002  -0.00528039  0.0433895 
1704809382.526177000  0  0  11.4747  -0.0308107  -0.133378  0.036119  nan  nan  nan  nan  nan  nan  -2  -1  1.5  -0.0221169  -0.0198412  0.000438868  0  0  0  0  0  0  0  0  0  0.0198306  -0.0192622  -0.0281931  -0.0187568  0.014609  0.00017656  0.0152891  0.0232536  -0.0376836  -0.0790386  0.0528216  -0.0746511 
1704809382.531124000  0  0  11.4926  -0.000238131  -0.140492  0.026525  nan  nan  nan  nan  nan  nan  -2  -1  1.5  -0.0219149  -0.017889  0.000392079  0  0  0  0  0  0  0  0  0  0.0198314  -0.0194066  -0.0282565  -0.0212142  0.015143  -0.00118009  0.014124  0.0219638  -0.0366671  -0.129465  0.0789179  0.0351083 
1704809382.536186000  0  0  11.3407  -0.034567  -0.0827982  0.0281863  nan  nan  nan  nan  nan  nan  -2  -1  1.5  -0.02228  -0.0177795  0.000396171  0  0  0  0  0  0  0  0  0  0.0197171  -0.0193289  -0.0281416  -0.0214005  0.0148807  0.0112594  0.0145828  0.0208938  -0.036705  -0.0650273  -0.0266268  0.0147211 
1704809382.540240000  0  0  11.4769  -0.0548689  -0.126034  0.0369728  nan  nan  nan  nan  nan  nan  -2  -1  1.5  -0.0228926  -0.0196727  0.000450409  0  0  0  0  0  0  0  0  0  0.0197812  -0.0194685  -0.0282915  -0.0188566  0.0140728  0.000206241  0.0153238  0.0234447  -0.037966  -0.0312415  0.0363765  -0.0825 
1704809382.546169000  0  0  11.5154  -0.0257542  -0.12004  0.0278627  nan  nan  nan  nan  nan  nan  -2  -1  1.5  -0.0215816  -0.0177087  0.000382222  0  0  0  0  0  0  0  0  0  0.01964  -0.0193683  -0.0283122  -0.020975  0.015429  -0.00295664  0.0133409  0.0217115  -0.0370855  -0.0712275  0.0403331  0.0225711 
1704809382.551189000  0  0  11.3802  -0.0497287  -0.0884661  0.0276153  nan  nan  nan  nan  nan  nan  -2  -1  1.5  -0.0226512  -0.0172658  0.000391138  0  0  0  0  0  0  0  0  0  0.0196632  -0.0195355  -0.0282766  -0.0218525  0.0147723  0.00825215  0.0145636  0.0207625  -0.0368558  -0.0345276  -0.0140827  0.023366 
1704809382.556118000  0  0  11.4141  -0.0597737  -0.0968288  0.0295672  nan  nan  nan  nan  nan  nan  -2  -1  1.5  -0.0236023  -0.0180075  0.000425073  0  0  0  0  0  0  0  0  0  0.0197157  -0.0197002  -0.0283485  -0.0209618  0.0138469  0.00558296  0.0155243  0.0216144  -0.0370463  -0.023276  -0.00519533  0.00087301 
1704809382.560169000  0  0  11.5617  -0.0501187  -0.110807  0.0259418  nan  nan  nan  nan  nan  nan  -2  -1  1.5  -0.0218613  -0.0175023  0.000382665  0  0  0  0  0  0  0  0  0  0.0196302  -0.0196299  -0.0284288  -0.0211271  0.01554  -0.00656741  0.0136868  0.0213992  -0.0365367  -0.0256814  0.0247411  0.0410946 
1704809382.565245000  0  0  11.3632  -0.0568802  -0.0789198  0.0255344  nan  nan  nan  nan  nan  nan  -2  -1  1.5  -0.0225277  -0.0157127  0.000354017  0  0  0  0  0  0  0  0  0  0.0196194  -0.0197599  -0.0283639  -0.0237503  0.0154691  0.00986103  0.014353  0.0191827  -0.036205  -0.0182874  -0.0186411  0.0428692 
1704809382.570794000  0  0  11.4236  -0.0970959  -0.0796198  0.0334828  nan  nan  nan  nan  nan  nan  -2  -1  1.5  -0.0248874  -0.017922  0.000446099  0  0  0  0  0  0  0  0  0  0.0196566  -0.0199272  -0.0284455  -0.0209188  0.0126949  0.00500013  0.017254  0.0211229  -0.0372154  0.0354549  -0.0350909  -0.0463807 
1704809382.576141000  0  0  11.5245  -0.0817017  -0.10263  0.0326286  nan  nan  nan  nan  nan  nan  -2  -1  1.5  -0.0229066  -0.017283  0.000395943  6e-07  6e-07  -6e-07  0  0  0  0.000375  0.000375  -0.000375  0.0195375  -0.0198305  -0.0285034  -0.021228  0.0147832  -0.00333792  0.015302  0.0208766  -0.0373303  0.0226252  0.0131949  -0.0345548 
1704809382.581106000  0  0  11.3456  -0.0793997  -0.0692684  0.0291598  nan  nan  nan  nan  nan  nan  -2  -1  1.5  -0.0245525  -0.0156875  0.00038523  5e-06  5e-06  -5e-06  0  0  0  0.0015  0.0015  -0.0015  0.0195396  -0.0199847  -0.0284539  -0.0234506  0.0136427  0.0113866  0.0168836  0.0188269  -0.0369885  0.00347031  -0.0346708  0.00538801 
1704809382.586160000  0  0  11.4612  -0.119129  -0.0847885  0.0363204  nan  nan  nan  nan  nan  nan  -2  -1  1.5  -0.0252827  -0.0174608  0.000441528  1.69e-05  1.69e-05  -1.69e-05  0  0  0  0.003375  0.003375  -0.003375  0.0194475  -0.0199191  -0.0285077  -0.0205547  0.0124807  0.00168272  0.0184019  0.020565  -0.0380829  0.0689607  -0.0196208  -0.0731759 
1704809382.591102000  0  0  11.5237  -0.0907319  -0.112895  0.0340261  nan  nan  nan  nan  nan  nan  -2  -1  1.5  -0.0246152  -0.0170336  0.00041945  4e-05  4e-05  -4e-05  0  0  0  0.006  0.006  -0.006  0.0194603  -0.0200403  -0.0286218  -0.0206895  0.0137491  -0.00354062  0.017466  0.0207726  -0.0381001  0.0207766  0.0346825  -0.0443259 
1704809382.595169000  0  0  11.3914  -0.0728021  -0.0866209  0.0267554  nan  nan  nan  nan  nan  nan  -2  -1  1.5  -0.0245832  -0.0142925  0.000351714  7.81e-05  7.81e-05  -7.81e-05  0  0  0  0.009375  0.009375  -0.009375  0.0193448  -0.0199742  -0.0285318  -0.0237441  0.0144156  0.00700653  0.0171746  0.0178337  -0.0372207  -0.0124023  0.00917185  0.0377646 
1704809382.601173000  0  0  11.4668  -0.105965  -0.0991331  0.0324536  nan  nan  nan  nan  nan  nan  -2  -0.999999  1.5  -0.0265065  -0.0161362  0.000428296  0.000135  0.000135  -0.000135  0  0  0  0.0135  0.0135  -0.0135  0.0193755  -0.0201328  -0.0286502  -0.0208363  0.0126147  0.000592419  0.0195841  0.0198172  -0.0378781  0.0317558  0.0159484  -0.026889 
1704809382.606174000  0  0  11.509  -0.0760497  -0.123193  0.0294436  nan  nan  nan  nan  nan  nan  -2  -0.999998  1.5  -0.0259142  -0.0151343  0.000393264  0.0002144  0.0002144  -0.0002144  0  0  0  0.018375  0.018375  -0.018375  0.0193871  -0.020262  -0.02876  -0.0214744  0.0141292  -0.00315229  0.0185824  0.0195762  -0.0376001  -0.018859  0.066285  0.00795604 
1704809382.611171000  0  0  11.3979  -0.0602213  -0.104247  0.024567  nan  nan  nan  nan  nan  nan  -2  -0.999997  1.5  -0.0260819  -0.0132783  0.000348092  0.00032  0.00032  -0.00032  0  0  0  0.024  0.024  -0.024  0.0192646  -0.0201845  -0.0286857  -0.0230554  0.0147503  0.00545447  0.0182958  0.0177555  -0.0368101  -0.0478791  0.0451444  0.0610135 
1704809382.615167000  0  0  11.4327  -0.0782139  -0.115838  0.0295849  nan  nan  nan  nan  nan  nan  -1.99999  -0.999995  1.49999  -0.0280393  -0.0140754  0.000397456  0.0004556  0.0004556  -0.0004556  0  0  0  0.030375  0.030375  -0.030375  0.0193253  -0.0203625  -0.0287764  -0.0213458  0.0133356  0.00216323  0.0202932  0.0189675  -0.03729  -0.0302698  0.0571753  0.00308866 
1704809382.621172000  0  0  11.4706  -0.0648732  -0.126655  0.0300299  nan  nan  nan  nan  nan  nan  -1.99999  -0.999992  1.49999  -0.0280569  -0.0134781  0.000382443  0.000625  0.000625  -0.000625  0  0  0  0.0375  0.0375  -0.0375  0.0193372  -0.020491  -0.0288866  -0.0212056  0.0143493  -0.00142139  0.0199374  0.0190534  -0.0374055  -0.0536776  0.0780176  -0.00131955 
1704809382.626173000  0  0  11.4026  -0.0406186  -0.118751  0.027147  nan  nan  nan  nan  nan  nan  -1.99999  -0.999989  1.49999  -0.027935  -0.0116924  0.000332804  0.0008319  0.0008319  -0.0008319  0  0  0  0.045375  0.045375  -0.045375  0.0192251  -0.0204107  -0.0288466  -0.0223623  0.015498  0.00345619  0.0190604  0.0176029  -0.0369503  -0.0941181  0.0755555  0.0301655 
1704809382.631167000  0  0  11.4245  -0.0596882  -0.118309  0.0310359  nan  nan  nan  nan  nan  nan  -1.99998  -0.999984  1.49998  -0.0300095  -0.0116016  0.000356856  0.00108  0.00108  -0.00108  0  0  0  0.054  0.054  -0.054  0.0192604  -0.0205621  -0.0289278  -0.0214735  0.0141841  0.00102466  0.0209609  0.0179526  -0.0373609  -0.0734642  0.0714545  -0.0143392 
1704809382.636186000  0  0  11.4548  -0.0534623  -0.121606  0.0320285  nan  nan  nan  nan  nan  nan  -1.99998  -0.999978  1.49998  -0.0293736  -0.0107494  0.000327734  0.0013731  0.0013731  -0.0013731  0  0  0  0.063375  0.063375  -0.063375  0.0191638  -0.0204766  -0.0289609  -0.0211622  0.0158467  -0.00228233  0.0199789  0.0175534  -0.0375822  -0.0768813  0.0817214  -0.0245343 
1704809382.641173000  0  0  11.384  -0.0249483  -0.121837  0.0291985  nan  nan  nan  nan  nan  nan  -1.99997  -0.99997  1.49997  -0.0300648  -0.00892923  0.000284533  0.001715  0.001715  -0.001715  0  0  0  0.0735  0.0735  -0.0735  0.0191876  -0.020612  -0.028994  -0.0223683  0.0167393  0.00278226  0.0196746  0.0163528  -0.0372659  -0.13111  0.0932281  0.00767766 
1704809382.646173000  0  0  11.3795  -0.0530846  -0.0974941  0.0317428  nan  nan  nan  nan  nan  nan  -1.99996  -0.99996  1.49996  -0.0330192  -0.00834121  0.000296617  0.0021094  0.0021094  -0.0021094  0  0  0  0.084375  0.084375  -0.084375  0.0192309  -0.0207604  -0.0290626  -0.0218845  0.0146738  0.0023397  0.0224094  0.0158173  -0.037584  -0.0999977  0.0494688  -0.0209448 
1704809382.651167000  0  0  11.4357  -0.0539051  -0.107891  0.0339586  nan  nan  nan  nan  nan  nan  -1.99995  -0.999949  1.49995  -0.0325795  -0.00807893  0.000290598  0.00256  0.00256  -0.00256  0  0  0  0.096  0.096  -0.096  0.0191389  -0.0206705  -0.0291101  -0.0205433  0.016245  -0.00330813  0.0216208  0.0159904  -0.0380344  -0.0911015  0.0686705  -0.0441392 
1704809382.656128000  0  0  11.3343  -0.0178281  -0.0948537  0.0276704  nan  nan  nan  nan  nan  nan  -1.99993  -0.999935  1.49993  -0.0322301  -0.00395034  0.000162164  0.0030706  0.0030706  -0.0030706  0  0  0  0.108375  0.108375  -0.108375  0.0189973  -0.0205689  -0.0290459  -0.0240141  0.0183373  0.00392047  0.0201814  0.0123151  -0.037305  -0.150012  0.0764085  0.0271704 
1704809382.661175000  0  0  11.3412  -0.056628  -0.0556174  0.0283646  nan  nan  nan  nan  nan  nan  -1.99992  -0.999918  1.49992  -0.0357157  -0.00316519  0.000156795  0.003645  0.003645  -0.003645  0  0  0  0.1215  0.1215  -0.1215  0.0190385  -0.02072  -0.0291281  -0.0234903  0.0158557  0.00236682  0.0235278  0.0111561  -0.03725  -0.103199  0.00859865  0.0179425 
1704809382.666124000  0  0  11.4383  -0.0676112  -0.0943351  0.0331787  nan  nan  nan  nan  nan  nan  -1.9999  -0.999898  1.4999  -0.0361897  -0.00377068  0.000190819  0.0042869  0.0042869  -0.0042869  0  0  0  0.135375  0.135375  -0.135375  0.0190934  -0.0208262  -0.0292718  -0.0211145  0.0167961  -0.0066979  0.0237943  0.0126233  -0.0379428  -0.0836855  0.0725361  -0.0353054 
1704809382.670170000  0  0  11.324  -0.0367943  -0.0847534  0.0265374  nan  nan  nan  nan  nan  nan  -1.99988  -0.999875  1.49988  -0.036894  0.000879316  3.42438e-05  0.005  0.005  -0.005  0  0  0  0.15  0.15  -0.15  0.0189706  -0.0207462  -0.0292124  -0.0249612  0.017978  0.0014316  0.0235586  0.00854091  -0.0371331  -0.143151  0.0909304  0.0396139 
1704809382.676174000  0  0  11.3127  -0.0896435  -0.0333225  0.026907  nan  nan  nan  nan  nan  nan  -1.99985  -0.999848  1.49985  -0.0405731  0.00173914  1.03992e-05  0.0057881  0.0057881  -0.0057881  0  0  0  0.165375  0.165375  -0.165375  0.0189807  -0.0208708  -0.0292721  -0.0241881  0.0155501  0.00114828  0.0272876  0.00707146  -0.0368835  -0.0717589  0.00158756  0.032497 
1704809382.681173000  0  0  11.4194  -0.0905008  -0.0904623  0.0324089  nan  nan  nan  nan  nan  nan  -1.99982  -0.999817  1.49982  -0.0414141  0.00172728  2.60256e-05  0.006655  0.006655  -0.006655  0  0  0  0.1815  0.1815  -0.1815  0.0190388  -0.0210014  -0.0294198  -0.0223548  0.0162587  -0.00889893  0.0278208  0.00843403  -0.0376358  -0.0749497  0.103332  -0.0287534 
1704809382.686175000  0  0  11.2325  -0.070611  -0.0593516  0.023607  nan  nan  nan  nan  nan  nan  -1.99978  -0.999781  1.49978  -0.0436017  0.00726778  -0.000200486  0.0076044  0.0076044  -0.0076044  0  0  0  0.198375  0.198375  -0.198375  0.018877  -0.0209124  -0.0293142  -0.0268238  0.0162521  0.00500506  0.0290829  0.00333092  -0.036447  -0.12634  0.0880587  0.0693823 
1704809382.691167000  0  0  11.247  -0.116335  -0.0410689  0.0287143  nan  nan  nan  nan  nan  nan  -1.99974  -0.999741  1.49974  -0.046631  0.00742788  -0.000208418  0.00864  0.00864  -0.00864  0  0  0  0.216  0.216  -0.216  0.0189424  -0.0210823  -0.0293886  -0.0250315  0.0149208  0.00237921  0.0323134  0.00319859  -0.036818  -0.0646134  0.0527108  0.00925136 
1704809382.696179000  0  0  11.3499  -0.103027  -0.0998163  0.0317975  nan  nan  nan  nan  nan  nan  -1.99969  -0.999695  1.49969  -0.0485726  0.00849418  -0.000250104  0.0097656  0.0097656  -0.0097656  0  0  0  0.234375  0.234375  -0.234375  0.0189772  -0.0212266  -0.0295275  -0.0242986  0.014501  -0.00752996  0.0335598  0.0039465  -0.0373006  -0.102696  0.163325  -0.0244629 
1704809382.701172000  0  0  11.1753  -0.103652  -0.0668451  0.0245162  nan  nan  nan  nan  nan  nan  -1.99964  -0.999643  1.49964  -0.0511027  0.013431  -0.000496538  0.010985  0.010985  -0.0109839  0  0  0  0.2535  0.2535  -0.252793  0.0188265  -0.0211482  -0.0294342  -0.0276066  0.0144645  0.00524248  0.0354705  -0.00040894  -0.0362535  -0.119024  0.137452  0.0560824 
1704809382.706172000  0  0  11.1849  -0.123442  -0.0716369  0.0318099  nan  nan  nan  nan  nan  nan  -1.99958  -0.999585  1.49958  -0.0535532  0.0141757  -0.000538456  0.0123019  0.0123019  -0.0122923  0  0  0  0.273375  0.273375  -0.270462  0.0188639  -0.021276  -0.0295033  -0.0262076  0.0140719  0.00303127  0.0376542  -0.000296431  -0.0369783  -0.0995351  0.146001  -0.0278409 
1704809382.711170000  0  0  11.2932  -0.112345  -0.109221  0.0314779  nan  nan  nan  nan  nan  nan  -1.99952  -0.99952  1.49952  -0.0553967  0.0164529  -0.000656331  0.01372  0.01372  -0.0136872  0  0  0  0.294  0.294  -0.287381  0.0187375  -0.0212077  -0.0295988  -0.0264444  0.0134816  -0.00724575  0.0386857  -0.000732946  -0.0370772  -0.131219  0.225184  -0.0227009 
1704809382.715163000  0  0  11.1596  -0.118669  -0.0866454  0.0249823  nan  nan  nan  nan  nan  nan  -1.99945  -0.999447  1.49945  -0.0590807  0.0199549  -0.000885744  0.0152431  0.0152431  -0.0151649  0  0  0  0.315375  0.315375  -0.30355  0.0187597  -0.021367  -0.0295746  -0.0279974  0.0127007  0.0024782  0.0417767  -0.0034555  -0.0361416  -0.147007  0.205081  0.0491377 
1704809382.721173000  0  0  11.0828  -0.119244  -0.0843122  0.030348  nan  nan  nan  nan  nan  nan  -1.99937  -0.999367  1.49937  -0.0615545  0.0219492  -0.00101567  0.016875  0.016875  -0.0167215  0  0  0  0.3375  0.3375  -0.318969  0.018787  -0.0214792  -0.0295901  -0.0276518  0.0131107  0.00761022  0.0433262  -0.00408598  -0.0365558  -0.160112  0.206215  -0.0137916 
1704809382.726171000  0  0  11.1936  -0.112546  -0.097018  0.0274839  nan  nan  nan  nan  nan  nan  -1.99928  -0.999278  1.49928  -0.0640166  0.0243066  -0.0011743  0.0186194  0.0186194  -0.0183533  0  0  0  0.360375  0.360375  -0.333638  0.018651  -0.0214241  -0.0296628  -0.027771  0.0119649  -0.00266924  0.0447212  -0.00491994  -0.0361777  -0.186344  0.239299  0.0182278 
1704809382.731167000  0  0  11.1225  -0.10445  -0.0887112  0.0244741  nan  nan  nan  nan  nan  nan  -1.99918  -0.999181  1.49918  -0.0666667  0.0277283  -0.00141616  0.02048  0.02048  -0.0200566  0  0  0  0.384  0.384  -0.347557  0.0186649  -0.0215464  -0.0296665  -0.0289706  0.0123598  0.00215029  0.0461832  -0.00701556  -0.0355245  -0.215986  0.241966  0.049319 
1704809382.736180000  0  0  10.995  -0.0995079  -0.0710822  0.0278766  nan  nan  nan  nan  nan  nan  -1.99907  -0.999073  1.49908  -0.0694859  0.0317856  -0.00172114  0.0224606  0.0224606  -0.0218276  0  0  0  0.408375  0.408375  -0.360726  0.0185136  -0.0214785  -0.0295768  -0.030243  0.0126973  0.0115628  0.0477338  -0.0098668  -0.0356787  -0.240136  0.232939  0.00832894 
1704809382.741172000  0  0  11.1495  -0.100262  -0.0876002  0.02796  nan  nan  nan  nan  nan  nan  -1.99896  -0.998956  1.49897  -0.0730142  0.032691  -0.00183943  0.024565  0.024565  -0.0236626  0  0  0  0.4335  0.4335  -0.373145  0.018582  -0.0216483  -0.0297027  -0.0290084  0.0105799  -0.00199792  0.0498856  -0.00914016  -0.0355924  -0.258424  0.25929  0.00642347 
1704809382.746123000  0  0  11.1429  -0.0768196  -0.0880024  0.0261559  nan  nan  nan  nan  nan  nan  -1.99883  -0.998828  1.49884  -0.0750987  0.0364  -0.00212123  0.0267969  0.0267969  -0.0255578  0  0  0  0.459375  0.459375  -0.384814  0.018619  -0.0217899  -0.0297338  -0.0305183  0.0115462  -0.00221937  0.0501742  -0.011201  -0.0351894  -0.307963  0.279054  0.0249448 
1704809382.751165000  0  0  10.9517  -0.0795457  -0.0507653  0.0277859  nan  nan  nan  nan  nan  nan  -1.99869  -0.998688  1.49871  -0.0790253  0.041633  -0.00260836  0.02916  0.02916  -0.0275095  0  0  0  0.486  0.486  -0.395732  0.018453  -0.0217236  -0.0295989  -0.0325299  0.0114926  0.0127017  0.0524658  -0.0153746  -0.0351253  -0.323594  0.242977  0.00392935 
1704809382.755167000  0  0  11.0807  -0.0846766  -0.0545797  0.0300405  nan  nan  nan  nan  nan  nan  -1.99854  -0.998536  1.49857  -0.082237  0.0436233  -0.0028308  0.0316581  0.0316581  -0.0295139  0  0  0  0.513375  0.513375  -0.405901  0.0183085  -0.0217159  -0.0296491  -0.0319365  0.00974345  0.00136869  0.0543455  -0.0161438  -0.0353433  -0.330626  0.257683  -0.022074 
1704809382.761176000  0  0  11.1696  -0.0464872  -0.0775484  0.0270457  nan  nan  nan  nan  nan  nan  -1.99837  -0.998371  1.49842  -0.0829905  0.0472625  -0.00308488  0.034295  0.034295  -0.0315673  0  0  0  0.5415  0.5415  -0.41532  0.0183245  -0.0217949  -0.0297735  -0.0334972  0.0116416  -0.00633319  0.0524347  -0.0174151  -0.034951  -0.389425  0.315316  0.0114395 
1704809382.766165000  0  0  10.9514  -0.0658472  -0.0369567  0.0283579  nan  nan  nan  nan  nan  nan  -1.99819  -0.998193  1.49825  -0.0888821  0.0521928  -0.00371722  0.0370744  0.0370744  -0.0336659  0  0  0  0.570375  0.570375  -0.423989  0.0183469  -0.0219385  -0.0296403  -0.0349322  0.010366  0.0111394  0.0564948  -0.0211626  -0.0347997  -0.388058  0.26861  -0.00647701 
1704809382.771152000  0  0  11.1442  -0.0787627  -0.0594627  0.0321508  nan  nan  nan  nan  nan  nan  -1.998  -0.998  1.49808  -0.0922207  0.0520829  -0.00379006  0.04  0.04  -0.0358059  0  0  0  0.6  0.6  -0.431908  0.0183943  -0.0220778  -0.0297828  -0.0324174  0.00826267  -0.00507144  0.0580866  -0.0192569  -0.035333  -0.376872  0.296089  -0.048554 
1704809382.776171000  0  0  11.1999  -0.0391575  -0.078155  0.0260686  nan  nan  nan  nan  nan  nan  -1.99779  -0.997792  1.49789  -0.0929524  0.0581693  -0.00429669  0.0430756  0.0430756  -0.0379837  0  0  0  0.630375  0.630306  -0.439077  0.0181911  -0.0219992  -0.029834  -0.0361836  0.010375  -0.00984909  0.056246  -0.022955  -0.0345987  -0.439148  0.367496  0.0201298 
1704809382.781164000  0  0  10.995  -0.0621458  -0.0292154  0.0243807  nan  nan  nan  nan  nan  nan  -1.99757  -0.997569  1.4977  -0.099802  0.0637491  -0.00515219  0.0463048  0.0463022  -0.0401954  0  0  0  0.661272  0.660227  -0.445496  0.0182115  -0.0221473  -0.0297273  -0.0380353  0.00817127  0.00691489  0.0609778  -0.0272673  -0.0338801  -0.436704  0.30929  0.034043 
1704809382.786166000  0  0  11.1672  -0.0805713  -0.0555163  0.0304339  nan  nan  nan  nan  nan  nan  -1.99733  -0.997329  1.49749  -0.102017  0.0649036  -0.00530256  0.0496872  0.0496766  -0.0424374  0  0  0  0.691571  0.689397  -0.451165  0.0180407  -0.0221055  -0.0298424  -0.0366262  0.00701053  -0.00737999  0.0615061  -0.0263146  -0.0345772  -0.404713  0.353127  -0.0346522 
1704809382.791160000  0  0  11.2241  -0.0471209  -0.0756015  0.024269  nan  nan  nan  nan  nan  nan  -1.99707  -0.997072  1.49727  -0.103995  0.0696492  -0.00581025  0.0532192  0.053195  -0.0447058  0  0  0  0.721119  0.717818  -0.456084  0.0180594  -0.0222565  -0.0299583  -0.039425  0.00778455  -0.011835  0.0608052  -0.028418  -0.0337274  -0.465166  0.412649  0.0339108 
1704809382.796175000  0  0  11.0507  -0.0756354  -0.034445  0.0219918  nan  nan  nan  nan  nan  nan  -1.9968  -0.996797  1.49704  -0.110635  0.0746413  -0.00670864  0.0568972  0.0568535  -0.046997  0  0  0  0.749918  0.745488  -0.460253  0.0180658  -0.022397  -0.0298695  -0.0408105  0.00541027  0.00260512  0.0653006  -0.0318472  -0.032812  -0.449495  0.361884  0.0532231 
1704809382.801164000  0  0  11.1631  -0.0983343  -0.0554169  0.0294299  nan  nan  nan  nan  nan  nan  -1.9965  -0.996503  1.4968  -0.11303  0.0765294  -0.00697496  0.0607172  0.0606486  -0.0493071  0  0  0  0.777966  0.772409  -0.463672  0.0178679  -0.0223705  -0.0299576  -0.0402484  0.00433534  -0.00648856  0.0660622  -0.0314052  -0.0335688  -0.411104  0.399762  -0.0321867 
1704809382.806166000  0  0  11.2119  -0.0607457  -0.0795383  0.0237004  nan  nan  nan  nan  nan  nan  -1.99619  -0.99619  1.49655  -0.115083  0.0807685  -0.00748788  0.0646756  0.0645764  -0.0516324  0  0  0  0.805265  0.79858  -0.466341  0.017824  -0.022476  -0.0300313  -0.0425496  0.00469415  -0.0100863  0.0652417  -0.0328188  -0.0327875  -0.478732  0.46101  0.0316204 
1704809382.811159000  0  0  11.1064  -0.0785065  -0.0511418  0.0207622  nan  nan  nan  nan  nan  nan  -1.99586  -0.995857  1.49629  -0.120015  0.0864431  -0.00843261  0.0687686  0.0686331  -0.0539693  0  0  0  0.831813  0.824  -0.46826  0.0176013  -0.0224583  -0.0299884  -0.0449697  0.00314615  -0.00093013  0.0679272  -0.0364508  -0.0318178  -0.467917  0.437631  0.0586509 
1704809382.816173000  0  0  11.1642  -0.11308  -0.0715462  0.0296607  nan  nan  nan  nan  nan  nan  -1.9955  -0.995504  1.49601  -0.123628  0.0878694  -0.00877883  0.0729924  0.0728151  -0.0563138  0  0  0  0.857612  0.848671  -0.469428  0.0175756  -0.0225864  -0.0300471  -0.0441308  0.00125116  -0.00525145  0.0699291  -0.0351767  -0.032639  -0.417188  0.466718  -0.0443694 
1704809382.820154000  0  0  11.2015  -0.0943133  -0.0853443  0.0273004  nan  nan  nan  nan  nan  nan  -1.99513  -0.995129  1.49572  -0.126235  0.0922846  -0.00941598  0.0773434  0.0771186  -0.0586623  0  0  0  0.88266  0.872591  -0.469847  0.0173211  -0.0226463  -0.0300322  -0.0464261  0.00066825  -0.00782934  0.0704241  -0.0371434  -0.0323172  -0.459275  0.512407  -0.0180831 
1704809382.826165000  0  0  11.1338  -0.0919624  -0.070151  0.0224654  nan  nan  nan  nan  nan  nan  -1.99473  -0.994732  1.49543  -0.129919  0.0968375  -0.0101939  0.0818178  0.0815398  -0.061011  0  0  0  0.906958  0.895762  -0.469516  0.0172871  -0.0227084  -0.0300788  -0.048392  0.00016979  -0.00138447  0.0711648  -0.0387387  -0.0312979  -0.470791  0.496698  0.0321615 
1704809382.831161000  0  0  11.1533  -0.129814  -0.0768749  0.030489  nan  nan  nan  nan  nan  nan  -1.99431  -0.994313  1.49511  -0.134307  0.0983106  -0.010658  0.0864118  0.086075  -0.0633562  0  0  0  0.930507  0.918183  -0.468435  0.0172689  -0.0228644  -0.0300973  -0.0475776  -0.00238715  -0.0023311  0.073896  -0.0375347  -0.0320071  -0.420215  0.499069  -0.0610415 
1704809382.836175000  0  0  11.2081  -0.0984945  -0.108044  0.0277809  nan  nan  nan  nan  nan  nan  -1.99386  -0.993871  1.49479  -0.135778  0.101511  -0.011068  0.0911216  0.0907204  -0.0656941  0  0  0  0.953305  0.939853  -0.466604  0.0170216  -0.0228605  -0.030151  -0.0488434  -0.0022738  -0.00599986  0.0726632  -0.0374407  -0.031853  -0.471512  0.560543  -0.0287305 
1704809382.841165000  0  0  11.1637  -0.0838399  -0.0891466  0.0222231  nan  nan  nan  nan  nan  nan  -1.9934  -0.993406  1.49446  -0.139262  0.106925  -0.0120044  0.0959436  0.0954722  -0.068021  0  0  0  0.975354  0.960774  -0.464023  0.016954  -0.023018  -0.0301287  -0.0523035  -0.00283057  -0.00132507  0.0733325  -0.0401611  -0.0308295  -0.506979  0.547775  0.0305066 
1704809382.845161000  0  0  11.1472  -0.118206  -0.0657587  0.0279609  nan  nan  nan  nan  nan  nan  -1.9929  -0.992916  1.49411  -0.144045  0.110052  -0.0127915  0.100874  0.100327  -0.0703331  0  0  0  0.996652  0.980944  -0.460692  0.0166531  -0.0231395  -0.0300496  -0.0528234  -0.00563175  0.000838733  0.0765935  -0.0414392  -0.0311643  -0.468249  0.512758  -0.0378678 
1704809382.851160000  0  0  11.2309  -0.0848794  -0.123629  0.0283309  nan  nan  nan  nan  nan  nan  -1.99239  -0.992402  1.49375  -0.145023  0.110299  -0.0127464  0.105909  0.10528  -0.0726267  0  0  0  1.0172  1.00036  -0.456611  0.0166706  -0.0232093  -0.0301584  -0.0516333  -0.00558976  -0.00498451  0.0742392  -0.0374707  -0.0315132  -0.513242  0.591988  -0.0390048 
1704809382.856174000  0  0  11.1652  -0.0670156  -0.094153  0.0215365  nan  nan  nan  nan  nan  nan  -1.99184  -0.991864  1.49339  -0.14837  0.115901  -0.0137576  0.111045  0.110329  -0.074898  0  0  0  1.037  1.01904  -0.45178  0.0165966  -0.0233841  -0.0301019  -0.0552843  -0.00578794  0.00165588  0.0745116  -0.040459  -0.0303794  -0.551476  0.560529  0.0345877 
1704809382.861166000  0  0  11.1999  -0.0953313  -0.0894932  0.0276327  nan  nan  nan  nan  nan  nan  -1.99128  -0.991299  1.49301  -0.152133  0.11669  -0.0141194  0.116278  0.11547  -0.0771432  0  0  0  1.05605  1.03696  -0.446199  0.0163542  -0.0234313  -0.0301178  -0.053896  -0.00865104  -8.38508e-05  0.0760376  -0.038727  -0.0308583  -0.508884  0.535274  -0.036826 
1704809382.866166000  0  0  11.287  -0.0660602  -0.143392  0.0281561  nan  nan  nan  nan  nan  nan  -1.99068  -0.990709  1.49261  -0.153167  0.118197  -0.0142642  0.121604  0.120698  -0.0793587  0  0  0  1.07435  1.05413  -0.439868  0.0162948  -0.0236253  -0.0301198  -0.0545181  -0.00877566  -0.00612232  0.0740788  -0.0363422  -0.0311095  -0.549404  0.621132  -0.0408561 
1704809382.870161000  0  0  11.1721  -0.0418686  -0.0964565  0.0217265  nan  nan  nan  nan  nan  nan  -1.99006  -0.990092  1.49221  -0.156488  0.1259  -0.0156557  0.12702  0.12601  -0.0815406  0  0  0  1.09189  1.07055  -0.432787  0.0159182  -0.0237586  -0.0299622  -0.0597194  -0.00832896  0.00472588  0.0745346  -0.0421265  -0.0300259  -0.601981  0.580477  0.0286778 
1704809382.876172000  0  0  11.2565  -0.0653422  -0.104722  0.02762  nan  nan  nan  nan  nan  nan  -1.98941  -0.989448  1.4918  -0.159582  0.123776  -0.0154929  0.132522  0.131402  -0.0836853  0  0  0  1.10869  1.08622  -0.424955  0.0159557  -0.0238968  -0.0300252  -0.0562505  -0.0114204  -0.000944874  0.0745824  -0.0368704  -0.0305739  -0.555473  0.548651  -0.0395114 
1704809382.881163000  0  0  11.3456  -0.0436781  -0.154121  0.0282568  nan  nan  nan  nan  nan  nan  -1.98873  -0.988778  1.49138  -0.16012  0.126252  -0.0157295  0.138105  0.13687  -0.0857889  0  0  0  1.12474  1.10114  -0.416374  0.0158517  -0.0240899  -0.0300403  -0.0583702  -0.0112712  -0.00684272  0.0721576  -0.0354388  -0.0308913  -0.576494  0.634278  -0.0442971 
1704809382.886165000  0  0  11.1734  -0.0190052  -0.0811427  0.0228562  nan  nan  nan  nan  nan  nan  -1.98803  -0.98808  1.49094  -0.16299  0.132897  -0.016949  0.143768  0.142412  -0.0878478  0  0  0  1.14004  1.11531  -0.407043  0.0155365  -0.0241146  -0.0299071  -0.0617166  -0.00969041  0.00892601  0.0715102  -0.0402854  -0.0300444  -0.619883  0.532911  0.0147419 
1704809382.891160000  0  0  11.3206  -0.0488237  -0.112551  0.0285503  nan  nan  nan  nan  nan  nan  -1.9873  -0.987354  1.4905  -0.165953  0.130409  -0.0166988  0.149505  0.148022  -0.0898581  0  0  0  1.15459  1.12873  -0.396962  0.015513  -0.0243817  -0.0299223  -0.0589129  -0.0138356  -0.00185552  0.0720791  -0.0348708  -0.0306658  -0.56548  0.545914  -0.0502205 
1704809382.896174000  0  0  11.4113  -0.0238077  -0.144035  0.0273174  nan  nan  nan  nan  nan  nan  -1.98653  -0.986599  1.49004  -0.166508  0.133386  -0.0170216  0.155312  0.153698  -0.0918162  0  0  0  1.16839  1.1414  -0.386131  0.0153934  -0.0246138  -0.0299199  -0.062018  -0.0139603  -0.00764402  0.069538  -0.0342643  -0.0307533  -0.592134  0.603301  -0.0339339 
1704809382.901164000  0  0  11.1819  -0.0167921  -0.0654508  0.0231438  nan  nan  nan  nan  nan  nan  -1.98574  -0.985816  1.48958  -0.169872  0.139697  -0.0183004  0.161187  0.159435  -0.0937182  0  0  0  1.18144  1.15332  -0.37455  0.0150669  -0.0246533  -0.0297527  -0.0642291  -0.0120585  0.0129503  0.0696726  -0.0391186  -0.0299878  -0.607403  0.490793  0.0105797 
1704809382.906163000  0  0  11.3801  -0.0295866  -0.109719  0.0283185  nan  nan  nan  nan  nan  nan  -1.98492  -0.985005  1.48911  -0.1716  0.137801  -0.0179636  0.167125  0.16523  -0.0955604  0  0  0  1.19373  1.16449  -0.362219  0.0149491  -0.0248932  -0.0297958  -0.0630954  -0.0160529  -0.00174912  0.0688006  -0.0341878  -0.0306908  -0.573792  0.533966  -0.0470726 
1704809382.911160000  0  0  11.4558  -0.015427  -0.123796  0.0264428  nan  nan  nan  nan  nan  nan  -1.98407  -0.984164  1.48862  -0.17141  0.141531  -0.0183099  0.173123  0.171079  -0.0973391  0  0  0  1.20528  1.17491  -0.349138  0.014602  -0.0249561  -0.0298289  -0.0667706  -0.0156362  -0.00602896  0.0657748  -0.0347826  -0.0307734  -0.574274  0.567593  -0.0228013 
1704809382.916171000  0  0  11.2699  -0.0249384  -0.0742159  0.0247147  nan  nan  nan  nan  nan  nan  -1.98319  -0.983294  1.48813  -0.175019  0.144917  -0.0191548  0.179177  0.176978  -0.0990506  0  0  0  1.21608  1.18458  -0.335307  0.0144618  -0.0251768  -0.0296118  -0.0665152  -0.0147449  0.0108677  0.0666026  -0.0364396  -0.0302992  -0.562867  0.483676  -0.0059417 
1704809382.920179000  0  0  11.3833  -0.035056  -0.0924383  0.0281252  nan  nan  nan  nan  nan  nan  -1.98228  -0.982394  1.48763  -0.1774  0.146362  -0.0194873  0.185283  0.182923  -0.100691  0  0  0  1.22613  1.1935  -0.320726  0.0140131  -0.0254325  -0.0295556  -0.0679675  -0.0181304  0.00344655  0.0669349  -0.0355801  -0.0306932  -0.545689  0.512213  -0.0446323 
1704809382.926174000  0  0  11.5074  -0.0277104  -0.103783  0.0266306  nan  nan  nan  nan  nan  nan  -1.98134  -0.981465  1.48713  -0.176608  0.146672  -0.0191385  0.191437  0.188912  -0.102257  0  0  0  1.23543  1.20167  -0.305395  0.013984  -0.0255282  -0.0296491  -0.0690535  -0.0183066  -0.0048322  0.0632076  -0.0327288  -0.0309897  -0.526089  0.508671  -0.0229861 
1704809382.931168000  0  0  11.3294  -0.0328283  -0.0870471  0.0256352  nan  nan  nan  nan  nan  nan  -1.98037  -0.980505  1.48661  -0.179868  0.149456  -0.0198398  0.197636  0.194939  -0.103744  0  0  0  1.24398  1.20909  -0.289314  0.0138817  -0.0258083  -0.0294075  -0.0684207  -0.0172169  0.0114849  0.0639069  -0.0333105  -0.0306659  -0.522287  0.480551  -0.0137805 
1704809382.936188000  0  0  11.4322  -0.0354818  -0.102403  0.0273235  nan  nan  nan  nan  nan  nan  -1.97936  -0.979515  1.48609  -0.181067  0.150393  -0.0198968  0.203876  0.201001  -0.105148  0  0  0  1.25177  1.21576  -0.272482  0.0135312  -0.0259102  -0.0294325  -0.0695475  -0.0196303  0.00517745  0.0626893  -0.0316055  -0.0310291  -0.505778  0.495576  -0.0312526 
1704809382.941175000  0  0  11.549  -0.0430702  -0.111354  0.0264534  nan  nan  nan  nan  nan  nan  -1.97833  -0.978495  1.48556  -0.18122  0.15075  -0.0196819  0.210152  0.207095  -0.106467  0  0  0  1.25882  1.22169  -0.254901  0.0133634  -0.0261854  -0.0293893  -0.0706368  -0.0207842  -0.00254158  0.0608142  -0.029436  -0.0312039  -0.47335  0.493519  -0.0186277 
1704809382.945170000  0  0  11.443  -0.0416816  -0.102113  0.0253205  nan  nan  nan  nan  nan  nan  -1.97726  -0.977444  1.48502  -0.183333  0.155081  -0.0204934  0.216463  0.213217  -0.107696  0  0  0  1.26512  1.22686  -0.23657  0.0128644  -0.0264548  -0.0291786  -0.0725172  -0.019862  0.0082151  0.0609708  -0.0317731  -0.0309981  -0.477568  0.496539  -0.00652433 
1704809382.951166000  0  0  11.4314  -0.0515111  -0.106273  0.0266453  nan  nan  nan  nan  nan  nan  -1.97616  -0.976363  1.48448  -0.185513  0.154524  -0.0204226  0.222802  0.219362  -0.108833  0  0  0  1.27067  1.23128  -0.218113  0.0128521  -0.026564  -0.0291188  -0.0708585  -0.0215778  0.0111327  0.0605557  -0.0284396  -0.0311323  -0.45409  0.474191  -0.0217437 
1704809382.956182000  0  0  11.6393  -0.0531903  -0.129968  0.0282286  nan  nan  nan  nan  nan  nan  -1.97503  -0.975251  1.48394  -0.184411  0.15321  -0.0196834  0.229168  0.225528  -0.109879  0  0  0  1.27547  1.23495  -0.2004  0.0126683  -0.0268708  -0.029112  -0.0715832  -0.0233583  -0.00425054  0.0576786  -0.0245231  -0.0318291  -0.424263  0.485549  -0.0345661 
1704809382.961174000  0  0  11.4357  -0.0346832  -0.121717  0.0249103  nan  nan  nan  nan  nan  nan  -1.97387  -0.974107  1.48338  -0.185612  0.15769  -0.0203753  0.235556  0.231711  -0.110838  0  0  0  1.27952  1.23787  -0.183438  0.0123089  -0.0269422  -0.0289279  -0.072489  -0.0200054  0.0143111  0.0564041  -0.0265643  -0.0315235  -0.449552  0.487827  0.00385617 
1704809382.966175000  0  0  11.4729  -0.0641306  -0.107675  0.0271054  nan  nan  nan  nan  nan  nan  -1.97268  -0.972933  1.48283  -0.188656  0.157358  -0.0204731  0.241962  0.237906  -0.111714  0  0  0  1.28282  1.24004  -0.167225  0.0121334  -0.0272804  -0.0287771  -0.0719316  -0.0235568  0.0129302  0.0577485  -0.0243408  -0.0316256  -0.403025  0.439285  -0.0225609 
1704809382.970169000  0  0  11.6637  -0.0700699  -0.130426  0.0311186  nan  nan  nan  nan  nan  nan  -1.97145  -0.971728  1.48227  -0.187688  0.157404  -0.0199839  0.248383  0.24411  -0.112511  0  0  0  1.28536  1.24146  -0.151762  0.0115887  -0.0276124  -0.0287494  -0.07368  -0.0253845  -0.00117602  0.0556312  -0.0222555  -0.0326585  -0.371667  0.465603  -0.0623981 
1704809382.976183000  0  0  11.4811  -0.0254327  -0.136606  0.0247992  nan  nan  nan  nan  nan  nan  -1.97019  -0.970492  1.4817  -0.187635  0.160237  -0.0201591  0.254814  0.250319  -0.113233  0  0  0  1.28716  1.24213  -0.137049  0.0115446  -0.0276629  -0.0285718  -0.0736748  -0.0212474  0.0151664  0.0525718  -0.0220763  -0.0322813  -0.432795  0.476313  0.0128233 
1704809382.981174000  0  0  11.4758  -0.0612417  -0.10886  0.0271495  nan  nan  nan  nan  nan  nan  -1.9689  -0.969225  1.48113  -0.190612  0.159577  -0.0201725  0.261253  0.25653  -0.113883  0  0  0  1.28821  1.24205  -0.123086  0.0113714  -0.0280197  -0.0283629  -0.0722219  -0.0241148  0.0168364  0.0540942  -0.0199421  -0.032374  -0.375184  0.401187  -0.0156283 
1704809382.986174000  0  0  11.6637  -0.0389518  -0.159525  0.0330131  nan  nan  nan  nan  nan  nan  -1.96758  -0.967927  1.48056  -0.186919  0.158402  -0.0189862  0.267695  0.262738  -0.114465  0  0  0  1.28851  1.24122  -0.109873  0.0110009  -0.0281205  -0.0284279  -0.0729201  -0.0233684  0.00245982  0.0487546  -0.0159044  -0.0341213  -0.370639  0.46537  -0.0714502 
1704809382.991167000  0  0  11.4865  -0.00526978  -0.146099  0.0253711  nan  nan  nan  nan  nan  nan  -1.96623  -0.966598  1.47999  -0.189467  0.161895  -0.0196972  0.274137  0.268941  -0.114983  0  0  0  1.28806  1.23964  -0.0974106  0.0107966  -0.028463  -0.0281162  -0.0738584  -0.0221691  0.0182584  0.0485929  -0.0172251  -0.0332323  -0.436515  0.450668  0.0151835 
1704809382.996184000  0  0  11.4655  -0.0366731  -0.112104  0.030067  nan  nan  nan  nan  nan  nan  -1.96484  -0.965238  1.47941  -0.190073  0.161824  -0.0194132  0.280575  0.275134  -0.115441  0  0  0  1.28686  1.23731  -0.0856977  0.0104338  -0.0285691  -0.0280128  -0.0726461  -0.0225923  0.0209617  0.0479089  -0.0158966  -0.0339949  -0.367415  0.370457  -0.0358879 
1704809383.001175000  0  0  11.6452  -0.0220018  -0.173086  0.036269  nan  nan  nan  nan  nan  nan  -1.96342  -0.963847  1.47884  -0.18842  0.15927  -0.0182788  0.287004  0.281313  -0.115841  0  0  0  1.2849  1.23423  -0.0747349  0.0102659  -0.0289967  -0.0279059  -0.0722466  -0.023871  0.00673324  0.0446266  -0.0104681  -0.0355842  -0.366561  0.442478  -0.0975198 
1704809383.006158000  0  0  11.5308  0.00730434  -0.150193  0.026021  nan  nan  nan  nan  nan  nan  -1.96197  -0.962425  1.47826  -0.189873  0.161852  -0.0186226  0.293422  0.287475  -0.116189  0  0  0  1.2822  1.2304  -0.0645221  0.0100108  -0.0293394  -0.0276347  -0.0732474  -0.022924  0.0170362  0.0436167  -0.0112915  -0.0345872  -0.415882  0.404268  0.0206096 
1704809383.011139000  0  0  11.4472  -0.0160443  -0.120366  0.0319519  nan  nan  nan  nan  nan  nan  -1.96049  -0.960972  1.47767  -0.189848  0.162278  -0.0183084  0.299825  0.293615  -0.116488  0  0  0  1.27875  1.22582  -0.0550592  0.0096524  -0.0294449  -0.0274759  -0.0718047  -0.0215282  0.0244537  0.0423151  -0.0105268  -0.0355913  -0.35721  0.337579  -0.0434863 
1704809383.016191000  0  0  11.6195  -0.00347535  -0.169104  0.0358226  nan  nan  nan  nan  nan  nan  -1.95897  -0.959488  1.47709  -0.188831  0.159474  -0.0172129  0.306209  0.299732  -0.116741  0  0  0  1.27455  1.22049  -0.0463464  0.00947337  -0.0298469  -0.0273427  -0.0712367  -0.0238072  0.0105769  0.0396506  -0.00528139  -0.0368427  -0.357835  0.386798  -0.0793547 
1704809383.020134000  0  0  11.5961  0.0142167  -0.158977  0.0275261  nan  nan  nan  nan  nan  nan  -1.95742  -0.957975  1.47651  -0.189135  0.162061  -0.0173482  0.312569  0.305819  -0.116953  0  0  0  1.2696  1.21441  -0.0383835  0.00885085  -0.0302472  -0.0271465  -0.0732937  -0.0234689  0.0132802  0.0383227  -0.00643624  -0.0362916  -0.381002  0.377167  0.0188399 
1704809383.026177000  0  0  11.3756  -0.0213015  -0.137348  0.0285027  nan  nan  nan  nan  nan  nan  -1.95585  -0.95643  1.47592  -0.193647  0.160296  -0.0173521  0.318903  0.311874  -0.117126  0  0  0  1.2639  1.20759  -0.0311707  0.00935601  -0.0311562  -0.0264521  -0.0689303  -0.0234071  0.0307573  0.0413673  -0.00334967  -0.035697  -0.337976  0.305514  0.000686417 
1704809383.030181000  0  0  11.5304  -0.0306814  -0.151777  0.0334303  nan  nan  nan  nan  nan  nan  -1.95424  -0.954856  1.47534  -0.193837  0.159125  -0.0167411  0.325207  0.317894  -0.117265  0  0  0  1.25745  1.20001  -0.0247079  0.00875888  -0.0315912  -0.0263466  -0.0695293  -0.0270108  0.0185129  0.0405652  -0.00078814  -0.0367353  -0.311838  0.310804  -0.050526 
1704809383.036171000  0  0  11.5113  -0.0101238  -0.175347  0.024344  nan  nan  nan  nan  nan  nan  -1.95259  -0.953251  1.47475  -0.192828  0.157473  -0.0158351  0.331477  0.323873  -0.117374  0  0  0  1.25024  1.19168  -0.018995  0.00904388  -0.0321654  -0.0258699  -0.0684315  -0.0252683  0.0192633  0.0376591  0.00280042  -0.0357798  -0.326216  0.32493  0.0534979 
1704809383.041164000  0  0  11.2985  -0.0389754  -0.127508  0.0258778  nan  nan  nan  nan  nan  nan  -1.95092  -0.951617  1.47416  -0.195987  0.158536  -0.0161295  0.337708  0.329809  -0.117457  0  0  0  1.24229  1.1826  -0.0140322  0.00889482  -0.0327335  -0.0253935  -0.0666792  -0.0244744  0.0365751  0.0396841  0.00203298  -0.035407  -0.287143  0.236313  0.0305964 
1704809383.045163000  0  0  11.4582  -0.0608763  -0.13723  0.0323973  nan  nan  nan  nan  nan  nan  -1.94922  -0.949953  1.47357  -0.196019  0.156367  -0.0152754  0.343898  0.335698  -0.117516  0  0  0  1.23359  1.17277  -0.0098193  0.00829635  -0.0331948  -0.0252681  -0.0663275  -0.0283109  0.0234982  0.0391757  0.00511436  -0.036595  -0.238664  0.227408  -0.0390156 
1704809383.051167000  0  0  11.4686  -0.0181866  -0.175555  0.0285867  nan  nan  nan  nan  nan  nan  -1.94748  -0.94826  1.47299  -0.192372  0.155832  -0.0141426  0.350043  0.341536  -0.117556  0  0  0  1.22414  1.16219  -0.0063565  0.00836979  -0.033427  -0.0249862  -0.0669225  -0.0249329  0.0218157  0.0337464  0.00753429  -0.0367867  -0.274094  0.281795  0.0105329 
1704809383.056169000  0  0  11.2524  -0.0381293  -0.106004  0.0293019  nan  nan  nan  nan  nan  nan  -1.94572  -0.946538  1.4724  -0.192978  0.156746  -0.0139693  0.356138  0.347319  -0.117581  0  0  0  1.21394  1.15086  -0.0036437  0.00805553  -0.0335312  -0.0247068  -0.0647947  -0.0222993  0.0392112  0.0334492  0.00642596  -0.0370945  -0.231474  0.15289  0.00467126 
1704809383.061165000  0  0  11.4663  -0.0502904  -0.146538  0.0367081  nan  nan  nan  nan  nan  nan  -1.94392  -0.944787  1.47181  -0.191295  0.152075  -0.0123509  0.362181  0.353043  -0.117594  0  0  0  1.20299  1.13878  -0.0016808  0.00783263  -0.0339776  -0.0245887  -0.0632077  -0.0255712  0.0209014  0.0312756  0.0119643  -0.0386481  -0.187155  0.183005  -0.0723709 
1704809383.066172000  0  0  11.4552  -0.0122204  -0.151736  0.0302629  nan  nan  nan  nan  nan  nan  -1.94209  -0.943008  1.47122  -0.18918  0.153644  -0.0118561  0.368167  0.358705  -0.117599  0  0  0  1.19128  1.12595  -0.000468  0.00751582  -0.0343641  -0.0243215  -0.0655915  -0.0234466  0.0212988  0.0277728  0.0113005  -0.0385529  -0.231068  0.199509  0.00724239 
1704809383.070167000  0  0  11.2892  -0.0262186  -0.0884105  0.0280792  nan  nan  nan  nan  nan  nan  -1.94024  -0.9412  1.47063  -0.189697  0.155467  -0.0118181  0.374093  0.364301  -0.1176  0  0  0  1.17883  1.11237  -5.1e-06  0.0068953  -0.0348004  -0.0239892  -0.0651116  -0.021307  0.0344593  0.0277229  0.00900262  -0.0385261  -0.202614  0.0939968  0.0342703 
1704809383.076176000  0  0  11.4299  -0.0229271  -0.136204  0.0353634  nan  nan  nan  nan  nan  nan  -1.93835  -0.939365  1.47005  -0.186497  0.150007  -0.0098156  0.379954  0.369828  -0.1176  0  0  0  1.16563  1.09804  -0  0.0069602  -0.0347934  -0.0240028  -0.0621398  -0.0224497  0.0217873  0.0238801  0.0152334  -0.0402016  -0.173843  0.132262  -0.0400267 
1704809383.081172000  0  0  11.4863  0.00366689  -0.131113  0.02992  nan  nan  nan  nan  nan  nan  -1.93644  -0.937502  1.46946  -0.182733  0.15001  -0.00875659  0.385748  0.37528  -0.1176  0  0  0  1.15168  1.08296  -0  0.00663363  -0.0349584  -0.0239041  -0.0638772  -0.020533  0.0164407  0.0192675  0.0157228  -0.040519  -0.184595  0.117576  0.0311896 
1704809383.086171000  0  0  11.2648  0.0088573  -0.10701  0.0309569  nan  nan  nan  nan  nan  nan  -1.9345  -0.935612  1.46887  -0.180459  0.149465  -0.00782294  0.39147  0.380656  -0.1176  0  0  0  1.13698  1.06713  -0  0.00634299  -0.0350197  -0.0236412  -0.0605397  -0.0152527  0.0334336  0.016349  0.0161897  -0.0412058  -0.168126  0.0650759  0.025096 
1704809383.091163000  0  0  11.4056  -0.00078477  -0.135083  0.034612  nan  nan  nan  nan  nan  nan  -1.93252  -0.933696  1.46828  -0.179971  0.146661  -0.00675305  0.397116  0.385951  -0.1176  0  0  0  1.12153  1.05055  -0  0.00605842  -0.0354497  -0.0234856  -0.0604254  -0.0187356  0.021184  0.0154204  0.0194916  -0.041914  -0.140299  0.0908434  -0.0135096 
1704809383.096177000  0  0  11.4914  0.0128583  -0.132031  0.0319604  nan  nan  nan  nan  nan  nan  -1.93053  -0.931753  1.46769  -0.175349  0.144987  -0.00526605  0.402684  0.39116  -0.1176  0  0  0  1.10533  1.03322  -0  0.00576851  -0.035593  -0.0234121  -0.0608363  -0.0166985  0.0130871  0.0104554  0.0213026  -0.0426418  -0.121906  0.0680786  0.0269131 
1704809383.101171000  0  0  11.2698  0.0398785  -0.13039  0.0312454  nan  nan  nan  nan  nan  nan  -1.9285  -0.929784  1.46711  -0.171891  0.144677  -0.00419518  0.408168  0.396282  -0.1176  0  0  0  1.08837  1.01514  -0  0.00547858  -0.0356301  -0.0231726  -0.0582095  -0.0104666  0.030009  0.00630913  0.0218689  -0.0433089  -0.137801  0.0595865  0.0425217 
1704809383.106170000  0  0  11.3464  0.00273947  -0.123293  0.0337488  nan  nan  nan  nan  nan  nan  -1.92644  -0.92779  1.46652  -0.172674  0.141864  -0.00331661  0.413566  0.40131  -0.1176  0  0  0  1.07067  0.996314  -0  0.00521152  -0.0361122  -0.0229788  -0.0573325  -0.0142977  0.0230763  0.007273  0.0243284  -0.0435651  -0.0723906  0.0227641  0.0137904 
1704809383.111165000  0  0  11.5069  0.0240459  -0.14826  0.0364227  nan  nan  nan  nan  nan  nan  -1.92436  -0.925771  1.46593  -0.16621  0.13859  -0.00131742  0.418874  0.406243  -0.1176  0  0  0  1.05222  0.976735  -0  0.00491631  -0.0361709  -0.0229908  -0.0570941  -0.0118417  0.00851794  0.000784436  0.0278842  -0.0452281  -0.0553087  0.0399852  -0.00300304 
1704809383.116176000  0  0  11.311  0.049861  -0.144686  0.0323563  nan  nan  nan  nan  nan  nan  -1.92225  -0.923728  1.46534  -0.164725  0.138886  -0.000633441  0.424087  0.411077  -0.1176  0  0  0  1.03302  0.956405  -0  0.00464877  -0.0365352  -0.0226732  -0.0561311  -0.00818747  0.023627  -0.00121667  0.0275592  -0.0451417  -0.0885286  0.0358275  0.0469628 
1704809383.120176000  0  0  11.3338  0.0134811  -0.111958  0.0339699  nan  nan  nan  nan  nan  nan  -1.92012  -0.921661  1.46475  -0.16457  0.137376  0.0001649  0.429203  0.415806  -0.1176  0  0  0  1.01307  0.935326  -0  0.00400544  -0.0370047  -0.0224876  -0.0554668  -0.0100792  0.0211476  -0.000904791  0.0284102  -0.0456518  -0.0186382  -0.0374574  0.0318934 
1704809383.126171000  0  0  11.5395  0.0196424  -0.161599  0.0384714  nan  nan  nan  nan  nan  nan  -1.91796  -0.91957  1.46417  -0.158079  0.131418  0.00255205  0.434217  0.420429  -0.1176  0  0  0  0.992366  0.913497  -0  0.00412149  -0.037013  -0.0225501  -0.0535968  -0.00869043  0.00256747  -0.00682954  0.0343181  -0.0472814  0.023547  0.00747147  -0.00807863 
1704809383.131165000  0  0  11.3513  0.0505461  -0.139449  0.0293767  nan  nan  nan  nan  nan  nan  -1.91578  -0.917457  1.46358  -0.154884  0.131852  0.00345433  0.439125  0.42494  -0.1176  0  0  0  0.970915  0.890917  -0  0.00384601  -0.0370977  -0.0223505  -0.0533554  -0.00412258  0.0171025  -0.010165  0.0334787  -0.0469155  -0.00757384  -0.0291065  0.101947 
1704809383.136171000  0  0  11.4035  -0.00150225  -0.114058  0.0329526  nan  nan  nan  nan  nan  nan  -1.91357  -0.915321  1.46299  -0.152335  0.127303  0.00503659  0.443924  0.429336  -0.1176  0  0  0  0.948713  0.867588  -0  0.00359366  -0.0371368  -0.0223155  -0.0503926  -0.00484102  0.0117251  -0.0114041  0.0368128  -0.0476968  0.107922  -0.110563  0.0650605 
1704809383.141173000  0  0  11.5851  0.0175347  -0.161692  0.0378871  nan  nan  nan  nan  nan  nan  -1.91134  -0.913163  1.4624  -0.145899  0.12406  0.0068976  0.448611  0.433615  -0.1176  0  0  0  0.925762  0.843508  -0  0.00331957  -0.0372251  -0.0223838  -0.0508795  -0.00277077  -0.00447605  -0.0170093  0.0401248  -0.0494663  0.121416  -0.0457643  0.0210736 
1704809383.146187000  0  0  11.3858  0.0402445  -0.128333  0.0280222  nan  nan  nan  nan  nan  nan  -1.90909  -0.910985  1.46181  -0.142075  0.123141  0.00807042  0.453181  0.43777  -0.1176  0  0  0  0.90206  0.818679  -0  0.00307747  -0.0372004  -0.0222268  -0.0493161  0.00199542  0.0108336  -0.0203223  0.0400208  -0.0489488  0.106476  -0.111526  0.139211 
1704809383.151164000  0  0  11.4012  -0.00942469  -0.116562  0.0329541  nan  nan  nan  nan  nan  nan  -1.90681  -0.908786  1.46123  -0.13946  0.119065  0.00953127  0.45763  0.4418  -0.1176  0  0  0  0.877609  0.793099  -0  0.00282829  -0.0373196  -0.0221765  -0.0467145  0.00198028  0.0085371  -0.0210934  0.0428049  -0.0497252  0.212909  -0.160682  0.0853258 
1704809383.156177000  0  0  11.5385  -0.00239607  -0.148637  0.0385219  nan  nan  nan  nan  nan  nan  -1.90451  -0.906567  1.46064  -0.134077  0.115602  0.0112184  0.461956  0.4457  -0.1176  0  0  0  0.852407  0.76677  -0  0.0025832  -0.0373943  -0.0222286  -0.0465633  0.00339441  -0.00392113  -0.0250471  0.0457748  -0.0513566  0.235225  -0.123854  0.0320415 
1704809383.161172000  0  0  11.4318  0.0198252  -0.131423  0.0300711  nan  nan  nan  nan  nan  nan  -1.90219  -0.904329  1.46005  -0.129286  0.113151  0.0126751  0.466153  0.449467  -0.1176  0  0  0  0.826455  0.739691  -0  0.00235391  -0.037358  -0.0221492  -0.0447503  0.00745656  0.00367305  -0.0287256  0.0470168  -0.0510872  0.224625  -0.169709  0.134983 
1704809383.166172000  0  0  11.3887  -0.0310172  -0.12569  0.0344347  nan  nan  nan  nan  nan  nan  -1.89985  -0.902073  1.45946  -0.131035  0.110059  0.0134636  0.470219  0.453096  -0.1176  0  0  0  0.799754  0.711861  -0  0.00212496  -0.0381926  -0.0218767  -0.0429119  0.00429138  0.00657359  -0.0246526  0.0486373  -0.051111  0.288838  -0.196082  0.0806754 
1704809383.171164000  0  0  11.4776  -0.0582973  -0.134709  0.0389017  nan  nan  nan  nan  nan  nan  -1.89749  -0.899798  1.45887  -0.128982  0.105992  0.0148079  0.474149  0.456584  -0.1176  0  0  0  0.772302  0.683282  -0  0.00190094  -0.0386334  -0.0218136  -0.0415691  0.00294705  -0.00166705  -0.0244362  0.0513782  -0.0520377  0.341408  -0.203262  0.0341059 
1704809383.176175000  0  0  11.4585  -0.0279893  -0.145141  0.0320563  nan  nan  nan  nan  nan  nan  -1.89511  -0.897507  1.45829  -0.123039  0.102566  0.0164648  0.477941  0.459927  -0.1176  0  0  0  0.744101  0.653952  -0  0.00169892  -0.038594  -0.0218131  -0.04001  0.00688955  -0.00137086  -0.0288592  0.0537036  -0.0521175  0.321483  -0.203792  0.120471 
1704809383.181172000  0  0  11.3234  -0.0471396  -0.137068  0.0336314  nan  nan  nan  nan  nan  nan  -1.89271  -0.895199  1.4577  -0.119168  0.0990252  0.0178917  0.481589  0.463122  -0.1176  0  0  0  0.715149  0.623873  -0  0.00150864  -0.0386355  -0.0216911  -0.037156  0.0098993  0.00858711  -0.0304856  0.055705  -0.052685  0.374746  -0.23835  0.106458 
1704809383.186172000  0  0  11.4436  -0.0655233  -0.151369  0.03846  nan  nan  nan  nan  nan  nan  -1.89029  -0.892876  1.45711  -0.114225  0.0938339  0.0195891  0.485091  0.466166  -0.1176  0  0  0  0.685448  0.593663  -0  0.00132138  -0.0385991  -0.0217611  -0.0350771  0.0106482  -0.00248331  -0.0329266  0.0594856  -0.0540013  0.433972  -0.244529  0.0592629 
1704809383.191163000  0  0  11.4251  -0.0358423  -0.172231  0.0333565  nan  nan  nan  nan  nan  nan  -1.88786  -0.890538  1.45652  -0.108488  0.0900587  0.0211584  0.488442  0.46906  -0.1176  0  0  0  0.654996  0.564197  -0  0.00114365  -0.0386386  -0.0217294  -0.0334865  0.0145105  -0.00223087  -0.0367172  0.0621036  -0.054178  0.409483  -0.226892  0.124824 
1704809383.196174000  0  0  11.2891  -0.0555884  -0.157611  0.0321343  nan  nan  nan  nan  nan  nan  -1.88541  -0.888186  1.45593  -0.10749  0.0861896  0.0222869  0.49164  0.471809  -0.1176  0  0  0  0.624115  0.535481  -0  0.00100445  -0.0390256  -0.0214972  -0.0306985  0.0147559  0.00804722  -0.0352136  0.0641222  -0.0539523  0.435142  -0.274703  0.137844 
1704809383.201169000  0  0  11.3812  -0.071941  -0.165425  0.038658  nan  nan  nan  nan  nan  nan  -1.88294  -0.88582  1.45535  -0.102359  0.0809829  0.0238945  0.494685  0.474416  -0.1176  0  0  0  0.593893  0.507515  -0  0.000847069  -0.0389591  -0.0215577  -0.0283689  0.0164887  -0.000671261  -0.0376415  0.0675595  -0.0553239  0.490184  -0.290697  0.0700139 
1704809383.206171000  0  0  11.3955  -0.0323834  -0.177545  0.0347371  nan  nan  nan  nan  nan  nan  -1.88046  -0.883442  1.45476  -0.096085  0.0771147  0.025413  0.49758  0.476885  -0.1176  0  0  0  0.564421  0.480298  -0  0.000700814  -0.0388566  -0.0215719  -0.0269865  0.0206311  -0.00301944  -0.0419783  0.0698594  -0.055661  0.450967  -0.287617  0.122396 
1704809383.211134000  0  0  11.2822  -0.0527294  -0.164115  0.0329552  nan  nan  nan  nan  nan  nan  -1.87797  -0.881052  1.45417  -0.0963618  0.0731015  0.0264189  0.50033  0.47922  -0.1176  0  0  0  0.535699  0.453832  -0  0.000570281  -0.0394612  -0.0212957  -0.02412  0.019673  0.00554122  -0.039001  0.0716783  -0.0552253  0.464268  -0.331211  0.140313 
1704809383.215166000  0  0  11.3127  -0.063756  -0.16156  0.0380732  nan  nan  nan  nan  nan  nan  -1.87546  -0.87865  1.45358  -0.0932103  0.070184  0.0275701  0.502938  0.481425  -0.1176  0  0  0  0.507727  0.428116  -0  -1.50387e-05  -0.0398506  -0.0211943  -0.0228229  0.0210048  0.00219485  -0.0399998  0.0729585  -0.0562824  0.49551  -0.348098  0.0869085 
1704809383.220170000  0  0  11.3213  -0.051361  -0.15828  0.036798  nan  nan  nan  nan  nan  nan  -1.87294  -0.876237  1.45299  -0.0896801  0.0658534  0.0288613  0.505409  0.483503  -0.1176  0  0  0  0.480505  0.40315  -0  -0.000116478  -0.0400594  -0.0211075  -0.0205713  0.0227905  0.000526359  -0.0411978  0.0749985  -0.0565648  0.481742  -0.373426  0.105673 
1704809383.226166000  0  0  11.285  -0.0414403  -0.159875  0.0329499  nan  nan  nan  nan  nan  nan  -1.8704  -0.873815  1.45241  -0.0859033  0.0600546  0.0302695  0.507745  0.485458  -0.1176  0  0  0  0.454033  0.378934  -0  0.000297098  -0.0398899  -0.0210796  -0.017239  0.0246414  0.00259123  -0.0421401  0.0779051  -0.0561809  0.47057  -0.396976  0.149935 
1704809383.230164000  0  0  11.2631  -0.045663  -0.139265  0.0358143  nan  nan  nan  nan  nan  nan  -1.86786  -0.871383  1.45182  -0.0827234  0.0583083  0.0312719  0.50995  0.487293  -0.1176  0  0  0  0.428311  0.355468  -0  -0.000285435  -0.0402762  -0.0209389  -0.0167971  0.0268236  0.00375217  -0.0432422  0.0775357  -0.0568986  0.489154  -0.434798  0.121308 
1704809383.236178000  0  0  11.3077  -0.0464494  -0.128874  0.0373901  nan  nan  nan  nan  nan  nan  -1.8653  -0.868942  1.45123  -0.077976  0.0512027  0.0327766  0.512029  0.489014  -0.1176  0  0  0  0.403339  0.332751  -0  0.000162345  -0.0399138  -0.0209896  -0.0122817  0.0289442  -0.000906491  -0.044969  0.0809025  -0.0573712  0.506613  -0.486555  0.106336 
1704809383.241175000  0  0  11.3074  -0.0215874  -0.151076  0.0340702  nan  nan  nan  nan  nan  nan  -1.86274  -0.866493  1.45064  -0.0745806  0.0478638  0.0338786  0.513985  0.490622  -0.1176  0  0  0  0.379117  0.310785  -0  0.000100546  -0.0401065  -0.020896  -0.0109628  0.0310255  -0.00160844  -0.0461959  0.0819632  -0.0572258  0.468177  -0.45191  0.14638 
1704809383.245177000  0  0  11.2411  -0.0309705  -0.109211  0.0341653  nan  nan  nan  nan  nan  nan  -1.86017  -0.864036  1.45005  -0.0720034  0.0466256  0.0347762  0.515821  0.492123  -0.1176  0  0  0  0.355645  0.289569  -0  -0.000463091  -0.0404727  -0.0207306  -0.0107254  0.0330479  0.00343346  -0.0466452  0.080518  -0.0575081  0.491077  -0.522345  0.148015 
1704809383.251167000  0  0  11.3175  -0.0453515  -0.10642  0.0392963  nan  nan  nan  nan  nan  nan  -1.85758  -0.861572  1.44947  -0.0660379  0.0390855  0.0362444  0.517543  0.493519  -0.1176  0  0  0  0.332923  0.269103  -0  2.03135e-05  -0.039876  -0.0208665  -0.00563922  0.0363353  -0.00375095  -0.0493155  0.0840159  -0.0584377  0.544405  -0.560105  0.0931733 
1704809383.256180000  0  0  11.3118  -0.00292071  -0.136263  0.0326213  nan  nan  nan  nan  nan  nan  -1.85499  -0.859101  1.44888  -0.062652  0.0368396  0.0372149  0.519152  0.494815  -0.1176  0  0  0  0.310951  0.249387  -0  -1.82423e-05  -0.0400163  -0.0207873  -0.00547362  0.0386039  -0.00378182  -0.0507009  0.0839339  -0.0579541  0.47229  -0.499667  0.171775 
1704809383.261175000  0  0  11.259  -0.0253106  -0.075129  0.0320581  nan  nan  nan  nan  nan  nan  -1.85239  -0.856624  1.44829  -0.0591311  0.0343881  0.0381932  0.520653  0.496014  -0.1176  0  0  0  0.28973  0.230421  -0  -5.92626e-05  -0.0398295  -0.0207552  -0.00479269  0.0407482  0.000363926  -0.0513151  0.0824456  -0.0578809  0.52272  -0.608242  0.178082 
1704809383.266174000  0  0  11.3283  -0.0524554  -0.094698  0.0406959  nan  nan  nan  nan  nan  nan  -1.84978  -0.854141  1.4477  -0.0561797  0.028294  0.039347  0.522051  0.49712  -0.1176  0  0  0  0.269258  0.212205  -0  -2.04859e-05  -0.0399264  -0.0207503  -1.27256e-05  0.0422366  -0.00599308  -0.0512189  0.0852033  -0.059063  0.576125  -0.594475  0.0819318 
1704809383.271161000  0  0  11.3502  -0.00711052  -0.131432  0.0335052  nan  nan  nan  nan  nan  nan  -1.84717  -0.851653  1.44711  -0.0535321  0.0260208  0.0402595  0.523347  0.498137  -0.1176  0  0  0  0.249536  0.194738  -0  -4.73001e-05  -0.0400487  -0.0207111  0.000375793  0.0436684  -0.00813549  -0.0518936  0.0852278  -0.0585348  0.491642  -0.521231  0.166534 
1704809383.276175000  0  0  11.3064  -0.029816  -0.0861295  0.0323892  nan  nan  nan  nan  nan  nan  -1.84455  -0.84916  1.44653  -0.0494324  0.023308  0.0412225  0.524547  0.499069  -0.1176  0  0  0  0.230564  0.178022  -0  -4.49878e-05  -0.0398174  -0.0207148  0.00143671  0.0466604  -0.00469683  -0.0529421  0.0841789  -0.0584142  0.546699  -0.602186  0.179277 
1704809383.281173000  0  0  11.3664  -0.0435884  -0.112563  0.0420756  nan  nan  nan  nan  nan  nan  -1.84192  -0.846662  1.44594  -0.0450357  0.0181562  0.0422854  0.525654  0.499919  -0.1176  0  0  0  0.212342  0.162056  -0  -2.13254e-05  -0.0395791  -0.0207824  0.00536428  0.0496464  -0.0101297  -0.0543878  0.0863814  -0.0598598  0.587544  -0.569583  0.0726526 
1704809383.286171000  0  0  11.3744  -0.0236911  -0.130882  0.0326682  nan  nan  nan  nan  nan  nan  -1.83929  -0.844161  1.44535  -0.0424869  0.0148557  0.0432065  0.526672  0.500691  -0.1176  0  0  0  0.19487  0.14684  -0  2.57084e-05  -0.0395226  -0.020788  0.00720867  0.0510139  -0.0110064  -0.0544983  0.0870956  -0.0590217  0.548767  -0.539515  0.181864 
1704809383.291161000  0  0  11.3573  -0.0357955  -0.105446  0.0315184  nan  nan  nan  nan  nan  nan  -1.83666  -0.841656  1.44476  -0.0381003  0.0121879  0.044114  0.527604  0.501389  -0.1176  0  0  0  0.178148  0.132374  -0  6.94612e-05  -0.0393605  -0.0207882  0.00827559  0.0546602  -0.009775  -0.0557594  0.0862714  -0.0588458  0.584578  -0.582805  0.194478 
