ts fx fy fz tx ty tz exfx exfy exfz extx exty extz xd yd zd rolld pitchd yawd vxd vyd vzd wxd wyd wzd axd ayd azd e_x e_y e_z e_vx e_vy e_vz e_rx e_ry e_rz e_wx e_wy e_wz
1701272931.134598000  0  0  15.3933  0.0547159  0.0599415  0.0083448  nan  nan  nan  nan  nan  nan  -1.5  0  1  -0.00516343  -0.00456282  2.35599e-05  0  0  0  0  0  0  0  0  0  0.00188806  -0.00527991  -0.026034  0.00136935  0.00600834  0.00415707  -0.00354571  -0.002858  -0.00671328  -0.0565247  -0.0737244  -0.00986611 
1701272931.137990000  0  0  15.3855  0.0535329  0.0547969  0.0085291  nan  nan  nan  nan  nan  nan  -1.5  0  1  -0.00482079  -0.00436133  2.10251e-05  0  0  0  0  0  0  0  0  0  0.00191089  -0.0052726  -0.0260109  0.00105063  0.00643765  0.00459843  -0.00403183  -0.00316897  -0.00677617  -0.0488313  -0.0610007  -0.0117301 
1701272931.142526000  0  0  15.3846  0.0571692  0.0563587  0.00843665  nan  nan  nan  nan  nan  nan  -1.5  0  1  -0.00465708  -0.00425252  1.98044e-05  0  0  0  0  0  0  0  0  0  0.00191722  -0.00524586  -0.0259914  0.000894301  0.00658556  0.00460275  -0.00442214  -0.0035172  -0.00680485  -0.0508093  -0.0597737  -0.00963388 
1701272931.147527000  0  0  15.3916  0.0735422  0.0666931  0.00827224  nan  nan  nan  nan  nan  nan  -1.5  0  1  -0.00419328  -0.00406774  1.70572e-05  0  0  0  0  0  0  0  0  0  0.00192626  -0.00522689  -0.0259938  0.000635803  0.00713772  0.00415639  -0.005438  -0.00410348  -0.00680351  -0.0682428  -0.0714087  -0.00691531 
1701272931.153191000  0  0  15.3636  0.0710512  0.0597505  0.0079049  nan  nan  nan  nan  nan  nan  -1.5  0  1  -0.00403287  -0.0037281  1.5035e-05  0  0  0  0  0  0  0  0  0  0.00192736  -0.00520345  -0.0259734  0.000184631  0.0072985  0.00587448  -0.00596374  -0.00457897  -0.00676291  -0.0577679  -0.0535961  -0.00156595 
1701272931.157523000  0  0  15.3888  0.0676619  0.0748719  0.00771074  nan  nan  nan  nan  nan  nan  -1.5  0  1  -0.00395192  -0.00397549  1.57108e-05  0  0  0  0  0  0  0  0  0  0.00193278  -0.00517373  -0.0259655  0.00049978  0.00732332  0.00425959  -0.00619154  -0.00483701  -0.00674169  -0.0491218  -0.0775177  0.00126601 
1701272931.162523000  0  0  15.4146  0.0683343  0.0673329  0.00728433  nan  nan  nan  nan  nan  nan  -1.5  0  1  -0.00341296  -0.00359408  1.22665e-05  0  0  0  0  0  0  0  0  0  0.00193258  -0.00514716  -0.0259746  1.4287e-05  0.00794973  0.00263769  -0.00695888  -0.00533087  -0.00665721  -0.0414941  -0.0584332  0.0067554 
1701272931.167476000  0  0  15.3908  0.0735346  0.0506923  0.00637381  nan  nan  nan  nan  nan  nan  -1.5  0  1  -0.00356697  -0.00340524  1.21464e-05  0  0  0  0  0  0  0  0  0  0.00193206  -0.00511271  -0.0259454  -0.000236183  0.00767431  0.00407839  -0.00710285  -0.0054219  -0.00647553  -0.0490858  -0.0277964  0.0184519 
1701272931.172542000  0  0  15.4089  0.0596588  0.062322  0.00707609  nan  nan  nan  nan  nan  nan  -1.5  0  1  -0.00321728  -0.00356231  1.14609e-05  0  0  0  0  0  0  0  0  0  0.00193439  -0.00507233  -0.0259356  -3.29358e-05  0.00802509  0.00290324  -0.00738446  -0.00566531  -0.00651446  -0.021174  -0.0456774  0.00747921 
1701272931.177531000  0  0  15.4406  0.0594705  0.0278895  0.00717321  nan  nan  nan  nan  nan  nan  -1.5  0  1  -0.00308149  -0.00329905  1.0166e-05  0  0  0  0  0  0  0  0  0  0.0019347  -0.00504188  -0.0259568  -0.000366194  0.00811967  0.00094357  -0.0076529  -0.00538657  -0.00649013  -0.0177524  0.012345  0.00538894 
1701272931.182534000  0  0  15.4444  0.0516795  0.0358092  0.00736498  nan  nan  nan  nan  nan  nan  -1.5  0  1  -0.00323569  -0.00359788  1.16416e-05  0  0  0  0  0  0  0  0  0  0.00193341  -0.00501297  -0.0259686  2.62495e-05  0.00784884  0.000729941  -0.00752977  -0.00513144  -0.00648381  -0.00531439  -0.00467131  0.00206587 
1701272931.187050000  0  0  15.4519  0.0412816  0.0430433  0.00705374  nan  nan  nan  nan  nan  nan  -1.5  0  1  -0.00289315  -0.00365018  1.05605e-05  0  0  0  0  0  0  0  0  0  0.00193847  -0.00496784  -0.0259421  8.43522e-05  0.00818356  0.000193293  -0.007599  -0.00518401  -0.00642308  0.0139712  -0.0169304  0.00609051 
1701272931.192919000  0  0  15.4469  0.047481  0.0131253  0.00671307  nan  nan  nan  nan  nan  nan  -1.5  0  1  -0.00320847  -0.00360326  1.1561e-05  0  0  0  0  0  0  0  0  0  0.00193838  -0.00492555  -0.0259336  2.20409e-05  0.00767335  0.000494642  -0.00738262  -0.00470195  -0.00633025  0.000459409  0.0307265  0.00998758 
1701272931.197540000  0  0  15.4429  0.00920151  0.0339648  0.00717268  nan  nan  nan  nan  nan  nan  -1.5  0  1  -0.00302292  -0.00420579  1.27138e-05  0  0  0  0  0  0  0  0  0  0.00198073  -0.0049049  -0.0259218  0.000701792  0.00786589  0.000730314  -0.0068361  -0.00440264  -0.00637038  0.0622433  -0.0097717  0.00308909 
1701272931.202541000  0  0  15.4215  0.0247747  0.0119739  0.00783157  nan  nan  nan  nan  nan  nan  -1.5  0  1  -0.00358875  -0.00405751  1.45614e-05  0  0  0  0  0  0  0  0  0  0.00198199  -0.00487228  -0.0259072  0.000498806  0.00705881  0.00205629  -0.0063269  -0.0041706  -0.00647634  0.0286962  0.0266641  -0.00586705 
1701272931.207476000  0  0  15.434  0.0176457  -0.000751686  0.00825918  nan  nan  nan  nan  nan  nan  -1.5  0  1  -0.00398974  -0.00460128  1.83579e-05  0  0  0  0  0  0  0  0  0  0.00203213  -0.00485848  -0.0259022  0.0010885  0.0065013  0.00126747  -0.00572471  -0.00327936  -0.00657553  0.0344486  0.0390445  -0.0110928 
1701272931.213091000  0  0  15.4483  -0.0146603  0.00953621  0.00788305  nan  nan  nan  nan  nan  nan  -1.5  0  1  -0.00394715  -0.00466745  1.84232e-05  0  0  0  0  0  0  0  0  0  0.0020385  -0.00481984  -0.0259035  0.00116474  0.00645893  0.000364597  -0.00489495  -0.00326605  -0.00657741  0.0823537  0.0205977  -0.00477777 
1701272931.217480000  0  0  15.4138  0.00777645  -0.0115225  0.00701893  nan  nan  nan  nan  nan  nan  -1.5  0  1  -0.00440858  -0.00479602  2.11437e-05  0  0  0  0  0  0  0  0  0  0.00206711  -0.00480681  -0.0258623  0.0012491  0.00584075  0.0024626  -0.00453051  -0.00258731  -0.0064472  0.0382664  0.0502396  0.00713675 
1701272931.222531000  0  0  15.4108  -0.0221629  0.00579814  0.00752628  nan  nan  nan  nan  nan  nan  -1.5  0  1  -0.0044794  -0.00501016  2.24426e-05  0  0  0  0  0  0  0  0  0  0.00209456  -0.00480942  -0.0258723  0.0014595  0.00575635  0.00267849  -0.00381372  -0.00241631  -0.00650035  0.0832622  0.0174739  -0.000307973 
1701272931.227534000  0  0  15.4288  -0.0323082  0.00589094  0.00770397  nan  nan  nan  nan  nan  nan  -1.5  0  1  -0.00480561  -0.00506535  2.43422e-05  0  0  0  0  0  0  0  0  0  0.00210244  -0.00478401  -0.0258724  0.00151976  0.0052651  0.0015449  -0.00292579  -0.00232552  -0.00653887  0.0910924  0.016265  -0.00253139 
1701272931.232695000  0  0  15.4115  -0.019162  -0.0010086  0.0076489  nan  nan  nan  nan  nan  nan  -1.5  0  1  -0.00496971  -0.00518661  2.57761e-05  -6e-07  6e-07  6e-07  0  0  0  -0.000375  0.000375  0.000375  0.00214233  -0.00480563  -0.0258732  0.00152699  0.00515804  0.0026825  -0.00268464  -0.00189596  -0.00652973  0.0649432  0.0235943  -0.00178828 
1701272931.238055000  0  0  15.3963  -0.0391189  0.0171422  0.00739799  nan  nan  nan  nan  nan  nan  -1.5  0  1  -0.00566344  -0.0057218  3.24052e-05  -5e-06  5e-06  5e-06  0  0  0  -0.0015  0.0014996  0.0015  0.00220033  -0.00484604  -0.0258918  0.00193405  0.00450314  0.00380268  -0.00144856  -0.00156623  -0.00650977  0.0862171  -0.0124728  0.00201535 
1701272931.242563000  0  0  15.4256  -0.0211887  0.016364  0.00683213  nan  nan  nan  nan  nan  nan  -1.5  1e-07  1  -0.006136  -0.00590811  3.62524e-05  -1.69e-05  1.55e-05  1.69e-05  0  0  0  -0.003375  0.0025892  0.003375  0.00220941  -0.00483007  -0.0258944  0.00193467  0.00397323  0.00212903  -0.00101634  -0.00145602  -0.00641245  0.049364  -0.0123561  0.00958511 
1701272931.247499000  0  0  15.4464  -0.0224937  0.00815614  0.00643625  nan  nan  nan  nan  nan  nan  -1.5  2e-07  1  -0.00599908  -0.00617014  3.71154e-05  -4e-05  2.96e-05  4e-05  0  0  0  -0.006  0.0029289  0.006  0.0022569  -0.00484328  -0.0259222  0.00184447  0.0042145  0.00112562  -0.000929519  -0.001096  -0.0063074  0.0506862  -0.00190074  0.0141682 
1701272931.252550000  0  0  15.4264  -0.0196869  0.0360246  0.00631831  nan  nan  nan  nan  nan  nan  -1.5  4e-07  1  -0.00619248  -0.00647701  4.0309e-05  -7.81e-05  4.36e-05  7.81e-05  0  0  0  -0.009375  0.0025185  0.009375  0.00226635  -0.00482489  -0.0259006  0.00178943  0.00387831  0.00265965  -0.000554211  -0.00133473  -0.00623612  0.0413796  -0.048711  0.0147626 
1701272931.257528000  0  0  15.4681  -0.00606156  0.0249597  0.00672143  nan  nan  nan  nan  nan  nan  -1.5  6e-07  1  -0.00627378  -0.0069964  4.42941e-05  -0.000135  5.36e-05  0.000135  0  0  0  -0.0135  0.0013619  0.0135  0.00232507  -0.00487384  -0.0259304  0.00183326  0.00372455  0.000477348  -0.000629243  -0.00085631  -0.00623779  0.018014  -0.0345367  0.00806539 
1701272931.262537000  0  0  15.4807  -0.0149244  0.0134939  0.00701677  nan  nan  nan  nan  nan  nan  -1.5  9e-07  1  -0.0063418  -0.00821995  5.27294e-05  -0.0002144  5.74e-05  0.0002144  0  0  0  -0.018375  0.0003076  0.018375  0.00246436  -0.00492065  -0.0259545  0.00249224  0.00361078  0.00020143  -0.000210124  0.000136265  -0.00630769  0.0289545  -0.0255616  0.00448298 
1701272931.267466000  0  0  15.461  -0.00183407  0.0196991  0.00668075  nan  nan  nan  nan  nan  nan  -1.5  1.2e-06  1  -0.00629295  -0.00873616  5.57762e-05  -0.0003192  5.79e-05  0.00032  0  0  0  -0.0234272  -3.3e-06  0.024  0.00247649  -0.00490436  -0.0259346  0.0024918  0.00360705  0.00193912  -0.000374275  0.000353995  -0.00623287  0.00756494  -0.0390991  0.00864964 
1701272931.272576000  0  0  15.4934  0.0173436  0.00572529  0.00644476  nan  nan  nan  nan  nan  nan  -1.50001  1.5e-06  1.00001  -0.00568748  -0.00900346  5.22069e-05  -0.0004474  5.71e-05  0.0004556  0  0  0  -0.0277414  -0.0004491  0.030375  0.00251528  -0.00490804  -0.02599  0.0022336  0.00433235  0.000606922  -0.00127305  0.000680277  -0.00614467  -0.016202  -0.0180029  0.0108885 
1701272931.277593000  0  0  15.4874  0.0290919  0.0100048  0.00694735  nan  nan  nan  nan  nan  nan  -1.50001  1.7e-06  1.00001  -0.00558443  -0.00940923  5.37449e-05  -0.0005953  5.22e-05  0.000625  0  0  0  -0.0313055  -0.0016448  0.0375  0.00252556  -0.00488938  -0.0259745  0.00228926  0.00427578  0.00162118  -0.00166676  0.000888083  -0.00618114  -0.0325654  -0.028002  0.00320186 
1701272931.282543000  0  0  15.5152  0.0366157  0.0197591  0.00771735  nan  nan  nan  nan  nan  nan  -1.50001  2e-06  1.00001  -0.00478538  -0.00978125  4.82066e-05  -0.0007592  3.94e-05  0.0008313  0  0  0  -0.0341197  -0.0035905  0.0449212  0.00255625  -0.00488222  -0.0260069  0.00237257  0.00504617  0.000630289  -0.00268172  0.000899729  -0.00628964  -0.0342736  -0.0454811  -0.00755997 
1701272931.288057000  0  0  15.5422  0.0521952  0.00485274  0.00800131  nan  nan  nan  nan  nan  nan  -1.50002  2.1e-06  1.00002  -0.00404851  -0.0101638  4.27476e-05  -0.0009353  1.5e-05  0.001073  0  0  0  -0.0361838  -0.0062863  0.0516294  0.00262499  -0.00488146  -0.0260583  0.00247269  0.0056612  -0.000340115  -0.00378516  0.00126026  -0.00637459  -0.0492889  -0.0231203  -0.0106624 
1701272931.292547000  0  0  15.5022  0.0699886  0.0262242  0.00817587  nan  nan  nan  nan  nan  nan  -1.50002  2.1e-06  1.00002  -0.00356318  -0.0104567  3.89588e-05  -0.0011198  -2.47e-05  0.0013463  0  0  0  -0.0374979  -0.009732  0.0575876  0.00263337  -0.00485843  -0.0260278  0.00263677  0.00582333  0.0026843  -0.00475198  0.00106748  -0.00643071  -0.069812  -0.0589061  -0.0124943 
1701272931.297493000  0  0  15.544  0.0652705  0.0220434  0.00809125  nan  nan  nan  nan  nan  nan  -1.50003  1.8e-06  1.00003  -0.00225813  -0.0104913  2.54904e-05  -0.001309  -8.36e-05  0.0016476  0  0  0  -0.0380621  -0.0139277  0.0627958  0.00267051  -0.00482326  -0.0260563  0.00255926  0.00691023  0.000579911  -0.00609668  0.000889734  -0.0064681  -0.0459602  -0.049428  -0.0103607 
1701272931.302546000  0  0  15.5647  0.0864521  0.00846729  0.00792722  nan  nan  nan  nan  nan  nan  -1.50003  1.2e-06  1.00004  -0.0015434  -0.0104678  1.78558e-05  -0.0014992  -0.0001653  0.001973  0  0  0  -0.0378762  -0.0188734  0.0672541  0.00267702  -0.00479098  -0.0260614  0.00255436  0.00714867  -0.000311592  -0.007333  0.000923065  -0.00647463  -0.069409  -0.0256704  -0.00749674 
1701272931.307486000  0  0  15.5488  0.0947741  0.029601  0.00793014  nan  nan  nan  nan  nan  nan  -1.50004  1e-07  1.00005  -0.000369887  -0.0102432  5.18876e-06  -0.0016865  -0.0002735  0.0023189  0  0  0  -0.0369404  -0.0245692  0.0709623  0.00267749  -0.00474665  -0.0260485  0.00236209  0.00786987  0.00099586  -0.0087884  0.000286891  -0.00647708  -0.0674723  -0.055935  -0.00749817 
1701272931.313012000  0  0  15.5918  0.0953412  0.0231746  0.0078978  nan  nan  nan  nan  nan  nan  -1.50005  -1.6e-06  1.00006  0.000624239  -0.0103155  -5.53925e-06  -0.0018673  -0.0004122  0.0026814  0  0  0  -0.0352545  -0.0310149  0.0739205  0.00274307  -0.00470826  -0.0261119  0.00254635  0.00827759  -0.00131298  -0.0100103  9.18716e-05  -0.00651872  -0.0544305  -0.0422652  -0.0061555 
1701272931.317470000  0  0  15.5741  0.112162  0.0173742  0.00752913  nan  nan  nan  nan  nan  nan  -1.50006  -4e-06  1.00008  0.00138272  -0.0100212  -1.38563e-05  -0.0020378  -0.0005849  0.0030568  0  0  0  -0.0328187  -0.0382106  0.0761287  0.00275532  -0.00467456  -0.0261106  0.00241946  0.00829344  -7.46231e-06  -0.0112153  -0.000212092  -0.00646724  -0.0704859  -0.0284558  -0.000993723 
1701272931.322539000  0  0  15.5909  0.0967181  0.0389333  0.00767634  nan  nan  nan  nan  nan  nan  -1.50007  -7.5e-06  1.00009  0.00290547  -0.00943212  -2.87044e-05  -0.0021943  -0.0007956  0.0034414  0  0  0  -0.0296328  -0.0461564  0.0775869  0.00276433  -0.00462721  -0.0261138  0.0020362  0.00918951  -0.000947121  -0.0125811  -0.00126559  -0.00648408  -0.0273182  -0.0546784  -0.00312646 
1701272931.327521000  0  0  15.6154  0.107413  0.0413347  0.00734322  nan  nan  nan  nan  nan  nan  -1.50008  -1.21e-05  1.00011  0.00366586  -0.00923483  -3.69533e-05  -0.0023329  -0.0010478  0.0038315  0  0  0  -0.025697  -0.0548521  0.0782951  0.00281206  -0.00459554  -0.0261714  0.00217195  0.00903564  -0.00231489  -0.0135827  -0.00180023  -0.00645554  -0.0348186  -0.0528008  0.00188398 
1701272931.332542000  0  0  15.644  0.100511  0.0361993  0.00678479  nan  nan  nan  nan  nan  nan  -1.50009  -1.8e-05  1.00013  0.00492559  -0.00834658  -4.66116e-05  -0.00245  -0.0013453  0.0042232  0  0  0  -0.0210111  -0.0642978  0.0782533  0.00281873  -0.00455976  -0.0262325  0.00159276  0.00944048  -0.00401199  -0.0148173  -0.00270063  -0.00635062  -0.00835012  -0.0333159  0.00918309 
1701272931.337540000  0  0  15.6659  0.0792072  0.0566192  0.00677815  nan  nan  nan  nan  nan  nan  -1.50011  -2.56e-05  1.00015  0.00571714  -0.00805614  -5.47581e-05  -0.0025421  -0.001692  0.0046127  0  0  0  -0.0158651  -0.0744935  0.0774615  0.00287414  -0.00454021  -0.0263044  0.00173296  0.00917639  -0.00531348  -0.01514  -0.00355429  -0.00631789  0.033243  -0.0598104  0.00866293 
1701272931.342541000  0  0  15.6299  0.0986989  0.0660499  0.00656853  nan  nan  nan  nan  nan  nan  -1.50012  -3.5e-05  1.00018  0.00673795  -0.00751684  -6.33484e-05  -0.0026098  -0.0020915  0.0049965  0  0  0  -0.0113618  -0.0854393  0.0759198  0.00288053  -0.00449773  -0.0263126  0.001545  0.00903662  -0.00317518  -0.0162537  -0.00449415  -0.00623789  0.0113895  -0.0657729  0.0106198 
1701272931.347487000  0  0  15.6369  0.0882052  0.0616908  0.00658153  nan  nan  nan  nan  nan  nan  -1.50013  -4.66e-05  1.0002  0.00822953  -0.00658709  -7.20095e-05  -0.0026569  -0.0025476  0.0053707  0  0  0  -0.0076086  -0.097135  0.073628  0.0028981  -0.00447657  -0.0263624  0.000751642  0.00949616  -0.00374169  -0.0173011  -0.00556318  -0.00620636  0.0420922  -0.0457293  0.00979481 
1701272931.352544000  0  0  15.635  0.0778854  0.0846237  0.00662813  nan  nan  nan  nan  nan  nan  -1.50015  -6.06e-05  1.00023  0.00905873  -0.00637549  -8.1755e-05  -0.0026871  -0.0030641  0.0057316  0  0  0  -0.0046053  -0.109581  0.0705862  0.00291202  -0.00443613  -0.0263851  0.000812911  0.00893884  -0.00385802  -0.0176165  -0.00636973  -0.00617115  0.0640701  -0.0772342  0.00833798 
1701272931.357539000  0  0  15.6345  0.0918183  0.0776543  0.0064835  nan  nan  nan  nan  nan  nan  -1.50016  -7.74e-05  1.00026  0.0106589  -0.00529855  -8.79785e-05  -0.0027042  -0.0036447  0.0060753  0  0  0  -0.002352  -0.122776  0.0667944  0.00290072  -0.00441433  -0.026439  -0.000295901  0.00934865  -0.00408278  -0.0190755  -0.00752487  -0.0061012  0.0560708  -0.0515588  0.00940359 
1701272931.363101000  0  0  15.6384  0.0678189  0.0762206  0.00693067  nan  nan  nan  nan  nan  nan  -1.50017  -9.72e-05  1.00029  0.0118455  -0.00505303  -0.000100358  -0.0027119  -0.0042931  0.0063982  0  0  0  -0.0008487  -0.136722  0.0622526  0.00290294  -0.00440192  -0.0264907  -0.000435057  0.00914734  -0.00463458  -0.0194074  -0.00791508  -0.00613319  0.102562  -0.0445226  0.00255585 
1701272931.367485000  0  0  15.6225  0.0731976  0.0870201  0.00712207  nan  nan  nan  nan  nan  nan  -1.50019  -0.0001204  1.00032  0.0130131  -0.00525558  -0.000119495  -0.002714  -0.0050132  0.0066966  0  0  0  -9.54e-05  -0.151418  0.0569608  0.00291478  -0.00436525  -0.0265066  -0.000109749  0.00874855  -0.0040891  -0.0201318  -0.0081353  -0.00613891  0.101328  -0.0611939  -0.00052891 
1701272931.372553000  0  0  15.6161  0.0756696  0.0490211  0.00681029  nan  nan  nan  nan  nan  nan  -1.5002  -0.0001474  1.00036  0.0149091  -0.00446811  -0.00013012  -0.002714  -0.0058085  0.0069666  0  0  0  -0  -0.166864  0.050919  0.00290192  -0.00436071  -0.0265679  -0.00110398  0.00929916  -0.00411271  -0.0214391  -0.00836764  -0.00607455  0.111964  0.00904717  0.00343474 
1701272931.377542000  0  0  15.5715  0.0660115  0.0659994  0.00722191  nan  nan  nan  nan  nan  nan  -1.50021  -0.0001786  1.00039  0.0160668  -0.00505695  -0.000159256  -0.002714  -0.0066831  0.0072045  0  0  0  -0  -0.183059  0.0441273  0.00290234  -0.0043231  -0.0265658  -0.000349555  0.008653  -0.00191249  -0.0217555  -0.00810581  -0.00610613  0.132776  -0.0241543  -0.00282768 
1701272931.382540000  0  0  15.5875  0.0716753  0.0483808  0.00700157  nan  nan  nan  nan  nan  nan  -1.50023  -0.0002144  1.00043  0.0175092  -0.00497773  -0.000181965  -0.002714  -0.0076404  0.0074067  0  0  0  -0  -0.200005  0.0366689  0.0029477  -0.00436326  -0.0265984  -0.000554943  0.00855313  -0.00354204  -0.0224739  -0.00802252  -0.00609925  0.130966  0.00621723  0.000717878 
1701272931.387489000  0  0  15.6018  0.0621003  0.0237695  0.00678982  nan  nan  nan  nan  nan  nan  -1.50024  -0.0002552  1.00047  0.0193277  -0.00499806  -0.000210613  -0.002714  -0.0086844  0.0075721  0  0  0  -0  -0.217701  0.0296275  0.00295424  -0.00437492  -0.0266486  -0.000536913  0.00878637  -0.00497882  -0.0233361  -0.00746593  -0.00603811  0.157906  0.0435809  0.0030739 
1701272931.392542000  0  0  15.5552  0.0707465  0.0507045  0.00690748  nan  nan  nan  nan  nan  nan  -1.50025  -0.0003014  1.00051  0.0211539  -0.00531411  -0.000248231  -0.002714  -0.0098186  0.0077042  0  0  0  -0  -0.236147  0.0233361  0.00295282  -0.00433576  -0.0266512  -0.000138048  0.00871005  -0.00259316  -0.0243889  -0.00750827  -0.00601828  0.154637  -0.00382787  0.000727379 
1701272931.397541000  0  0  15.5553  0.0720805  0.0142722  0.00708252  nan  nan  nan  nan  nan  nan  -1.50027  -0.0003535  1.00054  0.0234832  -0.00491206  -0.000275972  -0.002714  -0.0110471  0.0078067  0  0  0  -0  -0.255342  0.0177946  0.00296412  -0.00434398  -0.0266763  -0.000689845  0.00938942  -0.00304655  -0.0258125  -0.00715795  -0.00600905  0.168634  0.0569275  -0.00237261 
1701272931.402610000  0  0  15.5259  0.0709624  0.0154658  0.00768961  nan  nan  nan  nan  nan  nan  -1.50028  -0.000412  1.00058  0.025295  -0.00552272  -0.000328326  -0.002714  -0.0123733  0.0078834  0  0  0  -0  -0.275288  0.0130032  0.0029652  -0.00430462  -0.0266814  9.52133e-05  0.00911971  -0.001589  -0.0266159  -0.00636217  -0.00607879  0.179861  0.0456546  -0.0111622 
1701272931.407471000  0  0  15.5267  0.0785481  0.0201007  0.00783145  nan  nan  nan  nan  nan  nan  -1.5003  -0.0004774  1.00062  0.0271825  -0.00574482  -0.000376097  -0.002714  -0.0138012  0.007938  0  0  0  -0  -0.295984  0.0089618  0.00303103  -0.00436792  -0.0266757  0.000229786  0.00916296  -0.00200897  -0.0275608  -0.00609992  -0.00613366  0.177236  0.0343975  -0.0124722 
1701272931.412550000  0  0  15.527  0.0708825  0.000803315  0.00772411  nan  nan  nan  nan  nan  nan  -1.50031  -0.0005502  1.00066  0.0288442  -0.00618489  -0.000433347  -0.002714  -0.0153344  0.0079743  0  0  0  -0  -0.317429  0.0056704  0.00307878  -0.00441402  -0.0266418  0.000692618  0.00877457  -0.00237255  -0.027997  -0.00516477  -0.0061469  0.195883  0.057959  -0.010425 
1701272931.417535000  0  0  15.4928  0.0808497  0.0126967  0.00793493  nan  nan  nan  nan  nan  nan  -1.50032  -0.000631  1.0007  0.0313059  -0.00637895  -0.000493563  -0.002714  -0.0169767  0.0079959  0  0  0  -0  -0.339625  0.0031289  0.00308075  -0.00437221  -0.0266363  0.000926543  0.00903681  -0.000422056  -0.0294902  -0.00498166  -0.00617984  0.19533  0.0347049  -0.0133091 
1701272931.423123000  0  0  15.4763  0.0756889  -0.00678055  0.00807022  nan  nan  nan  nan  nan  nan  -1.50034  -0.0007202  1.00074  0.0336652  -0.00651287  -0.000556138  -0.002714  -0.0187319  0.0080068  0  0  0  -0  -0.362571  0.0013375  0.00316268  -0.00443862  -0.0265857  0.000898841  0.009368  0.000391342  -0.0304298  -0.00436787  -0.00626172  0.21531  0.0622813  -0.0139887 
1701272931.427538000  0  0  15.4368  0.0905966  0.00146239  0.00794368  nan  nan  nan  nan  nan  nan  -1.50035  -0.0008185  1.00078  0.0360574  -0.00697781  -0.000635709  -0.002714  -0.0206037  0.0080106  0  0  0  -0  -0.386267  0.0002961  0.00317055  -0.00439387  -0.0265706  0.00146707  0.00930561  0.00279951  -0.0319643  -0.00386245  -0.00624024  0.206446  0.0418122  -0.0122906 
1701272931.432528000  0  0  15.4322  0.0919794  -0.00266082  0.00767701  nan  nan  nan  nan  nan  nan  -1.50036  -0.0009264  1.00082  0.038543  -0.00708099  -0.000708755  -0.002714  -0.0225958  0.008011  0  0  0  -0  -0.410712  -0  0.00324552  -0.00444235  -0.026503  0.00142326  0.0095922  0.00296057  -0.033163  -0.00363773  -0.00623762  0.217771  0.0465602  -0.00788946 
1701272931.437524000  0  0  15.4249  0.0775158  -0.00939504  0.00744741  nan  nan  nan  nan  nan  nan  -1.50038  -0.0010446  1.00086  0.0409468  -0.0074874  -0.000798854  -0.002714  -0.0247121  0.008011  0  0  0  -0  -0.435908  -4.54e-05  0.00331013  -0.00449193  -0.0264244  0.00179708  0.0096691  0.00331481  -0.0338968  -0.0028882  -0.00617905  0.251927  0.0499163  -0.00518609 
1701272931.442533000  0  0  15.405  0.100475  0.0105497  0.00738005  nan  nan  nan  nan  nan  nan  -1.50039  -0.0011738  1.0009  0.0439627  -0.00750638  -0.000883411  -0.002714  -0.0269562  0.0080095  0  0  0  -0  -0.461854  -0.0006812  0.00331647  -0.00444632  -0.0263988  0.00180118  0.0101706  0.00451694  -0.0358556  -0.00304401  -0.00612579  0.233625  0.0162424  -0.00508854 
1701272931.447480000  0  0  15.38  0.100587  -0.00262284  0.0070015  nan  nan  nan  nan  nan  nan  -1.5004  -0.0013144  1.00094  0.0471916  -0.00703116  -0.000951456  -0.0027137  -0.0293319  0.0080029  0  0  0  0.0002681  -0.48855  -0.002067  0.0033508  -0.00446992  -0.0263212  0.00112857  0.0109908  0.00587332  -0.0375352  -0.00309908  -0.00603445  0.252738  0.0402989  -0.000530336 
1701272931.452607000  0  0  15.3633  0.0912214  0.0237031  0.00678342  nan  nan  nan  nan  nan  nan  -1.50042  -0.0014673  1.00098  0.0500129  -0.00738063  -0.00106023  -0.0027101  -0.0318429  0.0079875  0  0  0  0.0012774  -0.515995  -0.0042029  0.00336964  -0.00442465  -0.0262883  0.0016601  0.0110445  0.00674884  -0.0386678  -0.00308059  -0.00592671  0.282415  -0.00672609  0.0010329 
1701272931.457528000  0  0  15.3697  0.114164  0.0218051  0.00616739  nan  nan  nan  nan  nan  nan  -1.50043  -0.0016331  1.00102  0.0530002  -0.00685795  -0.00113121  -0.0026996  -0.0344931  0.0079596  0  0  0  0.0030365  -0.544191  -0.0070887  0.00341025  -0.00446476  -0.0262206  0.00111818  0.0115223  0.00599891  -0.0403443  -0.00350643  -0.00575852  0.260896  0.00154545  0.00807359 
1701272931.462533000  0  0  15.3693  0.103408  0.0163163  0.00585518  nan  nan  nan  nan  nan  nan  -1.50044  -0.0018125  1.00106  0.0563885  -0.00631271  -0.00120574  -0.0026785  -0.0372861  0.0079154  0  0  0  0.0055458  -0.573137  -0.0107245  0.00341453  -0.00445513  -0.0261871  0.000725009  0.0122768  0.00571388  -0.0419528  -0.00377006  -0.00558947  0.298518  0.0143368  0.0100258 
1701272931.467481000  0  0  15.3466  0.11471  0.0455254  0.00577737  nan  nan  nan  nan  nan  nan  -1.50046  -0.0020062  1.0011  0.0598283  -0.00609261  -0.00130194  -0.0026429  -0.0402257  0.0078511  0  0  0  0.008805  -0.602833  -0.0151104  0.00342847  -0.00439697  -0.0261502  0.000813023  0.0127752  0.00677004  -0.0438703  -0.0044746  -0.00544186  0.300469  -0.0295013  0.00847895 
1701272931.472526000  0  0  15.3497  0.127527  0.027238  0.00541048  nan  nan  nan  nan  nan  nan  -1.50047  -0.002215  1.00114  0.0637493  -0.00476526  -0.00133449  -0.0025892  -0.0433156  0.0077631  0  0  0  0.0128142  -0.633278  -0.0202462  0.00342315  -0.00438468  -0.0261208  -0.000377556  0.0140402  0.00614561  -0.0461955  -0.00536587  -0.00527772  0.304415  0.0132655  0.0114387 
1701272931.477528000  0  0  15.3304  0.12027  0.0573534  0.00569926  nan  nan  nan  nan  nan  nan  -1.50048  -0.0024396  1.00118  0.0675663  -0.00453415  -0.00143612  -0.0025135  -0.0465597  0.0076474  0  0  0  0.0175734  -0.664474  -0.026132  0.00342498  -0.00431746  -0.0260857  -8.05422e-05  0.0148163  0.00688745  -0.0480611  -0.00605199  -0.00517699  0.338772  -0.0323959  0.00467594 
1701272931.482534000  0  0  15.3576  0.13915  0.0651839  0.00559886  nan  nan  nan  nan  nan  nan  -1.5005  -0.0026808  1.00122  0.0714273  -0.00333446  -0.00147278  -0.0024122  -0.0499616  0.0075005  0  0  0  0.0230826  -0.69642  -0.0327679  0.00342742  -0.00429483  -0.0260701  -0.000928203  0.0159345  0.00464703  -0.0503013  -0.00738808  -0.00505518  0.330959  -0.030957  0.00400327 
1701272931.487478000  0  0  15.3542  0.140432  0.0597684  0.00546978  nan  nan  nan  nan  nan  nan  -1.50051  -0.0029395  1.00126  0.0748714  -0.00214822  -0.00150614  -0.0022815  -0.0535252  0.0073185  0  0  0  0.0293418  -0.729115  -0.0401537  0.00343245  -0.0043195  -0.0260227  -0.00168298  0.0163558  0.00421877  -0.0518561  -0.00838132  -0.0049539  0.346556  -0.00990631  0.00420532 
1701272931.492531000  0  0  15.3763  0.131956  0.100512  0.00590172  nan  nan  nan  nan  nan  nan  -1.50052  -0.0032164  1.00129  0.0790641  -0.00128504  -0.00156371  -0.0021176  -0.057254  0.0070977  0  0  0  0.036351  -0.762457  -0.0482895  0.00342579  -0.0042395  -0.0260067  -0.00189131  0.0175798  0.0022202  -0.0538287  -0.00992532  -0.00489002  0.384311  -0.0646028  -0.00423675 
1701272931.497526000  0  0  15.3684  0.145915  0.0813261  0.00500426  nan  nan  nan  nan  nan  nan  -1.50053  -0.0035123  1.00133  0.0827571  0.000328802  -0.00155753  -0.0019167  -0.0611488  0.0068344  0  0  0  0.0441102  -0.795343  -0.0571754  0.0034171  -0.00425892  -0.0259707  -0.00298153  0.0182605  0.00198826  -0.0555636  -0.0112007  -0.00470306  0.379437  -0.0158211  0.00714016 
1701272931.502530000  0  0  15.3408  0.136708  0.100924  0.00497893  nan  nan  nan  nan  nan  nan  -1.50054  -0.0038281  1.00136  0.0866998  0.00129341  -0.00160148  -0.0016752  -0.0652062  0.0065247  0  0  0  0.0526194  -0.827479  -0.0668112  0.00340708  -0.00417295  -0.0259435  -0.00312692  0.0189521  0.00299415  -0.0571987  -0.0124376  -0.00455925  0.414611  -0.0364479  0.00479031 
1701272931.507528000  0  0  15.3557  0.120889  0.117426  0.0048812  nan  nan  nan  nan  nan  nan  -1.50055  -0.0041646  1.00139  0.0901433  0.00232455  -0.00163899  -0.0013893  -0.0694223  0.006165  0  0  0  0.0618786  -0.858866  -0.077197  0.00342147  -0.00419363  -0.0259005  -0.00332723  0.0196513  0.00121316  -0.0580282  -0.013828  -0.00444857  0.452278  -0.0498032  0.00428772 
1701272931.513044000  0  0  15.335  0.120816  0.0772344  0.00459701  nan  nan  nan  nan  nan  nan  -1.50055  -0.0045226  1.00142  0.092783  0.00358141  -0.00165725  -0.0010552  -0.0737936  0.0057515  0  0  0  0.0718878  -0.889502  -0.0883329  0.00344167  -0.00426756  -0.0258377  -0.00373473  0.0192596  0.00155592  -0.0581116  -0.0143831  -0.00435486  0.453366  0.0280475  0.00722503 
1701272931.517524000  0  0  15.3017  0.1064  0.103509  0.00469375  nan  nan  nan  nan  nan  nan  -1.50056  -0.0049028  1.00145  0.096949  0.00472635  -0.00167855  -0.0006691  -0.0783161  0.0052804  0  0  0  0.082647  -0.919388  -0.100219  0.00343467  -0.0041447  -0.0258232  -0.0038256  0.020348  0.0027913  -0.0597199  -0.0157434  -0.004234  0.497494  -0.00303212  0.00327971 
1701272931.522533000  0  0  15.3139  0.0884002  0.0937572  0.00489686  nan  nan  nan  nan  nan  nan  -1.50056  -0.005306  1.00147  0.100091  0.00587516  -0.00170208  -0.0002274  -0.0829862  0.0047481  0  0  0  0.0941562  -0.948525  -0.112855  0.00346956  -0.00417036  -0.0257708  -0.00394506  0.0209233  0.000998925  -0.0599225  -0.0165985  -0.0041962  0.531831  0.024141  -0.000839551 
1701272931.527495000  0  0  15.3264  0.0945755  0.0745848  0.00473381  nan  nan  nan  nan  nan  nan  -1.50056  -0.0057329  1.0015  0.103638  0.00725406  -0.0016978  0.0002737  -0.0878001  0.0041506  0  0  0  0.106415  -0.976911  -0.12624  0.00345223  -0.00406598  -0.0257858  -0.0041455  0.0218144  -0.000718055  -0.060843  -0.0173117  -0.00411467  0.531434  0.0664334  0.00031046 
1701272931.532525000  0  0  15.3236  0.0630049  0.0993039  0.00528881  nan  nan  nan  nan  nan  nan  -1.50056  -0.0061842  1.00151  0.106881  0.00837231  -0.00172045  0.000838  -0.0927541  0.0034844  0  0  0  0.119425  -1.00455  -0.140376  0.00345681  -0.00405743  -0.0257722  -0.00395801  0.0224984  -0.00157761  -0.060813  -0.0183932  -0.00409658  0.587228  0.0349147  -0.00930317 
1701272931.537525000  0  0  15.3125  0.0642267  0.068673  0.00501957  nan  nan  nan  nan  nan  nan  -1.50055  -0.0066607  1.00153  0.110408  0.0102592  -0.00165409  0.0014692  -0.0978443  0.0027456  0  0  0  0.133184  -1.03143  -0.155262  0.00342987  -0.00394755  -0.0257813  -0.00459133  0.0233248  -0.00191066  -0.0613312  -0.0193377  -0.00406312  0.591014  0.100242  -0.00545381 
1701272931.542514000  0  0  15.2633  0.0491051  0.0661607  0.00558664  nan  nan  nan  nan  nan  nan  -1.50054  -0.0071629  1.00154  0.112659  0.0112155  -0.00170142  0.002171  -0.103067  0.0019305  0  0  0  0.147693  -1.05757  -0.170898  0.00347596  -0.00399896  -0.0257101  -0.00406092  0.022608  -0.000118611  -0.0601816  -0.019627  -0.00418982  0.604684  0.108036  -0.0124771 
1701272931.547479000  0  0  15.2438  0.0250891  0.0832722  0.0057747  nan  nan  nan  nan  nan  nan  -1.50053  -0.0076916  1.00155  0.115327  0.0122745  -0.00173365  0.0029474  -0.108419  0.0010354  0  0  0  0.162952  -1.08296  -0.187284  0.00352632  -0.00407088  -0.0257176  -0.00360038  0.0228389  -7.73505e-05  -0.059497  -0.0203997  -0.0042183  0.639518  0.0864935  -0.0150673 
1701272931.552532000  0  0  15.2628  0.0474796  0.0414846  0.00461538  nan  nan  nan  nan  nan  nan  -1.50051  -0.0082473  1.00155  0.118483  0.0142746  -0.0016477  0.0038018  -0.113895  5.64e-05  0  0  0  0.178961  -1.10759  -0.20442  0.0035026  -0.00396251  -0.0257371  -0.00412525  0.0237374  -0.00248982  -0.0598563  -0.0209859  -0.0040913  0.603834  0.16754  0.00183664 
1701272931.557521000  0  0  15.2209  0.0183617  0.0625228  0.004587  nan  nan  nan  nan  nan  nan  -1.50049  -0.0088307  1.00155  0.121427  0.0155637  -0.00164549  0.0047382  -0.119493  -0.0010101  0  0  0  0.195721  -1.13148  -0.222305  0.00353797  -0.0039661  -0.0257433  -0.00370319  0.0241043  -0.00113977  -0.0593286  -0.0217253  -0.00403874  0.649544  0.138633  0.00129717 
1701272931.562532000  0  0  15.2024  0.0108653  0.0584472  0.00434591  nan  nan  nan  nan  nan  nan  -1.50046  -0.0094424  1.00154  0.125054  0.0178212  -0.00150831  0.0057603  -0.125209  -0.0021679  0  0  0  0.21323  -1.15462  -0.240941  0.00351288  -0.00384469  -0.0257484  -0.00431538  0.0253631  -0.00127674  -0.0594619  -0.0230566  -0.00396589  0.664406  0.161188  0.00391714 
1701272931.567478000  0  0  15.1886  0.0312586  0.0421787  0.00408062  nan  nan  nan  nan  nan  nan  -1.50043  -0.010083  1.00153  0.128668  0.0199843  -0.00137316  0.0068718  -0.131038  -0.0034207  0  0  0  0.231489  -1.177  -0.260327  0.00349279  -0.00371028  -0.0257642  -0.00472584  0.0267082  -0.00176628  -0.060151  -0.0239124  -0.0038947  0.636066  0.199957  0.00697305 
1701272931.571544000  0  0  15.127  0.0272054  0.0764684  0.00468175  nan  nan  nan  nan  nan  nan  -1.50039  -0.010753  1.00151  0.133522  0.0222042  -0.00119275  0.0080757  -0.136978  -0.0047724  0  0  0  0.249973  -1.19864  -0.280463  0.00346553  -0.00347295  -0.025749  -0.00507281  0.0289421  0.000679719  -0.0620927  -0.0257754  -0.0038864  0.665601  0.160405  -0.00322159 
1701272931.577525000  0  0  15.1378  0.0240784  0.0370099  0.00436656  nan  nan  nan  nan  nan  nan  -1.50035  -0.011453  1.00148  0.13444  0.0228954  -0.00130124  0.0093703  -0.143023  -0.0062266  0  0  0  0.267727  -1.21952  -0.301349  0.0036397  -0.00366104  -0.0257535  -0.00414597  0.0280475  -0.00162825  -0.0593608  -0.0247896  -0.003881  0.639749  0.219234  0.00193566 
1701272931.582526000  0  0  15.0854  0.0269221  0.0437934  0.0046812  nan  nan  nan  nan  nan  nan  -1.5003  -0.0121834  1.00145  0.137663  0.0242873  -0.0012622  0.0107517  -0.149172  -0.0077871  0  0  0  0.284731  -1.23966  -0.322985  0.00369728  -0.00360405  -0.0256897  -0.00380997  0.0288748  -7.10244e-05  -0.0594086  -0.0250754  -0.00389026  0.635241  0.210458  -0.00313797 
1701272931.587464000  0  0  15.0109  0.0253753  0.0567194  0.00491682  nan  nan  nan  nan  nan  nan  -1.50024  -0.0129448  1.0014  0.141218  0.0255937  -0.00122371  0.0122163  -0.155419  -0.0094577  0  0  0  0.300985  -1.25905  -0.34537  0.00377278  -0.00353466  -0.0255868  -0.00344082  0.029892  0.00275481  -0.0597106  -0.0254579  -0.00389809  0.641464  0.191871  -0.00692026 
1701272931.592534000  0  0  14.9961  0.0478487  0.0322728  0.00524632  nan  nan  nan  nan  nan  nan  -1.50018  -0.0137377  1.00135  0.144641  0.027779  -0.00105751  0.0137603  -0.161761  -0.0112421  0  0  0  0.316489  -1.27768  -0.368506  0.00375786  -0.00339222  -0.0255901  -0.00418705  0.0313445  0.00199571  -0.0602935  -0.0260541  -0.00398398  0.608205  0.242198  -0.0107648 
1701272931.597527000  0  0  14.9356  0.0429048  0.0488867  0.00611052  nan  nan  nan  nan  nan  nan  -1.50011  -0.0145626  1.00129  0.148314  0.0291635  -0.00099419  0.0153799  -0.168194  -0.013144  0  0  0  0.331242  -1.29557  -0.392392  0.00380512  -0.00329289  -0.0255444  -0.00403752  0.0327255  0.00395979  -0.0607595  -0.0264447  -0.00411377  0.622354  0.217146  -0.0226886 
1701272931.602530000  0  0  14.8886  0.0662745  0.0440284  0.00633819  nan  nan  nan  nan  nan  nan  -1.50002  -0.0154198  1.00122  0.15187  0.0314645  -0.00079006  0.0170715  -0.174715  -0.0151673  0  0  0  0.345246  -1.31271  -0.417028  0.00377198  -0.00313006  -0.0255226  -0.00497225  0.0340365  0.00504619  -0.0615647  -0.02746  -0.00424059  0.590058  0.237459  -0.0240441 
1701272931.607476000  0  0  14.8318  0.0744431  0.0414989  0.0063575  nan  nan  nan  nan  nan  nan  -1.49993  -0.0163099  1.00114  0.155236  0.0326087  -0.000762866  0.0188312  -0.18132  -0.0173155  0  0  0  0.3585  -1.32909  -0.442414  0.00384923  -0.0030391  -0.0254043  -0.00475562  0.0352209  0.00644287  -0.0621711  -0.0273304  -0.00434039  0.582504  0.240468  -0.0224422 
1701272931.612529000  0  0  14.7588  0.07985  0.0444535  0.00649246  nan  nan  nan  nan  nan  nan  -1.49984  -0.0172332  1.00105  0.158492  0.034154  -0.000673612  0.0206552  -0.188005  -0.0195926  0  0  0  0.371004  -1.34473  -0.46855  0.00390633  -0.00291953  -0.0253034  -0.00503161  0.0360406  0.00883332  -0.0625379  -0.0276671  -0.0044453  0.577108  0.239086  -0.0226723 
1701272931.617526000  0  0  14.7194  0.0963351  0.0400522  0.00623281  nan  nan  nan  nan  nan  nan  -1.49973  -0.0181901  1.00094  0.162044  0.0361133  -0.000501661  0.02254  -0.194766  -0.0220023  0  0  0  0.382758  -1.35961  -0.495435  0.00387778  -0.00273569  -0.0252598  -0.00579713  0.0375823  0.0092074  -0.0634458  -0.0282503  -0.00448114  0.558234  0.253618  -0.017647 
1701272931.622530000  0  0  14.6683  0.0841888  0.0487802  0.00600639  nan  nan  nan  nan  nan  nan  -1.49961  -0.019181  1.00083  0.165759  0.0373313  -0.00043924  0.0244816  -0.2016  -0.0245482  0  0  0  0.393762  -1.37375  -0.523059  0.00390151  -0.00257622  -0.0251818  -0.0058011  0.039283  0.0102085  -0.0640751  -0.0282828  -0.00448198  0.587068  0.238471  -0.0138512 
1701272931.627476000  0  0  14.6256  0.0945556  0.0432388  0.00551436  nan  nan  nan  nan  nan  nan  -1.49948  -0.0202062  1.0007  0.168841  0.0395303  -0.000231469  0.0264763  -0.208503  -0.0272325  0  0  0  0.404016  -1.38714  -0.550503  0.00386333  -0.00237439  -0.0251327  -0.00699217  0.0402856  0.0107068  -0.0644136  -0.0290773  -0.00444923  0.572527  0.257461  -0.006269 
1701272931.632531000  0  0  14.5776  0.0789945  0.0505853  0.00582332  nan  nan  nan  nan  nan  nan  -1.49935  -0.0212661  1.00055  0.172208  0.0399202  -0.000318083  0.0285205  -0.21547  -0.030052  0  0  0  0.41352  -1.39977  -0.577197  0.00400591  -0.00222513  -0.0249649  -0.00641851  0.0417561  0.0113758  -0.0646013  -0.028316  -0.00449556  0.602355  0.235643  -0.0105332 
1701272931.637512000  0  0  14.5283  0.0826436  0.0321685  0.00563835  nan  nan  nan  nan  nan  nan  -1.4992  -0.022361  1.0004  0.175396  0.0406003  -0.000364218  0.0306103  -0.222499  -0.0330032  0  0  0  0.422274  -1.41166  -0.603142  0.00409502  -0.00203519  -0.0248329  -0.00616108  0.0429552  0.0122612  -0.0648695  -0.0275108  -0.00452062  0.59895  0.259133  -0.00696248 
1701272931.642533000  0  0  14.518  0.0901585  0.0187427  0.00549852  nan  nan  nan  nan  nan  nan  -1.49904  -0.0234912  1.00022  0.177955  0.0423279  -0.000250521  0.032742  -0.229585  -0.0360822  0  0  0  0.430278  -1.4228  -0.628336  0.0040599  -0.00182555  -0.0247811  -0.00712598  0.0439887  0.0109159  -0.0646485  -0.027597  -0.00450404  0.583046  0.283998  -0.00494788 
1701272931.647477000  0  0  14.4703  0.056467  0.0342324  0.00628951  nan  nan  nan  nan  nan  nan  -1.49887  -0.0246569  1.00003  0.181266  0.0431649  -0.000262733  0.0349118  -0.236726  -0.0392853  0  0  0  0.437531  -1.43318  -0.65278  0.00408616  -0.00158888  -0.0247133  -0.00708695  0.0453862  0.0120465  -0.0644142  -0.0272549  -0.00456004  0.640262  0.252521  -0.0170723 
1701272931.652531000  0  0  14.4622  0.0769244  -0.00153589  0.00532192  nan  nan  nan  nan  nan  nan  -1.49869  -0.0258585  0.99983  0.183255  0.0449187  -0.000165725  0.037116  -0.243916  -0.0426087  0  0  0  0.444035  -1.44282  -0.676474  0.00404755  -0.00137608  -0.0246744  -0.00825564  0.0459199  0.0106886  -0.063654  -0.0270417  -0.00450439  0.595144  0.313672  -0.00199304 
1701272931.657526000  0  0  14.4353  0.0536222  0.009068  0.00602361  nan  nan  nan  nan  nan  nan  -1.4985  -0.0270962  0.999608  0.186098  0.0454096  -0.000263959  0.0393509  -0.251153  -0.0460488  0  0  0  0.449789  -1.45171  -0.699418  0.00409381  -0.00113539  -0.0245701  -0.00808267  0.0472162  0.0105269  -0.0631549  -0.0262208  -0.00454624  0.630841  0.285377  -0.0128996 
1701272931.662533000  0  0  14.398  0.0300318  0.0116345  0.00651634  nan  nan  nan  nan  nan  nan  -1.4983  -0.0283701  0.999369  0.188623  0.0454398  -0.000468401  0.0416127  -0.258432  -0.0496017  0  0  0  0.454793  -1.45984  -0.721613  0.00419188  -0.000900079  -0.0243904  -0.00751319  0.0480579  0.0108711  -0.062109  -0.0251429  -0.00462061  0.660763  0.268419  -0.0196909 
1701272931.667480000  0  0  14.3761  0.0466718  -0.0223159  0.00552293  nan  nan  nan  nan  nan  nan  -1.49808  -0.0296806  0.999112  0.190436  0.0473692  -0.000346727  0.0438976  -0.26575  -0.0532637  0  0  0  0.459047  -1.46723  -0.743057  0.00413679  -0.000653758  -0.0243361  -0.00906713  0.048337  0.0105509  -0.06117  -0.0249817  -0.00455288  0.620377  0.326936  -0.00441373 
1701272931.672531000  0  0  14.3244  -0.00910383  0.0192014  0.0077121  nan  nan  nan  nan  nan  nan  -1.49786  -0.0310277  0.998836  0.19318  0.0469583  -0.000633588  0.0462019  -0.273103  -0.057031  0  0  0  0.462551  -1.47386  -0.763751  0.00423609  -0.000401401  -0.0242696  -0.00807812  0.0493269  0.0122181  -0.0600532  -0.0238831  -0.00481193  0.706714  0.240477  -0.0359633 
1701272931.677526000  0  0  14.3444  0.00361046  0.00118721  0.00692935  nan  nan  nan  nan  nan  nan  -1.49762  -0.0324116  0.998541  0.194217  0.0482274  -0.000681324  0.0485218  -0.280487  -0.0608999  0  0  0  0.465305  -1.47975  -0.783695  0.00418691  -0.000156996  -0.0242369  -0.00916803  0.049534  0.00937818  -0.0580471  -0.0236547  -0.00473732  0.661038  0.269884  -0.0243352 
1701272931.682518000  0  0  14.3104  -0.00601198  -0.0133683  0.00684965  nan  nan  nan  nan  nan  nan  -1.49737  -0.0338326  0.998227  0.196411  0.0491343  -0.000745185  0.0508537  -0.287899  -0.0648667  0  0  0  0.467309  -1.48489  -0.802889  0.00418121  0.000104328  -0.0241515  -0.00979538  0.0502954  0.00999146  -0.0569702  -0.0228221  -0.00477034  0.665766  0.286193  -0.0223681 
1701272931.687467000  0  0  14.2598  -0.0423256  0.0140902  0.00764269  nan  nan  nan  nan  nan  nan  -1.49711  -0.0352907  0.997892  0.198772  0.0494137  -0.00092849  0.0531937  -0.295335  -0.0689276  0  0  0  0.468563  -1.48927  -0.821334  0.00418711  0.00040387  -0.0240671  -0.00969845  0.0509667  0.0117368  -0.0553804  -0.0222532  -0.00488117  0.712058  0.230825  -0.0334696 
1701272931.692539000  0  0  14.251  0.00629772  -0.0311548  0.00562732  nan  nan  nan  nan  nan  nan  -1.49684  -0.036786  0.997538  0.199743  0.0509955  -0.000925167  0.0555381  -0.302791  -0.0730788  0  0  0  0.469067  -1.49291  -0.839028  0.00413411  0.000637658  -0.0240252  -0.0113148  0.0509275  0.0108568  -0.0539273  -0.0218038  -0.00468267  0.608888  0.306112  -0.00365382 
1701272931.697512000  0  0  14.192  -0.0468291  0.00335582  0.00688869  nan  nan  nan  nan  nan  nan  -1.49656  -0.0383186  0.997162  0.202428  0.0509978  -0.00115488  0.0578831  -0.310263  -0.0773166  0  0  0  0.46882  -1.4958  -0.855972  0.00414188  0.000935624  -0.023914  -0.0110239  0.0520042  0.0132328  -0.0526951  -0.0209935  -0.00474862  0.68919  0.235428  -0.0234385 
1701272931.702531000  0  0  14.202  -0.0488434  0.0196468  0.00705914  nan  nan  nan  nan  nan  nan  -1.49626  -0.0398886  0.996764  0.20311  0.0515645  -0.00138102  0.060225  -0.317747  -0.0816373  0  0  0  0.467824  -1.49793  -0.872166  0.00408224  0.00118794  -0.0238711  -0.0116378  0.0520833  0.0112621  -0.0501533  -0.0208022  -0.00461764  0.663544  0.20426  -0.0288093 
1701272931.707530000  0  0  14.1631  -0.0259493  -0.0169472  0.00611081  nan  nan  nan  nan  nan  nan  -1.49595  -0.0414961  0.996345  0.204889  0.0524569  -0.00148543  0.0625601  -0.325241  -0.086037  0  0  0  0.466078  -1.49932  -0.887611  0.00405514  0.00144735  -0.0237389  -0.0126128  0.0526984  0.0123393  -0.0493736  -0.0198613  -0.00455119  0.613868  0.258512  -0.0142598 
1701272931.712532000  0  0  14.0613  -0.0649068  0.0319694  0.00756049  nan  nan  nan  nan  nan  nan  -1.49564  -0.043141  0.995904  0.206993  0.0522343  -0.00180836  0.0648846  -0.332739  -0.0905121  0  0  0  0.463582  -1.49995  -0.902305  0.00404024  0.00173412  -0.0235949  -0.0120782  0.0526234  0.0173945  -0.0479066  -0.0192847  -0.00458488  0.666273  0.164899  -0.0378101 
1701272931.717525000  0  0  14.0746  -0.0187929  0.0017508  0.00599577  nan  nan  nan  nan  nan  nan  -1.49531  -0.0448235  0.99544  0.207324  0.0530057  -0.00202604  0.0671947  -0.340239  -0.0950588  0  0  0  0.460336  -1.5  -0.916249  0.00397268  0.00199794  -0.0235377  -0.0132065  0.0525877  0.0153124  -0.0461313  -0.0186581  -0.00432881  0.563861  0.211428  -0.016627 
1701272931.722527000  0  0  14.0488  -0.0123541  -0.0148842  0.00552841  nan  nan  nan  nan  nan  nan  -1.49496  -0.0465434  0.994953  0.209558  0.0534081  -0.00222084  0.0694867  -0.347739  -0.0996733  0  0  0  0.45634  -1.5  -0.929443  0.00392722  0.00229322  -0.0234966  -0.0138644  0.0540231  0.0160321  -0.0459518  -0.0176338  -0.00421998  0.550347  0.229231  -0.0109236 
1701272931.727523000  0  0  13.9908  -0.0182963  0.0189006  0.00630356  nan  nan  nan  nan  nan  nan  -1.49461  -0.0483009  0.994443  0.210743  0.0533539  -0.00257649  0.0717568  -0.355239  -0.104352  0  0  0  0.451594  -1.5  -0.941887  0.00386536  0.00255877  -0.0233975  -0.0138803  0.0537354  0.0185171  -0.0443887  -0.0172102  -0.00406099  0.54294  0.164284  -0.0269289 
1701272931.732524000  0  0  13.9927  0.0431876  -0.0303848  0.00483183  nan  nan  nan  nan  nan  nan  -1.49425  -0.0500958  0.993909  0.212106  0.0532707  -0.00293475  0.0740013  -0.362739  -0.109091  0  0  0  0.446098  -1.5  -0.953582  0.00390259  0.00283118  -0.0232825  -0.0144545  0.0547015  0.0173058  -0.0446603  -0.0154731  -0.0039377  0.436733  0.231948  -0.00473786 
1701272931.737530000  0  0  13.9312  0.0154412  -0.014775  0.00641299  nan  nan  nan  nan  nan  nan  -1.49387  -0.0519283  0.993352  0.214937  0.053118  -0.00323283  0.0762165  -0.370239  -0.113887  0  0  0  0.439852  -1.5  -0.964526  0.00381358  0.00318044  -0.0231681  -0.0144552  0.0560335  0.0203501  -0.0449102  -0.0144265  -0.00405907  0.488946  0.192157  -0.0287924 
1701272931.742516000  0  0  13.9248  0.037412  -0.00900947  0.00645646  nan  nan  nan  nan  nan  nan  -1.49348  -0.0537982  0.99277  0.215593  0.052926  -0.00366734  0.0783986  -0.377739  -0.118735  0  0  0  0.432856  -1.5  -0.97472  0.00373696  0.00346134  -0.0230783  -0.0147706  0.0560029  0.0197563  -0.0437062  -0.0135407  -0.00390465  0.436033  0.171719  -0.0324956 
1701272931.747531000  0  0  13.9132  0.0616545  -0.0375237  0.00615893  nan  nan  nan  nan  nan  nan  -1.49309  -0.0557057  0.992165  0.217661  0.0529807  -0.00397564  0.0805438  -0.385239  -0.123633  0  0  0  0.425109  -1.5  -0.984164  0.00366711  0.00379052  -0.0229636  -0.0154662  0.0573897  0.0197135  -0.0442574  -0.0121894  -0.00390536  0.399263  0.206885  -0.027515 
1701272931.752531000  0  0  13.881  0.0253482  -0.010569  0.0076956  nan  nan  nan  nan  nan  nan  -1.49268  -0.0576506  0.991534  0.218791  0.0521905  -0.00452969  0.0826485  -0.392739  -0.128575  0  0  0  0.416613  -1.5  -0.992858  0.00359322  0.00407427  -0.0228559  -0.0151424  0.0574204  0.0208891  -0.042827  -0.0109977  -0.00389031  0.447375  0.145251  -0.0534572 
1701272931.757526000  0  0  13.9063  0.054633  -0.0327176  0.0064717  nan  nan  nan  nan  nan  nan  -1.49226  -0.0590171  0.990879  0.21649  0.0519027  -0.00516649  0.0847087  -0.397871  -0.13356  0  0  0  0.407367  -1.5  -1.0008  0.00353843  0.00381282  -0.0228108  -0.0158136  0.0558818  0.0181447  -0.0397952  -0.00960468  -0.00365503  0.36044  0.168618  -0.0375625 
1701272931.762530000  0  0  13.8752  -0.0228324  -0.0383354  0.00593507  nan  nan  nan  nan  nan  nan  -1.49183  -0.0590171  0.990198  0.208766  0.051365  -0.00599758  0.0867209  -0.397871  -0.138582  0  0  0  0.397371  -1.5  -1.008  0.00347624  0.0021853  -0.0227443  -0.0160882  0.0503733  0.018081  -0.0303072  -0.00811112  -0.00326212  0.38909  0.161434  -0.0361802 
1701272931.767528000  0  0  13.8461  -0.100902  -0.0172328  0.00583408  nan  nan  nan  nan  nan  nan  -1.49139  -0.0590171  0.989493  0.198468  0.050418  -0.00673898  0.0886812  -0.397871  -0.143639  0  0  0  0.386625  -1.5  -1.01444  0.00339662  0.000421367  -0.0226577  -0.0160417  0.0423184  0.0174766  -0.0180781  -0.00682642  -0.00294375  0.387295  0.109137  -0.0406325 
1701272931.772535000  0  0  13.8376  -0.146072  -0.0429541  0.00513103  nan  nan  nan  nan  nan  nan  -1.49095  -0.0590171  0.988762  0.189552  0.0502322  -0.00724122  0.0905859  -0.397871  -0.148725  0  0  0  0.375129  -1.5  -1.02014  0.00329609  -0.00129255  -0.0225566  -0.0170359  0.0361084  0.0158463  -0.00795805  -0.00554632  -0.00277787  0.35125  0.140155  -0.0320946 
1701272931.777534000  0  0  13.7931  -0.256653  -0.0216163  0.00595381  nan  nan  nan  nan  nan  nan  -1.49049  -0.0590171  0.988006  0.179887  0.0492318  -0.00792513  0.0924312  -0.397871  -0.153839  0  0  0  0.362883  -1.5  -1.02508  0.00320996  -0.00312003  -0.0224681  -0.0170726  0.028793  0.0163831  0.00415143  -0.00432373  -0.00257856  0.408641  0.0881545  -0.0496723 
1701272931.782530000  0  0  13.7815  -0.296462  -0.0185833  0.00591097  nan  nan  nan  nan  nan  nan  -1.49002  -0.0590171  0.987224  0.170157  0.0482711  -0.00858373  0.0942135  -0.397871  -0.158975  0  0  0  0.349887  -1.5  -1.02927  0.00311634  -0.00484657  -0.0224022  -0.0173837  0.0217085  0.0149584  0.0150358  -0.00308501  -0.00245491  0.354275  0.0685178  -0.0513412 
1701272931.787528000  0  0  13.7713  -0.353578  -0.0331428  0.00686804  nan  nan  nan  nan  nan  nan  -1.48955  -0.0590171  0.986416  0.161855  0.0479415  -0.0090493  0.0959288  -0.397871  -0.16413  0  0  0  0.336141  -1.5  -1.03272  0.00298101  -0.00661899  -0.0223643  -0.0184349  0.0163963  0.0138089  0.0246247  -0.00211596  -0.00260247  0.34558  0.0832647  -0.0644727 
1701272931.792530000  0  0  13.7022  -0.413013  -0.0116859  0.00852316  nan  nan  nan  nan  nan  nan  -1.48906  -0.0590171  0.985582  0.15155  0.0463669  -0.00979568  0.0975736  -0.397871  -0.169301  0  0  0  0.321645  -1.5  -1.03541  0.00288786  -0.00855197  -0.0222719  -0.0180395  0.00845194  0.0158988  0.0363849  -0.000692301  -0.00265726  0.316042  0.0287403  -0.0910455 
1701272931.797515000  0  0  13.6357  -0.408842  -0.0298855  0.00933602  nan  nan  nan  nan  nan  nan  -1.48857  -0.0590171  0.984723  0.142955  0.0456785  -0.0103018  0.099144  -0.397871  -0.174483  0  0  0  0.306398  -1.5  -1.03736  0.00276549  -0.0103702  -0.0222019  -0.0187118  0.00229424  0.0182972  0.0450903  0.000434059  -0.00294547  0.208524  0.0481511  -0.0990578 
1701272931.802532000  0  0  13.5538  -0.46912  -0.0355399  0.0114147  nan  nan  nan  nan  nan  nan  -1.48807  -0.0590171  0.983837  0.134059  0.0443959  -0.0108886  0.100636  -0.397871  -0.179673  0  0  0  0.290402  -1.5  -1.03855  0.00267218  -0.0123624  -0.0220919  -0.0188298  -0.00386781  0.021549  0.054948  0.00192388  -0.00336304  0.20236  0.0410748  -0.125707 
1701272931.807527000  0  0  13.48  -0.474694  -0.0290619  0.0124935  nan  nan  nan  nan  nan  nan  -1.48756  -0.0590171  0.982926  0.124262  0.0424714  -0.0115709  0.102047  -0.397871  -0.184867  0  0  0  0.273656  -1.5  -1.03899  0.0025753  -0.0143533  -0.0220055  -0.0183644  -0.0108587  0.0243118  0.0644372  0.00363747  -0.00377041  0.10316  0.00985179  -0.135861 
1701272931.812534000  0  0  13.4352  -0.464659  -0.0522418  0.0119903  nan  nan  nan  nan  nan  nan  -1.48705  -0.0590171  0.981989  0.116894  0.0414799  -0.0120047  0.103372  -0.397871  -0.190062  0  0  0  0.25616  -1.5  -1.03869  0.00244656  -0.0162879  -0.0218905  -0.0190664  -0.0148951  0.025728  0.0709025  0.00490807  -0.00416072  0.0109749  0.03646  -0.119935 
1701272931.817527000  0  0  13.3494  -0.487179  -0.0488153  0.011898  nan  nan  nan  nan  nan  nan  -1.48653  -0.0590171  0.981025  0.108075  0.0393686  -0.0126039  0.104607  -0.397871  -0.195253  0  0  0  0.237914  -1.5  -1.03763  0.00235404  -0.0183593  -0.0217394  -0.0185851  -0.0205528  0.0294472  0.0791321  0.00689867  -0.00438499  -0.0436094  0.00747805  -0.114071 
1701272931.822531000  0  0  13.2828  -0.442875  -0.038952  0.0115627  nan  nan  nan  nan  nan  nan  -1.486  -0.0590171  0.980036  0.100897  0.0374351  -0.0130851  0.10575  -0.397871  -0.200437  0  0  0  0.21945  -1.5  -1.03583  0.00218107  -0.0202308  -0.0216168  -0.0181977  -0.0246233  0.0324895  0.0841468  0.00841754  -0.00472701  -0.180051  -0.0275255  -0.10188 
1701272931.827527000  0  0  13.2345  -0.431774  -0.0648715  0.0112692  nan  nan  nan  nan  nan  nan  -1.48547  -0.0590171  0.979021  0.0932216  0.0359628  -0.0135127  0.106803  -0.397871  -0.20561  0  0  0  0.201718  -1.5  -1.03327  0.00208423  -0.0223374  -0.0214571  -0.0185073  -0.0284572  0.0343179  0.0898605  0.0100595  -0.00495942  -0.265492  -0.000316051  -0.0924983 
1701272931.832530000  0  0  13.173  -0.405592  -0.0587244  0.0129665  nan  nan  nan  nan  nan  nan  -1.48494  -0.0590171  0.97798  0.0869515  0.0342834  -0.0138863  0.107769  -0.397871  -0.210768  0  0  0  0.184736  -1.5  -1.02997  0.00193991  -0.0242387  -0.0213345  -0.0183276  -0.0312976  0.0374316  0.0934112  0.0114439  -0.00558855  -0.352876  -0.0271657  -0.108703 
1701272931.837527000  0  0  13.118  -0.318103  -0.0418226  0.0143894  nan  nan  nan  nan  nan  nan  -1.4844  -0.0590171  0.976913  0.0821022  0.0316876  -0.0142672  0.108652  -0.397871  -0.215908  0  0  0  0.168504  -1.5  -1.02591  0.00180456  -0.0261085  -0.0211657  -0.017062  -0.0325829  0.0404325  0.0940394  0.0131465  -0.00633201  -0.515672  -0.0767969  -0.118121 
1701272931.842529000  0  0  13.1036  -0.274642  -0.087482  0.0133047  nan  nan  nan  nan  nan  nan  -1.48385  -0.0590171  0.975821  0.0757062  0.0307569  -0.0145416  0.109455  -0.397871  -0.221026  0  0  0  0.153022  -1.5  -1.0211  0.00170194  -0.0282516  -0.0209802  -0.0177825  -0.0345741  0.0407145  0.0965492  0.0144229  -0.00661767  -0.621813  -0.0102827  -0.0945067 
1701272931.847524000  0  0  13.051  -0.226677  -0.0492732  0.0144695  nan  nan  nan  nan  nan  nan  -1.4833  -0.0590171  0.974703  0.072103  0.0291376  -0.0147699  0.110183  -0.397871  -0.226118  0  0  0  0.13829  -1.5  -1.01555  0.00154408  -0.0300018  -0.0207636  -0.0173711  -0.0346926  0.0438762  0.0956557  0.0149738  -0.0073012  -0.696829  -0.0845605  -0.100772 
1701272931.852547000  0  0  13.0295  -0.130526  -0.0190747  0.01451  nan  nan  nan  nan  nan  nan  -1.48275  -0.0590171  0.97356  0.0661546  0.0267917  -0.0150994  0.110839  -0.397871  -0.23118  0  0  0  0.124307  -1.5  -1.00924  0.00146615  -0.0321674  -0.0205532  -0.0163845  -0.0361763  0.0449086  0.0961134  0.0159501  -0.00769301  -0.873067  -0.149484  -0.0938931 
1701272931.857527000  0  0  13.0931  -0.0424774  -0.0918194  0.012293  nan  nan  nan  nan  nan  nan  -1.48219  -0.0590171  0.972391  0.0644514  0.0271403  -0.0151228  0.111427  -0.397871  -0.236209  0  0  0  0.111075  -1.5  -1.00219  0.00128978  -0.0339894  -0.0203898  -0.0181494  -0.0333414  0.0414106  0.0917354  0.0162908  -0.00790611  -0.979292  -0.0240483  -0.0527765 
1701272931.862532000  0  0  13.0885  0.0202592  -0.015375  0.0150447  nan  nan  nan  nan  nan  nan  -1.48163  -0.0590171  0.971198  0.0648458  0.0266851  -0.0151416  0.111951  -0.397871  -0.241201  0  0  0  0.098593  -1.5  -0.994381  0.000976272  -0.0354097  -0.0202627  -0.018412  -0.0295661  0.0426451  0.0853171  0.0151762  -0.00875998  -1.01705  -0.147165  -0.0822469 
1701272931.867528000  0  0  13.0969  0.100693  0.00452777  0.0153975  nan  nan  nan  nan  nan  nan  -1.48107  -0.0590171  0.969979  0.0598464  0.0251076  -0.01537  0.112414  -0.397871  -0.246152  0  0  0  0.0868609  -1.5  -0.985825  0.000885071  -0.0375389  -0.020054  -0.0180053  -0.0299461  0.0422427  0.0838578  0.0153067  -0.00915276  -1.1433  -0.184057  -0.0805641 
1701272931.872533000  0  0  13.1692  0.183594  -0.043287  0.0152489  nan  nan  nan  nan  nan  nan  -1.48051  -0.0590171  0.968736  0.0586412  0.0251186  -0.0153997  0.112821  -0.397871  -0.251058  0  0  0  0.0758787  -1.5  -0.976519  0.000692062  -0.0393025  -0.0199767  -0.019076  -0.0267063  0.0386899  0.078036  0.0152623  -0.00960078  -1.22377  -0.0985225  -0.0694451 
1701272931.877528000  0  0  13.1766  0.19395  0.0383136  0.0187064  nan  nan  nan  nan  nan  nan  -1.47995  -0.0590171  0.967469  0.0536906  0.022829  -0.0156474  0.113175  -0.397871  -0.255916  0  0  0  0.0656465  -1.5  -0.966568  0.000611363  -0.0414237  -0.0197775  -0.017705  -0.0271031  0.0384924  0.0768857  0.0151896  -0.0103752  -1.22896  -0.242787  -0.112231 
1701272931.882531000  0  0  13.2495  0.313592  0.0247037  0.0195626  nan  nan  nan  nan  nan  nan  -1.47938  -0.0590171  0.966177  0.0528086  0.0223269  -0.0156941  0.113479  -0.397871  -0.260725  0  0  0  0.0561643  -1.5  -0.957073  0.000498268  -0.0431128  -0.0197068  -0.0181887  -0.0237355  0.0350216  0.0694585  0.0142846  -0.0111546  -1.3563  -0.208181  -0.111496 
1701272931.887532000  0  0  13.3117  0.359286  -0.0023269  0.0211077  nan  nan  nan  nan  nan  nan  -1.47881  -0.0590171  0.964862  0.0524036  0.021987  -0.015721  0.113737  -0.397871  -0.265488  0  0  0  0.0474321  -1.5  -0.948328  0.000308174  -0.0447514  -0.0196121  -0.0185454  -0.020004  0.0320514  0.0624324  0.0139635  -0.0119983  -1.35676  -0.156422  -0.121022 
1701272931.892540000  0  0  13.3456  0.342423  0.0532398  0.0244283  nan  nan  nan  nan  nan  nan  -1.47824  -0.0590171  0.963523  0.0478294  0.0201431  -0.0159101  0.113954  -0.397871  -0.270209  0  0  0  0.03945  -1.5  -0.940333  0.000222592  -0.0468431  -0.0194582  -0.0173967  -0.0199968  0.0301567  0.0608711  0.0137124  -0.0129802  -1.30882  -0.252343  -0.157521 
1701272931.897527000  0  0  13.4217  0.448136  0.00891601  0.0233705  nan  nan  nan  nan  nan  nan  -1.47767  -0.0590171  0.96216  0.0453966  0.019824  -0.0159737  0.114133  -0.397871  -0.274892  0  0  0  0.0322178  -1.5  -0.933088  8.8148e-05  -0.0485414  -0.0194491  -0.0177729  -0.0183764  0.0261893  0.0548808  0.0132787  -0.0136302  -1.42792  -0.168541  -0.127331 
1701272931.902530000  0  0  13.4117  0.415349  0.00843684  0.0246903  nan  nan  nan  nan  nan  nan  -1.4771  -0.0590171  0.960774  0.0404022  0.0183982  -0.0161305  0.114278  -0.397871  -0.279541  0  0  0  0.0257356  -1.5  -0.926593  5.21827e-06  -0.0506263  -0.0192969  -0.0168414  -0.0190656  0.0269336  0.0535282  0.0137381  -0.0143367  -1.35407  -0.172971  -0.135741 
1701272931.907510000  0  0  13.4921  0.384682  0.0456828  0.0250747  nan  nan  nan  nan  nan  nan  -1.47653  -0.0590171  0.959364  0.0378694  0.0180935  -0.0161887  0.114392  -0.397871  -0.28416  0  0  0  0.0200034  -1.5  -0.920848  -0.000182416  -0.0523347  -0.0192647  -0.0169205  -0.0175711  0.0223632  0.0504581  0.0124352  -0.0149246  -1.26423  -0.22422  -0.130822 
1701272931.913001000  0  0  13.5459  0.443588  0.0168879  0.0229625  nan  nan  nan  nan  nan  nan  -1.47596  -0.0590171  0.957932  0.0335336  0.0179593  -0.0162718  0.114479  -0.397871  -0.288751  0  0  0  0.0150212  -1.5  -0.915853  -0.000297481  -0.0543374  -0.0193923  -0.0172665  -0.017535  0.0197432  0.0467581  0.0118884  -0.0152061  -1.32644  -0.16673  -0.090137 
1701272931.917524000  0  0  13.4971  0.346147  0.0646782  0.0238334  nan  nan  nan  nan  nan  nan  -1.47538  -0.0590171  0.956477  0.0287072  0.0163993  -0.0164033  0.114543  -0.397871  -0.293319  0  0  0  0.010789  -1.5  -0.911608  -0.000427746  -0.0562182  -0.0191332  -0.0157252  -0.0186602  0.0224599  0.0475142  0.0116757  -0.0155912  -1.16186  -0.249264  -0.0972508 
1701272931.922530000  0  0  13.6269  0.326941  0.0575867  0.0226953  nan  nan  nan  nan  nan  nan  -1.47481  -0.0590171  0.954999  0.0249823  0.0165751  -0.01646  0.114588  -0.397871  -0.297868  0  0  0  0.0073069  -1.5  -0.908113  -0.000608345  -0.0579413  -0.0191791  -0.0161689  -0.018472  0.014655  0.0460436  0.0103666  -0.0157595  -1.1108  -0.221602  -0.0750057 
1701272931.927525000  0  0  13.6505  0.312567  0.0391897  0.0213161  nan  nan  nan  nan  nan  nan  -1.47424  -0.0590171  0.953498  0.0181763  0.016305  -0.0165778  0.114618  -0.397871  -0.302402  0  0  0  0.0045747  -1.5  -0.905368  -0.000691438  -0.0600346  -0.0190995  -0.0161612  -0.021212  0.013054  0.0473484  0.0100003  -0.015785  -1.10024  -0.184676  -0.051491 
