ts fx fy fz tx ty tz exfx exfy exfz extx exty extz xd yd zd rolld pitchd yawd vxd vyd vzd wxd wyd wzd axd ayd azd e_x e_y e_z e_vx e_vy e_vz e_rx e_ry e_rz e_wx e_wy e_wz
1699965395.680292000  0  0  11.5845  0.0987432  -0.129846  0.00418107  nan  nan  nan  nan  nan  nan  -1  0  1  0.0115044  -0.0339478  -0.000390493  0  0  0  0  0  0  0  0  0  0.0247055  -0.00266088  -0.0165414  -0.0111847  0.0207124  -0.0021726  -0.0232439  0.02483  -0.00452908  0.0163577  0.031256  -0.00697257 
1699965395.685812000  0  0  11.6036  0.0832116  -0.124403  0.00462184  nan  nan  nan  nan  nan  nan  -1  0  1  0.00951637  -0.0347651  -0.000330781  0  0  0  0  0  0  0  0  0  0.024824  -0.00291114  -0.0165121  -0.0103245  0.0187303  -0.00379097  -0.0210074  0.0256463  -0.00462752  0.026845  0.0128599  -0.0114978 
1699965395.690439000  0  0  11.5687  0.105892  -0.112245  0.00403286  nan  nan  nan  nan  nan  nan  -1  0  1  0.0102895  -0.0346416  -0.000356387  0  0  0  0  0  0  0  0  0  0.0247769  -0.00282223  -0.0165051  -0.0105125  0.0194892  -0.00090468  -0.0220444  0.025306  -0.00458144  -0.00897632  -0.00832579  -0.00459639 
1699965395.695300000  0  0  11.5266  0.108371  -0.120765  0.00348476  nan  nan  nan  nan  nan  nan  -1  0  1  0.00985197  -0.0348226  -0.000343013  0  0  0  0  0  0  0  0  0  0.0248194  -0.00291757  -0.0164378  -0.0105375  0.0190929  0.00246186  -0.0217433  0.0256147  -0.0045068  -0.0167026  0.00587515  0.00150847 
1699965395.700381000  0  0  11.5674  0.103856  -0.106395  0.00329374  nan  nan  nan  nan  nan  nan  -1  0  1  0.0105936  -0.0343615  -0.000363954  0  0  0  0  0  0  0  0  0  0.0247659  -0.00281911  -0.016464  -0.0108529  0.0198716  -0.00088843  -0.0223837  0.0249519  -0.00447229  -0.00178171  -0.0167676  0.00355115 
1699965395.705856000  0  0  11.5453  0.135685  -0.101484  0.00212582  nan  nan  nan  nan  nan  nan  -1  0  1  0.0106424  -0.0344228  -0.000366283  0  0  0  0  0  0  0  0  0  0.0247657  -0.00283733  -0.0164122  -0.0108578  0.0199488  0.000836088  -0.0230572  0.0248474  -0.00426952  -0.0592435  -0.0256283  0.0161224 
1699965395.710302000  0  0  11.4709  0.147122  -0.103944  0.00184626  nan  nan  nan  nan  nan  nan  -1  0  1  0.0114867  -0.0339367  -0.000389764  0  0  0  0  0  0  0  0  0  0.0247129  -0.0027468  -0.0163584  -0.0116435  0.0207359  0.00689746  -0.0243135  0.0243755  -0.0041466  -0.0705597  -0.0163657  0.0183877 
1699965395.715435000  0  0  11.5454  0.126447  -0.0945621  0.00283571  nan  nan  nan  nan  nan  nan  -1  0  1  0.0112845  -0.0338175  -0.000381557  0  0  0  0  0  0  0  0  0  0.0247284  -0.00280834  -0.0163708  -0.011551  0.0207082  0.000729966  -0.023953  0.0240298  -0.0041862  -0.0325258  -0.0319498  0.00641564 
1699965395.719581000  0  0  11.548  0.144758  -0.0889006  0.00257922  nan  nan  nan  nan  nan  nan  -1  0  1  0.0117559  -0.0336903  -0.000396002  0  0  0  0  0  0  0  0  0  0.024683  -0.0027244  -0.0163664  -0.0116027  0.0211297  0.000491369  -0.0248598  0.0236728  -0.0041127  -0.0608044  -0.0399881  0.0088868 
1699965395.725364000  0  0  11.4993  0.155504  -0.0939334  0.00243113  nan  nan  nan  nan  nan  nan  -1  0  1  0.0119796  -0.0335084  -0.00040136  0  0  0  0  0  0  0  0  0  0.024674  -0.00273196  -0.0162785  -0.0119967  0.021369  0.00434787  -0.025629  0.0234665  -0.00399841  -0.0752203  -0.0280254  0.00959496 
1699965395.730381000  0  0  11.5978  0.126535  -0.0895067  0.00373056  nan  nan  nan  nan  nan  nan  -1  0  1  0.0117461  -0.0333533  -0.000391718  0  0  0  0  0  0  0  0  0  0.0246828  -0.00276376  -0.0162981  -0.01185  0.0212699  -0.00380852  -0.0251903  0.0231185  -0.00410434  -0.021319  -0.0336769  -0.00558855 
1699965395.735281000  0  0  11.5854  0.147134  -0.0896091  0.00376301  nan  nan  nan  nan  nan  nan  -1  0  1  0.0125179  -0.033135  -0.000414728  0  0  0  0  0  0  0  0  0  0.0246259  -0.00265874  -0.0162928  -0.0120492  0.0220138  -0.00280506  -0.0264039  0.0227609  -0.00411754  -0.0513511  -0.0301822  -0.00586216 
1699965395.740275000  0  0  11.5071  0.159603  -0.1025  0.0034743  nan  nan  nan  nan  nan  nan  -1  0  1  0.0128188  -0.0329706  -0.000422591  0  0  0  0  0  0  0  0  0  0.0246153  -0.0026493  -0.0162241  -0.0125233  0.0222691  0.00355473  -0.0272107  0.0227588  -0.00408699  -0.0688682  -0.00438054  -0.00255886 
1699965395.745688000  0  0  11.5487  0.146645  -0.096223  0.00364735  nan  nan  nan  nan  nan  nan  -1  0  1  0.0131117  -0.0327073  -0.000428796  0  0  0  0  0  0  0  0  0  0.0246221  -0.00264474  -0.016237  -0.0127237  0.022694  0.000109555  -0.0275397  0.0223088  -0.00412359  -0.0399241  -0.012795  -0.00435589 
1699965395.750262000  0  0  11.5511  0.149551  -0.0979196  0.00324049  nan  nan  nan  nan  nan  nan  -1  0  1  0.0132722  -0.0329739  -0.000437582  0  0  0  0  0  0  0  0  0  0.0245715  -0.00254691  -0.01624  -0.0122593  0.022686  -9.1571e-05  -0.0278621  0.0225164  -0.00408742  -0.0427716  -0.0113121  0.000368133 
1699965395.755279000  0  0  11.5134  0.150555  -0.112168  0.00332443  nan  nan  nan  nan  nan  nan  -1  0  1  0.0133587  -0.0329354  -0.00043992  0  0  0  0  0  0  0  0  0  0.0245901  -0.00258309  -0.0161945  -0.0124879  0.0228216  0.00294759  -0.0282314  0.0227265  -0.00412872  -0.0413815  0.0152533  -0.000268207 
1699965395.760287000  0  0  11.6041  0.130165  -0.107897  0.0039545  nan  nan  nan  nan  nan  nan  -1  0  1  0.0142432  -0.0321228  -0.000457483  0  0  0  0  0  0  0  0  0  0.0245253  -0.00246538  -0.0162508  -0.0130591  0.0238355  -0.00450979  -0.0287462  0.0219769  -0.0042108  0.00413522  0.0136073  -0.00732329 
1699965395.765229000  0  0  11.5976  0.139525  -0.105977  0.00400839  nan  nan  nan  nan  nan  nan  -1  0  1  0.0139594  -0.0325629  -0.000454507  0  0  0  0  0  0  0  0  0  0.024523  -0.00245965  -0.0162304  -0.0125099  0.0234464  -0.00400429  -0.0287134  0.0223722  -0.00425849  -0.0148867  0.00612997  -0.00751998 
1699965395.770278000  0  0  11.5671  0.138214  -0.126156  0.00337595  nan  nan  nan  nan  nan  nan  -1  0  1  0.0150966  -0.0318935  -0.000481439  0  0  0  0  0  0  0  0  0  0.0244547  -0.0023359  -0.01622  -0.0133273  0.0245865  -0.00151812  -0.0298095  0.02226  -0.00420341  -0.00218069  0.0475203  -0.000165251 
1699965395.775294000  0  0  11.6383  0.118946  -0.117061  0.00348909  nan  nan  nan  nan  nan  nan  -1  0  1  0.0147557  -0.0319172  -0.000470915  0  0  0  0  0  0  0  0  0  0.0244668  -0.0023569  -0.0162699  -0.0130718  0.0243115  -0.00733505  -0.0291059  0.0222801  -0.00424522  0.0298823  0.0291444  -0.0011615 
1699965395.780286000  0  0  11.6161  0.130139  -0.109316  0.00354355  nan  nan  nan  nan  nan  nan  -1  0  1  0.0152652  -0.0322436  -0.000492157  0  0  0  0  0  0  0  0  0  0.0244085  -0.00223775  -0.0162779  -0.0125986  0.0246676  -0.00547045  -0.0296609  0.0225029  -0.00424074  0.0126035  0.0116052  -0.00188707 
1699965395.785241000  0  0  11.5942  0.128419  -0.125754  0.00331014  nan  nan  nan  nan  nan  nan  -1  0  1  0.0148273  -0.0324222  -0.000480685  0  0  0  0  0  0  0  0  0  0.0244409  -0.00229704  -0.0162636  -0.0125192  0.0241982  -0.00367543  -0.0291866  0.023089  -0.00424822  0.01168  0.039089  0.00110543 
1699965395.790302000  0  0  11.6633  0.0979182  -0.124175  0.00418715  nan  nan  nan  nan  nan  nan  -1  0  1  0.0140229  -0.0324551  -0.000455065  0  0  0  0  0  0  0  0  0  0.0244995  -0.00239379  -0.0163168  -0.0123599  0.0234843  -0.00929687  -0.0277536  0.0232519  -0.00440064  0.0594968  0.0344332  -0.00833294 
1699965395.795294000  0  0  11.6318  0.108979  -0.123404  0.00433947  nan  nan  nan  nan  nan  nan  -1  0  1  0.0134452  -0.0332417  -0.000446884  0  0  0  0  0  0  0  0  0  0.0245281  -0.00242772  -0.016305  -0.0115203  0.0227635  -0.00668378  -0.0271759  0.0240718  -0.00446992  0.0320609  0.0253478  -0.00954418 
1699965395.800300000  0  0  11.6082  0.119562  -0.137692  0.0038131  nan  nan  nan  nan  nan  nan  -1  0  1  0.0144126  -0.0328346  -0.000473179  0  0  0  0  0  0  0  0  0  0.0244675  -0.00230931  -0.0163182  -0.011996  0.0237133  -0.00472124  -0.0281531  0.0241489  -0.00442371  0.0198842  0.0532138  -0.00342659 
1699965395.805299000  0  0  11.648  0.0928268  -0.129845  0.00446414  nan  nan  nan  nan  nan  nan  -1  0  1  0.0142371  -0.0326137  -0.000464274  0  0  0  0  0  0  0  0  0  0.0244698  -0.00232023  -0.016341  -0.0121434  0.023574  -0.00796969  -0.0273236  0.0240401  -0.00454296  0.0657234  0.0385224  -0.0103721 
1699965395.810304000  0  0  11.6307  0.106881  -0.116032  0.00441195  nan  nan  nan  nan  nan  nan  -1  0  1  0.0147133  -0.0327114  -0.000481241  0  0  0  0  0  0  0  0  0  0.0244136  -0.00220427  -0.0163606  -0.011954  0.0239041  -0.00648693  -0.0277399  0.0239724  -0.00457413  0.0414447  0.0115179  -0.00940802 
1699965395.815295000  0  0  11.597  0.114789  -0.130487  0.00407702  nan  nan  nan  nan  nan  nan  -1  0  1  0.0144793  -0.0327909  -0.000474736  0  0  0  0  0  0  0  0  0  0.0244329  -0.00226341  -0.0163091  -0.0120172  0.023679  -0.00378821  -0.0274641  0.0244529  -0.00457873  0.0230911  0.0360082  -0.00517549 
1699965395.820305000  0  0  11.6065  0.0960827  -0.11977  0.004559  nan  nan  nan  nan  nan  nan  -1  0  1  0.014118  -0.0327962  -0.000462964  0  0  0  0  0  0  0  0  0  0.0244534  -0.00229998  -0.0163115  -0.0120223  0.0233094  -0.00455973  -0.0266506  0.0243896  -0.00468733  0.0530202  0.0151551  -0.0101141 
1699965395.825240000  0  0  11.6046  0.107313  -0.111706  0.00440155  nan  nan  nan  nan  nan  nan  -1  0  1  0.0147485  -0.032479  -0.000478966  0  0  0  0  0  0  0  0  0  0.0243944  -0.00218488  -0.0163328  -0.0123065  0.0238638  -0.00436813  -0.0272216  0.0239758  -0.00471002  0.0358122  0.00283392  -0.00791919 
1699965395.830274000  0  0  11.5644  0.139811  -0.119471  0.00353457  nan  nan  nan  nan  nan  nan  -1  -0  1  0.0146552  -0.0324855  -0.000476032  6e-07  -6e-07  6e-07  0  0  0  0  0  0  0.0244032  -0.00223424  -0.0162827  -0.0124623  0.0237881  -0.00113598  -0.0276669  0.0242346  -0.00462136  -0.0250855  0.0159827  0.00203143 
1699965395.835270000  0  0  11.5619  0.129668  -0.106255  0.00343132  nan  nan  nan  nan  nan  nan  -1  -0  1  0.0155399  -0.031906  -0.000495771  5e-06  -5e-06  5e-06  0  0  0  0  0  0  0.0243386  -0.00211323  -0.0162934  -0.0130718  0.0246518  -0.000911396  -0.0283639  0.0234849  -0.00458297  0.00161144  -0.00355155  0.00293822 
1699965395.840268000  0  0  11.5829  0.137863  -0.0994534  0.00332197  nan  nan  nan  nan  nan  nan  -1  -1e-07  1  0.0146661  -0.0322596  -0.000473075  1.69e-05  -1.69e-05  1.69e-05  0  0  0  0  0  0  0.0243709  -0.00219315  -0.0162734  -0.0126151  0.023741  -0.00269412  -0.0276718  0.0236769  -0.00455263  -0.021145  -0.0189204  0.00400166 
1699965395.845224000  0  0  11.566  0.151411  -0.103285  0.00287289  nan  nan  nan  nan  nan  nan  -1  -2e-07  1  0.0147105  -0.0320917  -0.000471937  4e-05  -4e-05  4e-05  0  0  0  0  0  0  0.0243592  -0.00219557  -0.0162351  -0.012865  0.0237763  -0.00137991  -0.02811  0.0235592  -0.00445791  -0.0442094  -0.0101751  0.00866799 
1699965395.850285000  0  0  11.5644  0.136311  -0.0806239  0.00301915  nan  nan  nan  nan  nan  nan  -1  -5e-07  1  0.016115  -0.0313548  -0.000505043  7.81e-05  -7.81e-05  7.81e-05  0  0  0  0  0  0  0.0242905  -0.00206711  -0.0162397  -0.0136642  0.0252931  -0.00124205  -0.0292395  0.0223378  -0.00440813  -0.00361822  -0.0442598  0.00634192 
1699965395.855283000  0  0  11.5797  0.147285  -0.0803185  0.00296911  nan  nan  nan  nan  nan  nan  -0.999999  -1e-06  1  0.0154984  -0.0315922  -0.000489185  0.000135  -0.000135  0.000135  0  0  0  0  0  0  0.0243055  -0.00212153  -0.0161983  -0.0133396  0.0246478  -0.00259149  -0.0288582  0.0223448  -0.00438167  -0.029075  -0.0449354  0.00670286 
1699965395.860286000  0  0  11.5418  0.159749  -0.0825358  0.00318863  nan  nan  nan  nan  nan  nan  -0.999998  -1.9e-06  1  0.0163853  -0.0309129  -0.000505882  0.0002141  -0.0002144  0.0002134  0  0  0  0  0  0  0.0242345  -0.00199723  -0.0161801  -0.0141848  0.0254445  0.000502332  -0.0300863  0.0215934  -0.00436605  -0.042704  -0.0335876  0.00380255 
1699965395.865229000  0  0  11.5563  0.146023  -0.0784144  0.00400232  nan  nan  nan  nan  nan  nan  -0.999997  -3.2e-06  1  0.0165445  -0.0306057  -0.000505523  0.0003149  -0.00032  0.0003113  0  0  0  0  0  0  0.0242281  -0.00200845  -0.0161701  -0.0145157  0.0257004  -0.000722672  -0.0300793  0.021083  -0.00445086  -0.0153156  -0.0371344  -0.00552033 
1699965395.870278000  0  0  11.6089  0.147925  -0.0825926  0.00424178  nan  nan  nan  nan  nan  nan  -0.999995  -5.1e-06  1.00001  0.0163157  -0.0307062  -0.000499959  0.0004338  -0.0004556  0.0004249  0  0  0  0  0  0  0.0242183  -0.00201512  -0.0161908  -0.0141856  0.0255166  -0.00506012  -0.0299156  0.0210961  -0.00451153  -0.0206268  -0.0288993  -0.00790692 
1699965395.875278000  0  0  11.5393  0.156165  -0.0817547  0.00414556  nan  nan  nan  nan  nan  nan  -0.999992  -7.8e-06  1.00001  0.0170442  -0.0303256  -0.000515646  0.0005669  -0.000625  0.0005504  0  0  0  0  0  0  0.0241451  -0.00188956  -0.0161527  -0.0147476  0.0260461  0.000643859  -0.0308739  0.0206166  -0.00451736  -0.0282907  -0.0261635  -0.00664598 
1699965395.880284000  0  0  11.5945  0.123208  -0.084632  0.00426344  nan  nan  nan  nan  nan  nan  -0.999989  -1.14e-05  1.00001  0.0169737  -0.029782  -0.000504085  0.0007105  -0.0008319  0.0006841  0  0  0  0  0  0  0.0241581  -0.00193913  -0.0161701  -0.0152921  0.0261701  -0.00390893  -0.0302155  0.0200603  -0.00459008  0.0315664  -0.0152908  -0.00739219 
1699965395.885229000  0  0  11.629  0.131892  -0.0850383  0.00413485  nan  nan  nan  nan  nan  nan  -0.999985  -1.62e-05  1.00001  0.0176269  -0.0294331  -0.000517193  0.000861  -0.00108  0.0008222  0  0  0  0  0  0  0.0240859  -0.00181118  -0.0162048  -0.0154675  0.0267952  -0.00672507  -0.0308448  0.0196848  -0.00459747  0.0199876  -0.0110237  -0.00571097 
1699965395.890276000  0  0  11.5049  0.137205  -0.0893319  0.00346886  nan  nan  nan  nan  nan  nan  -0.999981  -2.23e-05  1.00002  0.0176519  -0.0297934  -0.000524186  0.0010145  -0.0013731  0.000961  0  0  0  0  0  0  0.0240859  -0.00182807  -0.0161341  -0.0154125  0.0266213  0.00347448  -0.0309258  0.0200548  -0.00452575  0.0101082  -0.00584062  0.00189671 
1699965395.895285000  0  0  11.5717  0.110951  -0.0970788  0.00390949  nan  nan  nan  nan  nan  nan  -0.999975  -3e-05  1.00002  0.0187766  -0.0287374  -0.00053778  0.0011672  -0.001715  0.0010968  0  0  0  0  0  0  0.0240029  -0.00168976  -0.0161757  -0.0163643  0.027892  -0.00201438  -0.031281  0.0192477  -0.00457825  0.0658825  0.0170784  -0.00308614 
1699965395.900284000  0  0  11.642  0.112487  -0.103223  0.00446431  nan  nan  nan  nan  nan  nan  -0.999969  -3.96e-05  1.00003  0.0180591  -0.0291126  -0.000524031  0.0013155  -0.0021094  0.0012257  0  0  0  0  0  0  0.0239836  -0.00169151  -0.0162114  -0.0156126  0.0271137  -0.00778031  -0.0303193  0.0198269  -0.00468061  0.0539629  0.0240392  -0.00899776 
1699965395.905228000  0  0  11.557  0.117328  -0.109812  0.00425287  nan  nan  nan  nan  nan  nan  -0.999962  -5.12e-05  1.00004  0.0179551  -0.0295782  -0.00052966  0.0014556  -0.0025587  0.0013441  0  0  0  0  0  0  0.0239854  -0.00173601  -0.0161433  -0.0152934  0.0269082  -0.000836191  -0.0300558  0.0205439  -0.0046831  0.0418581  0.0306203  -0.00632994 
1699965395.910264000  0  0  11.6372  0.0910019  -0.127111  0.00418046  nan  nan  nan  nan  nan  nan  -0.999954  -6.52e-05  1.00004  0.0192641  -0.028705  -0.000552069  0.0015837  -0.0030604  0.0014482  0  0  0  0  0  0  0.0239035  -0.00159303  -0.0162015  -0.015976  0.0284435  -0.00740009  -0.0304453  0.0202784  -0.00469481  0.0980928  0.0676613  -0.0053077 
1699965395.915280000  0  0  11.6574  0.095648  -0.129859  0.00409758  nan  nan  nan  nan  nan  nan  -0.999946  -8.19e-05  1.00005  0.018489  -0.0293041  -0.000541787  0.0016961  -0.0036108  0.0015342  0  0  0  0  0  0  0.0239216  -0.00164826  -0.0162104  -0.0151766  0.0276047  -0.00904971  -0.029349  0.0212313  -0.00471043  0.078715  0.0643913  -0.00411541 
1699965395.920283000  0  0  11.5708  0.103198  -0.135402  0.00483017  nan  nan  nan  nan  nan  nan  -0.999938  -0.0001014  1.00006  0.0181131  -0.0302167  -0.000548593  0.001789  -0.0042061  0.0015988  0  0  0  0  0  0  0.0239741  -0.00175653  -0.016164  -0.0144014  0.0271833  -0.00192428  -0.0287626  0.0225273  -0.00481792  0.0582191  0.0635529  -0.0121979 
1699965395.925229000  0  0  11.5942  0.10078  -0.141486  0.00475498  nan  nan  nan  nan  nan  nan  -0.999928  -0.000124  1.00007  0.0195002  -0.0295596  -0.000579507  0.0018593  -0.0048425  0.0016434  0  0  0  0  0  0  0.0238974  -0.00161556  -0.0162017  -0.0149972  0.0287048  -0.00381102  -0.0296816  0.0223622  -0.00485243  0.0715116  0.0772403  -0.0109129 
1699965395.930277000  0  0  11.6031  0.0989401  -0.13849  0.00494  nan  nan  nan  nan  nan  nan  -0.999919  -0.0001499  1.00007  0.0187207  -0.0304575  -0.000575664  0.0019086  -0.0055164  0.0016716  0  0  0  0  0  0  0.0239481  -0.00169113  -0.0161842  -0.0139231  0.0278859  -0.00457396  -0.0285175  0.0235163  -0.00493659  0.064481  0.0606291  -0.0123841 
1699965395.935268000  0  0  11.5409  0.11386  -0.134192  0.00460602  nan  nan  nan  nan  nan  nan  -0.999909  -0.0001792  1.00008  0.0201536  -0.0302919  -0.000619181  0.0019405  -0.0062239  0.0016872  0  0  0  0  0  0  0.0238765  -0.00154723  -0.0161623  -0.0141846  0.0292747  0.000549797  -0.0298637  0.0235148  -0.00492602  0.0470265  0.0520468  -0.00831505 
1699965395.940291000  0  0  11.587  0.107424  -0.145409  0.00439258  nan  nan  nan  nan  nan  nan  -0.9999  -0.0002122  1.00009  0.0201725  -0.0300549  -0.000618975  0.0019589  -0.0069612  0.0016939  0  0  0  0  0  0  0.0239113  -0.00161547  -0.0161551  -0.0144118  0.0295539  -0.00331047  -0.0294514  0.0238294  -0.00494841  0.056105  0.0715876  -0.00542317 
1699965395.945667000  0  0  11.5886  0.111995  -0.140953  0.00459939  nan  nan  nan  nan  nan  nan  -0.99989  -0.0002489  1.0001  0.0197776  -0.0309017  -0.000628944  0.0019674  -0.0077248  0.0016954  0  0  0  0  0  0  0.0239619  -0.00168556  -0.0161308  -0.0134282  0.0292035  -0.00347938  -0.0288936  0.0248515  -0.00500398  0.0418315  0.0532713  -0.00745256 
1699965395.950293000  0  0  11.5014  0.138169  -0.132406  0.00432842  nan  nan  nan  nan  nan  nan  -0.99988  -0.0002895  1.00011  0.0214007  -0.030611  -0.000679092  0.0019699  -0.0085107  0.0016955  0  0  0  0  0  0  0.0238958  -0.0015428  -0.0160825  -0.013949  0.0307697  0.00365628  -0.0307836  0.0245756  -0.00496331  0.0068714  0.0387167  -0.00447215 
1699965395.955286000  0  0  11.5493  0.135467  -0.138815  0.00457001  nan  nan  nan  nan  nan  nan  -0.99987  -0.000334  1.00012  0.0217345  -0.0303768  -0.000691726  0.0019701  -0.0093153  0.0016955  0  0  0  0  0  0  0.0239034  -0.00154208  -0.0160871  -0.0141027  0.0313105  -0.000331966  -0.0309672  0.0247263  -0.00500382  0.013964  0.0501477  -0.00708687 
1699965395.960293000  0  0  11.5344  0.145693  -0.120981  0.00506305  nan  nan  nan  nan  nan  nan  -0.99986  -0.0003826  1.00013  0.0230726  -0.0305311  -0.000744947  0.0019701  -0.0101348  0.0016955  0  0  0  0  0  0  0.0238383  -0.00138347  -0.0160801  -0.0138072  0.032637  0.000884713  -0.0323199  0.0246889  -0.005072  0.00595739  0.0148239  -0.0125681 
1699965395.965236000  0  0  11.4976  0.157645  -0.118655  0.00478642  nan  nan  nan  nan  nan  nan  -0.99985  -0.0004354  1.00013  0.0233591  -0.03083  -0.000771278  0.0019701  -0.0109655  0.0016955  0  0  0  0  0  0  0.0238621  -0.00139781  -0.0160118  -0.0136015  0.0329401  0.00380537  -0.032768  0.0249873  -0.00506108  -0.0138249  0.00742668  -0.00921945 
1699965395.970292000  0  0  11.554  0.150675  -0.10627  0.00475957  nan  nan  nan  nan  nan  nan  -0.999841  -0.0004923  1.00014  0.0236506  -0.030477  -0.000784324  0.0019701  -0.0118035  0.0016955  0  0  0  0  0  0  0.0238942  -0.0014197  -0.0160182  -0.0139327  0.033509  -0.00087549  -0.0329081  0.0244661  -0.00508191  0.00140487  -0.012547  -0.00867551 
1699965395.975285000  0  0  11.5515  0.158967  -0.0889405  0.00471229  nan  nan  nan  nan  nan  nan  -0.999831  -0.0005534  1.00015  0.0248382  -0.0304322  -0.00083392  0.0019701  -0.0126452  0.0016955  0  0  0  0  0  0  0.0238288  -0.00125269  -0.0160167  -0.0138506  0.0346554  -0.000671474  -0.03412  0.023963  -0.00508058  -0.00402941  -0.0425782  -0.00809784 
1699965395.980290000  0  0  11.5296  0.178653  -0.0909473  0.00370074  nan  nan  nan  nan  nan  nan  -0.999821  -0.0006188  1.00016  0.0250892  -0.0307527  -0.000866399  0.0019701  -0.0134869  0.0016955  0  0  0  0  0  0  0.0238618  -0.00127805  -0.0159723  -0.0135853  0.0349723  0.00105097  -0.0347642  0.0241042  -0.00494099  -0.0374758  -0.0398638  0.00315066 
1699965395.985233000  0  0  11.5486  0.177683  -0.0863706  0.00321949  nan  nan  nan  nan  nan  nan  -0.999811  -0.0006883  1.00017  0.0265354  -0.030029  -0.000910899  0.0019701  -0.0143246  0.0016955  0  0  0  0  0  0  0.0237902  -0.00110091  -0.0159842  -0.0142871  0.0364885  -0.000522477  -0.0362008  0.0231798  -0.00482294  -0.0223181  -0.0405127  0.00798576 
1699965395.990811000  0  0  11.558  0.167254  -0.0791612  0.0032896  nan  nan  nan  nan  nan  nan  -0.999801  -0.000762  1.00018  0.0265936  -0.0303917  -0.000944092  0.0019701  -0.0151548  0.0016955  0  0  0  0  0  0  0.0238034  -0.0010863  -0.0159717  -0.0138184  0.0365567  -0.00131235  -0.0360601  0.0231322  -0.0047673  -0.00275404  -0.0544936  0.00655292 
1699965395.995715000  0  0  11.5432  0.182972  -0.0862491  0.00296915  nan  nan  nan  nan  nan  nan  -0.999791  -0.0008398  1.00018  0.0268169  -0.0305391  -0.000979632  0.0019701  -0.0159736  0.0016955  0  0  0  0  0  0  0.0238092  -0.00106015  -0.0159561  -0.0136904  0.0367404  -0.000119056  -0.0366366  0.0232002  -0.00463986  -0.0288873  -0.0409432  0.00928415 
1699965396.000284000  0  0  11.5571  0.169032  -0.0799672  0.00325688  nan  nan  nan  nan  nan  nan  -0.999781  -0.0009217  1.00019  0.0283467  -0.0297138  -0.00103099  0.0019701  -0.0167773  0.0016955  0  0  0  0  0  0  0.0237402  -0.000879576  -0.0159687  -0.0145466  0.0383458  -0.00125333  -0.0378295  0.0221557  -0.00459603  0.00996638  -0.0438981  0.0052493 
1699965396.005713000  0  0  11.5845  0.159845  -0.0818085  0.00378335  nan  nan  nan  nan  nan  nan  -0.999772  -0.0010076  1.0002  0.0285808  -0.0297781  -0.00107109  0.0019701  -0.0175622  0.0016955  0  0  0  0  0  0  0.0237358  -0.000826264  -0.0159908  -0.0143621  0.0386136  -0.00348376  -0.03775  0.0220549  -0.00460616  0.0276094  -0.0392878  -0.00123026 
1699965396.010294000  0  0  11.5528  0.165177  -0.089892  0.00393373  nan  nan  nan  nan  nan  nan  -0.999762  -0.0010973  1.00021  0.0293529  -0.0298597  -0.00113149  0.0019701  -0.0183245  0.0016955  0  0  0  0  0  0  0.0236733  -0.00064617  -0.0159792  -0.0142199  0.039103  -0.000869304  -0.0384527  0.0221442  -0.00459016  0.0234106  -0.0239429  -0.00327003 
1699965396.015287000  0  0  11.5686  0.135023  -0.0951612  0.00490747  nan  nan  nan  nan  nan  nan  -0.999752  -0.0011908  1.00022  0.0297019  -0.0296815  -0.00117552  0.0019701  -0.0190604  0.0016955  0  0  0  0  0  0  0.0236693  -0.000601452  -0.0159967  -0.0143868  0.0395015  -0.00211912  -0.0379778  0.0220002  -0.0047032  0.0793511  -0.0120798  -0.0143114 
1699965396.020308000  0  0  11.6353  0.120318  -0.102468  0.00522448  nan  nan  nan  nan  nan  nan  -0.999742  -0.0012879  1.00023  0.0304826  -0.029342  -0.00123137  0.0019701  -0.0197662  0.0016955  0  0  0  0  0  0  0.0235988  -0.000403783  -0.0160568  -0.0144464  0.0402904  -0.00753579  -0.0379604  0.0218122  -0.00478456  0.1086  0.00426391  -0.0174604 
1699965396.025248000  0  0  11.6179  0.125794  -0.10631  0.00466632  nan  nan  nan  nan  nan  nan  -0.999732  -0.0013884  1.00024  0.0300152  -0.0299223  -0.00128226  0.0019701  -0.0204382  0.0016955  0  0  0  0  0  0  0.0236063  -0.000368696  -0.0160742  -0.0137694  0.0395466  -0.00603623  -0.0371851  0.0224532  -0.00473333  0.0905153  0.00605123  -0.0109957 
1699965396.030298000  0  0  11.629  0.089176  -0.126941  0.00466238  nan  nan  nan  nan  nan  nan  -0.999722  -0.0014922  1.00024  0.0304749  -0.029957  -0.00134878  0.0019701  -0.0210726  0.0016955  0  0  0  0  0  0  0.0236013  -0.000315266  -0.0160897  -0.0136746  0.0400555  -0.00689156  -0.0363566  0.0230018  -0.00473344  0.156128  0.0422663  -0.0109453 
1699965396.035294000  0  0  11.6762  0.0873102  -0.134409  0.00446308  nan  nan  nan  nan  nan  nan  -0.999712  -0.001599  1.00025  0.0308613  -0.0296905  -0.00140855  0.0019701  -0.0216656  0.0016955  0  0  0  0  0  0  0.0235336  -0.000119043  -0.0161542  -0.0137104  0.0402784  -0.010675  -0.0359238  0.0231366  -0.00472685  0.155879  0.0559605  -0.00851991 
1699965396.040303000  0  0  11.5839  0.0961948  -0.122354  0.00366729  nan  nan  nan  nan  nan  nan  -0.999703  -0.0017087  1.00026  0.0299778  -0.0306481  -0.00147209  0.0019701  -0.0222136  0.0016955  0  0  0  0  0  0  0.0235781  -0.000153105  -0.0161189  -0.0128806  0.0388951  -0.00303514  -0.034587  0.0240146  -0.00460523  0.125811  0.0237737  0.000211214 
1699965396.045251000  0  0  11.5768  0.0796217  -0.130012  0.00367754  nan  nan  nan  nan  nan  nan  -0.999693  -0.0018211  1.00027  0.0294783  -0.0310491  -0.00153479  0.0019701  -0.0227126  0.0016955  0  0  0  0  0  0  0.0236168  -0.00017762  -0.0161239  -0.0124744  0.0382786  -0.00240268  -0.0331598  0.0246716  -0.00456458  0.145827  0.0330453  -0.000323443 
1699965396.050299000  0  0  11.6621  0.0768953  -0.136525  0.00373154  nan  nan  nan  nan  nan  nan  -0.999683  -0.0019358  1.00028  0.0298417  -0.0303396  -0.00159632  0.0019701  -0.0231591  0.0016955  0  0  0  0  0  0  0.0235504  1.40583e-05  -0.0162063  -0.0129497  0.0386009  -0.00932503  -0.0327313  0.0243722  -0.00453064  0.147337  0.0488253  -0.00133784 
1699965396.055292000  0  0  11.5729  0.0812973  -0.120322  0.00358304  nan  nan  nan  nan  nan  nan  -0.999673  -0.0020526  1.00029  0.028901  -0.0316765  -0.00168298  0.0019701  -0.0235507  0.0016955  0  0  0  0  0  0  0.0236337  -5.02814e-05  -0.0161974  -0.0117156  0.0372313  -0.00187945  -0.0312809  0.0254542  -0.00441779  0.12519  0.00646482  -0.000610074 
1699965396.060303000  0  0  11.587  0.0862268  -0.13132  0.00388172  nan  nan  nan  nan  nan  nan  -0.999663  -0.0021712  1.0003  0.0300846  -0.0308789  -0.00177851  0.0019701  -0.0238899  0.0016955  0  0  0  0  0  0  0.0235682  0.000143744  -0.0162266  -0.0125418  0.0383681  -0.0029955  -0.0318855  0.0249932  -0.00439498  0.120893  0.0327021  -0.00457166 
1699965396.065248000  0  0  11.6364  0.0886617  -0.133506  0.00403203  nan  nan  nan  nan  nan  nan  -0.999653  -0.0022914  1.0003  0.0305157  -0.0303534  -0.0018634  0.0019701  -0.0241806  0.0016955  0  0  0  0  0  0  0.0235049  0.000333754  -0.0162734  -0.0129072  0.0386658  -0.00700407  -0.0317899  0.0247339  -0.00436635  0.115144  0.0394603  -0.00673684 
1699965396.070298000  0  0  11.5084  0.109037  -0.0969837  0.00474813  nan  nan  nan  nan  nan  nan  -0.999643  -0.0024129  1.00031  0.0312296  -0.0309073  -0.00199568  0.0019701  -0.0244265  0.0016955  0  0  0  0  0  0  0.0234456  0.000524698  -0.0162128  -0.0124931  0.0387152  0.00355634  -0.0323743  0.0245582  -0.0043941  0.0797704  -0.0319681  -0.0154105 
1699965396.075859000  0  0  11.5429  0.112523  -0.116185  0.00477091  nan  nan  nan  nan  nan  nan  -0.999634  -0.0025356  1.00032  0.0306635  -0.0310267  -0.00208083  0.0019701  -0.0246313  0.0016955  0  0  0  0  0  0  0.0235173  0.000452791  -0.0162395  -0.0123788  0.0382638  0.000744331  -0.0314881  0.0249776  -0.00438374  0.0646443  0.00257718  -0.015799 
1699965396.080305000  0  0  11.6057  0.111995  -0.12367  0.00498941  nan  nan  nan  nan  nan  nan  -0.999624  -0.0026592  1.00033  0.0290991  -0.0313149  -0.00214554  0.0019701  -0.0247989  0.0016955  0  0  0  0  0  0  0.0235876  0.000378849  -0.0162798  -0.0119481  0.0366187  -0.0044006  -0.0297913  0.0254495  -0.00440198  0.05009  0.0132051  -0.0183479 
1699965396.085238000  0  0  11.541  0.121261  -0.0912172  0.00494426  nan  nan  nan  nan  nan  nan  -0.999614  -0.0027835  1.00034  0.0298178  -0.0314188  -0.00228196  0.0019701  -0.0249328  0.0016955  0  0  0  0  0  0  0.0235312  0.000561226  -0.0162486  -0.0119083  0.0369211  0.000937609  -0.0304154  0.0248707  -0.00435597  0.0373005  -0.0463763  -0.0182435 
1699965396.090291000  0  0  11.5759  0.134081  -0.109774  0.00369428  nan  nan  nan  nan  nan  nan  -0.999604  -0.0029085  1.00035  0.0291399  -0.0311346  -0.00236927  0.0019701  -0.025037  0.0016955  0  0  0  0  0  0  0.0235824  0.000518991  -0.0162815  -0.0122642  0.0362548  -0.0019104  -0.0299053  0.0248306  -0.00417061  0.0069667  -0.0088936  -0.00447243 
1699965396.095285000  0  0  11.6285  0.124272  -0.107234  0.00347928  nan  nan  nan  nan  nan  nan  -0.999594  -0.0030339  1.00035  0.028322  -0.0315219  -0.00247766  0.0019701  -0.0251151  0.0016955  0  0  0  0  0  0  0.0236131  0.000525755  -0.0163238  -0.0116481  0.0353463  -0.00619559  -0.028925  0.0251471  -0.00404211  0.0175656  -0.0168851  -0.00306989 
1699965396.100288000  0  0  11.5512  0.139076  -0.0901853  0.00306195  nan  nan  nan  nan  nan  nan  -0.999584  -0.0031596  1.00036  0.0291058  -0.031494  -0.00263067  0.0019701  -0.0251709  0.0016955  0  0  0  0  0  0  0.0235558  0.000703074  -0.0162866  -0.0118199  0.0357103  0.000172913  -0.0298629  0.0246388  -0.0038641  -0.00341401  -0.0463065  0.000366679 
1699965396.105234000  0  0  11.5703  0.147064  -0.100308  0.00264949  nan  nan  nan  nan  nan  nan  -0.999575  -0.0032855  1.00037  0.0285057  -0.0315096  -0.0027474  0.0019701  -0.0252082  0.0016955  0  0  0  0  0  0  0.023587  0.00069928  -0.0163161  -0.0117996  0.0350035  -0.00136706  -0.0295234  0.0247045  -0.00367439  -0.0225127  -0.0266658  0.00362533 
1699965396.110294000  0  0  11.6102  0.131907  -0.0907969  0.00380405  nan  nan  nan  nan  nan  nan  -0.999565  -0.0034116  1.00038  0.0290245  -0.0313075  -0.00289929  0.0019701  -0.0252306  0.0016955  0  0  0  0  0  0  0.0235294  0.000875998  -0.0163584  -0.0117856  0.0354007  -0.00459011  -0.0297747  0.0242329  -0.00367552  0.0101141  -0.0413484  -0.0107954 
1699965396.115285000  0  0  11.5467  0.146512  -0.0878438  0.00421273  nan  nan  nan  nan  nan  nan  -0.999555  -0.0035378  1.00039  0.0285057  -0.0319733  -0.00304971  0.0019701  -0.025242  0.0016955  0  0  0  0  0  0  0.023558  0.000880103  -0.0163393  -0.0112122  0.0345129  0.000666535  -0.0296209  0.0245533  -0.00363071  -0.0205117  -0.0502025  -0.0163521 
1699965396.120289000  0  0  11.5755  0.151037  -0.101299  0.00452332  nan  nan  nan  nan  nan  nan  -0.999545  -0.003664  1.0004  0.0280085  -0.0317427  -0.00318125  0.0019701  -0.0252461  0.0016955  0  0  0  0  0  0  0.0235813  0.00088382  -0.0163723  -0.0114551  0.0339511  -0.00167641  -0.0293991  0.0244617  -0.003604  -0.0316019  -0.0224491  -0.0205016 
1699965396.125285000  0  0  11.5881  0.128639  -0.0874815  0.00555954  nan  nan  nan  nan  nan  nan  -0.999535  -0.0037903  1.00041  0.0284406  -0.0315912  -0.00335086  0.0019701  -0.0252466  0.0016955  0  0  0  0  0  0  0.0235258  0.00105311  -0.0163927  -0.0114753  0.0341637  -0.00266406  -0.0294515  0.0239433  -0.00368493  0.0136762  -0.0453159  -0.0326449 
1699965396.130291000  0  0  11.5581  0.141874  -0.0884044  0.00496665  nan  nan  nan  nan  nan  nan  -0.999525  -0.0039165  1.00041  0.0279332  -0.031752  -0.00350572  0.0019701  -0.0252462  0.0016955  0  0  0  0  0  0  0.0235348  0.00107138  -0.0163706  -0.0113904  0.0333698  -0.000219925  -0.0292701  0.0239099  -0.0035786  -0.0144624  -0.0431622  -0.0262971 
1699965396.135285000  0  0  11.5738  0.145219  -0.0987118  0.00390038  nan  nan  nan  nan  nan  nan  -0.999515  -0.0040427  1.00042  0.0285331  -0.0311792  -0.00368114  0.0019701  -0.0252424  0.0016955  0  0  0  0  0  0  0.023475  0.00124037  -0.0163869  -0.0119299  0.0338102  -0.00149851  -0.0299643  0.0234641  -0.00339085  -0.0147657  -0.0184458  -0.0148463 
1699965396.140288000  0  0  11.6067  0.117712  -0.0999196  0.00306931  nan  nan  nan  nan  nan  nan  -0.999506  -0.0041689  1.00043  0.0277405  -0.0311869  -0.00383552  0.0019701  -0.0252316  0.0016955  0  0  0  0  0  0  0.0234812  0.00125433  -0.0164392  -0.0118182  0.0328531  -0.00411839  -0.0286663  0.0234624  -0.00319287  0.0283056  -0.016015  -0.0064377 
1699965396.145271000  0  0  11.6094  0.120819  -0.105958  0.00228249  nan  nan  nan  nan  nan  nan  -0.999496  -0.004295  1.00044  0.0268231  -0.0314336  -0.00399871  0.0019701  -0.02521  0.0016955  0  0  0  0  0  0  0.0234944  0.00124765  -0.0164896  -0.0115188  0.031684  -0.00423477  -0.0277323  0.0237719  -0.0029618  0.0134987  -0.00678473  0.00108692 
1699965396.150292000  0  0  11.6024  0.123204  -0.118902  0.00237238  nan  nan  nan  nan  nan  nan  -0.999486  -0.004421  1.00045  0.0271277  -0.031058  -0.0041895  0.0019701  -0.0251737  0.0016955  0  0  0  0  0  0  0.0234353  0.00140552  -0.0165031  -0.0118878  0.0316996  -0.00363347  -0.0280113  0.0237082  -0.00280385  0.0112965  0.0196895  -0.00161628 
1699965396.155286000  0  0  11.6511  0.0917732  -0.119952  0.0029392  nan  nan  nan  nan  nan  nan  -0.999476  -0.0045467  1.00046  0.0262342  -0.0311975  -0.0043631  0.0019701  -0.0251192  0.0016955  0  0  0  0  0  0  0.0234576  0.00138902  -0.0165451  -0.0115874  0.0307166  -0.00759134  -0.0264818  0.0239692  -0.00272781  0.0600859  0.019387  -0.00946186 
1699965396.160291000  0  0  11.6411  0.0973416  -0.117381  0.00254151  nan  nan  nan  nan  nan  nan  -0.999466  -0.0046722  1.00046  0.0261698  -0.0311576  -0.00456394  0.0019701  -0.0250426  0.0016955  0  0  0  0  0  0  0.0234019  0.00153797  -0.0165577  -0.0115439  0.030265  -0.00672717  -0.0262561  0.0239594  -0.00253908  0.0468732  0.0143348  -0.006378 
1699965396.165288000  0  0  11.6258  0.0970069  -0.122692  0.00320255  nan  nan  nan  nan  nan  nan  -0.999456  -0.0047971  1.00047  0.0254814  -0.031267  -0.00475537  0.0019701  -0.0249402  0.0016955  0  0  0  0  0  0  0.0233936  0.00153973  -0.0165772  -0.0114348  0.0293185  -0.00541328  -0.0254245  0.0242913  -0.00247892  0.0398917  0.0219041  -0.0152427 
1699965396.170292000  0  0  11.6585  0.0707923  -0.129061  0.00489925  nan  nan  nan  nan  nan  nan  -0.999446  -0.0049215  1.00048  0.0247494  -0.0313961  -0.00495206  0.0019701  -0.0248082  0.0016955  0  0  0  0  0  0  0.0234085  0.00151324  -0.0166316  -0.0111855  0.0285112  -0.00801268  -0.0240019  0.0247072  -0.00261377  0.0792327  0.0308162  -0.0351029 
1699965396.175285000  0  0  11.6407  0.0874473  -0.122734  0.00511741  nan  nan  nan  nan  nan  nan  -0.999437  -0.0050451  1.00049  0.0246549  -0.0314741  -0.00517372  0.0019701  -0.0246429  0.0016955  0  0  0  0  0  0  0.0233565  0.00165116  -0.0166562  -0.0110245  0.0280244  -0.00648135  -0.0239046  0.0247743  -0.00260485  0.0450276  0.0175454  -0.0379192 
1699965396.180290000  0  0  11.576  0.0870174  -0.127947  0.00463851  nan  nan  nan  nan  nan  nan  -0.999427  -0.0051679  1.0005  0.024181  -0.0314376  -0.00538682  0.0019701  -0.0244405  0.0016955  0  0  0  0  0  0  0.0233495  0.00163228  -0.0166295  -0.0112799  0.0272716  -0.00114307  -0.0233158  0.0250105  -0.00252442  0.0404709  0.0257973  -0.0327372 
1699965396.185237000  0  0  11.594  0.0808258  -0.129794  0.00425431  nan  nan  nan  nan  nan  nan  -0.999417  -0.0052895  1.00051  0.0243265  -0.031043  -0.00561699  0.0019701  -0.0241973  0.0016955  0  0  0  0  0  0  0.0232925  0.00176814  -0.0166611  -0.0115906  0.0271985  -0.00258119  -0.0231116  0.0248241  -0.00241562  0.0509747  0.0312061  -0.0290227 
1699965396.190292000  0  0  11.5981  0.103468  -0.114442  0.00313765  nan  nan  nan  nan  nan  nan  -0.999407  -0.0054098  1.00052  0.0234402  -0.0312094  -0.00583477  0.0019701  -0.0239095  0.0016955  0  0  0  0  0  0  0.0232877  0.0017922  -0.0166765  -0.0113509  0.0260032  -0.00289061  -0.0226399  0.0247965  -0.00217274  0.00135054  0.000755616  -0.0174933 
1699965396.195286000  0  0  11.5259  0.103263  -0.11743  0.00252786  nan  nan  nan  nan  nan  nan  -0.999397  -0.0055285  1.00052  0.0233031  -0.0314515  -0.00608383  0.0019701  -0.0235734  0.0016955  0  0  0  0  0  0  0.0232918  0.00180957  -0.0166265  -0.011295  0.0255906  0.00301913  -0.0225472  0.0250986  -0.00194119  0.00090899  0.00395206  -0.0121863 
1699965396.200292000  0  0  11.5956  0.101895  -0.12029  0.00199382  nan  nan  nan  nan  nan  nan  -0.999387  -0.0056454  1.00053  0.0233053  -0.030589  -0.0063177  0.0019701  -0.0231852  0.0016955  0  0  0  0  0  0  0.0232305  0.00193724  -0.0166792  -0.0120187  0.0254857  -0.00268943  -0.0224919  0.0244309  -0.00170834  0.00313462  0.0158153  -0.00783932 
1699965396.205287000  0  0  11.5539  0.110241  -0.102954  0.00153234  nan  nan  nan  nan  nan  nan  -0.999378  -0.0057603  1.00054  0.0225142  -0.0309361  -0.00656151  0.0019701  -0.0227412  0.0016955  0  0  0  0  0  0  0.0232285  0.00195004  -0.0166501  -0.01171  0.0243217  0.000722387  -0.0219647  0.0244847  -0.0014508  -0.0184056  -0.019351  -0.0046463 
1699965396.210295000  0  0  11.4874  0.122024  -0.0958942  0.000490887  nan  nan  nan  nan  nan  nan  -0.999368  -0.0058727  1.00055  0.0232798  -0.0307052  -0.00684623  0.0019701  -0.0222377  0.0016955  0  0  0  0  0  0  0.0231685  0.00207803  -0.0166053  -0.0120868  0.0248407  0.00617411  -0.0229956  0.0240117  -0.00107372  -0.0324882  -0.0291194  0.00460112 
1699965396.215286000  0  0  11.5499  0.11807  -0.102787  0.000639899  nan  nan  nan  nan  nan  nan  -0.999358  -0.0059825  1.00056  0.0222519  -0.0303289  -0.00707888  0.0019701  -0.0216708  0.0016955  0  0  0  0  0  0  0.0231659  0.00207018  -0.0166272  -0.0123518  0.0236925  0.00100024  -0.0221441  0.0237557  -0.000852329  -0.0324138  -0.0129782  0.000524548 
1699965396.220290000  0  0  11.5503  0.11569  -0.0810137  0.00113367  nan  nan  nan  nan  nan  nan  -0.999348  -0.0060893  1.00057  0.0211785  -0.0305742  -0.00733051  0.0019701  -0.0210368  0.0016955  0  0  0  0  0  0  0.0231559  0.00208011  -0.016638  -0.0120168  0.0222805  0.00100358  -0.0212565  0.023499  -0.000675697  -0.0358213  -0.0541636  -0.00741394 
1699965396.225285000  0  0  11.5244  0.129401  -0.0848713  0.00133412  nan  nan  nan  nan  nan  nan  -0.999338  -0.0061928  1.00057  0.0214743  -0.0300696  -0.00761383  0.0019701  -0.0203326  0.0016955  0  0  0  0  0  0  0.0230927  0.00219496  -0.0166041  -0.0126005  0.0223375  0.00308072  -0.0219666  0.0228486  -0.000472988  -0.0567089  -0.0404644  -0.0119467 
1699965396.230291000  0  0  11.6013  0.130039  -0.100952  0.00188802  nan  nan  nan  nan  nan  nan  -0.999328  -0.0062925  1.00058  0.0203876  -0.0295647  -0.00786225  0.0019701  -0.0195595  0.0016955  0  0  0  0  0  0  0.0230833  0.00218198  -0.0166449  -0.012976  0.0211418  -0.00325872  -0.0212786  0.022617  -0.000355943  -0.0643146  -0.00617277  -0.0200408 
1699965396.235238000  0  0  11.5993  0.126603  -0.0760911  0.00269033  nan  nan  nan  nan  nan  nan  -0.999318  -0.0063883  1.00059  0.0200592  -0.0294665  -0.00814827  0.0019701  -0.0187213  0.0016955  0  0  0  0  0  0  0.0230223  0.00228441  -0.01665  -0.01297  0.020476  -0.0030769  -0.0211878  0.0219493  -0.000291396  -0.0582793  -0.0497516  -0.0307152 
1699965396.240289000  0  0  11.5489  0.134209  -0.0813329  0.00236703  nan  nan  nan  nan  nan  nan  -0.999309  -0.0064796  1.0006  0.0190882  -0.0294549  -0.00842333  0.0019701  -0.0178216  0.0016955  0  0  0  0  0  0  0.0230171  0.00223735  -0.0166398  -0.0131424  0.0192126  0.0010957  -0.0207492  0.0218557  -0.000137364  -0.0775261  -0.038407  -0.0282142 
1699965396.245286000  0  0  11.6355  0.115914  -0.0907108  0.00267624  nan  nan  nan  nan  nan  nan  -0.999299  -0.0065664  1.00061  0.017764  -0.0293275  -0.00869226  0.0019701  -0.0168643  0.0016955  0  0  0  0  0  0  0.0230161  0.00218622  -0.0167207  -0.0130281  0.0177859  -0.00595747  -0.0195234  0.0218604  -6.00876e-05  -0.0522135  -0.0196941  -0.0328521 
1699965396.250241000  0  0  11.5996  0.109133  -0.0711339  0.00222239  nan  nan  nan  nan  nan  nan  -0.999289  -0.0066482  1.00062  0.0173811  -0.0293417  -0.00899767  0.0019701  -0.0158531  0.0016955  0  0  0  0  0  0  0.0229543  0.00227191  -0.0167146  -0.012988  0.0170198  -0.00297031  -0.0192393  0.0213482  0.000128669  -0.0412638  -0.0541359  -0.0290665 
1699965396.255283000  0  0  11.6052  0.12488  -0.0928909  0.00108406  nan  nan  nan  nan  nan  nan  -0.999279  -0.0067248  1.00063  0.0162122  -0.0290203  -0.00928086  0.0019701  -0.0147918  0.0016955  0  0  0  0  0  0  0.0229494  0.0022158  -0.0167349  -0.0133807  0.0156403  -0.00340849  -0.0187283  0.0213034  0.000410937  -0.0774601  -0.010209  -0.0176601 
1699965396.260292000  0  0  11.6692  0.108045  -0.0956322  0.000465623  nan  nan  nan  nan  nan  nan  -0.999269  -0.006796  1.00063  0.0155633  -0.0285435  -0.00958351  0.0019701  -0.0136841  0.0016955  0  0  0  0  0  0  0.0228828  0.0022902  -0.0167887  -0.0136454  0.0147411  -0.0086375  -0.01812  0.0209369  0.0007058  -0.0493872  -0.00135515  -0.0128783 
1699965396.265237000  0  0  11.6711  0.0971299  -0.0819861  0.000369781  nan  nan  nan  nan  nan  nan  -0.999259  -0.0068616  1.00064  0.0143174  -0.0291081  -0.00989122  0.0019701  -0.0125337  0.0016955  0  0  0  0  0  0  0.0228878  0.00223913  -0.0168348  -0.0129282  0.0132226  -0.00868427  -0.0169592  0.0211334  0.000950081  -0.0382354  -0.0304548  -0.0141231 
1699965396.270292000  0  0  11.6539  0.118637  -0.105044  -0.000216593  nan  nan  nan  nan  nan  nan  -0.999249  -0.0069213  1.00065  0.0139932  -0.0285939  -0.010216  0.0019701  -0.0113444  0.0016955  0  0  0  0  0  0  0.0228188  0.00230504  -0.0168549  -0.0134946  0.012624  -0.0072299  -0.0173315  0.021041  0.0012686  -0.0778234  0.0165115  -0.00997861 
1699965396.275286000  0  0  11.6836  0.0948542  -0.107743  0.000494256  nan  nan  nan  nan  nan  nan  -0.99924  -0.006975  1.00066  0.012371  -0.0285821  -0.0105171  0.0019701  -0.01012  0.0016955  0  0  0  0  0  0  0.0228208  0.00222049  -0.0169148  -0.0134361  0.0107394  -0.00958238  -0.0157061  0.0212287  0.00141035  -0.0452121  0.0201825  -0.0202817 
1699965396.280294000  0  0  11.6558  0.0900631  -0.101741  0.00088209  nan  nan  nan  nan  nan  nan  -0.99923  -0.0070225  1.00067  0.0107832  -0.0295938  -0.0108366  0.0019701  -0.0088642  0.0016955  0  0  0  0  0  0  0.022863  0.00209309  -0.0169536  -0.0123254  0.00890226  -0.00717306  -0.0143569  0.022075  0.00155139  -0.0480425  0.00039267  -0.0265401 
1699965396.285238000  0  0  11.6278  0.1072  -0.1178  0.000112285  nan  nan  nan  nan  nan  nan  -0.99922  -0.0070636  1.00068  0.0103554  -0.0292499  -0.0111805  0.0019701  -0.0075807  0.0016955  0  0  0  0  0  0  0.0227988  0.00213698  -0.0169697  -0.0127206  0.0082112  -0.0048238  -0.0145962  0.0221572  0.00186202  -0.0801146  0.0317547  -0.0200238 
1699965396.290293000  0  0  11.6536  0.0823893  -0.108808  0.000837257  nan  nan  nan  nan  nan  nan  -0.99921  -0.0070982  1.00069  0.00851714  -0.0296375  -0.0113844  0.0019701  -0.0062733  0.0016955  0  0  0  0  0  0  0.0228297  0.00200118  -0.0170212  -0.012228  0.0061472  -0.00685447  -0.0128  0.0225105  0.00186706  -0.047019  0.0105195  -0.0291364 
1699965396.295235000  0  0  11.6446  0.0770594  -0.111058  0.00144846  nan  nan  nan  nan  nan  nan  -0.9992  -0.0071263  1.00069  0.00712417  -0.0301848  -0.011347  0.0019701  -0.0049458  0.0016954  0  0  0  0  0  0  0.0228398  0.00190463  -0.0170361  -0.0115924  0.00454425  -0.00606846  -0.0116231  0.0231118  0.00162735  -0.0471866  0.00948643  -0.0343793 
1699965396.300240000  0  0  11.6276  0.107731  -0.133759  0.00106797  nan  nan  nan  nan  nan  nan  -0.99919  -0.0071477  1.0007  0.00666678  -0.0298334  -0.0113309  0.0019701  -0.0036019  0.0016932  0  0  0  0  0  0  0.0227784  0.00192724  -0.0170559  -0.0119732  0.00389602  -0.00463977  -0.0121681  0.0233753  0.00153534  -0.103515  0.0524664  -0.0287031 
1699965396.305236000  0  0  11.637  0.0898899  -0.12738  0.00165526  nan  nan  nan  nan  nan  nan  -0.999181  -0.0071623  1.00071  0.00518396  -0.0301627  -0.0112883  0.0019701  -0.0022454  0.0016853  0  0  0  0  0  0  0.0228243  0.0017741  -0.0170867  -0.01164  0.00232194  -0.00535298  -0.01092  0.023783  0.00128803  -0.0793155  0.0359564  -0.033571 
1699965396.310295000  0  0  11.6386  0.101522  -0.128797  0.00167578  nan  nan  nan  nan  nan  nan  -0.999171  -0.0071701  1.00072  0.00437226  -0.030204  -0.011264  0.0019701  -0.0008799  0.001668  0  0  0  0  0  0  0.0227683  0.0017812  -0.0171181  -0.0114686  0.00125741  -0.00542274  -0.0107579  0.0239924  0.00109811  -0.10407  0.0368637  -0.0319283 
1699965396.315285000  0  0  11.6002  0.111592  -0.138684  0.00180462  nan  nan  nan  nan  nan  nan  -0.999161  -0.0071711  1.00073  0.00317289  -0.0305614  -0.011229  0.0019701  0.0004907  0.0016374  0  0  0  0  0  0  0.0227889  0.00164701  -0.0171229  -0.0111995  -1.16371e-05  -0.00222516  -0.0104153  0.0247514  0.000930722  -0.127364  0.0496555  -0.031865 
1699965396.320291000  0  0  11.6043  0.0915914  -0.132261  0.00263309  nan  nan  nan  nan  nan  nan  -0.999151  -0.0071652  1.00074  0.00157688  -0.0308744  -0.0111807  0.0019701  0.0018626  0.0015898  0  0  0  0  0  0  0.0228528  0.00144543  -0.0171381  -0.0109475  -0.00162346  -0.0025224  -0.00907506  0.0251643  0.000643346  -0.0996922  0.0330099  -0.0393471 
1699965396.325285000  0  0  11.6113  0.10521  -0.122833  0.00236682  nan  nan  nan  nan  nan  nan  -0.999141  -0.0071525  1.00074  0.000842444  -0.0306888  -0.0111578  0.0019701  0.0032323  0.0015215  0  0  0  0  0  0  0.0227988  0.00143308  -0.0171529  -0.0110537  -0.00253929  -0.00307698  -0.00914777  0.0249304  0.000495146  -0.126261  0.0163062  -0.0345367 
1699965396.330668000  0  0  11.5769  0.113392  -0.125317  0.00187684  nan  nan  nan  nan  nan  nan  -0.999131  -0.0071329  1.00075  -0.000635899  -0.0308082  -0.0111124  0.0019701  0.0045958  0.0014287  0  0  0  0  0  0  0.0228411  0.00123808  -0.0171478  -0.0111323  -0.00400996  -0.000221863  -0.00865664  0.0252323  0.000393428  -0.147142  0.0184955  -0.0273947 
1699965396.335273000  0  0  11.5728  0.100512  -0.112058  0.00208075  nan  nan  nan  nan  nan  nan  -0.999121  -0.0071065  1.00076  -0.000806755  -0.0306879  -0.0111072  0.0019701  0.0059495  0.0013081  0  0  0  0  0  0  0.0227906  0.00121995  -0.0171556  -0.0111917  -0.00418706  0.00013895  -0.00881487  0.0249055  0.00026014  -0.119927  -0.00501475  -0.0286108 
1699965396.340429000  0  0  11.5676  0.122138  -0.112308  0.00112591  nan  nan  nan  nan  nan  nan  -0.999112  -0.0070734  1.00076  -0.00218179  -0.0309957  -0.0110644  0.0019701  0.0072895  0.0011611  0  0  0  0  0  0  0.022819  0.00105463  -0.017154  -0.0108963  -0.00558953  0.000576452  -0.0085751  0.0251956  0.000231336  -0.165386  -0.00718328  -0.0163873 
1699965396.345286000  0  0  11.5392  0.122575  -0.109935  0.00128762  nan  nan  nan  nan  nan  nan  -0.999102  -0.0070336  1.00077  -0.00351626  -0.031092  -0.0110227  0.0019701  0.0086123  0.0009912  0  0  0  0  0  0  0.0228526  0.000859239  -0.0171221  -0.0109644  -0.00685852  0.00288437  -0.00811588  0.0252486  0.000117358  -0.170484  -0.0124176  -0.0172688 
1699965396.350292000  0  0  11.5547  0.111987  -0.0976779  0.00259565  nan  nan  nan  nan  nan  nan  -0.999092  -0.0069873  1.00077  -0.00358904  -0.0305981  -0.0110222  0.0019701  0.0099139  0.0008024  0  0  0  0  0  0  0.0227962  0.0008269  -0.0171215  -0.0114212  -0.00687967  0.00159368  -0.00857698  0.0244817  -0.00012786  -0.145067  -0.029876  -0.0311671 
1699965396.355235000  0  0  11.5673  0.116064  -0.0972155  0.00245675  nan  nan  nan  nan  nan  nan  -0.999082  -0.0069346  1.00078  -0.0050771  -0.0310077  -0.0109746  0.0019701  0.0111906  0.0005983  0  0  0  0  0  0  0.0228591  0.000609933  -0.0171371  -0.0110126  -0.00831997  0.000593206  -0.00799278  0.0247034  -0.000288569  -0.158594  -0.0328401  -0.0278237 
1699965396.360296000  0  0  11.5282  0.136673  -0.0905235  0.00167235  nan  nan  nan  nan  nan  nan  -0.999072  -0.0068755  1.00078  -0.00498992  -0.0302983  -0.0109808  0.0019701  0.0124388  0.0003827  0  0  0  0  0  0  0.0227981  0.00057144  -0.017104  -0.0119193  -0.00808942  0.00376767  -0.00931202  0.0237651  -0.000291894  -0.187676  -0.0375916  -0.0179855 
1699965396.365235000  0  0  11.5239  0.122725  -0.0847861  0.00216275  nan  nan  nan  nan  nan  nan  -0.999062  -0.0068102  1.00078  -0.00676294  -0.0309148  -0.010923  0.0019701  0.0136546  0.0001593  0  0  0  0  0  0  0.0228946  0.000253264  -0.0171213  -0.0113839  -0.00965693  0.00419771  -0.00822367  0.0240726  -0.000492458  -0.169793  -0.0518954  -0.0221097 
1699965396.370291000  0  0  11.5696  0.134489  -0.0803087  0.00247908  nan  nan  nan  nan  nan  nan  -0.999052  -0.006739  1.00078  -0.00730015  -0.0306544  -0.0109082  0.0019701  0.0148343  -6.81e-05  0  0  0  0  0  0  0.0228397  0.000199229  -0.0171436  -0.011448  -0.0102593  0.000440107  -0.00875893  0.0235042  -0.000637748  -0.188395  -0.0556214  -0.024611 
1699965396.375294000  0  0  11.5247  0.132973  -0.082865  0.00224816  nan  nan  nan  nan  nan  nan  -0.999043  -0.0066619  1.00078  -0.00799936  -0.0306665  -0.0108867  0.0019701  0.0159741  -0.0002958  0  0  0  0  0  0  0.0228721  8.01287e-06  -0.0170997  -0.0116667  -0.0106912  0.00409339  -0.00897794  0.0233056  -0.000722037  -0.18335  -0.048682  -0.0208817 
1699965396.380305000  0  0  11.5584  0.13044  -0.0819778  0.00216797  nan  nan  nan  nan  nan  nan  -0.999033  -0.0065793  1.00078  -0.00902588  -0.0308162  -0.0108539  0.0019701  0.0170704  -0.00052  0  0  0  0  0  0  0.0229125  -0.000204059  -0.0171032  -0.0114644  -0.0115705  0.00131329  -0.00883669  0.0231916  -0.000811559  -0.179583  -0.049407  -0.0189841 
1699965396.385286000  0  0  11.5817  0.133448  -0.0837046  0.00215426  nan  nan  nan  nan  nan  nan  -0.999023  -0.0064913  1.00077  -0.00913868  -0.0307047  -0.0108514  0.0019701  0.0181193  -0.000737  0  0  0  0  0  0  0.0228587  -0.000263314  -0.0171055  -0.0114103  -0.0116066  -0.000625538  -0.00959759  0.0229144  -0.000885633  -0.178598  -0.0434031  -0.018072 
1699965396.390302000  0  0  11.5379  0.134973  -0.0912309  0.00203954  nan  nan  nan  nan  nan  nan  -0.999013  -0.0063982  1.00077  -0.00978304  -0.0310255  -0.0108285  0.0019701  0.019117  -0.000943  0  0  0  0  0  0  0.0228885  -0.000460392  -0.0170635  -0.0112229  -0.0119524  0.00294143  -0.00986397  0.0231599  -0.000950875  -0.179198  -0.0306098  -0.0159855 
1699965396.395385000  0  0  11.5947  0.130287  -0.0942368  0.00221283  nan  nan  nan  nan  nan  nan  -0.999003  -0.0063002  1.00077  -0.0105571  -0.0308247  -0.0108066  0.0019701  0.02006  -0.0011342  0  0  0  0  0  0  0.0229139  -0.000665142  -0.0171053  -0.0113538  -0.012555  -0.00169736  -0.0099106  0.0229108  -0.00104423  -0.169397  -0.0223059  -0.0172182 
1699965396.400308000  0  0  11.5876  0.133761  -0.0906001  0.00229507  nan  nan  nan  nan  nan  nan  -0.998993  -0.0061977  1.00076  -0.0107215  -0.0310251  -0.0107994  0.0019701  0.0209443  -0.001307  0  0  0  0  0  0  0.0228632  -0.000731201  -0.0170975  -0.0110094  -0.0126139  -0.0011208  -0.010583  0.0229136  -0.00112351  -0.170158  -0.0296051  -0.0174533 
1699965396.405301000  0  0  11.5578  0.13436  -0.102164  0.00240752  nan  nan  nan  nan  nan  nan  -0.998984  -0.0060909  1.00075  -0.0110555  -0.0313134  -0.0107859  0.0019701  0.0217663  -0.0014575  0  0  0  0  0  0  0.0228976  -0.000940269  -0.0170812  -0.0108221  -0.0125454  0.00132794  -0.0110632  0.0233099  -0.00120637  -0.166937  -0.0101226  -0.0180304 
1699965396.410302000  0  0  11.6061  0.130779  -0.107992  0.00214698  nan  nan  nan  nan  nan  nan  -0.998974  -0.0059802  1.00074  -0.0108418  -0.0306558  -0.0107997  0.0019703  0.0225221  -0.0015821  0  0  0  0  0  0  0.0228395  -0.0010037  -0.0171098  -0.0113703  -0.0121814  -0.00266159  -0.0119253  0.0228419  -0.00123422  -0.151845  0.00583876  -0.014495 
1699965396.415293000  0  0  11.5886  0.125942  -0.0990112  0.00327242  nan  nan  nan  nan  nan  nan  -0.998964  -0.0058658  1.00074  -0.0116615  -0.0315681  -0.0107639  0.0019731  0.0232082  -0.0016769  0  0  0  0  0  0  0.0228736  -0.00122256  -0.0171212  -0.0103419  -0.0127404  -0.00115681  -0.0117533  0.0234913  -0.00145894  -0.143755  -0.018097  -0.0263158 
1699965396.420305000  0  0  11.5571  0.131935  -0.12651  0.0036012  nan  nan  nan  nan  nan  nan  -0.998954  -0.0057482  1.00073  -0.0119204  -0.0317988  -0.010753  0.0019823  0.0238206  -0.0017383  0  0  0  0  0  0  0.022903  -0.00144255  -0.0171029  -0.0102238  -0.0125451  0.00142066  -0.0123253  0.0242548  -0.00162447  -0.150478  0.0298758  -0.0287703 
1699965396.425249000  0  0  11.5989  0.124113  -0.126311  0.00406703  nan  nan  nan  nan  nan  nan  -0.998944  -0.0056277  1.00072  -0.0115026  -0.0314742  -0.01077  0.0020015  0.0243556  -0.0017624  0  0  0  0  0  0  0.022852  -0.0015061  -0.0171293  -0.0103754  -0.0119186  -0.00203191  -0.0132208  0.0241155  -0.00179106  -0.126594  0.0307606  -0.0329273 
1699965396.430300000  0  0  11.5877  0.114848  -0.120913  0.00451604  nan  nan  nan  nan  nan  nan  -0.998934  -0.0055048  1.00071  -0.0120319  -0.03218  -0.0107449  0.0020346  0.0248096  -0.0017455  0  0  0  0  0  0  0.0228853  -0.00172394  -0.0171107  -0.00958651  -0.0121104  -0.00112494  -0.0130822  0.0247872  -0.00200849  -0.10934  0.0137842  -0.0363655 
1699965396.435242000  0  0  11.5755  0.134978  -0.14641  0.00403297  nan  nan  nan  nan  nan  nan  -0.998924  -0.0053798  1.0007  -0.0112285  -0.0315992  -0.0107772  0.0020853  0.0251787  -0.0016839  0  0  0  0  0  0  0.022833  -0.00178071  -0.0171041  -0.0102486  -0.0109275  -0.000169623  -0.0147456  0.02489  -0.00208881  -0.134298  0.063833  -0.029524 
1699965396.440303000  0  0  11.6169  0.114504  -0.137431  0.00448504  nan  nan  nan  nan  nan  nan  -0.998913  -0.0052531  1.00069  -0.0118369  -0.0315381  -0.0107587  0.0021573  0.0254592  -0.0015738  0  0  0  0  0  0  0.022873  -0.00202361  -0.0171195  -0.0102802  -0.0112249  -0.00358056  -0.0143357  0.0249928  -0.00228499  -0.0971194  0.0449283  -0.0332131 
1699965396.445298000  0  0  11.5892  0.112984  -0.125255  0.00393443  nan  nan  nan  nan  nan  nan  -0.998902  -0.0051253  1.00069  -0.0122842  -0.0324357  -0.0107336  0.0022544  0.0256473  -0.0014115  0  0  0  0  0  0  0.0229203  -0.00225747  -0.0171275  -0.00933142  -0.0112556  -0.00124558  -0.0142724  0.0257427  -0.00236013  -0.0946608  0.0136762  -0.0255791 
1699965396.450289000  0  0  11.5929  0.13855  -0.142855  0.00274247  nan  nan  nan  nan  nan  nan  -0.99889  -0.0049968  1.00068  -0.011346  -0.0317135  -0.0107722  0.0023803  0.0257393  -0.0011932  0  0  0  0  0  0  0.0228676  -0.00230992  -0.0171337  -0.0101175  -0.00992722  -0.00159034  -0.0161302  0.025543  -0.00228463  -0.128702  0.0507144  -0.0114346 
1699965396.455243000  0  0  11.6162  0.125813  -0.139803  0.00348008  nan  nan  nan  nan  nan  nan  -0.998878  -0.0048681  1.00067  -0.011607  -0.0320121  -0.0107605  0.0025388  0.0257315  -0.0009152  0  0  0  0  0  0  0.0229225  -0.00255347  -0.0171587  -0.00977525  -0.0097572  -0.00348403  -0.0161745  0.0260048  -0.00244182  -0.10282  0.0403615  -0.0190827 
1699965396.460248000  0  0  11.6034  0.136899  -0.117603  0.00387881  nan  nan  nan  nan  nan  nan  -0.998865  -0.0047397  1.00067  -0.0104568  -0.0319153  -0.0107983  0.0027337  0.0256201  -0.0005737  0  0  0  0  0  0  0.022876  -0.00259742  -0.0171676  -0.00982568  -0.00815943  -0.00242778  -0.0178568  0.0255262  -0.0025634  -0.109516  0.000364126  -0.0228511 
1699965396.465250000  0  0  11.6173  0.158905  -0.139279  0.00323415  nan  nan  nan  nan  nan  nan  -0.998851  -0.0046121  1.00067  -0.0103703  -0.0317533  -0.0108028  0.0029687  0.0254013  -0.0001649  0  0  0  0  0  0  0.0229215  -0.00282201  -0.0172072  -0.0100841  -0.00756373  -0.00353933  -0.0189518  0.0259386  -0.00255228  -0.143453  0.0399231  -0.0149041 
1699965396.470300000  0  0  11.6659  0.137398  -0.108891  0.00425606  nan  nan  nan  nan  nan  nan  -0.998835  -0.0044858  1.00067  -0.0100616  -0.0314499  -0.0108156  0.0032475  0.0250714  0.0003148  0  0  0  0  0  0  0.0229665  -0.00303697  -0.0172566  -0.0104024  -0.00673977  -0.00749104  -0.0193561  0.0251692  -0.00275825  -0.096719  -0.0137752  -0.0256183 
1699965396.475280000  0  0  11.644  0.162561  -0.0996936  0.00429858  nan  nan  nan  nan  nan  nan  -0.998818  -0.0043615  1.00067  -0.00864905  -0.0311422  -0.0108627  0.0035738  0.0246267  0.0008692  0  0  0  0  0  0  0.0229166  -0.00306645  -0.0172627  -0.0107451  -0.00481863  -0.00570207  -0.021582  0.024593  -0.00285071  -0.126568  -0.0268686  -0.0252251 
1699965396.480254000  0  0  11.6363  0.178446  -0.113004  0.00428387  nan  nan  nan  nan  nan  nan  -0.998799  -0.0042398  1.00068  -0.0083011  -0.0309993  -0.0108747  0.0039516  0.0240634  0.0015022  0  0  0  0  0  0  0.0229563  -0.00329518  -0.0172647  -0.0110385  -0.00385139  -0.00509368  -0.0227974  0.0247111  -0.00294299  -0.147156  -0.00133486  -0.0241185 
1699965396.485300000  0  0  11.6796  0.166154  -0.0917034  0.00533383  nan  nan  nan  nan  nan  nan  -0.998779  -0.0041211  1.00069  -0.00643622  -0.0299744  -0.0109391  0.0043844  0.0233777  0.0022173  0  0  0  0  0  0  0.0228977  -0.00330695  -0.0173204  -0.0120628  -0.00143372  -0.00864494  -0.0248631  0.0232987  -0.00317483  -0.103568  -0.0309416  -0.0349246 
1699965396.490300000  0  0  11.6713  0.176632  -0.0797859  0.00461838  nan  nan  nan  nan  nan  nan  -0.998755  -0.0040062  1.0007  -0.00599909  -0.0300474  -0.0109518  0.004876  0.0225659  0.0030185  0  0  0  0  0  0  0.0229301  -0.00351596  -0.0173428  -0.0120608  -0.000397545  -0.00792666  -0.0259322  0.0229515  -0.00321883  -0.114688  -0.0515824  -0.0255414 
1699965396.495670000  0  0  11.6665  0.1936  -0.0930156  0.00412926  nan  nan  nan  nan  nan  nan  -0.99873  -0.0038957  1.00072  -0.00505692  -0.0296773  -0.0109819  0.0054303  0.0216242  0.0039094  0  0  0  0  0  0  0.0229544  -0.00370592  -0.0173778  -0.0125957  0.00125379  -0.00750425  -0.0277274  0.0226807  -0.00324911  -0.132109  -0.0226317  -0.0191246 
1699965396.500442000  0  0  11.7102  0.174552  -0.0796779  0.00461013  nan  nan  nan  nan  nan  nan  -0.998701  -0.0037902  1.00074  -0.00274461  -0.0286275  -0.0110534  0.0060509  0.020549  0.0048937  0  0  0  0  0  0  0.0228897  -0.00369618  -0.0174407  -0.0136397  0.00422853  -0.0110877  -0.0299509  0.0213243  -0.00335936  -0.0735548  -0.0368277  -0.024033 
1699965396.505293000  0  0  11.7241  0.189288  -0.0790001  0.00454425  nan  nan  nan  nan  nan  nan  -0.998669  -0.0036904  1.00077  -0.00231185  -0.0284342  -0.0110663  0.0067415  0.0193364  0.0059753  0  0  0  0  0  0  0.0229056  -0.00387639  -0.0174935  -0.0138756  0.00519057  -0.012165  -0.0309418  0.0209783  -0.00344407  -0.0939127  -0.0350001  -0.0223624 
1699965396.510244000  0  0  11.7108  0.204618  -0.0851952  0.00469465  nan  nan  nan  nan  nan  nan  -0.998633  -0.0035971  1.0008  0.000163805  -0.027493  -0.0111365  0.0075047  0.0179827  0.0071579  0  0  0  0  0  0  0.0228335  -0.00384212  -0.017531  -0.0149439  0.0083527  -0.0110852  -0.033951  0.0201047  -0.00352816  -0.0968862  -0.0145728  -0.0234015 
1699965396.515285000  0  0  11.7656  0.177059  -0.0874553  0.00521463  nan  nan  nan  nan  nan  nan  -0.998594  -0.0035108  1.00084  0.00148514  -0.0267527  -0.0111717  0.0083378  0.0164841  0.0084452  0  0  0  0  0  0  0.0228388  -0.00396774  -0.01763  -0.0157362  0.0103692  -0.0154872  -0.0349617  0.0194232  -0.00371032  -0.0324699  -0.00378313  -0.0280796 
1699965396.520298000  0  0  11.7915  0.17779  -0.0846121  0.00494304  nan  nan  nan  nan  nan  nan  -0.99855  -0.0034325  1.00088  0.00253056  -0.0264234  -0.0111989  0.009237  0.0148369  0.009841  0  0  0  0  0  0  0.0228366  -0.00408394  -0.0176989  -0.0160694  0.0120055  -0.0175385  -0.0360286  0.0190412  -0.00379886  -0.0241164  -0.00595525  -0.0237994 
