ts fx fy fz tx ty tz exfx exfy exfz extx exty extz xd yd zd rolld pitchd yawd vxd vyd vzd wxd wyd wzd axd ayd azd e_x e_y e_z e_vx e_vy e_vz e_rx e_ry e_rz e_wx e_wy e_wz
1699967842.737182000  0  0  11.8477  0.187899  -0.144375  0.0024738  nan  nan  nan  nan  nan  nan  -1  0  1  0.0240493  -0.0417281  -0.00100343  0  0  0  0  0  0  0  0  0  0.0284197  0.00678397  -0.0254443  -0.00815209  0.0165662  -0.00575677  -0.037582  0.0345014  -0.00260927  -0.0300434  -0.0286627  -0.00482977 
1699967842.740308000  0  0  11.8333  0.202332  -0.137604  0.0023585  nan  nan  nan  nan  nan  nan  -1  0  1  0.0244317  -0.0418729  -0.00102293  0  0  0  0  0  0  0  0  0  0.0283975  0.00683455  -0.025447  -0.00797704  0.0169183  -0.00456633  -0.0383039  0.0344069  -0.00258735  -0.0522683  -0.0413357  -0.0036077 
1699967842.746252000  0  0  11.7995  0.207488  -0.146733  0.0022977  nan  nan  nan  nan  nan  nan  -1  0  1  0.0241327  -0.0420957  -0.00101578  0  0  0  0  0  0  0  0  0  0.0284185  0.00674246  -0.0254536  -0.00788852  0.0166393  -0.00174578  -0.0385158  0.0346148  -0.0025751  -0.0606308  -0.0249901  -0.00297021 
1699967842.751250000  0  0  11.8774  0.184311  -0.158217  0.00228617  nan  nan  nan  nan  nan  nan  -1  0  1  0.0238683  -0.0418059  -0.000997734  0  0  0  0  0  0  0  0  0  0.0284305  0.00669081  -0.0255353  -0.00793477  0.0166142  -0.00806189  -0.0380119  0.0345498  -0.00258251  -0.0189122  -0.00142396  -0.00275201 
1699967842.756292000  0  0  11.8706  0.194998  -0.155136  0.00241655  nan  nan  nan  nan  nan  nan  -1  0  1  0.0243098  -0.042082  -0.00102291  0  0  0  0  0  0  0  0  0  0.0283964  0.00677249  -0.0255597  -0.00752362  0.0169969  -0.00745566  -0.038721  0.0347208  -0.00259575  -0.0337618  -0.00915927  -0.0042494 
1699967842.761243000  0  0  11.8577  0.187524  -0.170069  0.00238011  nan  nan  nan  nan  nan  nan  -1  0  1  0.0241388  -0.0420942  -0.001016  0  0  0  0  0  0  0  0  0  0.0284103  0.00670358  -0.0255843  -0.00759869  0.0168903  -0.00633971  -0.0386239  0.0350186  -0.0025971  -0.0197077  0.017967  -0.00378041 
1699967842.765184000  0  0  11.9242  0.168236  -0.181108  0.00238109  nan  nan  nan  nan  nan  nan  -1  0  1  0.0247764  -0.041359  -0.00102464  0  0  0  0  0  0  0  0  0  0.0283766  0.00677335  -0.0256532  -0.00818677  0.0177595  -0.0117493  -0.0388546  0.0346571  -0.00262141  0.0209899  0.0433704  -0.00354946 
1699967842.771226000  0  0  11.9119  0.172917  -0.164392  0.00197801  nan  nan  nan  nan  nan  nan  -1  0  1  0.0238862  -0.0422126  -0.00100819  0  0  0  0  0  0  0  0  0  0.0284015  0.00670382  -0.0257234  -0.00716946  0.0167003  -0.0105592  -0.0380187  0.0353668  -0.00256391  0.00393764  0.00340951  0.000914045 
1699967842.776271000  0  0  11.8459  0.17157  -0.17175  0.00163641  nan  nan  nan  nan  nan  nan  -1  0  1  0.0237235  -0.0426023  -0.00101056  0  0  0  0  0  0  0  0  0  0.0284382  0.0065926  -0.0257219  -0.00704704  0.016558  -0.00506623  -0.0378681  0.0359332  -0.00247564  0.00524753  0.0129141  0.00430129 
1699967842.781362000  0  0  11.9457  0.14645  -0.182339  0.00173929  nan  nan  nan  nan  nan  nan  -1  0  1  0.0239279  -0.0422021  -0.0010097  0  0  0  0  0  0  0  0  0  0.0284033  0.00667555  -0.0258238  -0.00702845  0.0169083  -0.0131683  -0.0375003  0.0358851  -0.00247588  0.0521034  0.0345353  0.00301758 
1699967842.786242000  0  0  11.9072  0.148183  -0.17214  0.00187598  nan  nan  nan  nan  nan  nan  -1  0  1  0.0232799  -0.0429711  -0.00100023  0  0  0  0  0  0  0  0  0  0.0284362  0.00660723  -0.0258518  -0.00626524  0.0160989  -0.00988046  -0.0367582  0.036548  -0.00244713  0.0418094  0.00803756  0.00102157 
1699967842.791207000  0  0  11.8817  0.149864  -0.192287  0.00255637  nan  nan  nan  nan  nan  nan  -1  0  1  0.0235212  -0.0431862  -0.00101566  0  0  0  0  0  0  0  0  0  0.0284626  0.00654598  -0.0258781  -0.00616008  0.0164876  -0.00770829  -0.0368714  0.0371833  -0.00250322  0.0394892  0.042487  -0.00692237 
1699967842.796339000  0  0  11.9737  0.147952  -0.201305  0.00264793  nan  nan  nan  nan  nan  nan  -1  0  1  0.0240545  -0.0423237  -0.00101797  0  0  0  0  0  0  0  0  0  0.0284263  0.00663197  -0.0259855  -0.0067852  0.0172479  -0.01517  -0.0371197  0.0368212  -0.00256011  0.0455967  0.063855  -0.00749798 
1699967842.801256000  0  0  11.9119  0.148811  -0.178115  0.0034416  nan  nan  nan  nan  nan  nan  -1  0  1  0.0230532  -0.0432115  -0.00099603  0  0  0  0  0  0  0  0  0  0.0284771  0.00651596  -0.0259883  -0.00601534  0.0160136  -0.00998866  -0.0360624  0.0374515  -0.00267889  0.0341516  0.011676  -0.0162312 
1699967842.806258000  0  0  11.866  0.166369  -0.171129  0.00294642  nan  nan  nan  nan  nan  nan  -1  0  1  0.024009  -0.0432015  -0.0010371  0  0  0  0  0  0  0  0  0  0.0284464  0.00660076  -0.0260074  -0.00617753  0.0169681  -0.0061369  -0.0371595  0.0373132  -0.00265794  0.00912912  -0.00102279  -0.0102509 
1699967842.811253000  0  0  11.9184  0.154763  -0.186892  0.00221516  nan  nan  nan  nan  nan  nan  -1  0  1  0.0231124  -0.0432247  -0.000998891  0  0  0  0  0  0  0  0  0  0.0285138  0.006438  -0.0260517  -0.00604751  0.0162821  -0.0104073  -0.0361344  0.0376994  -0.00261799  0.0229112  0.0269486  -0.00150954 
1699967842.815209000  0  0  11.8956  0.155083  -0.173494  0.00239146  nan  nan  nan  nan  nan  nan  -1  0  1  0.0235575  -0.0433287  -0.00102058  0  0  0  0  0  0  0  0  0  0.028492  0.00650171  -0.0260741  -0.00596976  0.0166699  -0.00845673  -0.0364597  0.0376136  -0.00263402  0.0252632  0.000942671  -0.00355302 
1699967842.821381000  0  0  11.8474  0.177272  -0.161908  0.00200806  nan  nan  nan  nan  nan  nan  -1  0  1  0.0235637  -0.0433256  -0.00102078  0  0  0  0  0  0  0  0  0  0.0285295  0.00642062  -0.026061  -0.00628938  0.0167323  -0.00446968  -0.0368531  0.0372817  -0.00257578  -0.0154955  -0.019176  0.000657115 
1699967842.826241000  0  0  11.8889  0.174153  -0.161331  0.00171425  nan  nan  nan  nan  nan  nan  -1  0  1  0.023367  -0.0431092  -0.0010072  0  0  0  0  0  0  0  0  0  0.0285404  0.00636808  -0.026086  -0.00640118  0.016698  -0.00786881  -0.0367075  0.0369983  -0.00251773  -0.0105963  -0.017721  0.00374917 
1699967842.831254000  0  0  11.8698  0.182093  -0.153918  0.00153692  nan  nan  nan  nan  nan  nan  -1  0  1  0.0241648  -0.0429275  -0.00103722  0  0  0  0  0  0  0  0  0  0.028509  0.00645313  -0.0261049  -0.00666046  0.0175119  -0.00624729  -0.0376627  0.0365637  -0.00245154  -0.0176892  -0.02855  0.00530391 
1699967842.836283000  0  0  11.776  0.217478  -0.135309  0.000451349  nan  nan  nan  nan  nan  nan  -1  0  1  0.0241177  -0.0434566  -0.00104794  0  0  0  0  0  0  0  0  0  0.0285335  0.00638222  -0.0260417  -0.00646852  0.0173556  0.0014317  -0.0386135  0.0364544  -0.00219727  -0.0797111  -0.0647622  0.0163309 
1699967842.840337000  0  0  11.803  0.214136  -0.141244  0.000680953  nan  nan  nan  nan  nan  nan  -1  0  1  0.0250532  -0.0427824  -0.00107173  0  0  0  0  0  0  0  0  0  0.0285031  0.00645736  -0.0260671  -0.00715317  0.0184893  -0.000788119  -0.039664  0.0357526  -0.00215059  -0.0633629  -0.0464354  0.012994 
1699967842.846295000  0  0  11.8684  0.201624  -0.141873  0.0022983  nan  nan  nan  nan  nan  nan  -1  0  1  0.0248694  -0.04277  -0.00106356  0  0  0  0  0  0  0  0  0  0.0285111  0.00642242  -0.026116  -0.00687696  0.0185064  -0.00612855  -0.0394949  0.0355561  -0.00231742  -0.0398951  -0.04337  -0.00555452 
1699967842.850255000  0  0  11.8279  0.219372  -0.133478  0.00245613  nan  nan  nan  nan  nan  nan  -1  -0  1  0.02554  -0.0426372  -0.00108886  5e-06  -5e-06  5e-06  0  0  0  0  0  0  0.028483  0.00649578  -0.0261066  -0.00717893  0.0191137  -0.00279679  -0.0406198  0.0350987  -0.00232826  -0.0650409  -0.0559517  -0.00741896 
1699967842.856288000  0  0  11.8612  0.206172  -0.146755  0.00347585  nan  nan  nan  nan  nan  nan  -1  -1e-07  1  0.0259259  -0.0418535  -0.00108501  1.69e-05  -1.69e-05  1.69e-05  0  0  0  0  0  0  0.0284687  0.00649529  -0.026131  -0.00802312  0.0197193  -0.00553304  -0.0410564  0.0344054  -0.00252078  -0.0346253  -0.02302  -0.0182403 
1699967842.861239000  0  0  11.9099  0.191528  -0.139604  0.0033406  nan  nan  nan  nan  nan  nan  -1  -2e-07  1  0.0253931  -0.0418992  -0.00106377  4e-05  -4e-05  4e-05  0  0  0  0  0  0  0.0284782  0.00645792  -0.0261846  -0.00775945  0.0192367  -0.00945888  -0.0403966  0.0342544  -0.00257452  -0.0114067  -0.0359327  -0.0160123 
1699967842.865201000  0  0  11.8438  0.203585  -0.126345  0.00270549  nan  nan  nan  nan  nan  nan  -1  -5e-07  1  0.0258454  -0.0420715  -0.00108708  7.81e-05  -7.81e-05  7.81e-05  0  0  0  0  0  0  0.0284497  0.00653186  -0.0261666  -0.00777549  0.0194811  -0.00399018  -0.0410982  0.0339989  -0.00252143  -0.0290654  -0.0601007  -0.00860434 
1699967842.871245000  0  0  11.8952  0.178848  -0.152685  0.00150239  nan  nan  nan  nan  nan  nan  -0.999999  -1e-06  1  0.0260069  -0.0414006  -0.00107624  0.000135  -0.000135  0.000135  0  0  0  0  0  0  0.0284548  0.00649623  -0.0262062  -0.00843468  0.0199223  -0.00819392  -0.0408987  0.0336357  -0.00239681  0.0185727  -0.00407717  0.00518825 
1699967842.875191000  0  0  11.9732  0.170844  -0.153187  0.00121611  nan  nan  nan  nan  nan  nan  -0.999998  -1.9e-06  1  0.0263601  -0.0408816  -0.00107699  0.0002141  -0.0002144  0.0002134  0  0  0  0  0  0  0.0284222  0.00657439  -0.0262842  -0.00869376  0.0204447  -0.0145381  -0.0409721  0.0331692  -0.00234678  0.0352547  0.00121773  0.0082664 
1699967842.881241000  0  0  11.8784  0.180432  -0.146208  0.000983059  nan  nan  nan  nan  nan  nan  -0.999997  -3.2e-06  1  0.0260576  -0.0417915  -0.00108811  0.0003149  -0.00032  0.0003113  0  0  0  0  0  0  0.0284361  0.00652747  -0.0262353  -0.00795382  0.0198702  -0.00671938  -0.0407673  0.0337906  -0.00223846  0.0141957  -0.0184579  0.0100964 
1699967842.886240000  0  0  11.9228  0.171169  -0.168765  0.00160295  nan  nan  nan  nan  nan  nan  -0.999995  -5.1e-06  1.00001  0.0259069  -0.0414063  -0.00107164  0.0004338  -0.0004556  0.0004249  0  0  0  0  0  0  0.0284632  0.00645881  -0.0262905  -0.00831925  0.0199525  -0.0103114  -0.0403728  0.0338242  -0.00229514  0.0290911  0.0263469  0.00291454 
1699967842.890247000  0  0  11.9753  0.163556  -0.170475  0.00260891  nan  nan  nan  nan  nan  nan  -0.999992  -7.8e-06  1.00001  0.0262013  -0.0411741  -0.00107756  0.0005669  -0.000625  0.0005504  0  0  0  0  0  0  0.0284313  0.00653707  -0.0263594  -0.00831564  0.0203217  -0.0145418  -0.0403803  0.0337595  -0.00241136  0.0443871  0.0303615  -0.00849777 
1699967842.896270000  0  0  11.8621  0.165027  -0.158794  0.00283738  nan  nan  nan  nan  nan  nan  -0.999989  -1.14e-05  1.00001  0.0257604  -0.042079  -0.00108249  0.0007105  -0.0008319  0.0006841  0  0  0  0  0  0  0.0284543  0.0064726  -0.0263175  -0.00769211  0.0195522  -0.00516863  -0.0398302  0.0344392  -0.00247389  0.0363841  0.000747515  -0.0107284 
1699967842.900282000  0  0  11.8891  0.164385  -0.177997  0.00263167  nan  nan  nan  nan  nan  nan  -0.999985  -1.62e-05  1.00001  0.0265695  -0.0414892  -0.00110069  0.000861  -0.00108  0.0008222  0  0  0  0  0  0  0.028419  0.00655598  -0.0263612  -0.00826474  0.0205147  -0.00735181  -0.0404116  0.0342983  -0.00249099  0.0430158  0.0404496  -0.00798601 
1699967842.906234000  0  0  11.9588  0.150557  -0.180294  0.00316534  nan  nan  nan  nan  nan  nan  -0.999981  -2.23e-05  1.00002  0.0257073  -0.0412365  -0.00105831  0.0010145  -0.0013731  0.000961  0  0  0  0  0  0  0.0284299  0.00648245  -0.026413  -0.00830762  0.0197378  -0.0130339  -0.0391254  0.0344005  -0.00262828  0.0588387  0.0441028  -0.013284 
1699967842.911235000  0  0  11.8922  0.149628  -0.166637  0.00314225  nan  nan  nan  nan  nan  nan  -0.999975  -3e-05  1.00002  0.0257068  -0.0415642  -0.00106661  0.0011672  -0.001715  0.0010968  0  0  0  0  0  0  0.0284345  0.0064395  -0.0263845  -0.00818976  0.0196416  -0.00753172  -0.038868  0.0345984  -0.00268555  0.0583294  0.0149679  -0.0124227 
1699967842.915189000  0  0  11.9174  0.15299  -0.175195  0.00293044  nan  nan  nan  nan  nan  nan  -0.999969  -3.96e-05  1.00003  0.0268316  -0.0411439  -0.00110221  0.0013155  -0.0021094  0.0012257  0  0  0  0  0  0  0.0283999  0.00652549  -0.0264406  -0.00855021  0.021013  -0.00952835  -0.0397433  0.0344495  -0.00269483  0.0596583  0.0334541  -0.00968218 
1699967842.921237000  0  0  11.9309  0.14495  -0.172406  0.00250502  nan  nan  nan  nan  nan  nan  -0.999962  -5.12e-05  1.00004  0.0267849  -0.0411485  -0.00110071  0.0014556  -0.0025587  0.0013441  0  0  0  0  0  0  0.0284142  0.00649145  -0.026458  -0.00851483  0.0210665  -0.0106056  -0.0392365  0.0346043  -0.00269704  0.0710752  0.0264534  -0.00434239 
1699967842.926235000  0  0  11.8626  0.16114  -0.155216  0.00162902  nan  nan  nan  nan  nan  nan  -0.999954  -6.52e-05  1.00004  0.026534  -0.0417931  -0.00110798  0.0015837  -0.0030604  0.0014482  0  0  0  0  0  0  0.028446  0.00643082  -0.0263924  -0.00804829  0.0206656  -0.00502878  -0.0390796  0.0348686  -0.00256914  0.0372516  -0.0103599  0.00532864 
1699967842.931233000  0  0  11.8956  0.171649  -0.171987  0.00163115  nan  nan  nan  nan  nan  nan  -0.999946  -8.19e-05  1.00005  0.0278984  -0.0410381  -0.00114487  0.0016961  -0.0036108  0.0015342  0  0  0  0  0  0  0.0284007  0.006542  -0.0264523  -0.0087889  0.0223215  -0.00768671  -0.0403957  0.0344845  -0.00252424  0.0283411  0.0267167  0.004853 
1699967842.936264000  0  0  11.9062  0.166602  -0.175574  0.00224639  nan  nan  nan  nan  nan  nan  -0.999938  -0.0001014  1.00006  0.0279136  -0.0411987  -0.00115127  0.001789  -0.0042061  0.0015988  0  0  0  0  0  0  0.0284305  0.00648688  -0.0264503  -0.00859357  0.0224966  -0.00857502  -0.0402021  0.0347985  -0.00257456  0.0366551  0.0310029  -0.00233429 
1699967842.940296000  0  0  11.8706  0.18524  -0.160545  0.00260635  nan  nan  nan  nan  nan  nan  -0.999928  -0.000124  1.00007  0.0290219  -0.0411325  -0.00119684  0.0018593  -0.0048425  0.0016434  0  0  0  0  0  0  0.0283937  0.0065834  -0.0264599  -0.00875827  0.0236344  -0.00560153  -0.0414638  0.0345113  -0.00260028  0.0109875  0.00358652  -0.00657666 
1699967842.946242000  0  0  11.8629  0.200179  -0.166821  0.00234444  nan  nan  nan  nan  nan  nan  -0.999919  -0.0001499  1.00007  0.0294226  -0.0410782  -0.00121413  0.0019086  -0.0055164  0.0016716  0  0  0  0  0  0  0.02842  0.00654747  -0.0264325  -0.00892134  0.0242183  -0.00503705  -0.042136  0.0345777  -0.00259664  -0.0127074  0.0155272  -0.00333907 
1699967842.951240000  0  0  11.8657  0.183433  -0.158504  0.00319792  nan  nan  nan  nan  nan  nan  -0.999909  -0.0001792  1.00008  0.0295994  -0.0411017  -0.0012253  0.0019405  -0.0062239  0.0016872  0  0  0  0  0  0  0.0284388  0.00650714  -0.0264145  -0.0089192  0.0245496  -0.00529567  -0.0420572  0.0344653  -0.00271794  0.0200594  -7.28424e-05  -0.0127946 
1699967842.956276000  0  0  11.8138  0.200627  -0.138532  0.00330226  nan  nan  nan  nan  nan  nan  -0.9999  -0.0002122  1.00009  0.0308877  -0.0412981  -0.00128835  0.0019589  -0.0069612  0.0016939  0  0  0  0  0  0  0.0283982  0.00663183  -0.0264062  -0.0088035  0.0257928  -0.000986107  -0.0434979  0.0341794  -0.00274236  -0.00107229  -0.0373869  -0.0138546 
1699967842.961244000  0  0  11.8064  0.208503  -0.146601  0.00268803  nan  nan  nan  nan  nan  nan  -0.99989  -0.0002489  1.0001  0.0316234  -0.0408998  -0.00131126  0.0019674  -0.0077248  0.0016954  0  0  0  0  0  0  0.028394  0.00662287  -0.0263726  -0.0093484  0.026754  -0.000458574  -0.0443936  0.0337869  -0.00270518  -0.00858433  -0.0176369  -0.00654855 
1699967842.966240000  0  0  11.8619  0.200023  -0.147492  0.0027784  nan  nan  nan  nan  nan  nan  -0.99988  -0.0002895  1.00011  0.032993  -0.040148  -0.00134873  0.0019699  -0.0085107  0.0016955  0  0  0  0  0  0  0.0283444  0.00676096  -0.026424  -0.00997377  0.0284493  -0.00498614  -0.045465  0.0330606  -0.00273467  0.0182319  -0.00917397  -0.00738332 
1699967842.971238000  0  0  11.8125  0.219257  -0.132874  0.00202021  nan  nan  nan  nan  nan  nan  -0.99987  -0.000334  1.00012  0.032634  -0.0409661  -0.00136849  0.0019701  -0.0093153  0.0016955  0  0  0  0  0  0  0.028383  0.00668458  -0.0263524  -0.00920459  0.0279645  -0.00101259  -0.0455334  0.0333704  -0.00265149  -0.0196072  -0.0412594  0.00126231 
1699967842.976264000  0  0  11.8008  0.22257  -0.1446  0.00113796  nan  nan  nan  nan  nan  nan  -0.99986  -0.0003826  1.00013  0.0335786  -0.0408778  -0.00141325  0.0019701  -0.0101348  0.0016955  0  0  0  0  0  0  0.028374  0.00670179  -0.0263209  -0.00934942  0.0291234  -0.000117899  -0.0465591  0.0333312  -0.0025029  -0.0167952  -0.0174473  0.0108045 
1699967842.981246000  0  0  11.882  0.211179  -0.16132  0.00148821  nan  nan  nan  nan  nan  nan  -0.99985  -0.0004354  1.00013  0.0346879  -0.040059  -0.00144085  0.0019701  -0.0109655  0.0016955  0  0  0  0  0  0  0.0283237  0.00684932  -0.0263767  -0.00994671  0.0305658  -0.00679183  -0.0473787  0.032911  -0.0024912  0.0135259  0.0198588  0.00630942 
1699967842.986240000  0  0  11.8366  0.214626  -0.143711  0.00195816  nan  nan  nan  nan  nan  nan  -0.999841  -0.0004923  1.00014  0.0348371  -0.0405474  -0.00147624  0.0019701  -0.0118035  0.0016955  0  0  0  0  0  0  0.0283263  0.0068522  -0.0263384  -0.00951022  0.0305786  -0.0030765  -0.0475439  0.0330294  -0.0024935  0.00815204  -0.0164486  0.000458054 
1699967842.990239000  0  0  11.8448  0.21309  -0.162155  0.00275269  nan  nan  nan  nan  nan  nan  -0.999831  -0.0005534  1.00015  0.0364333  -0.0402095  -0.00154322  0.0019701  -0.0126452  0.0016955  0  0  0  0  0  0  0.0282848  0.0069935  -0.0263585  -0.00981865  0.0323998  -0.00374348  -0.0489391  0.0330005  -0.0025572  0.0240598  0.0207051  -0.00883669 
1699967842.996265000  0  0  11.9297  0.19796  -0.178647  0.00302602  nan  nan  nan  nan  nan  nan  -0.999821  -0.0006188  1.00016  0.0364978  -0.0395898  -0.00154  0.0019701  -0.0134869  0.0016955  0  0  0  0  0  0  0.0282735  0.00701499  -0.0264145  -0.0102368  0.0327813  -0.0106983  -0.0485506  0.0329334  -0.00265624  0.0507448  0.0543074  -0.0112628 
1699967843.001237000  0  0  11.8619  0.185388  -0.153132  0.00293201  nan  nan  nan  nan  nan  nan  -0.999811  -0.0006883  1.00017  0.0362953  -0.0404875  -0.00158375  0.0019701  -0.0143246  0.0016955  0  0  0  0  0  0  0.0282908  0.00699726  -0.0263639  -0.00938908  0.0322739  -0.0051133  -0.0478859  0.0333919  -0.00266816  0.069775  -0.000940795  -0.00996853 
1699967843.006239000  0  0  11.8636  0.184852  -0.159848  0.0030583  nan  nan  nan  nan  nan  nan  -0.999801  -0.000762  1.00018  0.037881  -0.0401547  -0.00165722  0.0019701  -0.0151548  0.0016955  0  0  0  0  0  0  0.0282417  0.00716588  -0.0263925  -0.00970468  0.0339976  -0.00519805  -0.0489826  0.0332081  -0.00269391  0.0809347  0.0141821  -0.0112896 
1699967843.011244000  0  0  11.9263  0.167297  -0.176796  0.00387916  nan  nan  nan  nan  nan  nan  -0.999791  -0.0008398  1.00018  0.0376535  -0.039782  -0.00165884  0.0019701  -0.0159736  0.0016955  0  0  0  0  0  0  0.0282355  0.00718498  -0.0264219  -0.00990675  0.033916  -0.0103467  -0.0481127  0.0333416  -0.00283616  0.108042  0.0468501  -0.0201279 
1699967843.016270000  0  0  11.8669  0.158841  -0.155404  0.00416873  nan  nan  nan  nan  nan  nan  -0.999781  -0.0009217  1.00019  0.0385006  -0.0402082  -0.00173699  0.0019701  -0.0167773  0.0016955  0  0  0  0  0  0  0.0281909  0.00735197  -0.0264221  -0.00950406  0.0344099  -0.00535604  -0.0481929  0.0334606  -0.00291445  0.125693  0.00296944  -0.0229646 
1699967843.021245000  0  0  11.8939  0.164954  -0.180053  0.00341037  nan  nan  nan  nan  nan  nan  -0.999772  -0.0010076  1.0002  0.0386567  -0.0402292  -0.00177538  0.0019701  -0.0175622  0.0016955  0  0  0  0  0  0  0.0282157  0.00733909  -0.0264438  -0.00940848  0.0347583  -0.00755183  -0.0478867  0.0339424  -0.00290704  0.11065  0.0478367  -0.0135592 
1699967843.026243000  0  0  11.9509  0.157052  -0.194282  0.00297205  nan  nan  nan  nan  nan  nan  -0.999762  -0.0010973  1.00021  0.0382942  -0.0398843  -0.00178258  0.0019701  -0.0183245  0.0016955  0  0  0  0  0  0  0.0282294  0.00732219  -0.0264933  -0.0096436  0.0345571  -0.0121855  -0.0469008  0.0341475  -0.00291396  0.117383  0.0744064  -0.00801109 
1699967843.031248000  0  0  11.9217  0.158493  -0.16515  0.00324422  nan  nan  nan  nan  nan  nan  -0.999752  -0.0011908  1.00022  0.0392789  -0.0399971  -0.00186523  0.0019701  -0.0190604  0.0016955  0  0  0  0  0  0  0.028184  0.00749517  -0.0265231  -0.00951761  0.0353503  -0.00966496  -0.0472899  0.033989  -0.00293018  0.118081  0.017602  -0.011251 
1699967843.036277000  0  0  11.9348  0.168174  -0.177283  0.00315009  nan  nan  nan  nan  nan  nan  -0.999742  -0.0012879  1.00023  0.0392763  -0.040033  -0.00190953  0.0019701  -0.0197662  0.0016955  0  0  0  0  0  0  0.0281887  0.00750416  -0.0265549  -0.00942023  0.035381  -0.0106787  -0.0469541  0.0343001  -0.00294932  0.0956299  0.0390048  -0.00988289 
1699967843.040298000  0  0  11.9482  0.161769  -0.187549  0.00306907  nan  nan  nan  nan  nan  nan  -0.999732  -0.0013884  1.00024  0.0404187  -0.0395523  -0.0019831  0.0019701  -0.0204382  0.0016955  0  0  0  0  0  0  0.0281457  0.00767022  -0.0266058  -0.00989738  0.0365872  -0.0116898  -0.0475007  0.0342402  -0.00293369  0.113467  0.0600883  -0.00902651 
1699967843.046242000  0  0  11.9092  0.150249  -0.161391  0.00416001  nan  nan  nan  nan  nan  nan  -0.999722  -0.0014922  1.00024  0.0398382  -0.0398764  -0.00202472  0.0019701  -0.0210726  0.0016955  0  0  0  0  0  0  0.0281658  0.00763404  -0.026605  -0.00968622  0.0357174  -0.00839023  -0.0461152  0.034212  -0.00312378  0.123762  0.00803175  -0.0207623 
1699967843.051242000  0  0  11.9057  0.163863  -0.157654  0.00315649  nan  nan  nan  nan  nan  nan  -0.999712  -0.001599  1.00025  0.0401317  -0.0397322  -0.00208706  0.0019701  -0.0216656  0.0016955  0  0  0  0  0  0  0.0281487  0.00769681  -0.0266302  -0.0098518  0.0359474  -0.00802618  -0.0460892  0.0340214  -0.00303974  0.0962956  0.00231074  -0.00905872 
1699967843.056267000  0  0  11.9207  0.157507  -0.166113  0.00313237  nan  nan  nan  nan  nan  nan  -0.999703  -0.0017087  1.00026  0.0412809  -0.0392387  -0.00217351  0.0019701  -0.0222136  0.0016955  0  0  0  0  0  0  0.028098  0.00788182  -0.0266844  -0.0103201  0.0371242  -0.00915226  -0.0465624  0.0337907  -0.00302362  0.113361  0.0213502  -0.00891847 
1699967843.061248000  0  0  11.8983  0.15557  -0.142847  0.00380696  nan  nan  nan  nan  nan  nan  -0.999693  -0.0018211  1.00027  0.0407909  -0.0394427  -0.00222878  0.0019701  -0.0227126  0.0016955  0  0  0  0  0  0  0.028103  0.00787085  -0.0266756  -0.0101595  0.0363913  -0.00726436  -0.0455681  0.0335526  -0.0030987  0.108086  -0.0229907  -0.0165999 
1699967843.065249000  0  0  11.8703  0.174252  -0.128651  0.00362826  nan  nan  nan  nan  nan  nan  -0.999683  -0.0019358  1.00028  0.0415951  -0.0394761  -0.00233333  0.0019701  -0.0231591  0.0016955  0  0  0  0  0  0  0.0280619  0.00803967  -0.0266902  -0.0101399  0.0369462  -0.0048838  -0.0462801  0.0331951  -0.0030453  0.0772726  -0.0480926  -0.0149002 
1699967843.071242000  0  0  11.9003  0.172469  -0.151938  0.00269252  nan  nan  nan  nan  nan  nan  -0.999673  -0.0020526  1.00029  0.0419972  -0.0387982  -0.00239736  0.0019701  -0.0235507  0.0016955  0  0  0  0  0  0  0.0280384  0.00810946  -0.0267338  -0.0108491  0.0374597  -0.00728745  -0.0462094  0.032819  -0.00294891  0.0801874  0.00194023  -0.00416743 
1699967843.075251000  0  0  11.9044  0.175527  -0.139719  0.00245622  nan  nan  nan  nan  nan  nan  -0.999663  -0.0021712  1.0003  0.0423604  -0.038635  -0.00248656  0.0019701  -0.0238899  0.0016955  0  0  0  0  0  0  0.0279944  0.00827942  -0.0267674  -0.0109444  0.0375776  -0.00754446  -0.0462994  0.032456  -0.00285665  0.0749013  -0.0191579  -0.00213629 
1699967843.081247000  0  0  11.8721  0.187332  -0.126358  0.00229002  nan  nan  nan  nan  nan  nan  -0.999653  -0.0022914  1.0003  0.0423506  -0.0387923  -0.00258044  0.0019701  -0.0241806  0.0016955  0  0  0  0  0  0  0.0279845  0.0083133  -0.0267448  -0.0108497  0.0373311  -0.00487754  -0.0461341  0.032116  -0.00275373  0.0497705  -0.0427499  -0.00108805 
1699967843.086245000  0  0  11.9021  0.183956  -0.153684  0.00234917  nan  nan  nan  nan  nan  nan  -0.999643  -0.0024129  1.00031  0.0419803  -0.0382063  -0.00263476  0.0019701  -0.0244265  0.0016955  0  0  0  0  0  0  0.0279879  0.00829583  -0.0267608  -0.0115018  0.0370181  -0.00734411  -0.0454929  0.0319691  -0.00271202  0.050623  0.0132517  -0.00224449 
1699967843.090250000  0  0  11.9102  0.172613  -0.131923  0.00280246  nan  nan  nan  nan  nan  nan  -0.999634  -0.0025356  1.00032  0.0420683  -0.0382252  -0.00273793  0.0019701  -0.0246313  0.0016955  0  0  0  0  0  0  0.0279449  0.00846296  -0.0267956  -0.011342  0.0367943  -0.00791881  -0.0451692  0.0316395  -0.00268292  0.0703312  -0.0272372  -0.00820151 
1699967843.096274000  0  0  11.8633  0.174111  -0.123791  0.00295626  nan  nan  nan  nan  nan  nan  -0.999624  -0.0026592  1.00033  0.0419611  -0.0387373  -0.00286021  0.0019701  -0.0247989  0.0016955  0  0  0  0  0  0  0.0279434  0.00849236  -0.0267624  -0.0108579  0.0363595  -0.00404642  -0.0446874  0.0316413  -0.00265413  0.0629022  -0.0435175  -0.0104119 
1699967843.101242000  0  0  11.9062  0.174312  -0.156885  0.00294687  nan  nan  nan  nan  nan  nan  -0.999614  -0.0027835  1.00034  0.0413023  -0.0382744  -0.00292633  0.0019701  -0.0249328  0.0016955  0  0  0  0  0  0  0.0279335  0.00851353  -0.0267875  -0.0112627  0.035636  -0.00756858  -0.0437917  0.0316654  -0.00264287  0.0542601  0.022448  -0.0104072 
1699967843.106251000  0  0  11.8833  0.156435  -0.136797  0.00436665  nan  nan  nan  nan  nan  nan  -0.999604  -0.0029085  1.00035  0.0417833  -0.0384153  -0.00306756  0.0019701  -0.025037  0.0016955  0  0  0  0  0  0  0.0278806  0.00869076  -0.0268062  -0.0110485  0.0357646  -0.00559083  -0.0436179  0.0315103  -0.00275548  0.0884137  -0.0163011  -0.0270283 
1699967843.111240000  0  0  11.8696  0.163035  -0.144154  0.0043721  nan  nan  nan  nan  nan  nan  -0.999594  -0.0030339  1.00035  0.0411943  -0.0389763  -0.0031909  0.0019701  -0.0251151  0.0016955  0  0  0  0  0  0  0.0278888  0.00870782  -0.0267987  -0.0103817  0.0348759  -0.00444021  -0.042767  0.0319997  -0.00278957  0.0673863  -0.00608978  -0.0267556 
1699967843.115255000  0  0  11.9164  0.1688  -0.178997  0.00357791  nan  nan  nan  nan  nan  nan  -0.999584  -0.0031596  1.00036  0.041638  -0.0383202  -0.00331001  0.0019701  -0.0251709  0.0016955  0  0  0  0  0  0  0.0278404  0.00887529  -0.0268537  -0.0109306  0.0353031  -0.00825281  -0.0430473  0.0320882  -0.00269213  0.0584352  0.0627827  -0.0178026 
1699967843.121245000  0  0  11.8992  0.140069  -0.168569  0.00349295  nan  nan  nan  nan  nan  nan  -0.999575  -0.0032855  1.00037  0.0404464  -0.0388801  -0.00342212  0.0019701  -0.0252082  0.0016955  0  0  0  0  0  0  0.0278467  0.00886995  -0.0268617  -0.010278  0.0336475  -0.00676497  -0.0409895  0.0327501  -0.00269034  0.096965  0.0358367  -0.0167584 
1699967843.126240000  0  0  11.8611  0.148366  -0.176027  0.00272743  nan  nan  nan  nan  nan  nan  -0.999565  -0.0034116  1.00038  0.0399143  -0.039183  -0.0035549  0.0019701  -0.0252306  0.0016955  0  0  0  0  0  0  0.0278475  0.00887117  -0.0268315  -0.0100412  0.0327632  -0.00364623  -0.0401566  0.03332  -0.00255737  0.072709  0.0455105  -0.00851915 
1699967843.131240000  0  0  11.8958  0.14932  -0.200802  0.00106959  nan  nan  nan  nan  nan  nan  -0.999555  -0.0035378  1.00039  0.0402423  -0.0387151  -0.00369664  0.0019701  -0.025242  0.0016955  0  0  0  0  0  0  0.0277946  0.00903667  -0.0268832  -0.0103812  0.0329784  -0.00644932  -0.040158  0.0336827  -0.00226046  0.0708129  0.0917227  0.00923475 
1699967843.136272000  0  0  11.8633  0.125485  -0.178861  0.00136977  nan  nan  nan  nan  nan  nan  -0.999545  -0.003664  1.0004  0.0392215  -0.0391684  -0.00382874  0.0019701  -0.0252461  0.0016955  0  0  0  0  0  0  0.0278166  0.00899474  -0.0268499  -0.00997238  0.0315679  -0.00377292  -0.0383733  0.0340838  -0.0021364  0.102064  0.0441505  0.00424186 
1699967843.140287000  0  0  11.843  0.130633  -0.172287  0.00145459  nan  nan  nan  nan  nan  nan  -0.999535  -0.0037903  1.00041  0.0393886  -0.0393898  -0.00400421  0.0019701  -0.0252466  0.0016955  0  0  0  0  0  0  0.0277776  0.0091445  -0.0268572  -0.00967337  0.0313568  -0.00205296  -0.0382475  0.0342987  -0.00198507  0.0906112  0.0290258  0.00166827 
1699967843.146239000  0  0  11.852  0.141101  -0.195797  0.0019257  nan  nan  nan  nan  nan  nan  -0.999525  -0.0039165  1.00041  0.0389162  -0.0392808  -0.00414774  0.0019701  -0.0252462  0.0016955  0  0  0  0  0  0  0.0277747  0.00915094  -0.0268466  -0.00976516  0.0307525  -0.00284842  -0.0375659  0.0348741  -0.00190571  0.0634055  0.0707532  -0.00501413 
1699967843.151239000  0  0  11.8451  0.12177  -0.178049  0.00281446  nan  nan  nan  nan  nan  nan  -0.999515  -0.0040427  1.00042  0.0380759  -0.0394525  -0.00429392  0.0019701  -0.0252424  0.0016955  0  0  0  0  0  0  0.0277869  0.00912224  -0.0268223  -0.00959503  0.0296685  -0.00229237  -0.036054  0.0350308  -0.00188843  0.0881568  0.0338153  -0.0162965 
1699967843.156271000  0  0  11.8255  0.153021  -0.165567  0.00285183  nan  nan  nan  nan  nan  nan  -0.999506  -0.0041689  1.00043  0.0382665  -0.0396279  -0.00448706  0.0019701  -0.0252316  0.0016955  0  0  0  0  0  0  0.0277427  0.00926865  -0.0268236  -0.00934144  0.0295009  -0.000660728  -0.0364435  0.035052  -0.0017963  0.029238  0.00865594  -0.017685 
1699967843.161242000  0  0  11.8142  0.160654  -0.181509  0.00258424  nan  nan  nan  nan  nan  nan  -0.999496  -0.004295  1.00044  0.0380592  -0.0395872  -0.00466249  0.0019701  -0.02521  0.0016955  0  0  0  0  0  0  0.0277463  0.00927082  -0.0267948  -0.00944446  0.0291673  0.000206048  -0.0362582  0.0354264  -0.00166717  0.0122676  0.0370953  -0.0156313 
1699967843.165257000  0  0  11.8424  0.154879  -0.174535  0.00250265  nan  nan  nan  nan  nan  nan  -0.999486  -0.004421  1.00045  0.0385025  -0.0390371  -0.00485029  0.0019701  -0.0251737  0.0016955  0  0  0  0  0  0  0.027703  0.00941492  -0.0268203  -0.00993639  0.0295429  -0.00209042  -0.0364987  0.0349387  -0.00154615  0.0260303  0.0276338  -0.0158217 
1699967843.171398000  0  0  11.8078  0.18275  -0.148075  0.0031218  nan  nan  nan  nan  nan  nan  -0.999476  -0.0045467  1.00046  0.0378037  -0.0395398  -0.00503968  0.0019701  -0.0251192  0.0016955  0  0  0  0  0  0  0.0277051  0.00941159  -0.0267784  -0.00942707  0.0284718  0.000714648  -0.0362223  0.0349198  -0.0015256  -0.0322556  -0.0251111  -0.0237666 
1699967843.176203000  0  0  11.782  0.17917  -0.163228  0.00273809  nan  nan  nan  nan  nan  nan  -0.999466  -0.0046722  1.00046  0.0379224  -0.0394196  -0.00524371  0.0019701  -0.0250426  0.0016955  0  0  0  0  0  0  0.0276934  0.00943499  -0.0267321  -0.00966109  0.0284579  0.00275701  -0.0363765  0.0350334  -0.00138991  -0.0236763  0.00414852  -0.020327 
1699967843.181211000  0  0  11.8314  0.170497  -0.156377  0.00213  nan  nan  nan  nan  nan  nan  -0.999456  -0.0047971  1.00047  0.0380046  -0.0388998  -0.00543731  0.0019701  -0.0249402  0.0016955  0  0  0  0  0  0  0.0276435  0.0095752  -0.0267616  -0.0100066  0.0284547  -0.00130003  -0.0363708  0.0344671  -0.00122958  -0.00638365  -0.00434343  -0.0143293 
1699967843.186249000  0  0  11.7781  0.187063  -0.126997  0.000607637  nan  nan  nan  nan  nan  nan  -0.999446  -0.0049215  1.00048  0.0373881  -0.0394099  -0.00564877  0.0019701  -0.0248082  0.0016955  0  0  0  0  0  0  0.0276486  0.00955914  -0.0266919  -0.00957597  0.0274437  0.0030083  -0.0361378  0.0343282  -0.00087935  -0.0416576  -0.0618256  0.00119804 
1699967843.190245000  0  0  11.7604  0.196897  -0.13815  -0.000179574  nan  nan  nan  nan  nan  nan  -0.999437  -0.0050451  1.00049  0.0380175  -0.0390825  -0.00588385  0.0019701  -0.0246429  0.0016955  0  0  0  0  0  0  0.0276067  0.0096971  -0.0266769  -0.00997209  0.0278784  0.0044378  -0.0370556  0.0340526  -0.000559023  -0.0528832  -0.0369838  0.00783491 
1699967843.196198000  0  0  11.8199  0.183226  -0.145341  -0.000244978  nan  nan  nan  nan  nan  nan  -0.999427  -0.0051679  1.0005  0.0369305  -0.0387861  -0.00605928  0.0019701  -0.0244405  0.0016955  0  0  0  0  0  0  0.0276171  0.00963063  -0.0266468  -0.0101244  0.0268391  -0.000592197  -0.0360924  0.0337885  -0.000308653  -0.0344012  -0.020172  0.00614876 
1699967843.200297000  0  0  11.8111  0.182699  -0.127951  0.000343306  nan  nan  nan  nan  nan  nan  -0.999417  -0.0052895  1.00051  0.0369023  -0.0389521  -0.00629951  0.0019701  -0.0241973  0.0016955  0  0  0  0  0  0  0.0275779  0.00975884  -0.0266394  -0.0098469  0.026467  0.000142778  -0.0361689  0.0334963  -0.000143576  -0.0326444  -0.0522629  -0.00285557 
1699967843.206254000  0  0  11.772  0.201393  -0.146008  0.000298601  nan  nan  nan  nan  nan  nan  -0.999407  -0.0054098  1.00052  0.0368163  -0.0387124  -0.00652873  0.0019701  -0.0239095  0.0016955  0  0  0  0  0  0  0.0275501  0.00978506  -0.0265856  -0.0102577  0.0261276  0.00326298  -0.0366528  0.0333445  7.42198e-05  -0.0655809  -0.0147545  -0.00447471 
1699967843.211255000  0  0  11.8396  0.178818  -0.150318  0.000747845  nan  nan  nan  nan  nan  nan  -0.999397  -0.0055285  1.00052  0.0356704  -0.038482  -0.00672381  0.0019701  -0.0235734  0.0016955  0  0  0  0  0  0  0.0275639  0.00971423  -0.0265733  -0.0103001  0.0250414  -0.00239428  -0.0354486  0.033204  0.000209504  -0.0315086  -0.00484214  -0.0114431 
1699967843.215260000  0  0  11.8183  0.174565  -0.134522  0.00151047  nan  nan  nan  nan  nan  nan  -0.999387  -0.0056454  1.00053  0.035613  -0.0388223  -0.00698762  0.0019701  -0.0231852  0.0016955  0  0  0  0  0  0  0.0275262  0.00983446  -0.026563  -0.00984916  0.0245985  -0.000633045  -0.0353987  0.0331786  0.000308411  -0.023462  -0.0361983  -0.021965 
1699967843.221256000  0  0  11.7983  0.18527  -0.161226  0.000540924  nan  nan  nan  nan  nan  nan  -0.999378  -0.0057603  1.00054  0.0347404  -0.0387653  -0.00721193  0.0019701  -0.0227412  0.0016955  0  0  0  0  0  0  0.0275307  0.00977649  -0.0265119  -0.0100174  0.0234929  0.000902449  -0.0349756  0.0334707  0.000543061  -0.0487639  0.0145223  -0.0121922 
1699967843.226254000  0  0  11.8502  0.148326  -0.158032  0.00176511  nan  nan  nan  nan  nan  nan  -0.999368  -0.0058727  1.00055  0.0332475  -0.0388386  -0.00742284  0.0019701  -0.0222377  0.0016955  0  0  0  0  0  0  0.0275535  0.00968519  -0.0265065  -0.00975189  0.0219138  -0.00342477  -0.0330756  0.0335725  0.000542325  0.00764465  0.00719773  -0.0274872 
1699967843.230264000  0  0  11.8448  0.143135  -0.14602  0.00186723  nan  nan  nan  nan  nan  nan  -0.999358  -0.0059825  1.00056  0.0328962  -0.0391792  -0.00769298  0.0019701  -0.0216708  0.0016955  0  0  0  0  0  0  0.0275178  0.00979083  -0.0265108  -0.00924016  0.0211785  -0.00294532  -0.032603  0.0336445  0.000673375  0.0136768  -0.0174889  -0.0300741 
1699967843.236284000  0  0  11.825  0.158129  -0.179852  0.000592989  nan  nan  nan  nan  nan  nan  -0.999348  -0.0060893  1.00057  0.0316241  -0.0392048  -0.00792291  0.0019701  -0.0210368  0.0016955  0  0  0  0  0  0  0.0275217  0.00972704  -0.0264971  -0.00930326  0.0195639  -0.00136143  -0.0317175  0.0342932  0.000908763  -0.0244567  0.0442072  -0.0165 
1699967843.241402000  0  0  11.8632  0.11254  -0.160129  0.000756116  nan  nan  nan  nan  nan  nan  -0.999338  -0.0061928  1.00057  0.0312973  -0.0388765  -0.00818492  0.0019701  -0.0203326  0.0016955  0  0  0  0  0  0  0.0274735  0.00982382  -0.0265204  -0.0094562  0.0190387  -0.00446969  -0.0306509  0.0338421  0.00106909  0.0569092  0.00891129  -0.0201423 
1699967843.246254000  0  0  11.8556  0.115864  -0.156391  0.00015001  nan  nan  nan  nan  nan  nan  -0.999328  -0.0062925  1.00058  0.0295208  -0.0396553  -0.00843019  0.0019701  -0.0195595  0.0016955  0  0  0  0  0  0  0.027522  0.00970988  -0.0265138  -0.00858004  0.0169016  -0.00383681  -0.0288133  0.0344955  0.00130326  0.0333549  -0.00457676  -0.0149077 
1699967843.251342000  0  0  11.8174  0.134393  -0.188097  -0.000418559  nan  nan  nan  nan  nan  nan  -0.999318  -0.0063883  1.00059  0.0277943  -0.0400375  -0.00867  0.0019701  -0.0187213  0.0016955  0  0  0  0  0  0  0.027574  0.00956005  -0.0264963  -0.00837123  0.0148253  -0.00072324  -0.0274611  0.0354604  0.0015704  -0.0161449  0.0499593  -0.010472 
1699967843.256283000  0  0  11.8606  0.106861  -0.17962  0.000311114  nan  nan  nan  nan  nan  nan  -0.999309  -0.0064796  1.0006  0.0275694  -0.0395218  -0.00895068  0.0019701  -0.0178216  0.0016955  0  0  0  0  0  0  0.0275311  0.00963606  -0.0265351  -0.00875587  0.0144816  -0.00423441  -0.0267721  0.0350581  0.00168649  0.0325813  0.0367054  -0.0207538 
1699967843.261253000  0  0  11.8771  0.109165  -0.169253  0.00092569  nan  nan  nan  nan  nan  nan  -0.999299  -0.0065664  1.00061  0.0254897  -0.04032  -0.00919899  0.0019701  -0.0168643  0.0016955  0  0  0  0  0  0  0.0275904  0.00948973  -0.0265572  -0.00777674  0.0120868  -0.00555515  -0.0247278  0.0356784  0.00176584  0.00916659  0.0102643  -0.0292295 
1699967843.266246000  0  0  11.8074  0.138231  -0.184093  0.00077252  nan  nan  nan  nan  nan  nan  -0.999289  -0.0066482  1.00062  0.025356  -0.0403517  -0.0095108  0.0019701  -0.0158531  0.0016955  0  0  0  0  0  0  0.02755  0.00955112  -0.026532  -0.00794946  0.0115641  0.000171601  -0.0251958  0.0360636  0.00194051  -0.0446612  0.0364001  -0.0290616 
1699967843.271231000  0  0  11.8393  0.113193  -0.180383  0.00142002  nan  nan  nan  nan  nan  nan  -0.999279  -0.0067248  1.00063  0.0235292  -0.0404209  -0.00976139  0.0019701  -0.0147918  0.0016955  0  0  0  0  0  0  0.0276221  0.00935095  -0.0265535  -0.00788985  0.00967727  -0.00244024  -0.0232515  0.036184  0.00197487  -0.0124718  0.0278723  -0.037499 
1699967843.276276000  0  0  11.8787  0.118324  -0.160938  1.14753e-05  nan  nan  nan  nan  nan  nan  -0.999269  -0.006796  1.00063  0.0213427  -0.0408578  -0.0100112  0.0019701  -0.0136841  0.0016955  0  0  0  0  0  0  0.0276684  0.00920214  -0.0265635  -0.00725882  0.0072015  -0.0057001  -0.0213806  0.0362941  0.00226129  -0.0399466  -0.0120296  -0.0227564 
1699967843.281249000  0  0  11.7901  0.140371  -0.157753  -0.00158327  nan  nan  nan  nan  nan  nan  -0.999259  -0.0068616  1.00064  0.0211687  -0.0407125  -0.0103362  0.0019701  -0.0125337  0.0016955  0  0  0  0  0  0  0.0276286  0.00923927  -0.0265231  -0.00775811  0.00666922  0.00158567  -0.0218901  0.036035  0.00268157  -0.0793522  -0.0160172  -0.00702484 
1699967843.286247000  0  0  11.8168  0.131069  -0.154078  -0.00216093  nan  nan  nan  nan  nan  nan  -0.999249  -0.0069213  1.00065  0.0199472  -0.0404393  -0.0106224  0.0019701  -0.0113444  0.0016955  0  0  0  0  0  0  0.0276498  0.00911088  -0.0265302  -0.00805255  0.00539873  -0.000619053  -0.020943  0.0356354  0.00302657  -0.0694618  -0.0196889  -0.00325412 
1699967843.290263000  0  0  11.8623  0.138844  -0.141087  -0.00246425  nan  nan  nan  nan  nan  nan  -0.99924  -0.006975  1.00066  0.0190836  -0.0401344  -0.0109293  0.0019701  -0.01012  0.0016955  0  0  0  0  0  0  0.0276176  0.00913859  -0.0265683  -0.00818207  0.00428429  -0.00433567  -0.0205622  0.0350219  0.00335621  -0.0885163  -0.0400269  -0.00275892 
1699967843.296280000  0  0  11.7862  0.162056  -0.133088  -0.0019014  nan  nan  nan  nan  nan  nan  -0.99923  -0.0070225  1.00067  0.0177101  -0.0406475  -0.0112373  0.0019701  -0.0088642  0.0016955  0  0  0  0  0  0  0.0276873  0.00893009  -0.02654  -0.00801822  0.00276606  0.00195015  -0.0203109  0.0350196  0.00360392  -0.137252  -0.0560048  -0.0122717 
1699967843.301249000  0  0  11.8383  0.161583  -0.136404  -0.00158128  nan  nan  nan  nan  nan  nan  -0.99922  -0.0070636  1.00068  0.0161916  -0.0401733  -0.011528  0.0019701  -0.0075807  0.0016955  0  0  0  0  0  0  0.0276997  0.00875864  -0.0266004  -0.00845003  0.00123912  -0.00227174  -0.0195293  0.0343628  0.00381742  -0.143495  -0.0433295  -0.0184082 
1699967843.306246000  0  0  11.8864  0.176707  -0.12281  -0.0012665  nan  nan  nan  nan  nan  nan  -0.99921  -0.0070982  1.00069  0.0155964  -0.0400705  -0.0117568  0.0019701  -0.0062733  0.0016955  0  0  0  0  0  0  0.0276619  0.00876185  -0.0266442  -0.00829075  0.000518706  -0.00618801  -0.0199294  0.0338174  0.00391903  -0.170063  -0.0654995  -0.0233591 
1699967843.311247000  0  0  11.782  0.189233  -0.124022  -0.00218878  nan  nan  nan  nan  nan  nan  -0.9992  -0.0071263  1.00069  0.0147073  -0.0401855  -0.0117229  0.0019701  -0.0049458  0.0016954  0  0  0  0  0  0  0.0276571  0.00863914  -0.0266019  -0.00861031  -0.00054887  0.00241556  -0.0201348  0.0336227  0.00393936  -0.193227  -0.0612856  -0.0120338 
1699967843.315264000  0  0  11.7947  0.188722  -0.128547  -0.00249616  nan  nan  nan  nan  nan  nan  -0.99919  -0.0071477  1.0007  0.014286  -0.0395028  -0.0116962  0.0019701  -0.0036019  0.0016932  0  0  0  0  0  0  0.0276162  0.00864096  -0.0266131  -0.00936436  -0.00107363  0.0013604  -0.0204645  0.0328703  0.00393239  -0.189171  -0.0453125  -0.0081219 
1699967843.321241000  0  0  11.8747  0.177138  -0.116437  -0.00207887  nan  nan  nan  nan  nan  nan  -0.999181  -0.0071623  1.00071  0.0131006  -0.0395172  -0.0116496  0.0019701  -0.0022454  0.0016853  0  0  0  0  0  0  0.0276121  0.00852827  -0.0266756  -0.00900273  -0.00226329  -0.0051688  -0.0200897  0.0323753  0.00383023  -0.169451  -0.0649792  -0.0123164 
1699967843.326252000  0  0  11.8007  0.193303  -0.123182  -0.00158854  nan  nan  nan  nan  nan  nan  -0.999171  -0.0071701  1.00072  0.0120945  -0.0396219  -0.0116111  0.0019701  -0.0008799  0.001668  0  0  0  0  0  0  0.027607  0.00838818  -0.0266306  -0.00919603  -0.00337571  0.000901355  -0.0202777  0.0322523  0.00370887  -0.200052  -0.0503584  -0.017232 
1699967843.331254000  0  0  11.8376  0.182128  -0.127849  -0.00115658  nan  nan  nan  nan  nan  nan  -0.999161  -0.0071711  1.00073  0.0116138  -0.0388357  -0.0115829  0.0019701  0.0004907  0.0016374  0  0  0  0  0  0  0.0275564  0.00836946  -0.0266602  -0.00996302  -0.00390581  -0.00212965  -0.0205507  0.0314261  0.00357973  -0.175189  -0.0334216  -0.02134 
1699967843.336283000  0  0  11.8788  0.156853  -0.119266  -0.000266052  nan  nan  nan  nan  nan  nan  -0.999151  -0.0071652  1.00074  0.00978259  -0.0394661  -0.011518  0.0019701  0.0018626  0.0015898  0  0  0  0  0  0  0.0275956  0.00817204  -0.0266887  -0.00906873  -0.00584083  -0.00547325  -0.0190807  0.0315784  0.00331227  -0.138163  -0.051989  -0.029797 
1699967843.340207000  0  0  11.8515  0.173761  -0.13393  -0.000797494  nan  nan  nan  nan  nan  nan  -0.999141  -0.0071525  1.00074  0.00932039  -0.0393423  -0.0114986  0.0019701  0.0032323  0.0015215  0  0  0  0  0  0  0.0275569  0.00814644  -0.0266779  -0.00927223  -0.00641826  -0.00324019  -0.0195157  0.0315901  0.00327683  -0.167978  -0.0227686  -0.0227996 
1699967843.346250000  0  0  11.8406  0.161685  -0.152048  -0.000995855  nan  nan  nan  nan  nan  nan  -0.999131  -0.0071329  1.00075  0.00764241  -0.0393836  -0.0114329  0.0019701  0.0045958  0.0014287  0  0  0  0  0  0  0.0275713  0.00790867  -0.0266706  -0.00932343  -0.00810681  -0.00235107  -0.0187119  0.0318908  0.00317052  -0.151221  0.0107006  -0.019257 
1699967843.350210000  0  0  11.8854  0.143085  -0.150271  -0.000418634  nan  nan  nan  nan  nan  nan  -0.999121  -0.0071065  1.00076  0.00699308  -0.0394281  -0.0114077  0.0019701  0.0059495  0.0013081  0  0  0  0  0  0  0.0275363  0.00786926  -0.0267155  -0.00900036  -0.0088408  -0.0059904  -0.0182662  0.0319268  0.00301629  -0.118122  0.00681631  -0.02493 
1699967843.356281000  0  0  11.8543  0.15823  -0.183576  -0.00111779  nan  nan  nan  nan  nan  nan  -0.999112  -0.0070734  1.00076  0.00507639  -0.0400394  -0.0113352  0.0019701  0.0072895  0.0011611  0  0  0  0  0  0  0.0275949  0.00757456  -0.0266816  -0.00848986  -0.0107398  -0.00347715  -0.0175377  0.033087  0.00293181  -0.155113  0.0627517  -0.0153457 
1699967843.360205000  0  0  11.8202  0.15365  -0.182322  -0.00105923  nan  nan  nan  nan  nan  nan  -0.999102  -0.0070336  1.00077  0.00457691  -0.0398847  -0.0113145  0.0019701  0.0086123  0.0009912  0  0  0  0  0  0  0.0275576  0.00752336  -0.0266784  -0.00876929  -0.0112966  -0.000652061  -0.0175519  0.0331493  0.00286654  -0.145823  0.059671  -0.015425 
1699967843.365211000  0  0  11.8368  0.123458  -0.173075  -0.000690454  nan  nan  nan  nan  nan  nan  -0.999092  -0.0069873  1.00077  0.00340124  -0.0401868  -0.0112686  0.0019701  0.0099139  0.0008024  0  0  0  0  0  0  0.0275632  0.00733725  -0.0266696  -0.00832866  -0.0124247  -0.00204183  -0.0164667  0.0334406  0.00272479  -0.0954219  0.0384964  -0.0186172 
1699967843.371252000  0  0  11.8195  0.149315  -0.194926  -0.00200629  nan  nan  nan  nan  nan  nan  -0.999082  -0.0069346  1.00078  0.00201205  -0.0405638  -0.0112136  0.0019701  0.0111906  0.0005983  0  0  0  0  0  0  0.0275814  0.00713255  -0.0266673  -0.0079702  -0.0138036  -0.000621604  -0.0163145  0.034455  0.00280466  -0.148537  0.0728658  -0.00296795 
1699967843.376282000  0  0  11.7912  0.130923  -0.183056  -0.00101485  nan  nan  nan  nan  nan  nan  -0.999072  -0.0068755  1.00078  0.00113601  -0.0406658  -0.0111782  0.0019701  0.0124388  0.0003827  0  0  0  0  0  0  0.0276014  0.00694051  -0.0266385  -0.00802164  -0.0145299  0.00168023  -0.0158469  0.0346381  0.002661  -0.116056  0.0474427  -0.0139243 
1699967843.381391000  0  0  11.8272  0.148781  -0.178642  0.000201679  nan  nan  nan  nan  nan  nan  -0.999062  -0.0068102  1.00078  0.000870166  -0.0407973  -0.0111675  0.0019701  0.0136546  0.0001593  0  0  0  0  0  0  0.0275653  0.00686711  -0.0266617  -0.00760857  -0.0147149  -0.0012886  -0.0164064  0.03486  0.00244778  -0.146622  0.0365709  -0.0269987 
1699967843.386251000  0  0  11.7826  0.167356  -0.19339  0.000547537  nan  nan  nan  nan  nan  nan  -0.999052  -0.006739  1.00078  -0.000452321  -0.0412569  -0.0111133  0.0019701  0.0148343  -6.81e-05  0  0  0  0  0  0  0.0275848  0.00663624  -0.0265909  -0.00727054  -0.0159403  0.00227275  -0.0161279  0.0358568  0.00228134  -0.186335  0.0568981  -0.0296576 
1699967843.391251000  0  0  11.7606  0.156391  -0.183035  0.00141802  nan  nan  nan  nan  nan  nan  -0.999043  -0.0066619  1.00078  -0.000165201  -0.0409475  -0.0111252  0.0019701  0.0159741  -0.0002958  0  0  0  0  0  0  0.0275461  0.00656142  -0.0265694  -0.00768515  -0.0153925  0.00404097  -0.0170237  0.0356183  0.00204686  -0.156164  0.0383807  -0.0381938 
1699967843.396280000  0  0  11.824  0.163546  -0.17906  0.000584372  nan  nan  nan  nan  nan  nan  -0.999033  -0.0065793  1.00078  -0.00185308  -0.0416521  -0.0110548  0.0019701  0.0170704  -0.00052  0  0  0  0  0  0  0.0276277  0.00627306  -0.0266245  -0.00667596  -0.0169817  -0.00111328  -0.0162883  0.0363293  0.00195207  -0.17724  0.0238901  -0.0268253 
1699967843.401252000  0  0  11.7687  0.186882  -0.188953  -0.000227098  nan  nan  nan  nan  nan  nan  -0.999023  -0.0064913  1.00077  -0.0026928  -0.0421557  -0.0110185  0.0019701  0.0181193  -0.000737  0  0  0  0  0  0  0.0276653  0.00605511  -0.0265572  -0.00636696  -0.0175874  0.0033408  -0.0166953  0.0371671  0.00194522  -0.220167  0.0359689  -0.0166135 
1699967843.406252000  0  0  11.7482  0.176823  -0.178804  -0.00032122  nan  nan  nan  nan  nan  nan  -0.999013  -0.0063982  1.00077  -0.00234437  -0.0415337  -0.0110347  0.0019701  0.019117  -0.000943  0  0  0  0  0  0  0.0276272  0.00597107  -0.0265345  -0.00718544  -0.0169302  0.0049791  -0.0178123  0.0365718  0.00190789  -0.189773  0.021147  -0.0150636 
1699967843.411250000  0  0  11.8237  0.181286  -0.167371  8.22202e-05  nan  nan  nan  nan  nan  nan  -0.999003  -0.0063002  1.00077  -0.00369757  -0.0418568  -0.0109773  0.0019701  0.02006  -0.0011342  0  0  0  0  0  0  0.0276769  0.00571036  -0.026566  -0.00654245  -0.018155  -0.00123142  -0.0175324  0.036706  0.00175995  -0.201272  -0.00295395  -0.0186273 
1699967843.415209000  0  0  11.7849  0.200332  -0.169199  -0.000279082  nan  nan  nan  nan  nan  nan  -0.998993  -0.0061977  1.00076  -0.003441  -0.0417668  -0.0109883  0.0019701  0.0209443  -0.001307  0  0  0  0  0  0  0.0276479  0.00562117  -0.0265329  -0.00677159  -0.0176021  0.00191233  -0.0188884  0.0366391  0.00175938  -0.226891  0.00131927  -0.0141052 
1699967843.421263000  0  0  11.7451  0.19179  -0.163008  -0.000339825  nan  nan  nan  nan  nan  nan  -0.998984  -0.0060909  1.00075  -0.00383713  -0.0417468  -0.0109719  0.0019701  0.0217663  -0.0014575  0  0  0  0  0  0  0.0276732  0.00537441  -0.0264829  -0.00704379  -0.0175527  0.00511544  -0.0196297  0.036487  0.00169634  -0.202987  -0.00966437  -0.0127156 
1699967843.426250000  0  0  11.8259  0.176157  -0.153902  0.000470935  nan  nan  nan  nan  nan  nan  -0.998974  -0.0059802  1.00074  -0.00473972  -0.0417927  -0.010934  0.0019703  0.0225221  -0.0015821  0  0  0  0  0  0  0.0277017  0.00513493  -0.026513  -0.00668593  -0.0182445  -0.00153693  -0.0194264  0.0363029  0.0015228  -0.173591  -0.0261832  -0.0211147 
1699967843.431238000  0  0  11.7817  0.202478  -0.154618  -2.76287e-05  nan  nan  nan  nan  nan  nan  -0.998964  -0.0058658  1.00074  -0.00406404  -0.0418549  -0.0109619  0.0019731  0.0232082  -0.0016769  0  0  0  0  0  0  0.0276696  0.0050488  -0.026487  -0.00672612  -0.0171451  0.00204873  -0.0213823  0.036226  0.0015282  -0.208239  -0.0240437  -0.0149367 
1699967843.436282000  0  0  11.7726  0.202889  -0.161202  0.000117512  nan  nan  nan  nan  nan  nan  -0.998954  -0.0057482  1.00073  -0.00444576  -0.041574  -0.0109472  0.0019823  0.0238206  -0.0017383  0  0  0  0  0  0  0.0277003  0.00479389  -0.0264725  -0.00720943  -0.0170689  0.00276574  -0.0220455  0.035966  0.00142869  -0.202959  -0.00848236  -0.0157558 
1699967843.440206000  0  0  11.8422  0.190634  -0.153728  0.000437516  nan  nan  nan  nan  nan  nan  -0.998944  -0.0056277  1.00072  -0.00439334  -0.0413197  -0.0109505  0.0020015  0.0243556  -0.0017624  0  0  0  0  0  0  0.0276729  0.004698  -0.0265079  -0.00716144  -0.0168212  -0.00296555  -0.0225495  0.035555  0.00134074  -0.173812  -0.0196512  -0.0188763 
1699967843.446251000  0  0  11.8145  0.206528  -0.152217  -0.000263464  nan  nan  nan  nan  nan  nan  -0.998934  -0.0055048  1.00071  -0.00440304  -0.0416624  -0.0109486  0.0020346  0.0248096  -0.0017455  0  0  0  0  0  0  0.0276925  0.00448151  -0.0264913  -0.00688035  -0.016343  -0.000712906  -0.0238188  0.0356439  0.0013368  -0.193923  -0.0234901  -0.0100747 
1699967843.451253000  0  0  11.7962  0.202123  -0.157595  -0.000732773  nan  nan  nan  nan  nan  nan  -0.998924  -0.0053798  1.0007  -0.00463092  -0.0414234  -0.0109402  0.0020853  0.0251787  -0.0016839  0  0  0  0  0  0  0.0277203  0.0042348  -0.0264821  -0.00734306  -0.0160799  0.00077951  -0.0244607  0.0354164  0.00134807  -0.179207  -0.0106416  -0.00432104 
1699967843.456342000  0  0  11.8457  0.187367  -0.140335  -7.83343e-05  nan  nan  nan  nan  nan  nan  -0.998913  -0.0052531  1.00069  -0.0040063  -0.0411319  -0.0109673  0.0021573  0.0254592  -0.0015738  0  0  0  0  0  0  0.0276851  0.00415518  -0.0265128  -0.00741141  -0.0151055  -0.00330438  -0.0255299  0.0347552  0.00126428  -0.13986  -0.0390775  -0.0116636 
1699967843.461254000  0  0  11.8444  0.199759  -0.15046  -0.000120594  nan  nan  nan  nan  nan  nan  -0.998902  -0.0051253  1.00069  -0.0044471  -0.0414697  -0.0109476  0.0022544  0.0256473  -0.0014115  0  0  0  0  0  0  0.0277256  0.00390468  -0.026531  -0.00706789  -0.0151327  -0.00316675  -0.0260597  0.0350308  0.00120944  -0.159768  -0.0213639  -0.010587 
1699967843.465209000  0  0  11.8264  0.196321  -0.157702  7.55467e-05  nan  nan  nan  nan  nan  nan  -0.99889  -0.0049968  1.00068  -0.00354613  -0.0409554  -0.0109868  0.0023803  0.0257393  -0.0011932  0  0  0  0  0  0  0.0276913  0.00382261  -0.026522  -0.00773636  -0.0137504  -0.0017273  -0.0274047  0.0346565  0.00116906  -0.140519  -0.00343665  -0.0126349 
1699967843.471390000  0  0  11.8897  0.177805  -0.140397  0.00072826  nan  nan  nan  nan  nan  nan  -0.998878  -0.0048681  1.00067  -0.00323565  -0.0409388  -0.0109996  0.0025388  0.0257315  -0.0009152  0  0  0  0  0  0  0.0276994  0.00363661  -0.0265848  -0.00748349  -0.0129551  -0.00687902  -0.0279909  0.0342282  0.00101513  -0.0980943  -0.0341066  -0.0192546 
1699967843.476281000  0  0  11.8951  0.197402  -0.15683  0.000364591  nan  nan  nan  nan  nan  nan  -0.998865  -0.0047397  1.00067  -0.00322575  -0.0410012  -0.0109998  0.0027337  0.0256201  -0.0005737  0  0  0  0  0  0  0.0277202  0.00342375  -0.026627  -0.00742098  -0.0124723  -0.00726618  -0.0288459  0.0344344  0.000972786  -0.129421  -0.00313672  -0.0142852 
1699967843.481387000  0  0  11.8669  0.186365  -0.165113  0.00122806  nan  nan  nan  nan  nan  nan  -0.998851  -0.0046121  1.00067  -0.00170052  -0.0404398  -0.0110633  0.0029687  0.0254013  -0.0001649  0  0  0  0  0  0  0.0276788  0.00337047  -0.0266368  -0.00817319  -0.0103247  -0.00496574  -0.0306737  0.0341269  0.000846811  -0.0905324  0.0162588  -0.0238188 
1699967843.486236000  0  0  11.9222  0.175757  -0.16201  0.00180603  nan  nan  nan  nan  nan  nan  -0.998835  -0.0044858  1.00067  -0.00158494  -0.0405827  -0.0110677  0.0032475  0.0250714  0.0003148  0  0  0  0  0  0  0.0277097  0.00316198  -0.0267138  -0.00780189  -0.00972372  -0.00941814  -0.030943  0.0342414  0.000666868  -0.0668375  0.00899829  -0.029244 
1699967843.490211000  0  0  11.9508  0.198364  -0.168032  0.00146747  nan  nan  nan  nan  nan  nan  -0.998818  -0.0043615  1.00067  -0.00059883  -0.0403457  -0.0111078  0.0035738  0.0246267  0.0008692  0  0  0  0  0  0  0.0276771  0.0030991  -0.0267582  -0.00789803  -0.00827847  -0.011769  -0.0325507  0.0341816  0.000632309  -0.097261  0.021594  -0.0246665 
1699967843.496278000  0  0  11.8762  0.197608  -0.174937  0.00145374  nan  nan  nan  nan  nan  nan  -0.998799  -0.0042398  1.00068  0.000514627  -0.0401126  -0.0111526  0.0039516  0.0240634  0.0015022  0  0  0  0  0  0  0.0276788  0.00293218  -0.0267646  -0.00852474  -0.00642697  -0.00560396  -0.0341187  0.034268  0.000505349  -0.0813235  0.0346086  -0.0232252 
1699967843.501379000  0  0  11.942  0.186243  -0.165302  0.00143637  nan  nan  nan  nan  nan  nan  -0.998779  -0.0041211  1.00069  0.00083868  -0.0398857  -0.0111654  0.0043844  0.0233777  0.0022173  0  0  0  0  0  0  0.0276893  0.00274963  -0.0268353  -0.00855095  -0.00558766  -0.0109518  -0.0344511  0.0340366  0.000373211  -0.0555366  0.0174666  -0.0216867 
1699967843.506251000  0  0  11.9388  0.211848  -0.166718  0.0013493  nan  nan  nan  nan  nan  nan  -0.998755  -0.0040062  1.0007  0.00242802  -0.0395126  -0.0112279  0.004876  0.0225659  0.0030185  0  0  0  0  0  0  0.0276465  0.00272408  -0.0268745  -0.00893756  -0.00341794  -0.0106873  -0.0366528  0.0337957  0.000322811  -0.0864891  0.0225152  -0.0200943 
1699967843.511251000  0  0  11.8939  0.205493  -0.168132  0.00158854  nan  nan  nan  nan  nan  nan  -0.99873  -0.0038957  1.00072  0.00377461  -0.0391105  -0.0112796  0.0054303  0.0216242  0.0039094  0  0  0  0  0  0  0.0276519  0.0025598  -0.0268869  -0.00965625  -0.00127763  -0.00697586  -0.0381402  0.0335642  0.000202814  -0.0600953  0.0274728  -0.0218849 
1699967843.516278000  0  0  11.9472  0.201385  -0.162082  0.00209054  nan  nan  nan  nan  nan  nan  -0.998701  -0.0037902  1.00074  0.00564755  -0.0380576  -0.0113469  0.0060509  0.020549  0.0048937  0  0  0  0  0  0  0.0275994  0.00255826  -0.02696  -0.0106755  0.00124754  -0.0113447  -0.0399943  0.032608  5.27815e-05  -0.0348214  0.0241705  -0.0266596 
1699967843.521392000  0  0  11.9391  0.227478  -0.157225  0.00161254  nan  nan  nan  nan  nan  nan  -0.998669  -0.0036904  1.00077  0.00663459  -0.0383113  -0.0113861  0.0067415  0.0193364  0.0059753  0  0  0  0  0  0  0.027621  0.0024029  -0.0270097  -0.0104026  0.00289386  -0.010619  -0.0416066  0.0327986  -4.28489e-06  -0.0721758  0.0127026  -0.020114 
1699967843.525208000  0  0  11.9229  0.23356  -0.162114  0.00158334  nan  nan  nan  nan  nan  nan  -0.998633  -0.0035971  1.0008  0.00896007  -0.0374843  -0.0114678  0.0075047  0.0179827  0.0071579  0  0  0  0  0  0  0.0275691  0.00240053  -0.0270411  -0.0114135  0.00598207  -0.00929908  -0.0440963  0.0321774  -4.2076e-05  -0.0614342  0.0281951  -0.019371 
1699967843.531389000  0  0  11.9931  0.22774  -0.155068  0.00209497  nan  nan  nan  nan  nan  nan  -0.998594  -0.0035108  1.00084  0.0102369  -0.0367227  -0.0115079  0.0083378  0.0164841  0.0084452  0  0  0  0  0  0  0.0275619  0.00229107  -0.0271247  -0.0120979  0.00800602  -0.0150397  -0.0454148  0.0315788  -0.000235922  -0.0376641  0.0196107  -0.0238279 
1699967843.536282000  0  0  11.968  0.243768  -0.139773  0.00181213  nan  nan  nan  nan  nan  nan  -0.99855  -0.0034325  1.00088  0.0117772  -0.0365965  -0.0115629  0.009237  0.0148369  0.009841  0  0  0  0  0  0  0.0275628  0.00218143  -0.02714  -0.0123432  0.0102738  -0.0129793  -0.047277  0.0312449  -0.000281559  -0.0525881  -0.0079076  -0.019836 
1699967843.540361000  0  0  11.9413  0.258465  -0.146398  0.00121607  nan  nan  nan  nan  nan  nan  -0.998501  -0.0033627  1.00094  0.0145767  -0.0355766  -0.0116505  0.0101986  0.0130374  0.011349  0  0  0  0  0  0  0.0274983  0.00222071  -0.0271844  -0.0136148  0.0138863  -0.0107788  -0.0503097  0.0304398  -0.000243568  -0.0540807  0.0127486  -0.0127652 
1699967843.546253000  0  0  12.0097  0.242187  -0.149608  0.00141776  nan  nan  nan  nan  nan  nan  -0.998448  -0.0033023  1.001  0.0161467  -0.0344483  -0.0116882  0.0112189  0.0110818  0.012973  0  0  0  0  0  0  0.0274896  0.00211639  -0.0272621  -0.0148043  0.016341  -0.0163816  -0.0515949  0.0296047  -0.000363185  -0.00970031  0.0268522  -0.0140901 
1699967843.550207000  0  0  12.0165  0.254499  -0.12979  0.00201248  nan  nan  nan  nan  nan  nan  -0.998389  -0.0032522  1.00107  0.0186459  -0.0335826  -0.0117581  0.012294  0.0089663  0.0147168  0  0  0  0  0  0  0.0274189  0.00217522  -0.0273336  -0.0157346  0.019577  -0.0168861  -0.0541388  0.0285043  -0.000457634  -0.0109221  -0.00265934  -0.0205797 
1699967843.556279000  0  0  12.0015  0.260019  -0.144269  0.00188097  nan  nan  nan  nan  nan  nan  -0.998325  -0.003213  1.00115  0.0208586  -0.0329535  -0.0118193  0.0134203  0.0066872  0.016584  0  0  0  0  0  0  0.0274107  0.00212282  -0.0273713  -0.0165732  0.0226287  -0.0156468  -0.0563075  0.028203  -0.000548007  -0.00200776  0.0290711  -0.0180321 
1699967843.561253000  0  0  12.0672  0.237304  -0.145867  0.00292928  nan  nan  nan  nan  nan  nan  -0.998255  -0.0031856  1.00123  0.0225305  -0.0319192  -0.0118512  0.0145941  0.0042408  0.0185784  0  0  0  0  0  0  0.0274081  0.00205261  -0.0274696  -0.0176855  0.025196  -0.0209589  -0.0573153  0.0274075  -0.000791739  0.0526939  0.0395854  -0.0286987 
1699967843.565208000  0  0  12.0963  0.245989  -0.13225  0.00367016  nan  nan  nan  nan  nan  nan  -0.998179  -0.0031708  1.00133  0.0252125  -0.0310205  -0.0119141  0.0158114  0.0016233  0.0207039  0  0  0  0  0  0  0.0273242  0.0021532  -0.0275784  -0.0185571  0.0286705  -0.0232396  -0.0597209  0.026444  -0.000968675  0.0574546  0.0212152  -0.0361902 
1699967843.571389000  0  0  12.1  0.252219  -0.151282  0.00404196  nan  nan  nan  nan  nan  nan  -0.998097  -0.0031696  1.00144  0.0276311  -0.0302143  -0.0119669  0.0170687  -0.0011691  0.022964  0  0  0  0  0  0  0.0273035  0.00214461  -0.0276603  -0.0195405  0.0319721  -0.0234573  -0.0617995  0.0261616  -0.00122587  0.0641166  0.0618775  -0.0382658 
1699967843.576282000  0  0  12.1447  0.232605  -0.151225  0.00495007  nan  nan  nan  nan  nan  nan  -0.998008  -0.0031828  1.00156  0.0295064  -0.0294839  -0.0120021  0.0183621  -0.0041401  0.0253627  0  0  0  0  0  0  0.0272855  0.00210211  -0.0277716  -0.0203037  0.0347498  -0.0269734  -0.062818  0.0257333  -0.00153072  0.112715  0.0657031  -0.0465686 
