ts fx fy fz tx ty tz exfx exfy exfz extx exty extz xd yd zd rolld pitchd yawd vxd vyd vzd wxd wyd wzd axd ayd azd e_x e_y e_z e_vx e_vy e_vz e_rx e_ry e_rz e_wx e_wy e_wz
1704198711.524417000  0  0  11.9738  0.0791641  -0.138257  0.027386  nan  nan  nan  nan  nan  nan  -2.5  -0.3  1  0.00611901  -0.0304298  -0.000186174  0  0  0  0  0  0  0  0  0  0.0219533  -0.0050289  -0.0291678  -0.00828125  0.0193136  -0.00441783  -0.0158226  0.0313735  -0.0365333  -0.0127599  -0.0121226  0.0230076 
1704198711.528407000  0  0  11.9399  0.0604602  -0.115531  0.0288262  nan  nan  nan  nan  nan  nan  -2.5  -0.3  1  0.00566551  -0.0302373  -0.000171285  0  0  0  0  0  0  0  0  0  0.0221025  -0.00512964  -0.0291118  -0.00898404  0.0189129  -0.00168803  -0.0150451  0.030863  -0.0366286  0.0174947  -0.0528778  0.00595763 
1704198711.533361000  0  0  11.9163  0.0717925  -0.114225  0.0296352  nan  nan  nan  nan  nan  nan  -2.5  -0.3  1  0.00622559  -0.0319069  -0.000198608  0  0  0  0  0  0  0  0  0  0.0222545  -0.00519607  -0.0290574  -0.00718796  0.0197865  0.000170204  -0.015724  0.0321557  -0.036695  0.00107535  -0.0673815  -0.00349016 
1704198711.538421000  0  0  11.9722  0.100548  -0.1283  0.027762  nan  nan  nan  nan  nan  nan  -2.5  -0.3  1  0.00649124  -0.0312686  -0.000202942  0  0  0  0  0  0  0  0  0  0.0222153  -0.00510043  -0.0291025  -0.00775189  0.0199662  -0.00440985  -0.0165654  0.0315774  -0.0364471  -0.0486934  -0.0339122  0.0174462 
1704198711.543422000  0  0  11.9077  0.0821083  -0.0958869  0.0297851  nan  nan  nan  nan  nan  nan  -2.5  -0.3  1  0.0061677  -0.0308907  -0.000190497  0  0  0  0  0  0  0  0  0  0.0223516  -0.00517161  -0.0290296  -0.00878056  0.0196499  0.000835009  -0.016079  0.0305569  -0.0366224  -0.0162902  -0.0893499  -0.00609033 
1704198711.548412000  0  0  11.8944  0.101663  -0.101518  0.0294784  nan  nan  nan  nan  nan  nan  -2.5  -0.3  1  0.0076894  -0.0308179  -0.000236938  0  0  0  0  0  0  0  0  0  0.0223131  -0.00506238  -0.0290211  -0.00883583  0.0214085  0.00191745  -0.0179062  0.0301151  -0.0366046  -0.0385892  -0.0740239  -0.00243426 
1704198711.553368000  0  0  11.9381  0.117334  -0.110024  0.0274441  nan  nan  nan  nan  nan  nan  -2.5  -0.3  1  0.00690909  -0.0315776  -0.000218139  0  0  0  0  0  0  0  0  0  0.0224484  -0.00513499  -0.0290074  -0.00797879  0.0205722  -0.00174751  -0.0177443  0.0308163  -0.0363233  -0.0714218  -0.0634613  0.0201819 
1704198711.557411000  0  0  11.9205  0.0992768  -0.0971703  0.0287384  nan  nan  nan  nan  nan  nan  -2.5  -0.3  1  0.00758981  -0.0307375  -0.00023326  0  0  0  0  0  0  0  0  0  0.0224092  -0.00504949  -0.0289985  -0.00906724  0.0212703  -0.000293184  -0.0182213  0.0295369  -0.0364137  -0.0309178  -0.0773987  0.00490745 
1704198711.563398000  0  0  11.895  0.126785  -0.0985404  0.0264195  nan  nan  nan  nan  nan  nan  -2.5  -0.3  1  0.00828093  -0.0304886  -0.00025244  0  0  0  0  0  0  0  0  0  0.022535  -0.00507843  -0.0289433  -0.00976216  0.0222265  0.00170036  -0.019595  0.0290232  -0.0360593  -0.0732953  -0.0699329  0.0303492 
1704198711.567367000  0  0  11.8983  0.13367  -0.0931054  0.0262534  nan  nan  nan  nan  nan  nan  -2.5  -0.3  1  0.00876238  -0.0300802  -0.000263542  0  0  0  0  0  0  0  0  0  0.022498  -0.00499177  -0.0289422  -0.0102087  0.0226734  0.00141909  -0.0204269  0.0282725  -0.0359185  -0.0794123  -0.0738962  0.0310179 
1704198711.573486000  0  0  11.8977  0.151338  -0.108848  0.026206  nan  nan  nan  nan  nan  nan  -2.5  -0.3  1  0.00995835  -0.0286544  -0.000285321  0  0  0  0  0  0  0  0  0  0.0225969  -0.00500706  -0.028903  -0.0123153  0.0242884  0.0013555  -0.0221195  0.0270169  -0.0357943  -0.0991755  -0.0308595  0.030368 
1704198711.578512000  0  0  11.8101  0.126437  -0.0813206  0.0272813  nan  nan  nan  nan  nan  nan  -2.5  -0.3  1  0.00872852  -0.0287938  -0.000251299  0  0  0  0  0  0  0  0  0  0.0226849  -0.00504818  -0.0287383  -0.0126089  0.022669  0.00834655  -0.0209374  0.0264061  -0.0358183  -0.0602495  -0.0802951  0.0171665 
1704198711.583538000  0  0  11.9168  0.0995867  -0.10034  0.0312372  nan  nan  nan  nan  nan  nan  -2.5  -0.3  1  0.00851269  -0.0320705  -0.000272966  0  0  0  0  0  0  0  0  0  0.0228243  -0.00507693  -0.0287775  -0.00823505  0.0225492  -0.000438366  -0.0204917  0.0294171  -0.0362842  -0.0106502  -0.0699579  -0.0276229 
1704198711.588397000  0  0  11.8129  0.12897  -0.124788  0.0286301  nan  nan  nan  nan  nan  nan  -2.5  -0.3  0.995  0.0100372  -0.0313781  -0.000314906  2e-07  2e-07  2e-07  0  0  0  0.000125  0.000125  0.000125  0.0227714  -0.00495477  -0.0237865  -0.00937892  0.0241964  -0.0022047  -0.0225349  0.0289929  -0.0360446  -0.0506185  -0.0171581  0.00256982 
1704198711.593405000  0  0  11.72  0.105026  -0.0810169  0.0295659  nan  nan  nan  nan  nan  nan  -2.5  -0.3  0.995  0.00884802  -0.0298032  -0.000263667  1.7e-06  1.7e-06  1.7e-06  0  0  0  0.0005  0.0005  0.0005  0.0228248  -0.00497316  -0.023675  -0.0118297  0.0226332  0.00537714  -0.0211902  0.0267002  -0.0361416  -0.015102  -0.0836083  -0.00815692 
1704198711.598402000  0  0  11.8029  0.0667254  -0.0947021  0.0345463  nan  nan  nan  nan  nan  nan  -2.5  -0.3  0.995  0.00937444  -0.0324024  -0.00030371  5.6e-06  5.6e-06  5.6e-06  0  0  0  0.001125  0.001125  0.001125  0.0228044  -0.00485472  -0.0237157  -0.00801866  0.0232196  -0.00136064  -0.0209339  0.0288137  -0.0368843  0.0591411  -0.0756819  -0.0629865 
1704198711.603410000  0  0  11.8411  0.124096  -0.143019  0.0268337  nan  nan  nan  nan  nan  nan  -2.5  -0.3  0.995  0.0101238  -0.0311291  -0.000315206  1.33e-05  1.33e-05  1.33e-05  0  0  0  0.002  0.002  0.002  0.0228686  -0.00485518  -0.0237316  -0.00958721  0.0243582  -0.00448391  -0.0224789  0.02855  -0.0361566  -0.0413855  0.0233787  0.0261447 
1704198711.607409000  0  0  11.7733  0.0959534  -0.0972752  0.0258302  nan  nan  nan  nan  nan  nan  -2.5  -0.3  0.995  0.00944091  -0.0288045  -0.000272211  2.6e-05  2.6e-05  2.6e-05  0  0  0  0.003125  0.003125  0.003125  0.0228037  -0.0047692  -0.0236878  -0.0125808  0.023341  0.0012071  -0.0214079  0.0256276  -0.0359242  0.00504596  -0.0412237  0.0363642 
1704198711.613402000  0  0  11.8513  0.0546123  -0.11575  0.0308742  nan  nan  nan  nan  nan  nan  -2.5  -0.3  0.995  0.00861912  -0.0316676  -0.000273408  4.5e-05  4.5e-05  4.5e-05  0  0  0  0.0045  0.0045  0.0045  0.0229764  -0.00481092  -0.023735  -0.00876844  0.0226064  -0.00502255  -0.0196859  0.0283536  -0.0365125  0.0718853  -0.0293533  -0.0208032 
1704198711.617407000  0  0  11.8811  0.0947767  -0.150272  0.0258475  nan  nan  nan  nan  nan  nan  -2.5  -0.299999  0.995  0.00959854  -0.0312832  -0.000301233  7.15e-05  7.15e-05  7.15e-05  0  0  0  0.006125  0.006125  0.006125  0.0229403  -0.00470914  -0.0237657  -0.00888293  0.0239079  -0.00732526  -0.0211322  0.0286114  -0.0359524  0.00486307  0.0373202  0.0364305 
1704198711.623419000  0  0  11.8218  0.0463414  -0.0948724  0.0266772  nan  nan  nan  nan  nan  nan  -2.5  -0.299999  0.995  0.00838943  -0.0292716  -0.000247243  0.0001067  0.0001067  0.0001067  0  0  0  0.008  0.008  0.008  0.0230104  -0.00475491  -0.0236585  -0.0116552  0.0225965  -0.00238299  -0.0189045  0.0258208  -0.0358748  0.0812385  -0.047807  0.0252839 
1704198711.628414000  0  0  11.8599  0.0381158  -0.108826  0.028528  nan  nan  nan  nan  nan  nan  -2.5  -0.299998  0.995  0.00767379  -0.0306938  -0.000238205  0.0001519  0.0001519  0.0001519  0  0  0  0.010125  0.010125  0.010125  0.0231233  -0.00478011  -0.0236618  -0.00963798  0.022014  -0.00532595  -0.0177009  0.0271812  -0.0360855  0.0866164  -0.0324146  0.00425561 
1704198711.632416000  0  0  11.8849  0.0612245  -0.125472  0.0261055  nan  nan  nan  nan  nan  nan  -2.5  -0.299997  0.995  0.00821741  -0.0307928  -0.000257202  0.0002083  0.0002083  0.0002083  0  0  0  0.0125  0.0125  0.0125  0.0230926  -0.00468571  -0.0236927  -0.00905167  0.0228442  -0.00713156  -0.0183588  0.0275029  -0.0357554  0.046452  -0.002083  0.0312351 
1704198711.638403000  0  0  11.8628  0.0484986  -0.104738  0.0264418  nan  nan  nan  nan  nan  nan  -2.5  -0.299996  0.995  0.00777141  -0.0286596  -0.000228799  0.0002773  0.0002773  0.0002773  0  0  0  0.015125  0.015125  0.015125  0.0231658  -0.00473017  -0.0236351  -0.0117726  0.0226684  -0.00514491  -0.0172556  0.0251951  -0.0356554  0.0617541  -0.0223192  0.0260311 
1704198711.643417000  0  0  11.8372  0.0328648  -0.097566  0.0294903  nan  nan  nan  nan  nan  nan  -2.49999  -0.299995  0.99501  0.00592444  -0.0300267  -0.000186467  0.00036  0.00036  0.00036  0  0  0  0.018  0.018  0.018  0.0233333  -0.00485031  -0.0236104  -0.0100644  0.0208487  -0.0027567  -0.0149022  0.0263346  -0.0360028  0.0713702  -0.0471468  -0.00860045 
1704198711.648403000  0  0  11.8927  0.0537638  -0.110906  0.0299976  nan  nan  nan  nan  nan  nan  -2.49999  -0.299993  0.99501  0.00691856  -0.0303912  -0.000222134  0.0004577  0.0004577  0.0004577  0  0  0  0.021125  0.021125  0.021125  0.0232983  -0.00473393  -0.0236633  -0.0089223  0.0223357  -0.00698034  -0.0159113  0.0266778  -0.0361122  0.0388559  -0.0236232  -0.0138471 
1704198711.653416000  0  0  11.8867  0.0701087  -0.113848  0.0271554  nan  nan  nan  nan  nan  nan  -2.49999  -0.29999  0.99501  0.0060656  -0.0282724  -0.000187468  0.0005717  0.0005717  0.0005717  0  0  0  0.0245  0.0245  0.0245  0.0234179  -0.00483902  -0.0236484  -0.0115816  0.0218669  -0.00619831  -0.0151254  0.0248968  -0.0358583  -0.00106335  -0.00135453  0.0191407 
1704198711.657419000  0  0  11.8356  0.0508909  -0.0803933  0.030606  nan  nan  nan  nan  nan  nan  -2.49999  -0.299987  0.99501  0.00509018  -0.0276218  -0.000161683  0.0007031  0.0007031  0.0007031  0  0  0  0.028125  0.028125  0.028125  0.0233763  -0.00476351  -0.0236284  -0.0120476  0.0208417  -0.00160995  -0.0138606  0.0236383  -0.0362396  0.0257358  -0.0566854  -0.0201785 
1704198711.663415000  0  0  11.9107  0.0696094  -0.111483  0.0316378  nan  nan  nan  nan  nan  nan  -2.49998  -0.299983  0.99502  0.00546094  -0.0297711  -0.000189856  0.0008533  0.0008533  0.0008533  0  0  0  0.0319374  0.032  0.032  0.023501  -0.00478933  -0.0236767  -0.00876361  0.0219226  -0.00740662  -0.0143496  0.0259355  -0.0365762  -0.00720242  -0.015641  -0.0297102 
1704198711.668410000  0  0  11.8975  0.105227  -0.110689  0.0271531  nan  nan  nan  nan  nan  nan  -2.49998  -0.299978  0.99502  0.00579427  -0.0267005  -0.000189493  0.0010221  0.0010235  0.0010235  0  0  0  0.0355621  0.036125  0.036125  0.0234761  -0.00473394  -0.0236688  -0.012354  0.0227556  -0.0059555  -0.0153836  0.0231217  -0.0361103  -0.0689239  0.00865832  0.0216894 
1704198711.673417000  0  0  11.8502  0.0590827  -0.0642948  0.0318545  nan  nan  nan  nan  nan  nan  -2.49997  -0.299973  0.99503  0.00475227  -0.0263874  -0.000169086  0.0012085  0.001215  0.001215  0  0  0  0.0389369  0.0405  0.0405  0.0234161  -0.00463293  -0.023661  -0.0123472  0.0216833  -0.00157886  -0.0138002  0.0218778  -0.0366394  0.00879688  -0.0726867  -0.0317873 
1704198711.678417000  0  0  11.9393  0.0947696  -0.102455  0.0304789  nan  nan  nan  nan  nan  nan  -2.49997  -0.299966  0.99503  0.00520086  -0.0275479  -0.000197556  0.0014111  0.001429  0.001429  0  0  0  0.0420616  0.045125  0.045125  0.0235647  -0.00468851  -0.0237138  -0.0104784  0.0230346  -0.00847143  -0.0148151  0.0234687  -0.0366615  -0.0532402  -0.0110018  -0.0143713 
1704198711.683421000  0  0  11.9152  0.122366  -0.0910442  0.0258193  nan  nan  nan  nan  nan  nan  -2.49996  -0.299958  0.99504  0.00576863  -0.0252257  -0.000212204  0.0016287  0.0016667  0.0016667  0  0  0  0.0449364  0.05  0.05  0.0234866  -0.00456712  -0.0237267  -0.0130897  0.0241208  -0.00600144  -0.0161263  0.021117  -0.0360762  -0.0963703  -0.012188  0.0380205 
1704198711.688411000  0  0  11.9076  0.0733581  -0.0685191  0.0294421  nan  nan  nan  nan  nan  nan  -2.49995  -0.299949  0.99505  0.00335642  -0.0255595  -0.00016678  0.00186  0.0019294  0.0019294  0  0  0  0.0475611  0.055125  0.055125  0.0236166  -0.00466462  -0.0237337  -0.0126273  0.021791  -0.00482573  -0.0132559  0.0210295  -0.0364328  -0.0247618  -0.0564329  -0.00369847 
1704198711.693417000  0  0  11.9577  0.0999025  -0.0912367  0.0287615  nan  nan  nan  nan  nan  nan  -2.49994  -0.299939  0.99506  0.00391269  -0.0260976  -0.000199601  0.0021039  0.0022183  0.0022183  0  0  0  0.0499359  0.0605  0.0605  0.0237094  -0.0046766  -0.02383  -0.011674  0.0232559  -0.0083041  -0.0143253  0.0218743  -0.0363496  -0.068012  -0.0187697  0.0039765 
1704198711.698519000  0  0  11.9582  0.117936  -0.0958525  0.0268037  nan  nan  nan  nan  nan  nan  -2.49993  -0.299927  0.99507  0.00405822  -0.0248042  -0.000216851  0.002359  0.0025348  0.0025348  0  0  0  0.0520606  0.066125  0.066125  0.0236436  -0.00455661  -0.0238596  -0.0129758  0.0238957  -0.00776581  -0.0151487  0.020723  -0.0360334  -0.0965034  0.0010531  0.0252872 
1704198711.703418000  0  0  11.9842  0.0907379  -0.0911613  0.029085  nan  nan  nan  nan  nan  nan  -2.49992  -0.299914  0.99509  0.00260442  -0.0238457  -0.000199498  0.0026241  0.00288  0.00288  0  0  0  0.0539354  0.072  0.072  0.0236829  -0.00455533  -0.0239448  -0.0140317  0.0227136  -0.00918641  -0.0136203  0.0199226  -0.0362055  -0.0561694  -0.000965089  -0.0015084 
1704198711.708379000  0  0  11.9868  0.0879343  -0.0911532  0.0302666  nan  nan  nan  nan  nan  nan  -2.4999  -0.299898  0.9951  0.00258172  -0.024992  -0.000225716  0.0028979  0.0032552  0.0032552  0  0  0  0.0555601  0.078125  0.078125  0.0238252  -0.00460632  -0.0240602  -0.0126074  0.0235729  -0.00857657  -0.0137765  0.0210588  -0.0363443  -0.0491251  -0.0114345  -0.0148886 
1704198711.713444000  0  0  12.0358  0.111699  -0.119899  0.0279714  nan  nan  nan  nan  nan  nan  -2.49989  -0.299881  0.99512  0.00257811  -0.0246325  -0.000251199  0.0031792  0.0036617  0.0036617  0  0  0  0.0569349  0.0845  0.0845  0.0237699  -0.00448597  -0.0241344  -0.0126542  0.0241222  -0.0119293  -0.0144967  0.0212925  -0.0360901  -0.090028  0.0439071  0.0112589 
1704198711.718440000  0  0  12.0436  0.0803619  -0.107228  0.0289179  nan  nan  nan  nan  nan  nan  -2.49987  -0.299862  0.99514  0.00100598  -0.0231106  -0.000240147  0.0034668  0.0041006  0.0041006  0  0  0  0.0580596  0.091125  0.091125  0.0237887  -0.00447421  -0.0242177  -0.0145707  0.0228344  -0.0117624  -0.0127727  0.0200093  -0.0361281  -0.0432151  0.0303709  -0.000192862 
1704198711.723446000  0  0  12.0292  0.0688732  -0.0937677  0.0318731  nan  nan  nan  nan  nan  nan  -2.49985  -0.29984  0.99516  0.0013201  -0.023335  -0.000279902  0.0037594  0.0045733  0.0045733  0  0  0  0.0589343  0.098  0.098  0.0237241  -0.00435251  -0.0242521  -0.0140531  0.0238527  -0.00983188  -0.0129616  0.0200029  -0.0365158  -0.0185001  0.00350872  -0.0332559 
1704198711.728378000  0  0  12.1168  0.0920937  -0.135773  0.0284678  nan  nan  nan  nan  nan  nan  -2.49983  -0.299816  0.99518  0.000507417  -0.0239588  -0.000296456  0.0040558  0.005081  0.005081  0  0  0  0.0595591  0.105125  0.105125  0.0238235  -0.00439582  -0.0244061  -0.013127  0.0237698  -0.0161537  -0.0127469  0.0216697  -0.0361934  -0.0669159  0.0721843  0.0060865 
1704198711.732434000  0  0  12.1056  0.0669304  -0.118644  0.0291115  nan  nan  nan  nan  nan  nan  -2.49981  -0.299789  0.99521  -0.000723369  -0.0221592  -0.000306472  0.0043546  0.005625  0.005625  0  0  0  0.0599338  0.1125  0.1125  0.0237493  -0.00431485  -0.0244533  -0.0153675  0.0228687  -0.0144065  -0.0113278  0.0200076  -0.0362192  -0.0296452  0.0532184  -0.00170213 
1704198711.737386000  0  0  12.0828  0.0366435  -0.105547  0.0315985  nan  nan  nan  nan  nan  nan  -2.49979  -0.299759  0.99524  -0.00156588  -0.0226086  -0.000328501  0.0046547  0.0062065  0.0062065  0  0  0  0.0600586  0.120125  0.120125  0.0237884  -0.00429542  -0.0245318  -0.0148919  0.0226618  -0.0116014  -0.00999454  0.0204292  -0.0365401  0.0186627  0.0231453  -0.0295804 
1704198711.743429000  0  0  12.1671  0.0672065  -0.139007  0.0277333  nan  nan  nan  nan  nan  nan  -2.49977  -0.299727  0.99527  -0.00216581  -0.0233252  -0.000358087  0.0049548  0.0068267  0.0068267  0  0  0  0.0599333  0.128  0.128  0.0238959  -0.00432652  -0.0247034  -0.0139652  0.0229019  -0.0175426  -0.00996175  0.0221424  -0.0361266  -0.0427649  0.0743038  0.0146 
1704198711.748424000  0  0  12.1373  0.0391626  -0.125392  0.029495  nan  nan  nan  nan  nan  nan  -2.49974  -0.299691  0.99531  -0.00346598  -0.0223109  -0.000379177  0.0052536  0.0074869  0.0074869  0  0  0  0.0595581  0.136125  0.136125  0.0238127  -0.00422337  -0.0247538  -0.015275  0.0219561  -0.0141644  -0.00837989  0.0213213  -0.0362484  -0.00123011  0.0546269  -0.00620316 
1704198711.753418000  0  0  12.1269  0.0364181  -0.134551  0.0300704  nan  nan  nan  nan  nan  nan  -2.49971  -0.299652  0.99535  -0.00500528  -0.0231496  -0.000391839  0.0055499  0.0081883  0.0081883  0  0  0  0.0589328  0.1445  0.144461  0.0240914  -0.00444048  -0.0245695  -0.0148696  0.0214288  -0.0128803  -0.00679318  0.0223777  -0.0364334  -0.0103388  0.0632272  -0.0115469 
1704198711.757422000  0  0  12.1499  0.0569998  -0.132805  0.0281491  nan  nan  nan  nan  nan  nan  -2.49968  -0.299609  0.99539  -0.00566855  -0.0227654  -0.000433263  0.0058425  0.0089323  0.0089312  0  0  0  0.0580576  0.153125  0.15264  0.0240261  -0.00436396  -0.0246343  -0.0152961  0.0214427  -0.0138851  -0.00664063  0.022261  -0.0361757  -0.0529058  0.0608087  0.00989379 
1704198711.763421000  0  0  12.1516  0.0277911  -0.131915  0.030307  nan  nan  nan  nan  nan  nan  -2.49965  -0.299563  0.99544  -0.00838472  -0.0242142  -0.000417286  0.0061301  0.00972  0.0097143  0  0  0  0.0569323  0.162  0.160568  0.0242462  -0.00454851  -0.0244966  -0.013969  0.0193082  -0.0135222  -0.00376315  0.0237195  -0.0364921  -0.0209613  0.0456116  -0.013917 
1704198711.768414000  0  0  12.1297  0.0429323  -0.130662  0.0295838  nan  nan  nan  nan  nan  nan  -2.49962  -0.299512  0.99549  -0.00957028  -0.0230476  -0.000461041  0.0064114  0.0105527  0.0105364  0  0  0  0.0555571  0.171125  0.168246  0.0244172  -0.00470398  -0.0243684  -0.0161569  0.0192323  -0.0112259  -0.00295374  0.0226975  -0.0365213  -0.0586902  0.0525057  -0.00458474 
1704198711.773416000  0  0  12.1147  0.042517  -0.102371  0.0311373  nan  nan  nan  nan  nan  nan  -2.49959  -0.299457  0.99554  -0.0105532  -0.0236688  -0.000496633  0.0066853  0.0114317  0.0113963  0  0  0  0.0539318  0.1805  0.175674  0.0243529  -0.00461188  -0.0244014  -0.0154235  0.0189072  -0.00918334  -0.00237605  0.0229118  -0.0366787  -0.0631743  -0.00604608  -0.0224294 
1704198711.778417000  0  0  12.1761  0.0489987  -0.142695  0.03206  nan  nan  nan  nan  nan  nan  -2.49956  -0.299398  0.9956  -0.0122375  -0.0251785  -0.000506395  0.0069503  0.0123581  0.0122928  0  0  0  0.0520566  0.190125  0.182852  0.0245435  -0.00476061  -0.0243144  -0.0138814  0.0181046  -0.0137839  -0.00117767  0.0249004  -0.0369684  -0.0871628  0.0563076  -0.0310664 
1704198711.783414000  0  0  12.0938  0.0677512  -0.112077  0.0292669  nan  nan  nan  nan  nan  nan  -2.49952  -0.299333  0.99567  -0.0128186  -0.0225613  -0.000596804  0.0072054  0.0133333  0.0132244  0  0  0  0.0499313  0.2  0.189781  0.0244368  -0.00466743  -0.0243179  -0.0176648  0.0184807  -0.00625047  -0.00136681  0.0222243  -0.0366854  -0.122928  0.0196899  0.00101718 
1704198711.788413000  0  0  12.1231  0.0468525  -0.0856392  0.0329418  nan  nan  nan  nan  nan  nan  -2.49948  -0.299264  0.99573  -0.0140519  -0.0245363  -0.000616029  0.0074492  0.0143585  0.0141901  0  0  0  0.0475561  0.210125  0.196459  0.0244815  -0.00468936  -0.0245081  -0.0153326  0.018107  -0.00762583  -0.000392472  0.0235845  -0.0371164  -0.0900943  -0.045699  -0.0406079 
1704198711.793416000  0  0  12.2138  0.0948687  -0.138167  0.0301716  nan  nan  nan  nan  nan  nan  -2.49945  -0.29919  0.99581  -0.014226  -0.0245818  -0.00068931  0.0076806  0.015435  0.0151886  0  0  0  0.0449308  0.2205  0.202887  0.0244715  -0.00464624  -0.024626  -0.0153351  0.0189453  -0.0143503  -0.0016332  0.0245112  -0.0368984  -0.174712  0.0508303  -0.00816059 
1704198711.797432000  0  0  12.1524  0.103095  -0.104994  0.0275396  nan  nan  nan  nan  nan  nan  -2.49941  -0.29911  0.99589  -0.0152828  -0.0221489  -0.000781905  0.0078981  0.016564  0.0162186  0  0  0  0.0420556  0.231125  0.209065  0.0243698  -0.004586  -0.0246401  -0.0189315  0.0188292  -0.00859908  -0.00143377  0.0218762  -0.0365143  -0.193  0.00872811  0.0208988 
1704198711.803423000  0  0  12.1741  0.0731925  -0.0783482  0.0327599  nan  nan  nan  nan  nan  nan  -2.49937  -0.299024  0.99597  -0.0162285  -0.0238794  -0.000817477  0.0081007  0.0177467  0.0172788  0  0  0  0.0389303  0.242  0.214994  0.0244335  -0.00458258  -0.0247059  -0.0170768  0.0188806  -0.00967103  -0.000928939  0.0227768  -0.0371333  -0.137839  -0.0528498  -0.0381659 
1704198711.807409000  0  0  12.2482  0.118536  -0.123428  0.0292371  nan  nan  nan  nan  nan  nan  -2.49933  -0.298932  0.99606  -0.016851  -0.0241512  -0.000885828  0.008287  0.0189844  0.0183681  0  0  0  0.0355551  0.253125  0.220672  0.0243617  -0.00452282  -0.0248087  -0.0167806  0.019174  -0.0150969  -0.00180722  0.0237696  -0.0367426  -0.220446  0.0281759  0.00196148 
1704198711.813425000  0  0  12.1818  0.102054  -0.0850789  0.0291877  nan  nan  nan  nan  nan  nan  -2.49928  -0.298834  0.99615  -0.0189405  -0.0229413  -0.000949066  0.0084558  0.0202783  0.0194851  0  0  0  0.0319298  0.2645  0.2261  0.0245027  -0.00471591  -0.0247183  -0.019376  0.0183418  -0.00918215  -0.000778748  0.0218503  -0.0367099  -0.196943  -0.0308652  0.00225304 
1704198711.818422000  0  0  12.2395  0.0970298  -0.0933315  0.0312096  nan  nan  nan  nan  nan  nan  -2.49924  -0.298729  0.99625  -0.020212  -0.0240694  -0.00099079  0.0086059  0.0216298  0.0206287  0  0  0  0.0281174  0.276125  0.231278  0.0245331  -0.00471529  -0.0248295  -0.0182486  0.0179599  -0.0132388  -0.000358865  0.0228707  -0.0369531  -0.190758  -0.0237469  -0.0205894 
1704198711.823423000  0  0  12.2706  0.113937  -0.127218  0.028716  nan  nan  nan  nan  nan  nan  -2.4992  -0.298618  0.99636  -0.0209358  -0.0247827  -0.00105513  0.0087374  0.02304  0.0217975  0  0  0  0.0244929  0.288  0.236207  0.0244559  -0.00462343  -0.0249107  -0.0174837  0.0182005  -0.0151852  -0.000984554  0.0241803  -0.0366172  -0.218815  0.0319765  0.00722205 
1704198711.828415000  0  0  12.2474  0.10195  -0.115442  0.0297612  nan  nan  nan  nan  nan  nan  -2.49915  -0.298499  0.99647  -0.0223391  -0.0239188  -0.00113904  0.0088513  0.0245102  0.0229903  0  0  0  0.0211184  0.300125  0.240885  0.0245878  -0.00479597  -0.0248992  -0.0194502  0.0182648  -0.0127957  -0.000476963  0.0230075  -0.0367766  -0.199512  0.0192153  -0.00424894 
1704198711.832420000  0  0  12.2513  0.100434  -0.112466  0.0305151  nan  nan  nan  nan  nan  nan  -2.49911  -0.298372  0.99659  -0.0243267  -0.0240118  -0.00119131  0.008949  0.0260417  0.0242059  0  0  0  0.017994  0.3125  0.245313  0.0245099  -0.00475888  -0.0249716  -0.0195425  0.0170338  -0.0125053  0.000626202  0.0231672  -0.0367977  -0.206629  0.0117931  -0.0134621 
1704198711.838423000  0  0  12.2901  0.0889734  -0.134894  0.0330035  nan  nan  nan  nan  nan  nan  -2.49907  -0.298238  0.99671  -0.0260865  -0.0268083  -0.00118069  0.0090316  0.0276356  0.0254431  0  0  0  0.0151195  0.325125  0.249491  0.0246628  -0.0048614  -0.0250081  -0.0163275  0.0163478  -0.0152122  0.00117447  0.0259067  -0.0372787  -0.188752  0.0314455  -0.0397564 
1704198711.843424000  0  0  12.3093  0.111036  -0.140261  0.0307207  nan  nan  nan  nan  nan  nan  -2.49902  -0.298096  0.99684  -0.0259239  -0.0244202  -0.00135395  0.0091006  0.0292933  0.0267004  0  0  0  0.012495  0.338  0.253419  0.0246128  -0.00481134  -0.0251615  -0.0197648  0.0180354  -0.0161289  -0.000369368  0.0237607  -0.0371243  -0.218674  0.0619246  -0.0127662 
1704198711.848417000  0  0  12.2719  0.0859125  -0.105943  0.0327204  nan  nan  nan  nan  nan  nan  -2.49897  -0.297945  0.99698  -0.0284957  -0.0237419  -0.00141964  0.009157  0.031016  0.0279768  0  0  0  0.0101205  0.351125  0.257098  0.0245043  -0.00474025  -0.0252068  -0.0208609  0.0161427  -0.0124942  0.00146835  0.0227737  -0.0373412  -0.185334  0.0023674  -0.0355931 
1704198711.853373000  0  0  12.3832  0.0688777  -0.131632  0.0345437  nan  nan  nan  nan  nan  nan  -2.49893  -0.297786  0.99712  -0.0298088  -0.0265335  -0.00141663  0.0092022  0.032805  0.029271  0  0  0  0.007996  0.3645  0.260526  0.0247802  -0.00489113  -0.0255524  -0.0176129  0.0160071  -0.0206608  0.00173647  0.024934  -0.0378863  -0.153731  0.0338711  -0.0529329 
1704198711.857410000  0  0  12.3971  0.102807  -0.152345  0.0291466  nan  nan  nan  nan  nan  nan  -2.49888  -0.297617  0.99727  -0.030089  -0.024353  -0.00158799  0.0092374  0.0346615  0.0305817  0  0  0  0.0061215  0.378125  0.263704  0.0246694  -0.00484544  -0.0256581  -0.0205745  0.0172007  -0.0213115  0.000796845  0.0235267  -0.0372914  -0.212945  0.0882433  0.00858225 
1704198711.863416000  0  0  12.327  0.0546946  -0.0927091  0.0317599  nan  nan  nan  nan  nan  nan  -2.49884  -0.297439  0.99743  -0.0334546  -0.0233499  -0.00165452  0.0092638  0.0365867  0.0319076  0  0  0  0.004497  0.391986  0.266632  0.024665  -0.00487743  -0.0257802  -0.0223488  0.0146575  -0.0148018  0.00347215  0.021255  -0.0376057  -0.141333  -0.0101281  -0.0209412 
1704198711.867423000  0  0  12.4424  0.0367109  -0.116166  0.0348169  nan  nan  nan  nan  nan  nan  -2.49879  -0.297251  0.99759  -0.0348177  -0.0246197  -0.00169504  0.0092828  0.0385811  0.0332476  0  0  0  0.0031225  0.40574  0.269311  0.0245848  -0.00485418  -0.0259499  -0.0202972  0.01403  -0.0237671  0.00453224  0.0228481  -0.0380155  -0.115119  0.0221295  -0.0550561 
1704198711.873415000  0  0  12.4374  0.0784698  -0.12442  0.0292769  nan  nan  nan  nan  nan  nan  -2.49874  -0.297053  0.99776  -0.0347415  -0.0224763  -0.00188929  0.0092955  0.0406436  0.0346003  0  0  0  0.001998  0.419245  0.271739  0.0245567  -0.00480436  -0.0261064  -0.0233616  0.0157575  -0.0227943  0.00261189  0.0206141  -0.0375215  -0.180969  0.0591908  0.00925398 
1704198711.878416000  0  0  12.38  0.0346721  -0.0778681  0.0322922  nan  nan  nan  nan  nan  nan  -2.4987  -0.296844  0.99794  -0.0380952  -0.0217353  -0.00196126  0.0093032  0.0427731  0.0359646  0  0  0  0.0011235  0.4325  0.273917  0.0245321  -0.0048552  -0.0262203  -0.0245963  0.0131627  -0.0174375  0.00558759  0.0188005  -0.0378713  -0.12075  -0.0172283  -0.0249396 
1704198711.882420000  0  0  12.4724  0.0339367  -0.104481  0.0333226  nan  nan  nan  nan  nan  nan  -2.49865  -0.296625  0.99812  -0.0394831  -0.0224205  -0.00202428  0.0093071  0.0449682  0.0373391  0  0  0  0.000499  0.445505  0.275845  0.0244371  -0.00484394  -0.0263897  -0.0233013  0.0124673  -0.0245519  0.00641239  0.0199328  -0.0380296  -0.126867  0.0255802  -0.0362357 
1704198711.888410000  0  0  12.4252  0.0794685  -0.119147  0.0288306  nan  nan  nan  nan  nan  nan  -2.4986  -0.296395  0.99831  -0.0386245  -0.0207813  -0.00222809  0.0093086  0.0472277  0.0387226  0  0  0  0.0001245  0.45826  0.277524  0.0242866  -0.00469809  -0.0264623  -0.0254013  0.0151528  -0.0203456  0.00390824  0.0189094  -0.0374673  -0.194893  0.0643284  0.0142899 
1704198711.893415000  0  0  12.3947  0.0595687  -0.0878334  0.0310633  nan  nan  nan  nan  nan  nan  -2.49856  -0.296153  0.99851  -0.0412152  -0.019296  -0.00235741  0.0093088  0.0495504  0.0401139  0  0  0  0  0.470764  0.278952  0.0241572  -0.00464573  -0.0265515  -0.0272622  0.0131893  -0.0173873  0.00577847  0.017254  -0.0375898  -0.172299  0.0169299  -0.0123935 
1704198711.898474000  0  0  12.4339  0.0544581  -0.09711  0.0336456  nan  nan  nan  nan  nan  nan  -2.49851  -0.295899  0.99871  -0.0426286  -0.0202988  -0.00241002  0.0093088  0.051935  0.0415117  0  0  0  0  0.483019  0.28013  0.0240396  -0.00457893  -0.0266682  -0.0255417  0.0124576  -0.0202364  0.00637143  0.0184663  -0.0379131  -0.167533  0.0243299  -0.0414392 
1704198711.903414000  0  0  12.4334  0.0971275  -0.119678  0.0289643  nan  nan  nan  nan  nan  nan  -2.49846  -0.295633  0.99892  -0.0420438  -0.0187747  -0.00260932  0.0093088  0.0543802  0.0429148  0  0  0  0  0.495024  0.281058  0.0238822  -0.00449452  -0.0268689  -0.0273063  0.0146027  -0.0197248  0.00420491  0.0177065  -0.0373151  -0.23294  0.0764567  0.0110972 
1704198711.907420000  0  0  12.3937  0.0895707  -0.0966698  0.0286673  nan  nan  nan  nan  nan  nan  -2.49842  -0.295355  0.99914  -0.0446767  -0.0169915  -0.00276321  0.0093088  0.0568848  0.0443219  0  0  0  0  0.506779  0.281736  0.0237542  -0.00450499  -0.0269616  -0.0295796  0.0126832  -0.0160559  0.0059302  0.0160098  -0.0371189  -0.233699  0.0460499  0.0128474 
1704198711.913402000  0  0  12.4268  0.0594776  -0.0909915  0.0351211  nan  nan  nan  nan  nan  nan  -2.49837  -0.295064  0.99937  -0.0458783  -0.0186361  -0.00279136  0.0093088  0.0594476  0.0457317  0  0  0  0  0.518283  0.282165  0.023633  -0.0044025  -0.0271191  -0.0269868  0.0120829  -0.0183848  0.00626626  0.0174935  -0.0378461  -0.176605  0.0210431  -0.0605524 
1704198711.918417000  0  0  12.4553  0.119287  -0.128995  0.0309428  nan  nan  nan  nan  nan  nan  -2.49832  -0.294761  0.9996  -0.0454067  -0.0167062  -0.00301224  0.0093088  0.0620672  0.0471431  0  0  0  0  0.529538  0.282343  0.0234833  -0.00433822  -0.0272525  -0.0292761  0.0138781  -0.0204866  0.00383056  0.0165478  -0.0374812  -0.273815  0.10575  -0.0119729 
1704198711.923407000  0  0  12.4018  0.087861  -0.0906835  0.032313  nan  nan  nan  nan  nan  nan  -2.49828  -0.294444  0.99984  -0.0476038  -0.0153134  -0.0031665  0.0093088  0.0647425  0.0485547  0  0  0  0  0.540543  0.282271  0.0233318  -0.00428277  -0.0273111  -0.0309768  0.0123994  -0.0158139  0.00520071  0.0150861  -0.0375491  -0.223568  0.0425744  -0.0284215 
1704198711.928411000  0  0  12.4372  0.0760295  -0.11377  0.0363996  nan  nan  nan  nan  nan  nan  -2.49823  -0.294113  1.00009  -0.049002  -0.0171776  -0.00317843  0.0093088  0.0674722  0.0499654  0  0  0  0  0.551298  0.281949  0.0232143  -0.00423735  -0.0274211  -0.0280903  0.0115329  -0.0185077  0.00569178  0.0173923  -0.0381722  -0.204423  0.0675305  -0.073273 
1704198711.932411000  0  0  12.4887  0.112634  -0.136379  0.0315319  nan  nan  nan  nan  nan  nan  -2.49818  -0.293769  1.00034  -0.0494551  -0.0159766  -0.00335487  0.0093088  0.0702551  0.0513738  0  0  0  0  0.561803  0.281378  0.0230747  -0.00424746  -0.0275744  -0.0293624  0.0119806  -0.0225145  0.00460875  0.0170532  -0.0376633  -0.267669  0.115869  -0.0175152 
1704198711.938418000  0  0  12.3722  0.0844392  -0.0902079  0.0327114  nan  nan  nan  nan  nan  nan  -2.49814  -0.29341  1.0006  -0.0511634  -0.0147527  -0.00351517  0.0093088  0.0730898  0.0527788  0  0  0  0  0.572057  0.280556  0.0229111  -0.00412494  -0.0275672  -0.0309048  0.0113071  -0.0128228  0.00526494  0.0156005  -0.0377426  -0.217316  0.0368914  -0.0314657 
1704198711.943421000  0  0  12.4521  0.0929186  -0.126381  0.0329158  nan  nan  nan  nan  nan  nan  -2.49809  -0.293038  1.00087  -0.0523877  -0.0152868  -0.00359406  0.0093088  0.0759752  0.054179  0  0  0  0  0.582062  0.279484  0.0227834  -0.00408748  -0.0277028  -0.0297666  0.0103404  -0.0192352  0.00522958  0.0170187  -0.0378564  -0.233949  0.0961895  -0.0328826 
1704198711.948415000  0  0  12.4471  0.113461  -0.127076  0.0287114  nan  nan  nan  nan  nan  nan  -2.49805  -0.292651  1.00114  -0.0525187  -0.0144353  -0.0037619  0.0093088  0.07891  0.0555732  0  0  0  0  0.591817  0.278162  0.0226331  -0.00402174  -0.027786  -0.0306302  0.0112806  -0.0187689  0.00384569  0.0167266  -0.0373037  -0.262301  0.100268  0.0141448 
1704198711.953420000  0  0  12.4068  0.0964727  -0.125923  0.0304302  nan  nan  nan  nan  nan  nan  -2.498  -0.292249  1.00142  -0.054126  -0.0142576  -0.00387327  0.0093088  0.081893  0.0569602  0  0  0  0  0.601322  0.276591  0.0224998  -0.00399333  -0.0278512  -0.0306605  0.0104431  -0.0153534  0.0044869  0.0169892  -0.0373513  -0.234225  0.0955449  -0.00686422 
1704198711.957423000  0  0  12.4455  0.0938077  -0.139851  0.0306202  nan  nan  nan  nan  nan  nan  -2.49795  -0.291832  1.00171  -0.0559867  -0.0136637  -0.00400494  0.0093088  0.0849228  0.0583387  0  0  0  0  0.610577  0.274769  0.0223617  -0.00404124  -0.0280001  -0.0311352  0.00892071  -0.0183446  0.00539898  0.0171605  -0.0372907  -0.237286  0.121825  -0.00984519 
1704198711.963419000  0  0  12.4501  0.0929231  -0.131706  0.0319674  nan  nan  nan  nan  nan  nan  -2.49791  -0.291399  1.00201  -0.0556731  -0.0137723  -0.00412818  0.0093088  0.0879983  0.0597074  0  0  0  0  0.619581  0.272697  0.0222185  -0.00391728  -0.0280791  -0.0306675  0.010188  -0.0187817  0.00382317  0.0176914  -0.0374022  -0.221019  0.100652  -0.0255702 
1704198711.968398000  0  0  12.4461  0.105416  -0.153165  0.0303057  nan  nan  nan  nan  nan  nan  -2.49786  -0.290952  1.00231  -0.0570728  -0.0131284  -0.00427073  0.0093088  0.0911182  0.0610652  0  0  0  0  0.628336  0.270375  0.0220844  -0.00390655  -0.028176  -0.0312853  0.00936725  -0.0183946  0.00381889  0.0180578  -0.0371777  -0.245967  0.140198  -0.00704399 
1704198711.973422000  0  0  12.4059  0.0813179  -0.125616  0.0317144  nan  nan  nan  nan  nan  nan  -2.49781  -0.290488  1.00262  -0.0587778  -0.0125587  -0.0044068  0.0093088  0.0942813  0.0624108  0  0  0  0  0.636841  0.267804  0.021921  -0.00386552  -0.028238  -0.0317865  0.00826357  -0.015073  0.00475992  0.0176609  -0.037259  -0.206427  0.0887521  -0.02384 
1704198711.978416000  0  0  12.4732  0.0850313  -0.141684  0.0326725  nan  nan  nan  nan  nan  nan  -2.49777  -0.290009  1.00293  -0.0589529  -0.0133557  -0.00448255  0.0093088  0.0974862  0.0637428  0  0  0  0  0.645096  0.264982  0.0218158  -0.00385273  -0.0283779  -0.0303652  0.00859159  -0.0206514  0.00392263  0.0190872  -0.0373893  -0.206151  0.107765  -0.0345133 
1704198711.982424000  0  0  12.4612  0.103292  -0.159984  0.0298694  nan  nan  nan  nan  nan  nan  -2.49772  -0.289513  1.00325  -0.0603806  -0.0122012  -0.00465831  0.0093088  0.100732  0.0650602  0  0  0  0  0.653101  0.26191  0.0216683  -0.00391684  -0.0285054  -0.0316759  0.00785862  -0.0196015  0.00410306  0.0188622  -0.037031  -0.244333  0.146437  -0.00305683 
1704198711.988415000  0  0  12.3911  0.0614605  -0.123035  0.0330456  nan  nan  nan  nan  nan  nan  -2.49767  -0.289001  1.00358  -0.0619081  -0.0118287  -0.00478769  0.0093088  0.104017  0.0663615  0  0  0  0  0.660855  0.258588  0.0215169  -0.00381852  -0.028528  -0.0319665  0.00699472  -0.0139434  0.00505699  0.0185587  -0.0373386  -0.169445  0.0753306  -0.0396833 
1704198711.993423000  0  0  12.4701  0.0874342  -0.150048  0.031364  nan  nan  nan  nan  nan  nan  -2.49763  -0.288473  1.00392  -0.0620315  -0.0123715  -0.00487751  0.0093088  0.10734  0.0676456  0  0  0  0  0.66836  0.255016  0.0214183  -0.00382453  -0.0286871  -0.0309039  0.00723818  -0.020532  0.00388816  0.0199429  -0.0372001  -0.210639  0.116622  -0.0200486 
1704198711.998421000  0  0  12.4051  0.0941807  -0.149103  0.0285468  nan  nan  nan  nan  nan  nan  -2.49758  -0.287928  1.00426  -0.0636409  -0.0114783  -0.00503954  0.0093088  0.1107  0.0689113  0  0  0  0  0.675615  0.251195  0.0212506  -0.00379414  -0.0287348  -0.0318736  0.00632791  -0.0152955  0.00421589  0.0197314  -0.0367662  -0.227148  0.116677  0.0108266 
1704198712.003423000  0  0  12.4025  0.0607364  -0.122898  0.032353  nan  nan  nan  nan  nan  nan  -2.49753  -0.287366  1.00461  -0.0644702  -0.0114093  -0.00515944  0.0093088  0.114096  0.0701572  0  0  0  0  0.68262  0.247123  0.0211425  -0.00381905  -0.0288345  -0.0317489  0.00614771  -0.0152034  0.00463663  0.019672  -0.0370998  -0.16413  0.0648146  -0.0334149 
1704198712.007424000  0  0  12.4677  0.0849506  -0.14393  0.0298124  nan  nan  nan  nan  nan  nan  -2.49749  -0.286787  1.00496  -0.065348  -0.0114005  -0.00527495  0.0093088  0.117526  0.0713821  0  0  0  0  0.689374  0.242801  0.0210171  -0.00390971  -0.0290103  -0.0314196  0.00552204  -0.020621  0.00435869  0.0203624  -0.0367848  -0.210001  0.100526  -0.00480627 
1704198712.013417000  0  0  12.4177  0.0779169  -0.136772  0.0292287  nan  nan  nan  nan  nan  nan  -2.49744  -0.286191  1.00532  -0.0665591  -0.0115928  -0.00537337  0.0093088  0.120989  0.0725848  0  0  0  0  0.695879  0.238229  0.0209003  -0.00383159  -0.0290111  -0.0309757  0.00486458  -0.0168232  0.00439329  0.0209901  -0.0365556  -0.196252  0.0804356  0.000197947 
1704198712.018415000  0  0  12.4353  0.0677376  -0.12718  0.0302802  nan  nan  nan  nan  nan  nan  -2.49739  -0.285577  1.00569  -0.0668464  -0.0106559  -0.00555774  0.0093088  0.124484  0.073764  0  0  0  0  0.702134  0.233408  0.0208117  -0.00388274  -0.0291251  -0.0320683  0.00525034  -0.0184864  0.00406393  0.0202962  -0.0366051  -0.172863  0.0676355  -0.0124517 
1704198712.023404000  0  0  12.4101  0.0854706  -0.125164  0.0295333  nan  nan  nan  nan  nan  nan  -2.49735  -0.284946  1.00606  -0.0680343  -0.0109997  -0.0056466  0.0093088  0.12801  0.0749184  0  0  0  0  0.708139  0.228336  0.0206676  -0.00386343  -0.029199  -0.031322  0.00451603  -0.0166476  0.00393212  0.0209178  -0.0364167  -0.207117  0.057885  -0.00499984 
1704198712.028412000  0  0  12.4538  0.0644972  -0.138099  0.031642  nan  nan  nan  nan  nan  nan  -2.4973  -0.284297  1.00644  -0.0695305  -0.0121358  -0.00567595  0.0093088  0.131565  0.0760469  0  0  0  0  0.713894  0.223014  0.0206099  -0.003948  -0.0293275  -0.0295894  0.00302473  -0.0204328  0.00477677  0.0225179  -0.0366053  -0.172941  0.0690343  -0.0294723 
1704198712.033415000  0  0  12.4105  0.0808012  -0.129202  0.0298088  nan  nan  nan  nan  nan  nan  -2.49725  -0.28363  1.00682  -0.0696767  -0.0103332  -0.00592506  0.0093088  0.135148  0.0771481  0  0  0  0  0.719398  0.217442  0.0204348  -0.00392091  -0.0293938  -0.0317625  0.00380999  -0.0171968  0.00384649  0.0210348  -0.0363645  -0.19699  0.0648825  -0.00896504 
1704198712.038416000  0  0  12.3698  0.0598209  -0.113302  0.0315286  nan  nan  nan  nan  nan  nan  -2.49721  -0.282945  1.00721  -0.0719344  -0.0119713  -0.00590858  0.0093088  0.138759  0.0782209  0  0  0  0  0.724653  0.211621  0.0203973  -0.00402359  -0.0294747  -0.0294963  0.0019067  -0.0140555  0.00537813  0.0225362  -0.0364982  -0.169121  0.0192709  -0.0291251 
1704198712.042417000  0  0  12.4342  0.0623608  -0.137228  0.0325136  nan  nan  nan  nan  nan  nan  -2.49716  -0.282242  1.0076  -0.0729686  -0.012406  -0.00598936  0.0093088  0.142395  0.0792639  0  0  0  0  0.729658  0.205549  0.0202705  -0.00415574  -0.0296603  -0.0285505  0.000886981  -0.0195448  0.00563595  0.0235002  -0.0366331  -0.176572  0.058255  -0.0400887 
1704198712.048413000  0  0  12.3489  0.0903958  -0.120988  0.0291176  nan  nan  nan  nan  nan  nan  -2.49711  -0.281521  1.008  -0.0728908  -0.0104968  -0.00625474  0.0093088  0.146055  0.080276  0  0  0  0  0.734413  0.199227  0.0201678  -0.00409712  -0.0296592  -0.0310751  0.00217451  -0.0130375  0.00403443  0.0218289  -0.0362191  -0.217908  0.0411501  -0.00177961 
1704198712.053415000  0  0  12.3241  0.0648146  -0.109762  0.0321665  nan  nan  nan  nan  nan  nan  -2.49707  -0.280782  1.0084  -0.0749846  -0.0123029  -0.00622206  0.0093088  0.149738  0.0812558  0  0  0  0  0.738918  0.192655  0.0201486  -0.00422086  -0.0297338  -0.0286095  0.000342017  -0.0113128  0.0054389  0.0234551  -0.0365095  -0.179667  0.00373706  -0.0369864 
1704198712.057422000  0  0  12.4188  0.0739045  -0.137341  0.0313659  nan  nan  nan  nan  nan  nan  -2.49702  -0.280024  1.00881  -0.0756922  -0.0125292  -0.00632115  0.0093088  0.153444  0.0822021  0  0  0  0  0.743172  0.185833  0.0200235  -0.00436879  -0.0299411  -0.0279128  -0.000558158  -0.0193565  0.00523538  0.0242479  -0.0364395  -0.195974  0.0516021  -0.0276793 
1704198712.063421000  0  0  12.319  0.081097  -0.119271  0.0287107  nan  nan  nan  nan  nan  nan  -2.49697  -0.279247  1.00923  -0.0761543  -0.0116996  -0.00650362  0.0093088  0.15717  0.0831137  0  0  0  0  0.747177  0.178762  0.020054  -0.00442161  -0.0298485  -0.0292705  0.000282752  -0.0118764  0.00447172  0.0234225  -0.0360772  -0.203334  0.0230547  0.00188794 
1704198712.068414000  0  0  12.3021  0.0610525  -0.113246  0.0307921  nan  nan  nan  nan  nan  nan  -2.49693  -0.278452  1.00964  -0.0787349  -0.0136575  -0.00644389  0.0093088  0.160915  0.0839893  0  0  0  0  0.750932  0.17144  0.0201752  -0.00467492  -0.0298425  -0.0269108  -0.00207575  -0.0110109  0.00633742  0.025216  -0.0362328  -0.180409  -0.00549599  -0.0225722 
1704198712.073422000  0  0  12.3519  0.0760668  -0.135925  0.0302564  nan  nan  nan  nan  nan  nan  -2.49688  -0.277638  1.01006  -0.0787416  -0.0143556  -0.00651372  0.0093088  0.164679  0.0848277  0  0  0  0  0.754437  0.163868  0.0200474  -0.00468116  -0.0299447  -0.0256062  -0.00207158  -0.0156614  0.00519299  0.0262973  -0.0361544  -0.199909  0.0299157  -0.0166606 
1704198712.078422000  0  0  12.3009  0.0815908  -0.129765  0.0288334  nan  nan  nan  nan  nan  nan  -2.49683  -0.276805  1.01049  -0.0790254  -0.0130492  -0.00673806  0.0093088  0.168459  0.0856276  0  0  0  0  0.757692  0.156046  0.0199915  -0.00479923  -0.0300075  -0.0273684  -0.0013258  -0.0119994  0.00446784  0.0251676  -0.0359049  -0.204286  0.0279871  -0.00136876 
1704198712.082409000  0  0  12.2808  0.0746023  -0.11721  0.0294365  nan  nan  nan  nan  nan  nan  -2.49679  -0.275953  1.01092  -0.0806437  -0.0129865  -0.00684697  0.0093088  0.172255  0.0863877  0  0  0  0  0.760696  0.147975  0.0198825  -0.00498405  -0.0301346  -0.0272685  -0.00256072  -0.0106996  0.00533605  0.0249889  -0.0358652  -0.198296  0.00452286  -0.0093041 
1704198712.088413000  0  0  12.3049  0.0821931  -0.142369  0.0313999  nan  nan  nan  nan  nan  nan  -2.49674  -0.275083  1.01135  -0.0804388  -0.0158488  -0.00674394  0.0093088  0.176065  0.0871069  0  0  0  0  0.763451  0.139661  0.0198744  -0.00495716  -0.0301561  -0.0233006  -0.00224132  -0.0135054  0.00387895  0.0281066  -0.0360965  -0.200072  0.0261573  -0.0315333 
1704198712.093420000  0  0  12.2907  0.100319  -0.138483  0.0285932  nan  nan  nan  nan  nan  nan  -2.4967  -0.274193  1.01179  -0.0807695  -0.013869  -0.0070239  0.0093088  0.179889  0.0877845  0  0  0  0  0.765956  0.13143  0.0198405  -0.00509701  -0.0302411  -0.0259804  -0.00191739  -0.0128797  0.0029659  0.0264379  -0.0357353  -0.227924  0.0337373  -6.30774e-05 
1704198712.098417000  0  0  12.2173  0.0695351  -0.0928017  0.0319099  nan  nan  nan  nan  nan  nan  -2.49665  -0.273284  1.01223  -0.0821823  -0.0139986  -0.0071186  0.0093088  0.183725  0.0884216  0  0  0  0  0.768211  0.123448  0.0197088  -0.00511512  -0.0302571  -0.0256468  -0.00284588  -0.00737562  0.00382633  0.0257283  -0.0360471  -0.174272  -0.0510969  -0.0384035 
1704198712.103419000  0  0  12.274  0.0945615  -0.142281  0.0311958  nan  nan  nan  nan  nan  nan  -2.4966  -0.272356  1.01268  -0.0822243  -0.0163853  -0.00704635  0.0093088  0.187571  0.0890194  0  0  0  0  0.770215  0.115717  0.0197286  -0.00526731  -0.0303714  -0.0223529  -0.00285852  -0.0126172  0.00254898  0.0286818  -0.0360645  -0.212574  0.02069  -0.0293022 
1704198712.107424000  0  0  12.2728  0.124559  -0.149198  0.025562  nan  nan  nan  nan  nan  nan  -2.49656  -0.271408  1.01312  -0.0822831  -0.0135419  -0.00740485  0.0093088  0.191426  0.0895792  0  0  0  0  0.77197  0.108235  0.0195982  -0.00545585  -0.030504  -0.0259725  -0.00225798  -0.0129265  0.0012892  0.0263446  -0.0353133  -0.260978  0.0560263  0.0336081 
1704198712.113415000  0  0  12.1945  0.0732049  -0.090976  0.031531  nan  nan  nan  nan  nan  nan  -2.49651  -0.270441  1.01357  -0.0835553  -0.0146845  -0.00741682  0.0093088  0.19529  0.0901022  0  0  0  0  0.773475  0.101004  0.019601  -0.00547026  -0.0304618  -0.0245639  -0.003049  -0.00707442  0.00206611  0.0263948  -0.0357627  -0.165418  -0.0608805  -0.0365106 
1704198712.118422000  0  0  12.3023  0.111128  -0.15639  0.0310132  nan  nan  nan  nan  nan  nan  -2.49646  -0.269455  1.01402  -0.0833422  -0.0165875  -0.00738611  0.0093088  0.199161  0.0905897  0  0  0  0  0.77473  0.0940222  0.0196216  -0.00561505  -0.0305628  -0.0218411  -0.0033067  -0.0165514  0.000337453  0.0291656  -0.0357927  -0.22536  0.0444569  -0.0297371 
1704198712.123481000  0  0  12.2592  0.126632  -0.126206  0.026435  nan  nan  nan  nan  nan  nan  -2.49642  -0.26845  1.01448  -0.0827172  -0.0136475  -0.00776527  0.0093088  0.203037  0.0910428  0  0  0  0  0.775735  0.0872908  0.019473  -0.00560295  -0.030607  -0.0256161  -0.0019256  -0.0135298  -0.00157932  0.026113  -0.035137  -0.238735  0.012173  0.0209335 
1704198712.128415000  0  0  12.178  0.0797271  -0.098789  0.0319158  nan  nan  nan  nan  nan  nan  -2.49637  -0.267425  1.01493  -0.0845835  -0.0152281  -0.00773063  0.0093088  0.206918  0.091463  0  0  0  0  0.776489  0.0808093  0.0195132  -0.00579375  -0.0305845  -0.023709  -0.00319443  -0.00728393  6.04032e-05  0.0269493  -0.0356713  -0.16001  -0.0503555  -0.0422343 
1704198712.132403000  0  0  12.2609  0.107994  -0.142336  0.0299524  nan  nan  nan  nan  nan  nan  -2.49632  -0.26638  1.01539  -0.0848964  -0.0159603  -0.00778862  0.0093088  0.210801  0.0918513  0  0  0  0  0.776994  0.0745778  0.0194145  -0.00601742  -0.0307805  -0.0223716  -0.00385121  -0.0143542  -0.000823575  0.0283241  -0.0354735  -0.20841  0.0240904  -0.0196701 
1704198712.138417000  0  0  12.2083  0.119972  -0.1262  0.0272735  nan  nan  nan  nan  nan  nan  -2.49628  -0.265317  1.01585  -0.0841677  -0.0149187  -0.0080132  0.0093088  0.214687  0.0922092  0  0  0  0  0.777249  0.0685964  0.0194304  -0.00601951  -0.0307589  -0.0239214  -0.00232326  -0.0106558  -0.00289393  0.0272414  -0.0350165  -0.213319  0.00177802  0.00924597 
1704198712.143416000  0  0  12.1835  0.0930765  -0.127012  0.0304763  nan  nan  nan  nan  nan  nan  -2.49623  -0.264234  1.01631  -0.0863746  -0.0164469  -0.00797273  0.0093088  0.218574  0.0925377  0  0  0  0  0.777254  0.0628649  0.0195323  -0.00629513  -0.0308985  -0.0221474  -0.00447562  -0.00867163  -0.00116488  0.0288751  -0.0352672  -0.175436  -0.0116265  -0.0282815 
1704198712.148412000  0  0  12.2188  0.105782  -0.13639  0.029449  nan  nan  nan  nan  nan  nan  -2.49618  -0.263131  1.01678  -0.0858579  -0.0173031  -0.00803261  0.0093088  0.222459  0.0928382  0  0  0  0  0.777009  0.0573834  0.0194311  -0.00631524  -0.030987  -0.0207023  -0.00411606  -0.0120021  -0.00270576  0.0297982  -0.0351409  -0.186671  -0.00136415  -0.016704 
1704198712.153417000  0  0  12.2  0.0974279  -0.137541  0.0277807  nan  nan  nan  nan  nan  nan  -2.49614  -0.262009  1.01724  -0.0864695  -0.0175503  -0.00812562  0.0093088  0.226343  0.093112  0  0  0  0  0.776513  0.052152  0.0195229  -0.00659896  -0.0311109  -0.0206255  -0.00420235  -0.0106412  -0.00262306  0.0302671  -0.0348416  -0.170724  -0.00337496  0.00115736 
1704198712.157422000  0  0  12.1929  0.0860862  -0.135579  0.0283739  nan  nan  nan  nan  nan  nan  -2.49609  -0.260868  1.01771  -0.088046  -0.01696  -0.00827484  0.0093088  0.230224  0.0933602  0  0  0  0  0.775768  0.0471705  0.0194224  -0.00685388  -0.0312474  -0.021251  -0.00578545  -0.0100945  -0.00157997  0.0297247  -0.0347887  -0.157637  -0.00230881  -0.00678619 
1704198712.163417000  0  0  12.1808  0.061023  -0.138517  0.0306699  nan  nan  nan  nan  nan  nan  -2.49604  -0.259707  1.01818  -0.0886868  -0.0197036  -0.00814497  0.0093088  0.2341  0.0935841  0  0  0  0  0.774773  0.0424391  0.0196114  -0.00702143  -0.0312405  -0.0179839  -0.00632173  -0.0095254  -0.00110423  0.0325036  -0.0350494  -0.111887  -0.022  -0.0328797 
1704198712.168418000  0  0  12.2166  0.0850356  -0.166987  0.0271545  nan  nan  nan  nan  nan  nan  -2.496  -0.258527  1.01864  -0.0883919  -0.0200684  -0.00824361  0.0093088  0.237971  0.093785  0  0  0  0  0.773528  0.0379576  0.0196735  -0.00725384  -0.0313843  -0.0175601  -0.0059287  -0.0126848  -0.00220411  0.033538  -0.0345939  -0.149793  0.0254244  0.00650727 
1704198712.173416000  0  0  12.1633  0.054911  -0.134934  0.0285398  nan  nan  nan  nan  nan  nan  -2.49595  -0.257327  1.01911  -0.08934  -0.0193573  -0.00841311  0.0093088  0.241835  0.0939641  0  0  0  0  0.772033  0.0337261  0.0195718  -0.00729474  -0.031409  -0.01844  -0.00677204  -0.0085006  -0.00145238  0.0323918  -0.0345992  -0.0964601  -0.0281369  -0.010755 
1704198712.178422000  0  0  12.1561  0.0288373  -0.131823  0.032064  nan  nan  nan  nan  nan  nan  -2.4959  -0.256108  1.01958  -0.0906845  -0.0227668  -0.00820191  0.0093088  0.245691  0.0941227  0  0  0  0  0.770287  0.0297447  0.0199022  -0.00773465  -0.0311637  -0.0145913  -0.00779754  -0.0086914  9.40193e-05  0.0353082  -0.0350494  -0.0585395  -0.0611898  -0.0503064 
1704198712.182410000  0  0  12.2011  0.0687578  -0.163798  0.0280872  nan  nan  nan  nan  nan  nan  -2.49586  -0.25487  1.02006  -0.0901248  -0.022228  -0.00838843  0.0093088  0.249538  0.094262  0  0  0  0  0.768292  0.0260132  0.0198324  -0.00800724  -0.0313366  -0.0150694  -0.00714174  -0.0124823  -0.00142387  0.0352449  -0.0345987  -0.124416  0.0033425  -0.00510255 
1704198712.188417000  0  0  12.0717  0.0338412  -0.13084  0.028884  nan  nan  nan  nan  nan  nan  -2.49581  -0.253613  1.02053  -0.0924556  -0.0228773  -0.00840111  0.0093088  0.253374  0.0943832  0  0  0  0  0.766047  0.0225317  0.0200451  -0.00818378  -0.0309671  -0.0150163  -0.00885952  -0.00261313  0.000892388  0.035263  -0.0345795  -0.0758924  -0.0627392  -0.0152547 
1704198712.193422000  0  0  12.1158  0.0237951  -0.13796  0.031066  nan  nan  nan  nan  nan  nan  -2.49576  -0.252336  1.021  -0.0923684  -0.0245221  -0.0083758  0.0093088  0.257198  0.0944877  0  0  0  0  0.763552  0.0193003  0.0202236  -0.00848064  -0.0308783  -0.0130935  -0.00887632  -0.0067824  0.000933472  0.0365725  -0.03489  -0.0561781  -0.0605465  -0.0394252 
1704198712.198406000  0  0  12.1282  0.0742217  -0.145631  0.0271129  nan  nan  nan  nan  nan  nan  -2.49572  -0.251041  1.02147  -0.0912129  -0.0240258  -0.00857475  0.0093088  0.261009  0.0945766  0  0  0  0  0.760807  0.0163188  0.0201586  -0.00852148  -0.0309232  -0.0135912  -0.00770836  -0.00810651  -0.00144034  0.0360019  -0.0343919  -0.135192  -0.0399546  0.00500746 
1704198712.203478000  0  0  12.0947  0.0304178  -0.117534  0.0303677  nan  nan  nan  nan  nan  nan  -2.49567  -0.249726  1.02194  -0.0925442  -0.0240515  -0.00866521  0.0093088  0.264805  0.0946513  0  0  0  0  0.757811  0.0135873  0.0201701  -0.00871731  -0.0310229  -0.0137  -0.00909523  -0.00522597  0.000194547  0.0354765  -0.0346193  -0.0626254  -0.0913156  -0.0334031 
1704198712.207437000  0  0  12.1162  0.0341109  -0.114021  0.0311448  nan  nan  nan  nan  nan  nan  -2.49562  -0.248393  1.02242  -0.0921461  -0.0235742  -0.00884397  0.0093088  0.268587  0.0947129  0  0  0  0  0.754566  0.0111059  0.0201004  -0.00902204  -0.0311669  -0.0141469  -0.00851345  -0.00696806  -0.000445846  0.0346173  -0.0347224  -0.0641199  -0.090437  -0.042085 
1704198712.213430000  0  0  12.1009  0.0679875  -0.116312  0.0279186  nan  nan  nan  nan  nan  nan  -2.49558  -0.247041  1.02289  -0.0907194  -0.0242927  -0.00893753  0.0093088  0.272351  0.0947628  0  0  0  0  0.751071  0.0088744  0.0200976  -0.00891039  -0.0311548  -0.0132068  -0.00715032  -0.00606854  -0.0027212  0.0349655  -0.0343162  -0.11094  -0.0890581  -0.00582048 
1704198712.218429000  0  0  12.0977  0.0488849  -0.107819  0.0295351  nan  nan  nan  nan  nan  nan  -2.49553  -0.245669  1.02337  -0.0916939  -0.024159  -0.00905106  0.0093088  0.276097  0.0948021  0  0  0  0  0.747326  0.0068929  0.0201314  -0.00910088  -0.0311586  -0.0134986  -0.00847395  -0.00587481  -0.00175322  0.0343991  -0.0344378  -0.0816403  -0.100834  -0.0248113 
1704198712.223421000  0  0  12.0604  0.0696758  -0.0887582  0.0293275  nan  nan  nan  nan  nan  nan  -2.49549  -0.24428  1.02384  -0.089983  -0.023541  -0.00927347  0.0093088  0.279824  0.0948321  0  0  0  0  0.74333  0.0051615  0.0200648  -0.00912768  -0.0311623  -0.0142743  -0.00624962  -0.00305994  -0.00406349  0.0329085  -0.0344022  -0.101967  -0.125242  -0.0225709 
1704198712.228371000  0  0  12.0695  0.0918842  -0.0964781  0.0285652  nan  nan  nan  nan  nan  nan  -2.49544  -0.242871  1.02431  -0.0907101  -0.0254536  -0.00920731  0.0093088  0.28353  0.0948541  0  0  0  0  0.739085  0.00368  0.0201504  -0.00939075  -0.0310942  -0.0118884  -0.00729277  -0.00403012  -0.00411798  0.0343363  -0.0342419  -0.145883  -0.122938  -0.0146461 
1704198712.233429000  0  0  12.124  0.0971896  -0.0940408  0.0285791  nan  nan  nan  nan  nan  nan  -2.49539  -0.241444  1.02479  -0.0894264  -0.0237491  -0.00951803  0.0093088  0.287214  0.0948693  0  0  0  0  0.73459  0.0024485  0.0200666  -0.00941045  -0.0311579  -0.0138608  -0.00662733  -0.00863834  -0.0060045  0.0321524  -0.0341787  -0.139138  -0.107721  -0.0154519 
1704198712.238404000  0  0  12.0511  0.108708  -0.0627827  0.0295775  nan  nan  nan  nan  nan  nan  -2.49535  -0.239999  1.02526  -0.0882188  -0.023132  -0.0097266  0.0093088  0.290875  0.094879  0  0  0  0  0.729845  0.0014671  0.0200337  -0.00951521  -0.0312079  -0.0148025  -0.00465333  -0.00266199  -0.00780294  0.0305282  -0.0342286  -0.14563  -0.155294  -0.027433 
1704198712.243513000  0  0  12.1387  0.136504  -0.0859126  0.0287223  nan  nan  nan  nan  nan  nan  -2.4953  -0.238536  1.02574  -0.0875365  -0.024227  -0.00977143  0.0093088  0.294512  0.0948844  0  0  0  0  0.72485  0.0007356  0.0200113  -0.00961333  -0.0313652  -0.0130584  -0.00503229  -0.00975365  -0.00950146  0.0314017  -0.0341037  -0.185594  -0.11707  -0.0179919 
1704198712.247383000  0  0  12.1666  0.134966  -0.0873284  0.0287253  nan  nan  nan  nan  nan  nan  -2.49525  -0.237054  1.02621  -0.087334  -0.0232488  -0.009987  0.0093088  0.298123  0.0948868  0  0  0  0  0.719604  0.0002541  0.0199367  -0.00996625  -0.0315143  -0.0141613  -0.00490195  -0.0118144  -0.0102787  0.03011  -0.0340436  -0.175368  -0.102356  -0.0186305 
1704198712.253380000  0  0  12.064  0.133862  -0.0699747  0.0297182  nan  nan  nan  nan  nan  nan  -2.49521  -0.235554  1.02669  -0.0855763  -0.023061  -0.0101694  0.0093088  0.301708  0.0948874  0  0  0  0  0.714109  2.27e-05  0.0199807  -0.00985409  -0.0313255  -0.0147573  -0.00250395  -0.00385796  -0.0125389  0.0289697  -0.0341345  -0.152367  -0.126572  -0.0301319 
1704198712.258509000  0  0  12.1512  0.146757  -0.0960557  0.028283  nan  nan  nan  nan  nan  nan  -2.49516  -0.234037  1.02716  -0.0853677  -0.0241754  -0.0102039  0.0093088  0.305264  0.0948874  0  0  0  0  0.708364  0  0.0200261  -0.010009  -0.0313332  -0.0131439  -0.00345944  -0.0111216  -0.0134942  0.029992  -0.0339412  -0.169368  -0.0838153  -0.0141249 
1704198712.263509000  0  0  12.1372  0.135442  -0.0940389  0.0295952  nan  nan  nan  nan  nan  nan  -2.49511  -0.232502  1.02764  -0.0837259  -0.0233983  -0.010434  0.0093088  0.308791  0.0948874  0  0  0  0  0.702369  0  0.0199493  -0.0100187  -0.0313749  -0.014053  -0.00185267  -0.0100196  -0.015513  0.0288028  -0.0340318  -0.128165  -0.0769082  -0.0296216 
1704198712.268554000  0  0  12.1067  0.137399  -0.0966998  0.0288642  nan  nan  nan  nan  nan  nan  -2.49507  -0.230949  1.02811  -0.0825217  -0.0229889  -0.0106213  0.0093088  0.312287  0.0948874  0  0  0  0  0.696124  0  0.0199442  -0.0101239  -0.0314701  -0.0146673  -0.000512589  -0.00741278  -0.0170616  0.0282699  -0.0339319  -0.117831  -0.0666833  -0.0214829 
1704198712.273543000  0  0  12.1602  0.128474  -0.100659  0.0294092  nan  nan  nan  nan  nan  nan  -2.49502  -0.229379  1.02858  -0.0819281  -0.0238944  -0.0106858  0.0093088  0.315752  0.0948874  0  0  0  0  0.689628  0  0.0198837  -0.0101431  -0.0315445  -0.0131783  -0.00100342  -0.0117577  -0.0180064  0.028826  -0.033954  -0.0912889  -0.0638811  -0.0280748 
1704198712.278490000  0  0  12.1958  0.122324  -0.123866  0.0299825  nan  nan  nan  nan  nan  nan  -2.49497  -0.227792  1.02906  -0.080746  -0.0242115  -0.0108136  0.0093089  0.319183  0.0948874  0  0  0  0.0001052  0.682883  0  0.0198875  -0.0102831  -0.0317005  -0.0126468  -0.000288061  -0.014521  -0.0191876  0.0294397  -0.034012  -0.0681222  -0.0231132  -0.0346615 
1704198712.282363000  0  0  12.1826  0.127999  -0.123475  0.0280921  nan  nan  nan  nan  nan  nan  -2.49493  -0.226187  1.02953  -0.0801291  -0.022739  -0.0110718  0.0093103  0.32258  0.0948874  0  0  0  0.0004596  0.675888  0  0.0198183  -0.0106391  -0.0318395  -0.0144877  0.000583702  -0.0132015  -0.0200543  0.0279847  -0.0337936  -0.0714984  -0.0105087  -0.0132157 
1704198712.288424000  0  0  12.1626  0.0928817  -0.107633  0.0305466  nan  nan  nan  nan  nan  nan  -2.49488  -0.224566  1.03001  -0.0794901  -0.0238076  -0.0111264  0.0093139  0.325942  0.0948874  0  0  0  0.001064  0.668643  0  0.0198191  -0.0104213  -0.0318527  -0.0130156  0.000201351  -0.0115569  -0.020166  0.0286392  -0.0340095  -0.000236223  -0.0482137  -0.0417373 
1704198712.293417000  0  0  12.2446  0.0906612  -0.144875  0.0298681  nan  nan  nan  nan  nan  nan  -2.49483  -0.222928  1.03048  -0.0784647  -0.025304  -0.0111584  0.0093213  0.329266  0.0948874  0  0  0  0.0019184  0.661148  0  0.0198656  -0.0105645  -0.0319592  -0.0107552  0.000203361  -0.0182654  -0.0208368  0.0306413  -0.0340566  0.0103765  0.0078486  -0.0327851 
1704198712.298425000  0  0  12.167  0.110153  -0.141615  0.0247042  nan  nan  nan  nan  nan  nan  -2.49479  -0.221273  1.03096  -0.0768231  -0.0218663  -0.0115897  0.0093335  0.332553  0.0948874  0  0  0  0.0030228  0.653402  0  0.0197741  -0.0105471  -0.0319893  -0.0152745  0.00212023  -0.0119118  -0.0226064  0.027507  -0.0334089  -0.0123273  0.0301668  0.025287 
1704198712.303507000  0  0  12.1803  0.0448989  -0.122781  0.0320107  nan  nan  nan  nan  nan  nan  -2.49474  -0.219602  1.03143  -0.0774094  -0.0248212  -0.0114728  0.0093519  0.3358  0.0948874  0  0  0  0.0043771  0.645407  0  0.0198722  -0.0107268  -0.0320264  -0.0112991  0.000555217  -0.0128523  -0.020665  0.0299532  -0.0341345  0.10032  -0.0300077  -0.0587887 
1704198712.308515000  0  0  12.2581  0.0961094  -0.18097  0.0283038  nan  nan  nan  nan  nan  nan  -2.49469  -0.217915  1.03191  -0.0756084  -0.0255469  -0.0115878  0.0093777  0.339006  0.0948874  0  0  0  0.0059815  0.637162  0  0.0199344  -0.0109037  -0.0321129  -0.0100174  0.00165339  -0.0193637  -0.0226663  0.0317174  -0.0338938  0.0163115  0.0701403  -0.0148598 
1704198712.313558000  0  0  12.1649  0.0750624  -0.126068  0.0274071  nan  nan  nan  nan  nan  nan  -2.49465  -0.216212  1.03238  -0.0745508  -0.0227675  -0.0119475  0.0094122  0.342171  0.0948874  0  0  0  0.0078359  0.628667  0  0.0198528  -0.0108754  -0.0321216  -0.0136236  0.00276779  -0.0116528  -0.0231355  0.028427  -0.0336995  0.0627218  -0.00939187  -0.00559373 
1704198712.318504000  0  0  12.1392  0.040337  -0.107699  0.0332764  nan  nan  nan  nan  nan  nan  -2.4946  -0.214494  1.03285  -0.0740953  -0.0250574  -0.011913  0.0094565  0.345292  0.0948874  0  0  0  0.0099403  0.619921  0  0.0198949  -0.0109821  -0.0321434  -0.0104183  0.00268339  -0.00948574  -0.0226048  0.0299045  -0.0343736  0.12729  -0.0597242  -0.0722187 
1704198712.323510000  0  0  12.2038  0.102374  -0.156239  0.0276996  nan  nan  nan  nan  nan  nan  -2.49455  -0.21276  1.03333  -0.0712145  -0.0245199  -0.0121489  0.009512  0.34837  0.0948874  0  0  0  0.0122947  0.610926  0  0.0198333  -0.010951  -0.0322556  -0.010504  0.00483192  -0.0149314  -0.0258502  0.0300401  -0.0339254  0.0330729  0.0361081  -0.00699071 
1704198712.328514000  0  0  12.0858  0.070314  -0.11169  0.025888  nan  nan  nan  nan  nan  nan  -2.4945  -0.21101  1.0338  -0.0726834  -0.024237  -0.0122583  0.0095799  0.351401  0.0948874  0  0  0  0.014899  0.601681  0  0.020117  -0.0114564  -0.0319646  -0.0115334  0.00376078  -0.00554165  -0.0234203  0.0293174  -0.0336408  0.0748385  -0.0463396  0.0128078 
