ts fx fy fz tx ty tz exfx exfy exfz extx exty extz xd yd zd rolld pitchd yawd vxd vyd vzd wxd wyd wzd axd ayd azd e_x e_y e_z e_vx e_vy e_vz e_rx e_ry e_rz e_wx e_wy e_wz
1699964672.270902000  0  0  11.5801  0.143347  -0.0855771  0.00386725  nan  nan  nan  nan  nan  nan  -1  0  1  0.0174212  -0.031467  -0.000548159  0  0  0  0  0  0  0  0  0  0.023688  -0.000564626  -0.0162577  -0.0121271  0.023661  -0.00244059  -0.0255108  0.0244996  -0.00642985  -0.0519948  -0.054242  0.0159579 
1699964672.274940000  0  0  11.5651  0.132704  -0.0837994  0.00408905  nan  nan  nan  nan  nan  nan  -1  0  1  0.0173314  -0.0314662  -0.00054532  0  0  0  0  0  0  0  0  0  0.0236899  -0.000582004  -0.0162395  -0.0121855  0.023555  -0.00121798  -0.0253621  0.0242888  -0.00638533  -0.0320762  -0.0558581  0.0127402 
1699964672.279958000  0  0  11.5987  0.136121  -0.0808923  0.00478368  nan  nan  nan  nan  nan  nan  -1  0  1  0.0178597  -0.0308838  -0.000551547  0  0  0  0  0  0  0  0  0  0.0236275  -0.00046422  -0.0162704  -0.01268  0.0240391  -0.00395706  -0.0260524  0.0234291  -0.00641716  -0.0325613  -0.0537633  0.00437555 
1699964672.284951000  0  0  11.5977  0.139819  -0.0812906  0.00524672  nan  nan  nan  nan  nan  nan  -1  0  1  0.0175323  -0.0311404  -0.000545931  0  0  0  0  0  0  0  0  0  0.0236395  -0.000497056  -0.016265  -0.0123792  0.0236881  -0.00388502  -0.0259639  0.0234534  -0.00644558  -0.0407698  -0.0531901  -0.00112822 
1699964672.290375000  0  0  11.6001  0.128471  -0.0871905  0.00527021  nan  nan  nan  nan  nan  nan  -1  0  1  0.0176595  -0.0307645  -0.000543255  0  0  0  0  0  0  0  0  0  0.0236345  -0.000507591  -0.0162597  -0.0128451  0.0238802  -0.00409378  -0.025998  0.023014  -0.0064497  -0.0177602  -0.0373477  -0.00138064 
1699964672.294935000  0  0  11.629  0.12741  -0.0866786  0.00527921  nan  nan  nan  nan  nan  nan  -1  0  1  0.0179641  -0.0305109  -0.000548077  0  0  0  0  0  0  0  0  0  0.0235783  -0.000401515  -0.0162969  -0.0129486  0.0240951  -0.0064294  -0.0263165  0.0226266  -0.00645276  -0.0127079  -0.0348078  -0.0014626 
1699964672.299942000  0  0  11.6181  0.119754  -0.0968576  0.00491663  nan  nan  nan  nan  nan  nan  -1  0  1  0.017616  -0.030927  -0.000544779  0  0  0  0  0  0  0  0  0  0.0235905  -0.000440693  -0.0162949  -0.012476  0.0237105  -0.00551478  -0.0258758  0.0230736  -0.00640906  -0.00145165  -0.0185616  0.00263273 
1699964672.304942000  0  0  11.6336  0.111781  -0.116151  0.00476328  nan  nan  nan  nan  nan  nan  -1  0  1  0.018348  -0.0302963  -0.000555854  0  0  0  0  0  0  0  0  0  0.0235245  -0.000319689  -0.0163298  -0.0130904  0.0244189  -0.00675173  -0.0263411  0.022863  -0.00638076  0.0187762  0.0219626  0.00426662 
1699964672.309958000  0  0  11.66  0.103652  -0.112105  0.00540289  nan  nan  nan  nan  nan  nan  -1  0  1  0.0175464  -0.030867  -0.000541575  0  0  0  0  0  0  0  0  0  0.0235519  -0.000368833  -0.016355  -0.012324  0.0235427  -0.0088806  -0.0253221  0.023435  -0.00643993  0.0256594  0.00860697  -0.00313681 
1699964672.315400000  0  0  11.6405  0.0963916  -0.127466  0.00485006  nan  nan  nan  nan  nan  nan  -1  0  1  0.0171832  -0.0313338  -0.00053838  0  0  0  0  0  0  0  0  0  0.0235691  -0.00041794  -0.0163491  -0.0118253  0.0231438  -0.00726457  -0.0246844  0.0242182  -0.00638541  0.0343131  0.0321256  0.00322834 
1699964672.319942000  0  0  11.662  0.0906019  -0.149401  0.00434572  nan  nan  nan  nan  nan  nan  -1  0  1  0.0176268  -0.0307554  -0.00054209  0  0  0  0  0  0  0  0  0  0.0235115  -0.000312759  -0.0163943  -0.0123716  0.0235265  -0.00897657  -0.0248138  0.0243345  -0.00631546  0.0470828  0.0749246  0.0088331 
1699964672.324941000  0  0  11.6521  0.0787602  -0.131947  0.00484192  nan  nan  nan  nan  nan  nan  -1  0  1  0.0168642  -0.031466  -0.000530612  0  0  0  0  0  0  0  0  0  0.0235634  -0.00039576  -0.0164059  -0.0116014  0.0227035  -0.00810719  -0.0236577  0.0249864  -0.00635755  0.0601308  0.03402  0.0030515 
1699964672.329941000  0  0  11.6057  0.0968417  -0.139358  0.00428203  nan  nan  nan  nan  nan  nan  -1  0  1  0.0175588  -0.0315646  -0.0005542  0  0  0  0  0  0  0  0  0  0.0235072  -0.000280642  -0.0164109  -0.0115103  0.0232563  -0.00423639  -0.0243889  0.0253529  -0.00625509  0.0306948  0.0454694  0.00902546 
1699964672.334939000  0  0  11.6236  0.0898922  -0.155598  0.00442989  nan  nan  nan  nan  nan  nan  -1  0  1  0.0172345  -0.031577  -0.000544178  0  0  0  0  0  0  0  0  0  0.0235232  -0.000318083  -0.0164268  -0.0114671  0.0229559  -0.0057041  -0.0237883  0.0259744  -0.00624473  0.0390683  0.0722325  0.00707359 
1699964672.339945000  0  0  11.6312  0.0809806  -0.13156  0.0058393  nan  nan  nan  nan  nan  nan  -1  0  1  0.0175895  -0.0315126  -0.000554255  0  0  0  0  0  0  0  0  0  0.0234674  -0.000204745  -0.0164624  -0.0113999  0.0231769  -0.00625003  -0.0237175  0.0257242  -0.00640104  0.0562395  0.0264569  -0.00898082 
1699964672.344942000  0  0  11.5697  0.102702  -0.14279  0.00512447  nan  nan  nan  nan  nan  nan  -1  0  1  0.0169281  -0.0323837  -0.000548151  0  0  0  0  0  0  0  0  0  0.0235424  -0.000327541  -0.0163921  -0.0106614  0.0224792  -0.00127706  -0.0232992  0.026901  -0.00633289  0.0089488  0.0380909  -0.000727009 
1699964672.349945000  0  0  11.6059  0.0908893  -0.154796  0.00493957  nan  nan  nan  nan  nan  nan  -1  0  1  0.0158434  -0.0326141  -0.000516671  0  0  0  0  0  0  0  0  0  0.0236217  -0.000466863  -0.0163776  -0.0104113  0.0214584  -0.00432613  -0.0220124  0.0276207  -0.00631271  0.0207352  0.0554815  0.00138247 
1699964672.354940000  0  0  11.599  0.0901584  -0.133077  0.00607819  nan  nan  nan  nan  nan  nan  -1  0  1  0.0164324  -0.0325868  -0.000535431  0  0  0  0  0  0  0  0  0  0.0235719  -0.000358791  -0.0163954  -0.0103603  0.0219648  -0.00370811  -0.0224269  0.027388  -0.00644762  0.0260108  0.0141844  -0.0115011 
1699964672.359945000  0  0  11.5543  0.116975  -0.139114  0.00570115  nan  nan  nan  nan  nan  nan  -1  0  1  0.0161433  -0.0329349  -0.000531628  0  0  0  0  0  0  0  0  0  0.0236087  -0.000424635  -0.0163464  -0.0101564  0.0216586  -9.60828e-05  -0.0225814  0.0279053  -0.00643778  -0.0262021  0.0214992  -0.00688648 
1699964672.365377000  0  0  11.556  0.10737  -0.13924  0.00573364  nan  nan  nan  nan  nan  nan  -1  0  1  0.0154117  -0.0333858  -0.000514478  0  0  0  0  0  0  0  0  0  0.0236856  -0.000530448  -0.0163222  -0.00974257  0.0209573  -0.000282413  -0.0218449  0.0285091  -0.00646083  -0.0137666  0.0161952  -0.0070623 
1699964672.369881000  0  0  11.5854  0.103552  -0.119999  0.00616773  nan  nan  nan  nan  nan  nan  -1  -0  1  0.016001  -0.0331719  -0.000530732  6e-07  -6e-07  6e-07  0  0  0  0  0  0  0.0236428  -0.0004346  -0.0163492  -0.00981379  0.0215529  -0.00266791  -0.022326  0.0279426  -0.00653863  -0.00170547  -0.0170736  -0.0117103 
1699964672.374928000  0  0  11.5697  0.135851  -0.138104  0.00506204  nan  nan  nan  nan  nan  nan  -1  -0  1  0.0154222  -0.0333165  -0.000513758  5e-06  -5e-06  5e-06  0  0  0  0  0  0  0.0237028  -0.000527098  -0.0163074  -0.00981879  0.020987  -0.00146518  -0.0224427  0.0283771  -0.00644242  -0.0652298  0.0151384  0.00114877 
1699964672.379931000  0  0  11.5741  0.131209  -0.125589  0.00486031  nan  nan  nan  nan  nan  nan  -1  -1e-07  1  0.0162114  -0.032787  -0.000531474  1.69e-05  -1.69e-05  1.69e-05  0  0  0  0  0  0  0.0236516  -0.000419393  -0.016318  -0.0103688  0.0217704  -0.00182269  -0.0233654  0.0277316  -0.00639402  -0.0474552  -0.00395241  0.00318628 
1699964672.384932000  0  0  11.5764  0.121256  -0.109746  0.00457173  nan  nan  nan  nan  nan  nan  -1  -2e-07  1  0.0157092  -0.0332342  -0.000521928  4e-05  -4e-05  4e-05  0  0  0  0  0  0  0.0237093  -0.000508358  -0.0162829  -0.00991415  0.0213258  -0.00207045  -0.0228802  0.0277775  -0.00633413  -0.0320138  -0.0360614  0.00619477 
1699964672.389884000  0  0  11.5789  0.146221  -0.115496  0.00401465  nan  nan  nan  nan  nan  nan  -1  -5e-07  1  0.0163628  -0.0328824  -0.000537798  7.81e-05  -7.81e-05  7.81e-05  0  0  0  0  0  0  0.0236601  -0.000402144  -0.0162928  -0.010247  0.0219355  -0.00228092  -0.0241646  0.0274247  -0.0062157  -0.0701282  -0.0213148  0.011974 
1699964672.394937000  0  0  11.583  0.135673  -0.104094  0.00407481  nan  nan  nan  nan  nan  nan  -0.999999  -1e-06  1  0.0160257  -0.0329179  -0.000527081  0.000135  -0.000135  0.000135  0  0  0  0  0  0  0.0237006  -0.000478311  -0.0162669  -0.0102768  0.0216783  -0.00267091  -0.0239843  0.0271676  -0.00615572  -0.0506908  -0.0417543  0.010622 
1699964672.399939000  0  0  11.588  0.131865  -0.097411  0.0045573  nan  nan  nan  nan  nan  nan  -0.999998  -1.9e-06  1  0.015859  -0.0331813  -0.00052557  0.0002141  -0.0002144  0.0002134  0  0  0  0  0  0  0.0237452  -0.000530029  -0.0162692  -0.0100189  0.0215872  -0.00306991  -0.0239831  0.0270349  -0.00618209  -0.0430841  -0.0538994  0.00485466 
1699964672.404939000  0  0  11.5986  0.148899  -0.107595  0.00493924  nan  nan  nan  nan  nan  nan  -0.999997  -3.2e-06  1  0.0165315  -0.0326998  -0.00053973  0.0003149  -0.00032  0.0003113  0  0  0  0  0  0  0.0236942  -0.00042196  -0.0162875  -0.0104857  0.022233  -0.00393904  -0.0251684  0.0265666  -0.00619971  -0.0662483  -0.0292234  0.000256695 
1699964672.409886000  0  0  11.5999  0.136445  -0.103819  0.00560053  nan  nan  nan  nan  nan  nan  -0.999995  -5.1e-06  1.00001  0.0164504  -0.0326092  -0.000535387  0.0004338  -0.0004556  0.0004249  0  0  0  0  0  0  0.0237033  -0.000447749  -0.0162899  -0.0106186  0.0221881  -0.00403785  -0.0251017  0.0263077  -0.00628021  -0.0419534  -0.0343924  -0.00720455 
1699964672.414940000  0  0  11.611  0.132802  -0.0987291  0.00554253  nan  nan  nan  nan  nan  nan  -0.999992  -7.8e-06  1.00001  0.017204  -0.0322001  -0.000552729  0.0005669  -0.000625  0.0005504  0  0  0  0  0  0  0.0236489  -0.000334098  -0.0163113  -0.0109847  0.0229282  -0.00492183  -0.0258429  0.0256355  -0.00630254  -0.0278498  -0.0383884  -0.00625619 
1699964672.419944000  0  0  11.6153  0.144199  -0.107894  0.00377485  nan  nan  nan  nan  nan  nan  -0.999989  -1.14e-05  1.00001  0.0166902  -0.0324938  -0.000540882  0.0007105  -0.0008319  0.0006841  0  0  0  0  0  0  0.0236798  -0.000393781  -0.0163091  -0.0106591  0.022406  -0.00528653  -0.0257473  0.0259478  -0.00607836  -0.0515228  -0.0229306  0.013598 
1699964672.424944000  0  0  11.626  0.122696  -0.108746  0.00399598  nan  nan  nan  nan  nan  nan  -0.999985  -1.62e-05  1.00001  0.0167305  -0.0323502  -0.000539592  0.000861  -0.00108  0.0008222  0  0  0  0  0  0  0.0236978  -0.000425696  -0.0163164  -0.0108466  0.0225488  -0.00615447  -0.0255316  0.0257686  -0.00604774  -0.0105016  -0.0195795  0.0105276 
1699964672.429947000  0  0  11.6372  0.116117  -0.105159  0.00428299  nan  nan  nan  nan  nan  nan  -0.999981  -2.23e-05  1.00002  0.0174615  -0.031873  -0.000554814  0.0010145  -0.0013731  0.000961  0  0  0  0  0  0  0.0236431  -0.00031239  -0.0163554  -0.0113013  0.0232632  -0.00701172  -0.0260682  0.0251617  -0.00603845  0.00759319  -0.0211701  0.00684721 
1699964672.434940000  0  0  11.6534  0.120329  -0.120586  0.00459791  nan  nan  nan  nan  nan  nan  -0.999975  -3e-05  1.00002  0.0169857  -0.0323319  -0.000547338  0.0011672  -0.001715  0.0010968  0  0  0  0  0  0  0.0236784  -0.000378791  -0.0163775  -0.0107281  0.0228259  -0.00831566  -0.0256746  0.0258445  -0.00602981  -0.00445177  0.00340196  0.00282422 
1699964672.440323000  0  0  11.6547  0.102393  -0.127803  0.00478414  nan  nan  nan  nan  nan  nan  -0.999969  -3.96e-05  1.00003  0.0168283  -0.0325064  -0.000545283  0.0013155  -0.0021094  0.0012257  0  0  0  0  0  0  0.0237107  -0.000428144  -0.0163985  -0.0105696  0.0227338  -0.00836702  -0.0250973  0.0262107  -0.00604154  0.0261099  0.0144686  0.000613701 
1699964672.444946000  0  0  11.6882  0.0890497  -0.128521  0.00492358  nan  nan  nan  nan  nan  nan  -0.999962  -5.12e-05  1.00004  0.0173843  -0.0320687  -0.000556053  0.0014556  -0.0025587  0.0013441  0  0  0  0  0  0  0.0236601  -0.00032312  -0.0164605  -0.0109044  0.0232853  -0.0110319  -0.0252033  0.0258881  -0.0060584  0.0537707  0.018871  -0.000960785 
1699964672.449947000  0  0  11.6667  0.0946552  -0.13502  0.0046566  nan  nan  nan  nan  nan  nan  -0.999954  -6.52e-05  1.00004  0.0168958  -0.0326908  -0.000551393  0.0015837  -0.0030604  0.0014482  0  0  0  0  0  0  0.0237118  -0.000422481  -0.0164445  -0.0102892  0.022831  -0.00927138  -0.0246177  0.0266909  -0.0060282  0.0371724  0.0244838  0.00207446 
1699964672.454938000  0  0  11.6625  0.0896424  -0.141594  0.00464307  nan  nan  nan  nan  nan  nan  -0.999946  -8.19e-05  1.00005  0.0180137  -0.0322726  -0.000581311  0.0016961  -0.0036108  0.0015342  0  0  0  0  0  0  0.0236582  -0.000303886  -0.0164868  -0.0107263  0.0240082  -0.00883652  -0.0253594  0.0265702  -0.00600126  0.0540215  0.0387415  0.00197424 
1699964672.459945000  0  0  11.6682  0.0799805  -0.139642  0.00485698  nan  nan  nan  nan  nan  nan  -0.999938  -0.0001014  1.00006  0.0174874  -0.0327683  -0.000574289  0.001789  -0.0042061  0.0015988  0  0  0  0  0  0  0.0237233  -0.00040517  -0.0165192  -0.0102082  0.0235618  -0.00923193  -0.0244304  0.0271574  -0.0060389  0.064799  0.0294356  -0.000323282 
1699964672.465277000  0  0  11.6385  0.0874403  -0.137697  0.00472091  nan  nan  nan  nan  nan  nan  -0.999928  -0.000124  1.00007  0.0173839  -0.0332812  -0.00058161  0.0018593  -0.0048425  0.0016434  0  0  0  0  0  0  0.0237563  -0.000463229  -0.0165098  -0.00972578  0.0234988  -0.00677293  -0.0241873  0.0277172  -0.00601688  0.0476427  0.0203964  0.00115739 
1699964672.469909000  0  0  11.5997  0.102732  -0.148639  0.00462166  nan  nan  nan  nan  nan  nan  -0.999919  -0.0001499  1.00007  0.0187113  -0.0329063  -0.000621182  0.0019086  -0.0055164  0.0016716  0  0  0  0  0  0  0.0237075  -0.000347155  -0.016509  -0.0102417  0.0248771  -0.00356244  -0.0255232  0.027715  -0.00597764  0.029349  0.0423007  0.00200563 
1699964672.474905000  0  0  11.627  0.0914582  -0.137511  0.00525452  nan  nan  nan  nan  nan  nan  -0.999909  -0.0001792  1.00008  0.0183469  -0.0330043  -0.000614183  0.0019405  -0.0062239  0.0016872  0  0  0  0  0  0  0.0237637  -0.000452318  -0.0165051  -0.0101413  0.0246961  -0.0058284  -0.0247887  0.0277734  -0.00604466  0.0451395  0.0195077  -0.00523486 
1699964672.479962000  0  0  11.5893  0.116152  -0.131367  0.00534065  nan  nan  nan  nan  nan  nan  -0.9999  -0.0002122  1.00009  0.0195413  -0.0329562  -0.000656672  0.0019589  -0.0069612  0.0016939  0  0  0  0  0  0  0.0237148  -0.000325572  -0.016511  -0.0102304  0.0258756  -0.00268772  -0.0261846  0.0276572  -0.00606047  0.00859481  0.0082878  -0.00615351 
1699964672.484943000  0  0  11.5542  0.120184  -0.136146  0.00517988  nan  nan  nan  nan  nan  nan  -0.99989  -0.0002489  1.0001  0.0194058  -0.0332111  -0.000662251  0.0019674  -0.0077248  0.0016954  0  0  0  0  0  0  0.0237732  -0.000433529  -0.0164542  -0.0101612  0.0258649  0.000118484  -0.0261128  0.028059  -0.0060529  -0.000131461  0.0141495  -0.00421946 
1699964672.489911000  0  0  11.6038  0.115433  -0.123685  0.00522978  nan  nan  nan  nan  nan  nan  -0.99988  -0.0002895  1.00011  0.0207806  -0.0326819  -0.000703125  0.0019699  -0.0085107  0.0016955  0  0  0  0  0  0  0.0237216  -0.000299333  -0.0165031  -0.0105438  0.0274462  -0.00391928  -0.0272286  0.0273644  -0.00605449  0.0196383  -0.00438185  -0.00482739 
1699964672.494904000  0  0  11.5765  0.129352  -0.11898  0.00485205  nan  nan  nan  nan  nan  nan  -0.99987  -0.000334  1.00012  0.020665  -0.033288  -0.000719366  0.0019701  -0.0093153  0.0016955  0  0  0  0  0  0  0.0237763  -0.000368844  -0.0164656  -0.00998395  0.0273881  -0.0017206  -0.0273395  0.0277926  -0.00599461  -0.007181  -0.0177313  -0.000704484 
1699964672.499963000  0  0  11.5631  0.141027  -0.116597  0.00492159  nan  nan  nan  nan  nan  nan  -0.99986  -0.0003826  1.00013  0.0208719  -0.0331268  -0.000731893  0.0019701  -0.0101348  0.0016955  0  0  0  0  0  0  0.0238203  -0.000428267  -0.0164382  -0.0103379  0.0277551  -0.000663859  -0.0278384  0.0275519  -0.00597256  -0.0259413  -0.0202826  -0.00179426 
1699964672.504961000  0  0  11.6159  0.137774  -0.0983572  0.005252  nan  nan  nan  nan  nan  nan  -0.99985  -0.0004354  1.00013  0.0222864  -0.0326163  -0.000777992  0.0019701  -0.0109655  0.0016955  0  0  0  0  0  0  0.0237687  -0.000284347  -0.0164748  -0.010686  0.0293832  -0.00498446  -0.0291248  0.0265973  -0.00600438  -0.00760008  -0.0479811  -0.00560624 
1699964672.509959000  0  0  11.5803  0.155401  -0.0979168  0.00449291  nan  nan  nan  nan  nan  nan  -0.999841  -0.0004923  1.00014  0.0223877  -0.0331405  -0.000805427  0.0019701  -0.0118035  0.0016955  0  0  0  0  0  0  0.0238149  -0.000323965  -0.0164459  -0.0102413  0.0295124  -0.00208137  -0.0296205  0.0268538  -0.00587223  -0.0382939  -0.0512211  0.00256084 
1699964672.513906000  0  0  11.5755  0.169273  -0.0985235  0.00377697  nan  nan  nan  nan  nan  nan  -0.999831  -0.0005534  1.00015  0.0235306  -0.0324754  -0.000842173  0.0019701  -0.0126452  0.0016955  0  0  0  0  0  0  0.0237676  -0.000193451  -0.0164527  -0.011007  0.0306811  -0.00168622  -0.0311062  0.02609  -0.00574273  -0.0523687  -0.0429806  0.0102152 
1699964672.519959000  0  0  11.6354  0.144631  -0.0869114  0.00433043  nan  nan  nan  nan  nan  nan  -0.999821  -0.0006188  1.00016  0.0238834  -0.0323785  -0.00086812  0.0019701  -0.0134869  0.0016955  0  0  0  0  0  0  0.0237951  -0.000216323  -0.0164704  -0.010977  0.0313434  -0.0066229  -0.0311188  0.0255102  -0.0057392  -0.00296915  -0.0608714  0.00326157 
1699964672.524909000  0  0  11.6047  0.159896  -0.0958828  0.00438543  nan  nan  nan  nan  nan  nan  -0.999811  -0.0006883  1.00017  0.0237939  -0.0329702  -0.000898497  0.0019701  -0.0143246  0.0016955  0  0  0  0  0  0  0.0238278  -0.000257847  -0.0164398  -0.0103952  0.0312376  -0.00413501  -0.0313816  0.0259629  -0.00569319  -0.0310821  -0.0470929  0.00211404 
1699964672.529958000  0  0  11.6056  0.162752  -0.103238  0.00478719  nan  nan  nan  nan  nan  nan  -0.999801  -0.000762  1.00018  0.0252578  -0.0322292  -0.000949871  0.0019701  -0.0151548  0.0016955  0  0  0  0  0  0  0.02377  -9.60492e-05  -0.0164589  -0.0112159  0.0327688  -0.00418751  -0.0329254  0.0252514  -0.00570104  -0.0225909  -0.0258364  -0.00282943 
1699964672.534952000  0  0  11.6404  0.13547  -0.0954872  0.00531055  nan  nan  nan  nan  nan  nan  -0.999791  -0.0008398  1.00018  0.0249518  -0.0326906  -0.000976315  0.0019701  -0.0159736  0.0016955  0  0  0  0  0  0  0.0238276  -0.000147434  -0.0164755  -0.0106228  0.0325822  -0.00702178  -0.032165  0.0253604  -0.00578304  0.0249784  -0.042341  -0.00855143 
1699964672.540383000  0  0  11.6207  0.147285  -0.110446  0.00499777  nan  nan  nan  nan  nan  nan  -0.999781  -0.0009217  1.00019  0.0250225  -0.0330564  -0.00101577  0.0019701  -0.0167773  0.0016955  0  0  0  0  0  0  0.0238323  -0.000126443  -0.0164691  -0.0102304  0.0325707  -0.00539982  -0.0323602  0.025795  -0.00574034  0.00314461  -0.0164218  -0.00506873 
1699964672.544958000  0  0  11.6345  0.138464  -0.119751  0.00514414  nan  nan  nan  nan  nan  nan  -0.999772  -0.0010076  1.0002  0.0263486  -0.0324492  -0.00107494  0.0019701  -0.0175622  0.0016955  0  0  0  0  0  0  0.0237812  3.49111e-05  -0.0165038  -0.0108479  0.0339646  -0.00648187  -0.0333815  0.0253896  -0.00573363  0.0301813  0.00591734  -0.00696541 
1699964672.549958000  0  0  11.6492  0.114104  -0.11491  0.00528945  nan  nan  nan  nan  nan  nan  -0.999762  -0.0010973  1.00021  0.0262095  -0.03279  -0.00111435  0.0019701  -0.0183245  0.0016955  0  0  0  0  0  0  0.0238138  2.03215e-05  -0.0165176  -0.0104257  0.0338572  -0.00765187  -0.0325594  0.0256375  -0.00575536  0.0713398  -0.00604508  -0.00856457 
1699964672.554950000  0  0  11.6426  0.125796  -0.129113  0.00470497  nan  nan  nan  nan  nan  nan  -0.999752  -0.0011908  1.00022  0.0268956  -0.0328432  -0.00117719  0.0019701  -0.0190604  0.0016955  0  0  0  0  0  0  0.0237648  0.000186813  -0.0165475  -0.0102682  0.0343543  -0.00705105  -0.0331063  0.025944  -0.00567884  0.0529869  0.0195405  -0.00202376 
1699964672.559959000  0  0  11.6597  0.110236  -0.141385  0.00458751  nan  nan  nan  nan  nan  nan  -0.999742  -0.0012879  1.00023  0.0270087  -0.0328619  -0.00122441  0.0019701  -0.0197662  0.0016955  0  0  0  0  0  0  0.0237908  0.000180692  -0.0165623  -0.0102382  0.0345631  -0.00843098  -0.0326194  0.0263448  -0.00563666  0.0796268  0.0403978  -0.000977297 
1699964672.565270000  0  0  11.6545  0.0967813  -0.132478  0.00452817  nan  nan  nan  nan  nan  nan  -0.999732  -0.0013884  1.00024  0.0266186  -0.0333631  -0.00127212  0.0019701  -0.0204382  0.0016955  0  0  0  0  0  0  0.0238292  0.000171821  -0.0165791  -0.00969289  0.0340582  -0.00793494  -0.0315491  0.02685  -0.00558166  0.0966888  0.0179358  -0.000785564 
1699964672.569955000  0  0  11.6584  0.108162  -0.135306  0.00455206  nan  nan  nan  nan  nan  nan  -0.999722  -0.0014922  1.00024  0.0274477  -0.0332616  -0.00134872  0.0019701  -0.0210726  0.0016955  0  0  0  0  0  0  0.023784  0.000338773  -0.0166088  -0.00970546  0.0347708  -0.00819754  -0.0321426  0.0268861  -0.00553374  0.0793869  0.0232589  -0.00156336 
1699964672.574939000  0  0  11.6667  0.0949095  -0.151555  0.00496749  nan  nan  nan  nan  nan  nan  -0.999712  -0.001599  1.00025  0.0273076  -0.0335508  -0.00140835  0.0019701  -0.0216656  0.0016955  0  0  0  0  0  0  0.0238336  0.000317042  -0.0166181  -0.00940811  0.0346596  -0.00886284  -0.0313682  0.0276306  -0.00554507  0.0987685  0.0489092  -0.0066429 
1699964672.579955000  0  0  11.6531  0.0958821  -0.140316  0.00515963  nan  nan  nan  nan  nan  nan  -0.999703  -0.0017087  1.00026  0.0281798  -0.0331265  -0.00148677  0.0019701  -0.0222136  0.0016955  0  0  0  0  0  0  0.0237841  0.00049115  -0.0166494  -0.00989515  0.0353586  -0.00765228  -0.031713  0.0272117  -0.00554583  0.0999949  0.0302832  -0.00903705 
1699964672.584954000  0  0  11.645  0.104862  -0.141929  0.00487655  nan  nan  nan  nan  nan  nan  -0.999693  -0.0018211  1.00027  0.0277771  -0.0334547  -0.00154874  0.0019701  -0.0227126  0.0016955  0  0  0  0  0  0  0.0238138  0.000487256  -0.0166547  -0.00956477  0.034817  -0.00695978  -0.0310774  0.0276856  -0.0055021  0.0761888  0.0291507  -0.00593585 
1699964672.589961000  0  0  11.651  0.108784  -0.145784  0.00518665  nan  nan  nan  nan  nan  nan  -0.999683  -0.0019358  1.00028  0.0286941  -0.0331453  -0.00164196  0.0019701  -0.0231591  0.0016955  0  0  0  0  0  0  0.0237651  0.000664423  -0.0166962  -0.00982975  0.0356267  -0.00737394  -0.0316555  0.0276244  -0.00550275  0.073663  0.0374247  -0.00980569 
1699964672.594959000  0  0  11.6228  0.100244  -0.138516  0.00573918  nan  nan  nan  nan  nan  nan  -0.999673  -0.0020526  1.00029  0.0275886  -0.0339189  -0.00170323  0.0019701  -0.0235507  0.0016955  0  0  0  0  0  0  0.0238923  0.000514785  -0.0166857  -0.00921747  0.0344357  -0.00502434  -0.0301682  0.0283071  -0.00560043  0.0770594  0.0166064  -0.0157354 
1699964672.599956000  0  0  11.6184  0.108404  -0.138055  0.00530003  nan  nan  nan  nan  nan  nan  -0.999663  -0.0021712  1.0003  0.0267712  -0.0343938  -0.0017702  0.0019701  -0.0238899  0.0016955  0  0  0  0  0  0  0.0239435  0.0004658  -0.016665  -0.00873377  0.0334711  -0.00469739  -0.0292357  0.0288423  -0.00555864  0.0521601  0.0107599  -0.010664 
1699964672.604932000  0  0  11.6107  0.115003  -0.133515  0.00498386  nan  nan  nan  nan  nan  nan  -0.999653  -0.0022914  1.0003  0.0277283  -0.0338686  -0.00187618  0.0019701  -0.0241806  0.0016955  0  0  0  0  0  0  0.0238965  0.000636708  -0.0166773  -0.00933113  0.0343006  -0.00403066  -0.0300406  0.0283155  -0.00547782  0.0463689  0.00652616  -0.00752004 
1699964672.609935000  0  0  11.605  0.105225  -0.125388  0.00531572  nan  nan  nan  nan  nan  nan  -0.999643  -0.0024129  1.00031  0.0273181  -0.0338662  -0.00195552  0.0019701  -0.0244265  0.0016955  0  0  0  0  0  0  0.0239256  0.000637451  -0.0166643  -0.00941902  0.0337479  -0.00356932  -0.0292245  0.0281965  -0.00548526  0.058416  -0.00863104  -0.0115939 
1699964672.615366000  0  0  11.6183  0.111513  -0.127323  0.00491853  nan  nan  nan  nan  nan  nan  -0.999634  -0.0025356  1.00032  0.026465  -0.0342564  -0.00203593  0.0019701  -0.0246313  0.0016955  0  0  0  0  0  0  0.0239799  0.000585506  -0.0166509  -0.00898503  0.0327967  -0.00470238  -0.0283165  0.0285866  -0.00541058  0.0374867  -0.00835076  -0.00737584 
1699964672.619930000  0  0  11.6016  0.126203  -0.118689  0.00450377  nan  nan  nan  nan  nan  nan  -0.999624  -0.0026592  1.00033  0.0273871  -0.0337255  -0.0021579  0.0019701  -0.0247989  0.0016955  0  0  0  0  0  0  0.0239349  0.000749618  -0.0166619  -0.00962684  0.0335686  -0.00328833  -0.0293453  0.0278816  -0.00527712  0.0175706  -0.0191333  -0.00352589 
1699964672.625392000  0  0  11.6122  0.117957  -0.110371  0.00428754  nan  nan  nan  nan  nan  nan  -0.999614  -0.0027835  1.00034  0.0268287  -0.0337239  -0.00224981  0.0019701  -0.0249328  0.0016955  0  0  0  0  0  0  0.0239749  0.00071736  -0.0166414  -0.00967746  0.0329465  -0.00419706  -0.0285845  0.027623  -0.00517399  0.0270635  -0.0333893  -0.00185427 
1699964672.629932000  0  0  11.6305  0.131134  -0.108752  0.00383093  nan  nan  nan  nan  nan  nan  -0.999604  -0.0029085  1.00035  0.0273914  -0.0334826  -0.00237909  0.0019701  -0.025037  0.0016955  0  0  0  0  0  0  0.023932  0.000878679  -0.0166754  -0.00981905  0.0333655  -0.00565678  -0.0292594  0.0272408  -0.00500652  0.00691823  -0.0331122  0.00217852 
1699964672.634887000  0  0  11.5987  0.141943  -0.104341  0.00323614  nan  nan  nan  nan  nan  nan  -0.999594  -0.0030339  1.00035  0.0268044  -0.0336066  -0.00248565  0.0019701  -0.0251151  0.0016955  0  0  0  0  0  0  0.023968  0.000849461  -0.0166309  -0.00985546  0.0325718  -0.00310102  -0.028999  0.0271278  -0.00480125  -0.0170957  -0.0408936  0.00756077 
1699964672.640307000  0  0  11.6346  0.124826  -0.102321  0.00359606  nan  nan  nan  nan  nan  nan  -0.999584  -0.0031596  1.00036  0.0261937  -0.0335289  -0.00259218  0.0019701  -0.0251709  0.0016955  0  0  0  0  0  0  0.0240151  0.000817643  -0.0166364  -0.00992538  0.0319538  -0.00606636  -0.0281658  0.0268133  -0.00470305  0.00947389  -0.0420408  0.00207978 
1699964672.644945000  0  0  11.6381  0.136379  -0.102639  0.00366433  nan  nan  nan  nan  nan  nan  -0.999575  -0.0032855  1.00037  0.0265999  -0.0335081  -0.00274045  0.0019701  -0.0252082  0.0016955  0  0  0  0  0  0  0.0239733  0.000973376  -0.0166637  -0.00984002  0.0321373  -0.00630318  -0.0287172  0.0266397  -0.0045731  -0.00856038  -0.0398079  -7.3118e-05 
1699964672.649946000  0  0  11.6048  0.138542  -0.0988781  0.0040926  nan  nan  nan  nan  nan  nan  -0.999565  -0.0034116  1.00038  0.0260819  -0.0336424  -0.00286799  0.0019701  -0.0252306  0.0016955  0  0  0  0  0  0  0.0239973  0.000965047  -0.0166313  -0.00984205  0.031383  -0.00358994  -0.028386  0.0265081  -0.00450887  -0.0159335  -0.046118  -0.0060688 
1699964672.654888000  0  0  11.6532  0.121197  -0.100009  0.00514036  nan  nan  nan  nan  nan  nan  -0.999555  -0.0035378  1.00039  0.0267287  -0.0328589  -0.00301653  0.0019701  -0.025242  0.0016955  0  0  0  0  0  0  0.0239446  0.00112478  -0.0166868  -0.0105516  0.0320017  -0.00750273  -0.0286536  0.0256213  -0.00455472  0.0212182  -0.035698  -0.0187072 
1699964672.659947000  0  0  11.652  0.122574  -0.101729  0.00458997  nan  nan  nan  nan  nan  nan  -0.999545  -0.003664  1.0004  0.0256742  -0.0335161  -0.00315263  0.0019701  -0.0252461  0.0016955  0  0  0  0  0  0  0.0239765  0.00111156  -0.0166854  -0.00977558  0.0306527  -0.00739205  -0.0276569  0.0261069  -0.00445705  0.00929484  -0.0367257  -0.0128041 
1699964672.664895000  0  0  11.6345  0.128763  -0.105202  0.00403708  nan  nan  nan  nan  nan  nan  -0.999535  -0.0037903  1.00041  0.0264549  -0.0330957  -0.00332789  0.0019701  -0.0252466  0.0016955  0  0  0  0  0  0  0.0239252  0.00126859  -0.0167058  -0.0102614  0.0312582  -0.00589937  -0.0284578  0.0256362  -0.00428559  0.00428686  -0.0254495  -0.00760761 
1699964672.669945000  0  0  11.6892  0.106805  -0.113605  0.00449943  nan  nan  nan  nan  nan  nan  -0.999525  -0.0039165  1.00041  0.025805  -0.0329929  -0.00347012  0.0019701  -0.0252462  0.0016955  0  0  0  0  0  0  0.0239632  0.00125385  -0.0167323  -0.010276  0.0306003  -0.0103937  -0.0273841  0.0256296  -0.00423652  0.0383245  -0.00858249  -0.0138777 
1699964672.674885000  0  0  11.6837  0.111785  -0.115476  0.0042869  nan  nan  nan  nan  nan  nan  -0.999515  -0.0040427  1.00042  0.0249499  -0.0336154  -0.00363012  0.0019701  -0.0252424  0.0016955  0  0  0  0  0  0  0.0239822  0.00127202  -0.0167461  -0.0095287  0.0294235  -0.00989894  -0.02656  0.0262092  -0.00411473  0.0207826  -0.010173  -0.0124389 
1699964672.679949000  0  0  11.659  0.112235  -0.126619  0.00486156  nan  nan  nan  nan  nan  nan  -0.999506  -0.0041689  1.00043  0.0256949  -0.033111  -0.00382112  0.0019701  -0.0252316  0.0016955  0  0  0  0  0  0  0.0239307  0.00142327  -0.0167708  -0.0101507  0.0299791  -0.00779326  -0.027167  0.0259495  -0.00408478  0.0254654  0.0145026  -0.0199217 
1699964672.684896000  0  0  11.6762  0.0940959  -0.130151  0.00488703  nan  nan  nan  nan  nan  nan  -0.999496  -0.004295  1.00044  0.0247442  -0.0333372  -0.00398042  0.0019701  -0.02521  0.0016955  0  0  0  0  0  0  0.0239815  0.00136317  -0.0167898  -0.00990655  0.0289187  -0.00917745  -0.0257903  0.0263195  -0.00404978  0.0490791  0.0181632  -0.02059 
1699964672.689947000  0  0  11.6576  0.0969025  -0.126486  0.00342351  nan  nan  nan  nan  nan  nan  -0.999486  -0.004421  1.00045  0.0244145  -0.0336844  -0.00416929  0.0019701  -0.0251737  0.0016955  0  0  0  0  0  0  0.0239379  0.00149938  -0.0168217  -0.00942447  0.028128  -0.00756003  -0.0253243  0.0266317  -0.00376547  0.0391782  0.00796066  -0.00513919 
1699964672.694887000  0  0  11.6612  0.087544  -0.144402  0.00321477  nan  nan  nan  nan  nan  nan  -0.999476  -0.0045467  1.00046  0.0239799  -0.0337041  -0.00435282  0.0019701  -0.0251192  0.0016955  0  0  0  0  0  0  0.0239754  0.00146158  -0.0168243  -0.00946517  0.0276499  -0.00785572  -0.0245318  0.0271135  -0.0036107  0.0506044  0.0393599  -0.00407764 
1699964672.699950000  0  0  11.6667  0.0811004  -0.143075  0.00344958  nan  nan  nan  nan  nan  nan  -0.999466  -0.0046722  1.00046  0.0232174  -0.0340214  -0.00453838  0.0019701  -0.0250426  0.0016955  0  0  0  0  0  0  0.0240203  0.00143408  -0.0168174  -0.00913192  0.0267262  -0.00831763  -0.0234464  0.0275834  -0.00350389  0.0535063  0.0323819  -0.00808085 
1699964672.704946000  0  0  11.6035  0.0955369  -0.12841  0.00358707  nan  nan  nan  nan  nan  nan  -0.999456  -0.0047971  1.00047  0.0234188  -0.0343563  -0.00476317  0.0019701  -0.0249402  0.0016955  0  0  0  0  0  0  0.0239789  0.00156482  -0.0168132  -0.0088398  0.0265218  -0.00305406  -0.0237125  0.0276935  -0.0033645  0.0270815  0.00203954  -0.0111933 
1699964672.709944000  0  0  11.6324  0.087219  -0.140203  0.00326677  nan  nan  nan  nan  nan  nan  -0.999446  -0.0049215  1.00048  0.0230073  -0.034116  -0.0049599  0.0019701  -0.0248082  0.0016955  0  0  0  0  0  0  0.0239902  0.00156486  -0.0168152  -0.00906143  0.0260569  -0.00546786  -0.0230635  0.0277863  -0.00318159  0.0377466  0.0247725  -0.0090188 
1699964672.714888000  0  0  11.6203  0.0872519  -0.132349  0.00346909  nan  nan  nan  nan  nan  nan  -0.999437  -0.0050451  1.00049  0.0232201  -0.0336799  -0.00517974  0.0019701  -0.0246429  0.0016955  0  0  0  0  0  0  0.0239435  0.00169378  -0.0168354  -0.0095593  0.0260074  -0.004418  -0.0230719  0.027341  -0.00305485  0.0377577  0.0131606  -0.0128151 
1699964672.719946000  0  0  11.5777  0.100434  -0.124487  0.00366909  nan  nan  nan  nan  nan  nan  -0.999427  -0.0051679  1.0005  0.0228261  -0.0340714  -0.0054043  0.0019701  -0.0244405  0.0016955  0  0  0  0  0  0  0.0239526  0.00171921  -0.0167887  -0.00923194  0.0253222  -0.000959203  -0.0228447  0.0275797  -0.00293511  0.009302  -0.00475869  -0.0165126 
1699964672.724946000  0  0  11.6023  0.099899  -0.133672  0.00356211  nan  nan  nan  nan  nan  nan  -0.999417  -0.0052895  1.00051  0.0225899  -0.0338853  -0.00562725  0.0019701  -0.0241973  0.0016955  0  0  0  0  0  0  0.0239569  0.00173663  -0.0167807  -0.0093828  0.0250323  -0.00303455  -0.0226512  0.0275926  -0.00279381  0.0085927  0.0134928  -0.0165882 
1699964672.729939000  0  0  11.5949  0.10006  -0.118309  0.00336259  nan  nan  nan  nan  nan  nan  -0.999407  -0.0054098  1.00052  0.0227032  -0.0334265  -0.00586208  0.0019701  -0.0239095  0.0016955  0  0  0  0  0  0  0.0239076  0.00185975  -0.0167927  -0.00988537  0.024879  -0.0023883  -0.0227048  0.0269183  -0.00262662  0.00876527  -0.0110303  -0.0157662 
1699964672.734889000  0  0  11.5512  0.107392  -0.114594  0.00299085  nan  nan  nan  nan  nan  nan  -0.999397  -0.0055285  1.00052  0.0222812  -0.0335697  -0.00609886  0.0019701  -0.0235734  0.0016955  0  0  0  0  0  0  0.0239102  0.00187501  -0.0167209  -0.00986674  0.0241824  0.00110532  -0.0224791  0.0269359  -0.00242921  -0.00797528  -0.0186231  -0.0130935 
1699964672.740229000  0  0  11.5695  0.118601  -0.116323  0.00259632  nan  nan  nan  nan  nan  nan  -0.999387  -0.0056454  1.00053  0.0219973  -0.0332729  -0.0063367  0.0019701  -0.0231852  0.0016955  0  0  0  0  0  0  0.0239007  0.00189729  -0.0166909  -0.010154  0.0238048  -0.000495974  -0.0225455  0.0266397  -0.00221481  -0.0297825  -0.0124385  -0.010306 
1699964672.744945000  0  0  11.5537  0.121076  -0.0947461  0.00265134  nan  nan  nan  nan  nan  nan  -0.999378  -0.0057603  1.00054  0.0222756  -0.0326813  -0.00659299  0.0019701  -0.0227412  0.0016955  0  0  0  0  0  0  0.0238498  0.0020166  -0.0166851  -0.0108502  0.0238522  0.000813238  -0.0229769  0.0255816  -0.00201921  -0.0307649  -0.0458587  -0.0129497 
1699964672.749896000  0  0  11.5411  0.123097  -0.095492  0.00290416  nan  nan  nan  nan  nan  nan  -0.999368  -0.0058727  1.00055  0.0214782  -0.032695  -0.00683361  0.0019701  -0.0222377  0.0016955  0  0  0  0  0  0  0.0238582  0.00200665  -0.0166233  -0.0108976  0.0228098  0.00173384  -0.0224666  0.0254176  -0.00189448  -0.0395015  -0.0428579  -0.0173571 
1699964672.754888000  0  0  11.5757  0.138214  -0.0973775  0.00260145  nan  nan  nan  nan  nan  nan  -0.999358  -0.0059825  1.00056  0.0218025  -0.0321207  -0.0071043  0.0019701  -0.0216708  0.0016955  0  0  0  0  0  0  0.023803  0.00212383  -0.0166456  -0.0113771  0.0230423  -0.00111351  -0.0232727  0.0247595  -0.00167422  -0.0623196  -0.0330325  -0.015776 
1699964672.759947000  0  0  11.5576  0.130331  -0.0821817  0.00275337  nan  nan  nan  nan  nan  nan  -0.999348  -0.0060893  1.00057  0.0208438  -0.0321707  -0.00735354  0.0019701  -0.0210368  0.0016955  0  0  0  0  0  0  0.0238146  0.00207276  -0.0165754  -0.0114059  0.0218693  0.00025564  -0.0225397  0.0243621  -0.00152128  -0.0532965  -0.0597675  -0.0192042 
1699964672.765276000  0  0  11.5609  0.128442  -0.0873083  0.00227401  nan  nan  nan  nan  nan  nan  -0.999338  -0.0061928  1.00057  0.019867  -0.0321884  -0.00760756  0.0019701  -0.0203326  0.0016955  0  0  0  0  0  0  0.023823  0.00204829  -0.0165226  -0.0113928  0.0206649  -0.000128619  -0.0218965  0.0242342  -0.0013056  -0.0554358  -0.0483376  -0.015369 
1699964672.769945000  0  0  11.5821  0.133384  -0.0951156  0.00147505  nan  nan  nan  nan  nan  nan  -0.999328  -0.0062925  1.00058  0.0197896  -0.0316801  -0.00788641  0.0019701  -0.0195595  0.0016955  0  0  0  0  0  0  0.0237684  0.00215073  -0.0165397  -0.011843  0.0203773  -0.00187607  -0.0221767  0.0237499  -0.00101096  -0.0627434  -0.0282677  -0.00832858 
1699964672.774887000  0  0  11.573  0.123311  -0.0929226  0.00133048  nan  nan  nan  nan  nan  nan  -0.999318  -0.0063883  1.00059  0.0188265  -0.0318208  -0.00815624  0.0019701  -0.0187213  0.0016955  0  0  0  0  0  0  0.0237869  0.00211715  -0.0164972  -0.0117388  0.0191803  -0.00120269  -0.0213849  0.0237192  -0.0007748  -0.0498798  -0.0323717  -0.00888297 
1699964672.779946000  0  0  11.5726  0.123027  -0.108144  0.00163966  nan  nan  nan  nan  nan  nan  -0.999309  -0.0064796  1.0006  0.0185536  -0.0318419  -0.00845185  0.0019701  -0.0178216  0.0016955  0  0  0  0  0  0  0.0237325  0.00221047  -0.0165036  -0.0115878  0.0186088  -0.00116147  -0.0213271  0.0239297  -0.000592551  -0.0498434  -0.00386562  -0.0145702 
1699964672.784944000  0  0  11.5881  0.115626  -0.116867  0.00245537  nan  nan  nan  nan  nan  nan  -0.999299  -0.0065664  1.00061  0.017263  -0.0317393  -0.00871918  0.0019701  -0.0168643  0.0016955  0  0  0  0  0  0  0.0237303  0.00216546  -0.0164888  -0.0116682  0.0170677  -0.00248747  -0.0202459  0.0240619  -0.000540361  -0.0449904  0.0123651  -0.0252885 
1699964672.789945000  0  0  11.5869  0.100768  -0.113483  0.00258176  nan  nan  nan  nan  nan  nan  -0.999289  -0.0066482  1.00062  0.017091  -0.0312768  -0.00902222  0.0019701  -0.0158531  0.0016955  0  0  0  0  0  0  0.0236699  0.00225085  -0.016497  -0.0121294  0.0166468  -0.00237025  -0.0199393  0.0236228  -0.00039976  -0.0180944  0.0096357  -0.0282744 
1699964672.794889000  0  0  11.5966  0.0954535  -0.123917  0.00265718  nan  nan  nan  nan  nan  nan  -0.999279  -0.0067248  1.00063  0.015701  -0.0317542  -0.00930893  0.0019701  -0.0147918  0.0016955  0  0  0  0  0  0  0.0236795  0.00218528  -0.0164831  -0.0115115  0.0150017  -0.00321339  -0.0186308  0.0243826  -0.000291985  -0.0195034  0.0235139  -0.030295 
1699964672.799945000  0  0  11.5811  0.0940027  -0.138069  0.0018466  nan  nan  nan  nan  nan  nan  -0.999269  -0.006796  1.00063  0.0140411  -0.0322031  -0.00959142  0.0019701  -0.0136841  0.0016955  0  0  0  0  0  0  0.0237035  0.00210212  -0.0164466  -0.0110563  0.0130061  -0.00200441  -0.0172219  0.0252459  -7.51105e-05  -0.0295637  0.0438745  -0.0223314 
1699964672.804946000  0  0  11.615  0.0731141  -0.138644  0.00217949  nan  nan  nan  nan  nan  nan  -0.999259  -0.0068616  1.00064  0.0138331  -0.0315241  -0.00991053  0.0019701  -0.0125337  0.0016955  0  0  0  0  0  0  0.0236437  0.00216897  -0.016482  -0.0116752  0.0126358  -0.00476319  -0.016706  0.0248427  6.31335e-05  0.00746677  0.0487352  -0.0278749 
1699964672.809887000  0  0  11.6245  0.0703874  -0.145082  0.00183646  nan  nan  nan  nan  nan  nan  -0.999249  -0.0069213  1.00065  0.0123566  -0.0320246  -0.0102116  0.0019701  -0.0113444  0.0016955  0  0  0  0  0  0  0.0236576  0.00211678  -0.0164715  -0.0110399  0.0108394  -0.00557373  -0.015269  0.0256796  0.000260856  -0.00030035  0.0539113  -0.0255643 
1699964672.814889000  0  0  11.5727  0.0799328  -0.148441  0.00106503  nan  nan  nan  nan  nan  nan  -0.99924  -0.006975  1.00066  0.0118806  -0.0319574  -0.0105431  0.0019701  -0.01012  0.0016955  0  0  0  0  0  0  0.023603  0.00216892  -0.016458  -0.0111913  0.0100291  -0.00129372  -0.0150718  0.0259304  0.000556586  -0.0212046  0.0583225  -0.0188788 
1699964672.819948000  0  0  11.6195  0.0552631  -0.150727  0.00166873  nan  nan  nan  nan  nan  nan  -0.99923  -0.0070225  1.00067  0.0104612  -0.0319175  -0.0108514  0.0019701  -0.0088642  0.0016955  0  0  0  0  0  0  0.0236331  0.00206126  -0.016452  -0.0111578  0.00848306  -0.00521383  -0.0133391  0.0262593  0.000670746  0.0121931  0.0598672  -0.0275666 
1699964672.824946000  0  0  11.6136  0.0733294  -0.141649  0.00186443  nan  nan  nan  nan  nan  nan  -0.99922  -0.0070636  1.00068  0.00956832  -0.0319485  -0.0111833  0.0019701  -0.0075807  0.0016955  0  0  0  0  0  0  0.0235802  0.00209759  -0.0164694  -0.0110295  0.00722891  -0.00468985  -0.0128272  0.0263766  0.000826579  -0.0286487  0.0406326  -0.0315712 
1699964672.829894000  0  0  11.5637  0.0774504  -0.145997  0.00186124  nan  nan  nan  nan  nan  nan  -0.99921  -0.0070982  1.00069  0.00821294  -0.0324884  -0.0113988  0.0019701  -0.0062733  0.0016955  0  0  0  0  0  0  0.0236225  0.00197251  -0.0163994  -0.0106246  0.00569697  -0.000675059  -0.011842  0.0271752  0.000896448  -0.0459544  0.0419825  -0.03223 
1699964672.834939000  0  0  11.5909  0.0653763  -0.149248  0.00230415  nan  nan  nan  nan  nan  nan  -0.9992  -0.0071263  1.00069  0.00661873  -0.0326991  -0.0113484  0.0019701  -0.0049458  0.0016954  0  0  0  0  0  0  0.0236893  0.00180626  -0.0163478  -0.0104266  0.00403527  -0.00305081  -0.0103472  0.0276706  0.000675782  -0.0355586  0.0439272  -0.0355597 
1699964672.839946000  0  0  11.574  0.0803264  -0.13652  0.00189447  nan  nan  nan  nan  nan  nan  -0.99919  -0.0071477  1.0007  0.00561979  -0.0327613  -0.0113161  0.0019701  -0.0036019  0.0016932  0  0  0  0  0  0  0.0236399  0.00181931  -0.0163514  -0.0103128  0.00270992  -0.00164056  -0.00990497  0.0276604  0.00054844  -0.069527  0.0185638  -0.0291652 
1699964672.844933000  0  0  11.5312  0.0841329  -0.137479  0.00198921  nan  nan  nan  nan  nan  nan  -0.999181  -0.0071623  1.00071  0.00454971  -0.0331113  -0.0112826  0.0019701  -0.0022454  0.0016853  0  0  0  0  0  0  0.023705  0.00166456  -0.0162793  -0.0101805  0.00165368  0.0017774  -0.00936463  0.0281013  0.000394987  -0.0821111  0.0164261  -0.028815 
1699964672.849929000  0  0  11.5378  0.0779228  -0.138306  0.00215672  nan  nan  nan  nan  nan  nan  -0.999171  -0.0071701  1.00072  0.00273766  -0.0337012  -0.0112242  0.0019701  -0.0008799  0.001668  0  0  0  0  0  0  0.0238237  0.00142714  -0.016215  -0.00968967  -0.000145506  0.00109689  -0.00801634  0.0287161  0.000213764  -0.0820953  0.0124244  -0.0290967 
1699964672.854887000  0  0  11.5238  0.0934851  -0.121624  0.00250669  nan  nan  nan  nan  nan  nan  -0.999161  -0.0071711  1.00073  0.00188665  -0.0337759  -0.0111957  0.0019701  0.0004907  0.0016374  0  0  0  0  0  0  0.0237794  0.00141996  -0.0162055  -0.00956065  -0.00122314  0.00225137  -0.00795804  0.0284706  2.75619e-05  -0.113756  -0.0186803  -0.0316093 
1699964672.859929000  0  0  11.5354  0.0988664  -0.123452  0.00244105  nan  nan  nan  nan  nan  nan  -0.999151  -0.0071652  1.00074  0.000804717  -0.0338226  -0.0111592  0.0019701  0.0018626  0.0015898  0  0  0  0  0  0  0.0238499  0.00122463  -0.0161552  -0.00962979  -0.00217346  0.00118778  -0.00770658  0.0284119  -0.000132214  -0.126832  -0.0144865  -0.0291909 
1699964672.864931000  0  0  11.5407  0.109454  -0.110508  0.00268383  nan  nan  nan  nan  nan  nan  -0.999141  -0.0071525  1.00074  0.000578382  -0.0332289  -0.0111512  0.0019701  0.0032323  0.0015215  0  0  0  0  0  0  0.0237989  0.00121384  -0.0161448  -0.0102616  -0.00243074  0.000722671  -0.00829786  0.0275524  -0.000291475  -0.142567  -0.0324654  -0.0306331 
1699964672.869931000  0  0  11.4886  0.119388  -0.0953548  0.00227929  nan  nan  nan  nan  nan  nan  -0.999131  -0.0071329  1.00075  -0.00136393  -0.0339458  -0.0110857  0.0019701  0.0045958  0.0014287  0  0  0  0  0  0  0.0238739  0.00100293  -0.016056  -0.00973329  -0.00445088  0.00490222  -0.0074717  0.0276937  -0.000405529  -0.170037  -0.0640721  -0.0244359 
1699964672.874887000  0  0  11.5417  0.122933  -0.104703  0.00227302  nan  nan  nan  nan  nan  nan  -0.999121  -0.0071065  1.00076  -0.00242304  -0.033895  -0.0110499  0.0019701  0.0059495  0.0013081  0  0  0  0  0  0  0.0239519  0.00079627  -0.0160544  -0.00978691  -0.0053583  0.000482664  -0.00746834  0.0275194  -0.000544582  -0.177158  -0.0437731  -0.0229669 
1699964672.879929000  0  0  11.5486  0.134712  -0.0925803  0.00202115  nan  nan  nan  nan  nan  nan  -0.999112  -0.0070734  1.00076  -0.00267666  -0.0331698  -0.0110432  0.0019701  0.0072895  0.0011611  0  0  0  0  0  0  0.0239001  0.000768954  -0.0160468  -0.0105808  -0.00561464  -0.000109353  -0.00828608  0.0264291  -0.000605849  -0.193192  -0.0579875  -0.0192059 
1699964672.884930000  0  0  11.4913  0.143128  -0.0825144  0.00165899  nan  nan  nan  nan  nan  nan  -0.999102  -0.0070336  1.00077  -0.00374684  -0.0337678  -0.0110055  0.0019701  0.0086123  0.0009912  0  0  0  0  0  0  0.0239259  0.000618473  -0.0159864  -0.0101006  -0.00663452  0.00456005  -0.00842668  0.0264742  -0.000654653  -0.208731  -0.0785338  -0.0141908 
1699964672.889924000  0  0  11.5563  0.148547  -0.0910944  0.00127867  nan  nan  nan  nan  nan  nan  -0.999092  -0.0069873  1.00077  -0.00371998  -0.0329087  -0.0110096  0.0019701  0.0099139  0.0008024  0  0  0  0  0  0  0.0238712  0.000587583  -0.0160157  -0.0108388  -0.00654907  -0.000804799  -0.00951387  0.0255406  -0.000652167  -0.209566  -0.0527847  -0.00946168 
1699964672.894937000  0  0  11.5676  0.138868  -0.0830257  0.00221648  nan  nan  nan  nan  nan  nan  -0.999082  -0.0069346  1.00078  -0.00510241  -0.0331165  -0.0109631  0.0019701  0.0111906  0.0005983  0  0  0  0  0  0  0.0239367  0.000364811  -0.0160278  -0.0106957  -0.00783742  -0.00170482  -0.00911255  0.0253225  -0.000849242  -0.193901  -0.0669155  -0.0192136 
1699964672.899947000  0  0  11.5141  0.137581  -0.0837287  0.00310363  nan  nan  nan  nan  nan  nan  -0.999072  -0.0068755  1.00078  -0.00629721  -0.0338732  -0.0109187  0.0019701  0.0124388  0.0003827  0  0  0  0  0  0  0.0239961  0.000152175  -0.0159943  -0.0100731  -0.00887011  0.00271111  -0.00897421  0.0256777  -0.00108786  -0.1926  -0.0687772  -0.0279168 
1699964672.904946000  0  0  11.561  0.139945  -0.0994942  0.00280801  nan  nan  nan  nan  nan  nan  -0.999062  -0.0068102  1.00078  -0.00633111  -0.0331367  -0.0109222  0.0019701  0.0136546  0.0001593  0  0  0  0  0  0  0.0239422  0.000108472  -0.0160182  -0.0107235  -0.00884111  -0.0011671  -0.00987654  0.02503  -0.0011681  -0.189026  -0.0312876  -0.0234192 
1699964672.909947000  0  0  11.5991  0.132067  -0.0940759  0.00321703  nan  nan  nan  nan  nan  nan  -0.999052  -0.006739  1.00078  -0.0075709  -0.0332095  -0.0108806  0.0019701  0.0148343  -6.81e-05  0  0  0  0  0  0  0.0239759  -8.52314e-05  -0.0160385  -0.0105824  -0.0100364  -0.00428146  -0.00950277  0.0248282  -0.00136308  -0.176709  -0.0402677  -0.0265821 
1699964672.914940000  0  0  11.5495  0.124102  -0.102855  0.00323637  nan  nan  nan  nan  nan  nan  -0.999043  -0.0066619  1.00078  -0.00762211  -0.0332848  -0.0108783  0.0019701  0.0159741  -0.0002958  0  0  0  0  0  0  0.0239268  -0.000134168  -0.0160138  -0.0105598  -0.00995066  -0.000198385  -0.0100483  0.0248789  -0.00148526  -0.155758  -0.0231753  -0.025602 
1699964672.919947000  0  0  11.5897  0.124383  -0.121946  0.00309611  nan  nan  nan  nan  nan  nan  -0.999033  -0.0065793  1.00078  -0.00838353  -0.0333868  -0.0108521  0.0019701  0.0170704  -0.00052  0  0  0  0  0  0  0.0239656  -0.000323018  -0.0160674  -0.0103768  -0.0105479  -0.00343697  -0.0101269  0.0252485  -0.00159908  -0.155598  0.0116067  -0.0227106 
1699964672.924946000  0  0  11.6108  0.108581  -0.121082  0.00373314  nan  nan  nan  nan  nan  nan  -0.999023  -0.0064913  1.00077  -0.00958921  -0.0336962  -0.0108089  0.0019701  0.0181193  -0.000737  0  0  0  0  0  0  0.0240053  -0.000538273  -0.016105  -0.0100043  -0.0116484  -0.00510132  -0.00945571  0.0255703  -0.0018183  -0.130169  0.00691772  -0.0284813 
1699964672.929946000  0  0  11.5863  0.0999815  -0.124543  0.00454472  nan  nan  nan  nan  nan  nan  -0.999013  -0.0063982  1.00077  -0.00962404  -0.0336721  -0.010808  0.0019701  0.019117  -0.000943  0  0  0  0  0  0  0.0239566  -0.000596157  -0.0161098  -0.0100188  -0.0115372  -0.00305814  -0.00979899  0.0256512  -0.002061  -0.109812  0.0130951  -0.036199 
1699964672.934940000  0  0  11.6117  0.101849  -0.145833  0.00320146  nan  nan  nan  nan  nan  nan  -0.999003  -0.0063002  1.00077  -0.010403  -0.0336748  -0.0107817  0.0019701  0.02006  -0.0011342  0  0  0  0  0  0  0.0239799  -0.000785638  -0.0161454  -0.00998286  -0.0121487  -0.00509769  -0.00966233  0.0261716  -0.00207305  -0.114805  0.0508866  -0.0192878 
1699964672.939950000  0  0  11.6022  0.0949791  -0.13203  0.00318896  nan  nan  nan  nan  nan  nan  -0.998993  -0.0061977  1.00076  -0.010171  -0.03337  -0.0107926  0.0019701  0.0209443  -0.001307  0  0  0  0  0  0  0.0239286  -0.00084384  -0.0161546  -0.0102941  -0.011705  -0.00429644  -0.010254  0.0258341  -0.00213528  -0.0956211  0.0263858  -0.0185091 
1699964672.944942000  0  0  11.5904  0.0944287  -0.137622  0.00306922  nan  nan  nan  nan  nan  nan  -0.998984  -0.0060909  1.00075  -0.0110752  -0.0340039  -0.0107555  0.0019701  0.0217663  -0.0014575  0  0  0  0  0  0  0.0239822  -0.00105364  -0.016168  -0.00965247  -0.0123971  -0.00327238  -0.00985991  0.026617  -0.00223055  -0.0981463  0.0303675  -0.0160598 
1699964672.949907000  0  0  11.601  0.0997061  -0.148357  0.00329648  nan  nan  nan  nan  nan  nan  -0.998974  -0.0059802  1.00074  -0.0117262  -0.0341686  -0.0107314  0.0019703  0.0225221  -0.0015821  0  0  0  0  0  0  0.0240083  -0.00124879  -0.016188  -0.00946647  -0.0128178  -0.00411873  -0.00984441  0.0271375  -0.00235412  -0.108844  0.0470485  -0.0176648 
1699964672.954897000  0  0  11.5863  0.100306  -0.141013  0.00407865  nan  nan  nan  nan  nan  nan  -0.998964  -0.0058658  1.00074  -0.0110414  -0.0337295  -0.0107596  0.0019731  0.0232082  -0.0016769  0  0  0  0  0  0  0.0239579  -0.00130688  -0.0162039  -0.00996583  -0.0117823  -0.0028822  -0.0109588  0.0267934  -0.00252237  -0.0997907  0.0355272  -0.0257594 
1699964672.959958000  0  0  11.571  0.109739  -0.139583  0.00407361  nan  nan  nan  nan  nan  nan  -0.998954  -0.0057482  1.00073  -0.0118471  -0.0342865  -0.0107259  0.0019823  0.0238206  -0.0017383  0  0  0  0  0  0  0.0240083  -0.0015428  -0.0161956  -0.00942911  -0.0122813  -0.00161693  -0.0108598  0.0274323  -0.00266499  -0.119567  0.0267889  -0.0242702 
1699964672.964949000  0  0  11.5739  0.121748  -0.137247  0.00383926  nan  nan  nan  nan  nan  nan  -0.998944  -0.0056277  1.00072  -0.0111568  -0.0337809  -0.0107552  0.0020015  0.0243556  -0.0017624  0  0  0  0  0  0  0.0239581  -0.00160021  -0.0162091  -0.00994707  -0.011264  -0.00185556  -0.0123077  0.0270439  -0.00272062  -0.130265  0.0256907  -0.0207845 
1699964672.969950000  0  0  11.5844  0.115429  -0.134785  0.0038007  nan  nan  nan  nan  nan  nan  -0.998934  -0.0055048  1.00071  -0.0113904  -0.0338596  -0.0107464  0.0020346  0.0248096  -0.0017455  0  0  0  0  0  0  0.0240111  -0.00183662  -0.0162094  -0.00992741  -0.0110536  -0.00272949  -0.0125404  0.0271683  -0.00281561  -0.115487  0.0196216  -0.0193526 
1699964672.974892000  0  0  11.5947  0.122893  -0.128157  0.00382376  nan  nan  nan  nan  nan  nan  -0.998924  -0.0053798  1.0007  -0.0120263  -0.0343131  -0.0107194  0.0020853  0.0251787  -0.0016839  0  0  0  0  0  0  0.0240772  -0.00208833  -0.0162136  -0.00945941  -0.0113326  -0.00357347  -0.0126447  0.0274917  -0.00292668  -0.129456  0.00338922  -0.0185302 
1699964672.979949000  0  0  11.5627  0.139496  -0.119001  0.0037323  nan  nan  nan  nan  nan  nan  -0.998913  -0.0052531  1.00069  -0.0108431  -0.0337854  -0.0107657  0.0021573  0.0254592  -0.0015738  0  0  0  0  0  0  0.0240257  -0.00213746  -0.0162049  -0.0101281  -0.00965343  -0.000959636  -0.0146836  0.0268178  -0.00296108  -0.143903  -0.00872126  -0.017043 
1699964672.984899000  0  0  11.5949  0.135621  -0.120359  0.00385394  nan  nan  nan  nan  nan  nan  -0.998902  -0.0051253  1.00069  -0.011255  -0.0339992  -0.0107494  0.0022544  0.0256473  -0.0014115  0  0  0  0  0  0  0.0241015  -0.00242208  -0.0162856  -0.00990564  -0.00959433  -0.00347378  -0.0148639  0.0269876  -0.003081  -0.134495  -0.0075673  -0.0173642 
1699964672.989947000  0  0  11.6281  0.156251  -0.106338  0.00390385  nan  nan  nan  nan  nan  nan  -0.99889  -0.0049968  1.00068  -0.0104462  -0.033522  -0.0107819  0.0023803  0.0257393  -0.0011932  0  0  0  0  0  0  0.0240515  -0.00246985  -0.0163225  -0.0102747  -0.00848065  -0.00619403  -0.0166691  0.0261999  -0.00314076  -0.159146  -0.0283641  -0.0173906 
1699964672.994893000  0  0  11.6121  0.16355  -0.105039  0.00368512  nan  nan  nan  nan  nan  nan  -0.998878  -0.0048681  1.00067  -0.0101572  -0.0334984  -0.0107918  0.0025388  0.0257315  -0.0009152  0  0  0  0  0  0  0.0240818  -0.00267023  -0.0163574  -0.0104271  -0.0076434  -0.00480744  -0.0178143  0.02604  -0.00320063  -0.163209  -0.0294894  -0.0140578 
1699964672.999898000  0  0  11.6672  0.163538  -0.108452  0.00392613  nan  nan  nan  nan  nan  nan  -0.998865  -0.0047397  1.00067  -0.00857764  -0.0325982  -0.0108524  0.0027337  0.0256201  -0.0005737  0  0  0  0  0  0  0.0240264  -0.00270122  -0.016422  -0.0112435  -0.00558069  -0.00932718  -0.0199404  0.0251837  -0.00327301  -0.143624  -0.014786  -0.0163464 
1699964673.004948000  0  0  11.6644  0.174631  -0.0974109  0.0034476  nan  nan  nan  nan  nan  nan  -0.998851  -0.0046121  1.00067  -0.00869527  -0.0328571  -0.0108463  0.0029687  0.0254013  -0.0001649  0  0  0  0  0  0  0.0240458  -0.0028877  -0.0164628  -0.0109622  -0.00531957  -0.00901247  -0.020755  0.0250916  -0.00328962  -0.158316  -0.0360212  -0.0101988 
1699964673.009949000  0  0  11.6349  0.174858  -0.10486  0.00388262  nan  nan  nan  nan  nan  nan  -0.998835  -0.0044858  1.00067  -0.00790236  -0.0328239  -0.0108727  0.0032475  0.0250714  0.0003148  0  0  0  0  0  0  0.0240564  -0.00306323  -0.0164728  -0.0111236  -0.00387531  -0.00657065  -0.0221428  0.0250742  -0.00340024  -0.146002  -0.0209625  -0.0145304 
1699964673.014943000  0  0  11.6949  0.169273  -0.1141  0.00370504  nan  nan  nan  nan  nan  nan  -0.998818  -0.0043615  1.00067  -0.00636614  -0.0318636  -0.0109292  0.0035738  0.0246267  0.0008692  0  0  0  0  0  0  0.0239968  -0.00307881  -0.0165477  -0.0119982  -0.00188754  -0.0114745  -0.0240278  0.0243434  -0.00341124  -0.11749  0.0042404  -0.0122006 
1699964673.019895000  0  0  11.6985  0.168529  -0.104869  0.00452049  nan  nan  nan  nan  nan  nan  -0.998799  -0.0042398  1.00068  -0.00657348  -0.0324373  -0.0109188  0.0039516  0.0240634  0.0015022  0  0  0  0  0  0  0.0240501  -0.00330908  -0.0166233  -0.0113605  -0.00165599  -0.0116124  -0.0243717  0.0246406  -0.00360649  -0.112839  -0.0169555  -0.0204412 
1699964673.024946000  0  0  11.7067  0.163525  -0.122505  0.0050589  nan  nan  nan  nan  nan  nan  -0.998779  -0.0041211  1.00069  -0.00539286  -0.0317466  -0.0109608  0.0043844  0.0233777  0.0022173  0  0  0  0  0  0  0.0240445  -0.00344896  -0.0166772  -0.0121989  0.000192841  -0.0122453  -0.0257939  0.0243324  -0.00379446  -0.0897464  0.0211522  -0.0252917 
1699964673.029896000  0  0  11.7555  0.167617  -0.127543  0.00529966  nan  nan  nan  nan  nan  nan  -0.998755  -0.0040062  1.0007  -0.00355724  -0.0308154  -0.0110224  0.004876  0.0225659  0.0030185  0  0  0  0  0  0  0.0239809  -0.00344418  -0.0167637  -0.013074  0.00256068  -0.0162102  -0.0279158  0.0237141  -0.00391923  -0.0784085  0.0369167  -0.0270535 
1699964673.034941000  0  0  11.7463  0.162442  -0.109569  0.00561162  nan  nan  nan  nan  nan  nan  -0.99873  -0.0038957  1.00072  -0.00318436  -0.0313871  -0.0110321  0.0054303  0.0216242  0.0039094  0  0  0  0  0  0  0.0240125  -0.00361828  -0.0168315  -0.0124233  0.0034298  -0.0153027  -0.0284725  0.023999  -0.00408645  -0.0629377  -0.00165171  -0.0292808 
1699964673.039947000  0  0  11.7967  0.16245  -0.134366  0.00453356  nan  nan  nan  nan  nan  nan  -0.998701  -0.0037902  1.00074  -0.000960792  -0.0302048  -0.011103  0.0060509  0.020549  0.0048937  0  0  0  0  0  0  0.0239439  -0.00359233  -0.0169338  -0.0136107  0.00628291  -0.0193868  -0.0307449  0.0234653  -0.0040544  -0.0420467  0.0528518  -0.0161256 
1699964673.044946000  0  0  11.8115  0.157547  -0.129984  0.0046991  nan  nan  nan  nan  nan  nan  -0.998669  -0.0036904  1.00077  -0.000134154  -0.0296168  -0.011128  0.0067415  0.0193364  0.0059753  0  0  0  0  0  0  0.0239423  -0.00371315  -0.0170318  -0.0143167  0.00764248  -0.0204481  -0.0315835  0.0230781  -0.0041752  -0.0245255  0.0476492  -0.0169867 
1699964673.049940000  0  0  11.7815  0.153549  -0.110862  0.00447058  nan  nan  nan  nan  nan  nan  -0.998633  -0.0035971  1.0008  0.00073052  -0.0298956  -0.0111538  0.0075047  0.0179827  0.0071579  0  0  0  0  0  0  0.0239601  -0.00384454  -0.0170868  -0.0140764  0.00906364  -0.0178481  -0.0323545  0.0230931  -0.00422179  -0.0094369  0.0092681  -0.0136644 
1699964673.054934000  0  0  11.8319  0.163634  -0.128076  0.00357986  nan  nan  nan  nan  nan  nan  -0.998594  -0.0035108  1.00084  0.00303565  -0.0288021  -0.0112194  0.0083378  0.0164841  0.0084452  0  0  0  0  0  0  0.0238865  -0.0037921  -0.0172101  -0.015147  0.0119958  -0.0218846  -0.0346966  0.0225263  -0.00414685  -0.0080588  0.0489098  -0.00327982 
1699964673.059891000  0  0  11.8611  0.150734  -0.126998  0.00345402  nan  nan  nan  nan  nan  nan  -0.99855  -0.0034325  1.00088  0.00401071  -0.0281685  -0.011245  0.009237  0.0148369  0.009841  0  0  0  0  0  0  0.0238959  -0.00392129  -0.0172957  -0.0158947  0.0135862  -0.02417  -0.035287  0.0221697  -0.00417872  0.0231732  0.0500356  -0.00138805 
1699964673.064940000  0  0  11.8554  0.153786  -0.112747  0.00423248  nan  nan  nan  nan  nan  nan  -0.998501  -0.0033627  1.00094  0.00658093  -0.0273704  -0.0113121  0.0101986  0.0130374  0.011349  0  0  0  0  0  0  0.0238159  -0.00384391  -0.0174038  -0.0167459  0.0168102  -0.0235413  -0.0375232  0.0213183  -0.00427373  0.0376409  0.0293651  -0.0101687 
1699964673.069933000  0  0  11.8779  0.163287  -0.129318  0.00498897  nan  nan  nan  nan  nan  nan  -0.998448  -0.0033023  1.001  0.00768204  -0.0269757  -0.0113392  0.0112189  0.0110818  0.012973  0  0  0  0  0  0  0.0238375  -0.00399288  -0.0174799  -0.0172285  0.0186167  -0.0253028  -0.0385043  0.0214944  -0.00445039  0.0276658  0.060888  -0.0178583 
1699964673.074936000  0  0  11.8915  0.150506  -0.119038  0.00587106  nan  nan  nan  nan  nan  nan  -0.998389  -0.0032522  1.00107  0.00839069  -0.0265484  -0.0113547  0.012294  0.0089663  0.0147168  0  0  0  0  0  0  0.0238616  -0.00414424  -0.0175579  -0.0177955  0.0199071  -0.0262753  -0.0386735  0.0211712  -0.00468998  0.0547847  0.0433016  -0.0264885 
1699964673.079882000  0  0  11.8861  0.154635  -0.106795  0.0063201  nan  nan  nan  nan  nan  nan  -0.998325  -0.003213  1.00115  0.01141  -0.0254534  -0.0114224  0.0134203  0.0066872  0.016584  0  0  0  0  0  0  0.0237709  -0.00403577  -0.0176722  -0.0190088  0.0236676  -0.0256672  -0.0412016  0.0200558  -0.00485715  0.0697858  0.0290761  -0.0304297 
1699964673.084945000  0  0  11.8983  0.17181  -0.116782  0.00593728  nan  nan  nan  nan  nan  nan  -0.998255  -0.0031856  1.00123  0.01295  -0.0248456  -0.0114537  0.0145941  0.0042408  0.0185784  0  0  0  0  0  0  0.0237524  -0.00410027  -0.0177466  -0.0197122  0.0258728  -0.0265763  -0.0426092  0.0198521  -0.00495655  0.0483854  0.0509242  -0.0246504 
1699964673.089944000  0  0  11.9172  0.164167  -0.105414  0.00631264  nan  nan  nan  nan  nan  nan  -0.998179  -0.0031708  1.00133  0.0162741  -0.0232546  -0.0115104  0.0158114  0.0016233  0.0207039  0  0  0  0  0  0  0.0236467  -0.00395919  -0.0178851  -0.02148  0.0300157  -0.02794  -0.0451729  0.0183722  -0.00511833  0.0872556  0.0418041  -0.0277247 
1699964673.094890000  0  0  11.9366  0.164075  -0.0969021  0.00653929  nan  nan  nan  nan  nan  nan  -0.998097  -0.0031696  1.00144  0.017736  -0.0226822  -0.0115343  0.0170687  -0.0011691  0.022964  0  0  0  0  0  0  0.0236344  -0.00403944  -0.0179617  -0.0221388  0.0321781  -0.0294169  -0.0459974  0.0178543  -0.00529527  0.0950262  0.0295451  -0.0287884 
1699964673.099894000  0  0  11.949  0.174679  -0.0957909  0.00607753  nan  nan  nan  nan  nan  nan  -0.998008  -0.0031828  1.00156  0.0189497  -0.0223967  -0.0115564  0.0183621  -0.0041401  0.0253627  0  0  0  0  0  0  0.0236324  -0.00414123  -0.0180242  -0.0224624  0.034046  -0.0303395  -0.0468315  0.0176921  -0.00537874  0.0814912  0.0288146  -0.0221818 
1699964673.104947000  0  0  11.9628  0.166215  -0.102349  0.00504954  nan  nan  nan  nan  nan  nan  -0.997913  -0.0032113  1.00169  0.0226403  -0.0206642  -0.0115999  0.0196879  -0.0072916  0.0279036  0  0  0  0  0  0  0.023512  -0.00395637  -0.0181692  -0.024406  0.0386029  -0.0312568  -0.0495798  0.0163979  -0.00535285  0.123704  0.0538372  -0.0095908 
