ts fx fy fz tx ty tz exfx exfy exfz extx exty extz xd yd zd rolld pitchd yawd vxd vyd vzd wxd wyd wzd axd ayd azd e_x e_y e_z e_vx e_vy e_vz e_rx e_ry e_rz e_wx e_wy e_wz
1703170311.074673000  0  0  11.5035  0.0662245  -0.122686  0.0239846  nan  nan  nan  nan  nan  nan  -2.5  -0.3  1  0.00824365  -0.00176472  -1.45481e-05  0  0  0  0  0  0  0  0  0  -0.00480264  0.0109447  -0.010322  0.015942  -0.020022  -0.000865427  -0.00425012  0.0257855  -0.0250235  -0.0931071  -0.0335749  -0.000148598 
1703170311.078645000  0  0  11.4071  0.0735837  -0.119004  0.0238241  nan  nan  nan  nan  nan  nan  -2.5  -0.3  1  0.0078675  -0.00320102  -2.51845e-05  0  0  0  0  0  0  0  0  0  -0.00472646  0.0108599  -0.0102695  0.0176005  -0.0203695  0.00585062  -0.00446233  0.0268255  -0.0249904  -0.106446  -0.0534335  0.00147019 
1703170311.083681000  0  0  11.5753  0.0706324  -0.126999  0.0234416  nan  nan  nan  nan  nan  nan  -2.5  -0.3  1  0.00729178  -0.00352935  -2.57357e-05  0  0  0  0  0  0  0  0  0  -0.00479806  0.0108314  -0.0103624  0.0183047  -0.020906  -0.00591423  -0.00436456  0.0271303  -0.0249204  -0.101242  -0.039799  0.00544057 
1703170311.087700000  0  0  11.5743  0.066151  -0.114411  0.0228198  nan  nan  nan  nan  nan  nan  -2.5  -0.3  1  0.00797893  -0.00228292  -1.82157e-05  0  0  0  0  0  0  0  0  0  -0.00474735  0.010759  -0.0103752  0.0164931  -0.0197829  -0.00578553  -0.0051957  0.0256052  -0.0248204  -0.0820711  -0.0492452  0.0120584 
1703170311.093650000  0  0  11.4109  0.0653978  -0.091577  0.0235042  nan  nan  nan  nan  nan  nan  -2.5  -0.3  1  0.00803088  -0.00317583  -2.55052e-05  0  0  0  0  0  0  0  0  0  -0.00475196  0.0106967  -0.010326  0.0176408  -0.0196888  0.00572693  -0.00563507  0.0255241  -0.0248599  -0.0754016  -0.0972734  0.00392376 
1703170311.098633000  0  0  11.5894  0.0682879  -0.104081  0.022788  nan  nan  nan  nan  nan  nan  -2.5  -0.3  1  0.007924  -0.00285223  -2.26015e-05  0  0  0  0  0  0  0  0  0  -0.00486188  0.0106981  -0.0104191  0.0175839  -0.0196704  -0.00676482  -0.00592877  0.0251636  -0.0247468  -0.0782198  -0.0663154  0.0115709 
1703170311.103689000  0  0  11.5617  0.0561482  -0.0813276  0.0221886  nan  nan  nan  nan  nan  nan  -2.5  -0.3  1  0.00828941  -0.0021446  -1.77779e-05  0  0  0  0  0  0  0  0  0  -0.00479045  0.0106069  -0.0104224  0.0164269  -0.0189495  -0.00475854  -0.0062801  0.0237351  -0.0245984  -0.0481473  -0.0986698  0.017324 
1703170311.108654000  0  0  11.4654  0.0463643  -0.0813621  0.0229721  nan  nan  nan  nan  nan  nan  -2.5  -0.3  1  0.00820491  -0.00270245  -2.21738e-05  0  0  0  0  0  0  0  0  0  -0.00481247  0.0105663  -0.0104129  0.0172046  -0.019039  0.00206663  -0.00614899  0.023773  -0.0246415  -0.0286767  -0.0990319  0.0079859 
1703170311.114126000  0  0  11.6134  0.0407546  -0.0910981  0.0225618  nan  nan  nan  nan  nan  nan  -2.5  -0.3  1  0.00798991  -0.00240427  -1.92103e-05  0  0  0  0  0  0  0  0  0  -0.00487765  0.0105351  -0.010503  0.017035  -0.0190988  -0.00825638  -0.00596875  0.0233359  -0.0245428  -0.0187216  -0.0731262  0.0119587 
1703170311.114792000  0  0  11.6299  0.0349434  -0.090828  0.022794  nan  nan  nan  nan  nan  nan  -2.5  -0.3  1  0.00813478  -0.00230101  -1.87186e-05  0  0  0  0  0  0  0  0  0  -0.00486836  0.0105246  -0.0105154  0.0168745  -0.0188593  -0.0094022  -0.00599686  0.0231902  -0.0245644  -0.00593757  -0.0720301  0.0092971 
1703170311.123635000  0  0  11.5317  0.0349761  -0.0898606  0.0228189  nan  nan  nan  nan  nan  nan  -2.5  -0.3  1  0.00832404  -0.00198421  -1.6517e-05  0  0  0  0  0  0  0  0  0  -0.00485203  0.0104214  -0.0105402  0.0163799  -0.0184075  -0.00235494  -0.00612407  0.0223241  -0.0245406  -0.00454427  -0.0641403  0.00869704 
1703170311.128651000  0  0  11.5573  0.0275111  -0.0926943  0.0234287  nan  nan  nan  nan  nan  nan  -2.5  -0.3  1  0.00792573  -0.00271025  -2.14811e-05  0  0  0  0  0  0  0  0  0  -0.0047649  0.010327  -0.0105767  0.0171089  -0.0186474  -0.0041091  -0.00562093  0.0227531  -0.0245933  0.00567428  -0.0629999  0.00165952 
1703170311.133661000  0  0  11.6734  0.0221753  -0.118434  0.025094  nan  nan  nan  nan  nan  nan  -2.5  -0.3  1  0.00898517  -0.00283563  -2.54792e-05  0  0  0  0  0  0  0  0  0  -0.00484968  0.0103252  -0.0106478  0.0175546  -0.0171067  -0.0122157  -0.00634751  0.0232409  -0.0248616  0.0254745  -0.0134185  -0.0160599 
1703170311.139152000  0  0  11.5366  0.0310039  -0.10831  0.0231188  nan  nan  nan  nan  nan  nan  -2.5  -0.3  1  0.00924054  -0.0012605  -1.16481e-05  0  0  0  0  0  0  0  0  0  -0.00489934  0.0102857  -0.0106367  0.0155499  -0.0167968  -0.00248534  -0.00661055  0.0216163  -0.0246456  0.00956982  -0.0164373  0.00618892 
1703170311.143687000  0  0  11.6005  -0.0039756  -0.102661  0.0160869  nan  nan  nan  nan  nan  nan  -2.5  -0.3  1  0.00779577  -0.0033821  -0.0100264  2e-07  2e-07  2e-07  0  0  0  0.000125  0.000125  0.000125  -0.00480544  0.0101937  -0.0106956  0.0182588  -0.0184343  -0.00692353  -0.0044935  0.0233171  -0.0149725  0.0602193  -0.0481176  -0.0219313 
1703170311.148650000  0  0  11.7142  0.0158726  -0.134629  0.014663  nan  nan  nan  nan  nan  nan  -2.5  -0.3  1  0.0090701  -0.00324439  -0.0100294  1.7e-06  1.7e-06  1.7e-06  0  0  0  0.0005  0.0005  0.0005  -0.00489856  0.0101969  -0.010776  0.0184483  -0.0165646  -0.0148143  -0.0057746  0.0237524  -0.0149143  0.032398  0.0154221  -0.00471781 
1703170311.153637000  0  0  11.5574  0.0255772  -0.116003  0.0122969  nan  nan  nan  nan  nan  nan  -2.5  -0.3  1  0.00871031  -0.00159136  -0.0100139  5.6e-06  5.6e-06  5.6e-06  0  0  0  0.001125  0.001125  0.001125  -0.00483676  0.0101121  -0.0107259  0.0160823  -0.0168649  -0.0036936  -0.00557929  0.0219918  -0.0145849  0.00934217  -0.00426207  0.0210824 
1703170311.158646000  0  0  11.6195  -0.015372  -0.108282  0.0173341  nan  nan  nan  nan  nan  nan  -2.5  -0.3  1  0.00798769  -0.00345984  -0.0100277  1.33e-05  1.33e-05  1.33e-05  0  0  0  0.002  0.002  0.002  -0.00488313  0.0100909  -0.0107659  0.0188405  -0.0176223  -0.00797519  -0.0039899  0.0234404  -0.0151733  0.0788625  -0.0374832  -0.0352057 
1703170311.162656000  0  0  11.7197  0.00868837  -0.151051  0.0160463  nan  nan  nan  nan  nan  nan  -2.5  -0.3  1  0.0087987  -0.00440146  -0.010039  2.6e-05  2.6e-05  2.6e-05  0  0  0  0.003125  0.003125  0.003125  -0.0048035  0.010037  -0.0108577  0.0200911  -0.0161432  -0.0148425  -0.00496284  0.0250559  -0.0151604  0.0384641  0.035639  -0.0191575 
1703170311.168662000  0  0  11.5848  0.0165925  -0.12458  0.0155755  nan  nan  nan  nan  nan  nan  -2.5  -0.3  1  0.00851962  -0.00163756  -0.0100145  4.5e-05  4.5e-05  4.5e-05  0  0  0  0.0045  0.0045  0.0045  -0.00488831  0.00999754  -0.0108067  0.0167378  -0.0163239  -0.00520242  -0.00475858  0.0223444  -0.0151139  0.0191657  0.010074  -0.0137935 
1703170311.173663000  0  0  11.6323  -0.0273162  -0.121943  0.0240384  nan  nan  nan  nan  nan  nan  -2.5  -0.299999  1  0.00826679  -0.00341464  -0.0100292  7.15e-05  7.15e-05  7.15e-05  0  0  0  0.006125  0.006125  0.006125  -0.00493817  0.00999079  -0.0108384  0.0194884  -0.0164075  -0.00840235  -0.00345124  0.0238879  -0.0163458  0.0982768  -0.0133388  -0.105426 
1703170311.178670000  0  0  11.7143  0.0157844  -0.171471  0.0201704  nan  nan  nan  nan  nan  nan  -2.5  -0.299999  1  0.00909982  -0.00354781  -0.010034  0.0001067  0.0001067  0.0001067  0  0  0  0.008  0.008  0.008  -0.00484743  0.00992726  -0.0109303  0.0197037  -0.0147761  -0.0139097  -0.0047481  0.0250753  -0.0163306  0.0207779  0.0792013  -0.0569416 
1703170311.183683000  0  0  11.5873  0.008431  -0.121278  0.0213094  nan  nan  nan  nan  nan  nan  -2.5  -0.299998  1  0.00864028  -0.00112506  -0.0100124  0.0001519  0.0001519  0.0001519  0  0  0  0.010125  0.010125  0.010125  -0.00494173  0.00990533  -0.0108665  0.0169464  -0.0151505  -0.00479579  -0.00411506  0.0222423  -0.0167007  0.0292628  0.00416729  -0.066811 
1703170311.188658000  0  0  11.6155  -0.019896  -0.12075  0.0258512  nan  nan  nan  nan  nan  nan  -2.5  -0.299997  1  0.00795816  -0.00340695  -0.0100313  0.0002083  0.0002083  0.0002083  0  0  0  0.0125  0.0125  0.0125  -0.00482973  0.00982703  -0.0109157  0.0200007  -0.0155335  -0.00654268  -0.00272986  0.0241763  -0.0176412  0.074067  -0.0192136  -0.112621 
1703170311.193664000  0  0  11.6613  0.0224983  -0.16525  0.0202535  nan  nan  nan  nan  nan  nan  -2.5  -0.299996  1  0.0086656  -0.00285118  -0.0100308  0.0002773  0.0002773  0.0002773  0  0  0  0.015125  0.015125  0.015125  -0.00488566  0.00983037  -0.0109405  0.0197841  -0.0141939  -0.00953954  -0.00400398  0.0246974  -0.0173787  -0.00217882  0.0702094  -0.045353 
1703170311.198663000  0  0  11.5776  0.00795442  -0.115585  0.0204426  nan  nan  nan  nan  nan  nan  -2.49999  -0.299995  1.00001  0.00849849  -0.000616827  -0.0100138  0.00036  0.00036  0.00036  0  0  0  0.018  0.018  0.018  -0.00497115  0.00982485  -0.0108913  0.0173847  -0.0140771  -0.00341214  -0.00356034  0.0219805  -0.0175722  0.023903  -0.0050275  -0.0453998 
1703170311.203682000  0  0  11.5758  0.00165615  -0.119109  0.0229012  nan  nan  nan  nan  nan  nan  -2.49999  -0.299993  1.00001  0.00783905  -0.00189559  -0.0100268  0.0004577  0.0004577  0.0004577  0  0  0  0.021125  0.021125  0.021125  -0.00486638  0.00975189  -0.0109114  0.0192019  -0.0143594  -0.00301419  -0.00270998  0.0231194  -0.0181187  0.0276252  -0.0105744  -0.0697473 
1703170311.208661000  0  0  11.5847  0.0256878  -0.13992  0.0196997  nan  nan  nan  nan  nan  nan  -2.49999  -0.29999  1.00001  0.00798795  -0.00168406  -0.0100295  0.0005717  0.0005717  0.0005717  0  0  0  0.0245  0.0245  0.0245  -0.00491582  0.00974594  -0.0108902  0.0195077  -0.0136873  -0.00342503  -0.00325867  0.0234185  -0.0179937  -0.0175922  0.0306081  -0.030972 
1703170311.214060000  0  0  11.5397  0.0211126  -0.112593  0.0204527  nan  nan  nan  nan  nan  nan  -2.49999  -0.299987  1.00001  0.00843379  0.000419442  -0.0100176  0.0007031  0.0007031  0.0007031  0  0  0  0.028125  0.028125  0.028125  -0.00497657  0.00974804  -0.0108273  0.017349  -0.0126347  -1.80677e-05  -0.00361592  0.021146  -0.018219  -0.00367202  -0.0018432  -0.0377316 
1703170311.218641000  0  0  11.5259  0.0231806  -0.108461  0.0221597  nan  nan  nan  nan  nan  nan  -2.49998  -0.299983  1.00002  0.00747202  7.94067e-05  -0.0100267  0.0008533  0.0008533  0.0008533  0  0  0  0.032  0.032  0.032  -0.00489761  0.00968331  -0.0108299  0.0180771  -0.0132396  0.00127571  -0.00283125  0.0213426  -0.0185832  -0.0171334  -0.0129648  -0.0548198 
1703170311.223675000  0  0  11.5614  0.0312381  -0.12287  0.0227126  nan  nan  nan  nan  nan  nan  -2.49998  -0.299978  1.00002  0.00719547  -0.000449785  -0.010038  0.0010235  0.0010235  0.0010235  0  0  0  0.036125  0.036125  0.036125  -0.00494613  0.00968444  -0.0107878  0.0194617  -0.0130447  -0.0010159  -0.00287471  0.0221324  -0.0188971  -0.0339105  0.00884485  -0.0579925 
1703170311.228635000  0  0  11.5526  0.042314  -0.11303  0.0216488  nan  nan  nan  nan  nan  nan  -2.49997  -0.299973  1.00003  0.00789022  0.00139293  -0.0100327  0.001215  0.001215  0.001215  0  0  0  0.0405  0.0405  0.0405  -0.00487825  0.00963621  -0.0107881  0.017395  -0.0113869  -3.46596e-06  -0.00386583  0.0203304  -0.0190074  -0.046258  0.00847693  -0.043277 
1703170311.233635000  0  0  11.5033  0.0378972  -0.0847429  0.0232848  nan  nan  nan  nan  nan  nan  -2.49997  -0.299966  1.00003  0.00695941  0.00214975  -0.0100393  0.001429  0.001429  0.001429  0  0  0  0.045125  0.045125  0.045125  -0.00492811  0.00963142  -0.0106943  0.017135  -0.0120361  0.00369718  -0.00316355  0.0191065  -0.0193766  -0.0448664  -0.038098  -0.0594112 
1703170311.239108000  0  0  11.5715  0.0332963  -0.102207  0.0247378  nan  nan  nan  nan  nan  nan  -2.49996  -0.299958  1.00004  0.00662368  0.00118407  -0.0100589  0.0016667  0.0016667  0.0016667  0  0  0  0.05  0.05  0.05  -0.00498104  0.0096443  -0.0106687  0.019198  -0.0118365  -0.000829403  -0.0029922  0.0201858  -0.0198703  -0.0369723  -0.0130666  -0.0717433 
1703170311.243671000  0  0  11.5942  0.0573865  -0.101691  0.0208131  nan  nan  nan  nan  nan  nan  -2.49995  -0.299949  1.00005  0.00770137  0.00390969  -0.0100509  0.0019294  0.0019294  0.0019294  0  0  0  0.055125  0.055125  0.055125  -0.00493013  0.00961211  -0.0106807  0.0160895  -0.00957213  -0.00195443  -0.00461359  0.0177488  -0.0196326  -0.0699747  0.0138629  -0.025227 
1703170311.248659000  0  0  11.5336  0.0398156  -0.0671571  0.0228063  nan  nan  nan  nan  nan  nan  -2.49994  -0.299939  1.00006  0.00623035  0.00424133  -0.0100712  0.0022183  0.0022183  0.0022183  0  0  0  0.0605  0.0605  0.0605  -0.00498681  0.00961574  -0.0105839  0.016524  -0.0108841  0.00259867  -0.0032673  0.0167683  -0.0199473  -0.0477863  -0.048906  -0.0465109 
1703170311.253657000  0  0  11.6418  0.0361919  -0.10393  0.0235411  nan  nan  nan  nan  nan  nan  -2.49993  -0.299927  1.00007  0.00511623  0.00247931  -0.0101039  0.0025348  0.0025348  0.0025348  0  0  0  0.066125  0.066125  0.066125  -0.0048789  0.00955844  -0.0106389  0.0192631  -0.0114242  -0.00456178  -0.00242155  0.0189178  -0.0202584  -0.049746  0.00521444  -0.052008 
1703170311.258654000  0  0  11.6238  0.0608376  -0.0990253  0.0193142  nan  nan  nan  nan  nan  nan  -2.49991  -0.299914  1.00009  0.00653537  0.0064041  -0.0100963  0.00288  0.00288  0.00288  0  0  0  0.072  0.072  0.072  -0.00500406  0.00960335  -0.0105802  0.015145  -0.0088286  -0.00285903  -0.00441201  0.0154517  -0.0199138  -0.0796937  0.0345737  -0.00297808 
1703170311.264151000  0  0  11.5636  0.0321595  -0.0674617  0.0222743  nan  nan  nan  nan  nan  nan  -2.4999  -0.299898  1.0001  0.00491874  0.00694316  -0.0101286  0.0032552  0.0032552  0.003255  0  0  0  0.078125  0.078125  0.0779792  -0.00505482  0.00961595  -0.0104924  0.0153985  -0.0102553  0.00173107  -0.00274506  0.0144228  -0.020273  -0.0373779  -0.0212696  -0.0358919 
1703170311.268654000  0  0  11.6748  0.0262004  -0.11227  0.024964  nan  nan  nan  nan  nan  nan  -2.49988  -0.299881  1.00012  0.0039669  0.00557604  -0.0101683  0.0036617  0.0036617  0.0036594  0  0  0  0.0845  0.0845  0.0837224  -0.00496938  0.00956942  -0.0105595  0.0177396  -0.0105213  -0.00560136  -0.00192919  0.0165552  -0.0207763  -0.0339862  0.0502781  -0.0636688 
1703170311.273655000  0  0  11.616  0.0464884  -0.1041  0.0219208  nan  nan  nan  nan  nan  nan  -2.49986  -0.299862  1.00014  0.00484186  0.00866227  -0.0101795  0.0041006  0.0041006  0.0040918  0  0  0  0.091125  0.091125  0.0892156  -0.00506095  0.00960168  -0.0104841  0.0147799  -0.00855014  -0.00108693  -0.00328131  0.0139531  -0.0206227  -0.0619335  0.0626952  -0.0272293 
1703170311.278656000  0  0  11.5987  0.0166776  -0.0931919  0.0241554  nan  nan  nan  nan  nan  nan  -2.49984  -0.29984  1.00016  0.00247093  0.0084273  -0.0102352  0.0045733  0.0045733  0.0045511  0  0  0  0.098  0.098  0.0944588  -0.00497613  0.00953916  -0.0104736  0.0157461  -0.0106568  0.000543132  -0.000819727  0.0141899  -0.0209618  -0.0263306  0.0365819  -0.051258 
1703170311.283683000  0  0  11.6874  0.0122724  -0.118531  0.0264451  nan  nan  nan  nan  nan  nan  -2.49982  -0.299816  1.00018  0.00205534  0.00835769  -0.0102773  0.005081  0.005081  0.005036  0  0  0  0.105125  0.105125  0.099452  -0.00504524  0.009577  -0.0104639  0.0168832  -0.0103601  -0.00538685  -0.000467602  0.0150388  -0.0214771  -0.0209356  0.0811482  -0.0738568 
1703170311.289105000  0  0  11.6316  0.0285774  -0.118956  0.0233688  nan  nan  nan  nan  nan  nan  -2.49979  -0.299789  1.00021  0.00245848  0.0106174  -0.0103109  0.005625  0.005625  0.0055452  0  0  0  0.1125  0.1125  0.104195  -0.00510988  0.00959789  -0.0103925  0.0150612  -0.00888726  -0.00115081  -0.00128046  0.0135194  -0.0213689  -0.0465461  0.0995387  -0.036454 
1703170311.293635000  0  0  11.6167  0.00235405  -0.107717  0.023988  nan  nan  nan  nan  nan  nan  -2.49976  -0.299759  1.00024  1.88355e-05  0.0112809  -0.0103835  0.0062065  0.0062065  0.0060775  0  0  0  0.120125  0.120125  0.108688  -0.00504582  0.00953673  -0.0103888  0.014979  -0.0109777  0.000268596  0.00126472  0.0131236  -0.021503  -0.0195974  0.0799939  -0.0426288 
1703170311.298636000  0  0  11.6781  -0.0194276  -0.115251  0.0256784  nan  nan  nan  nan  nan  nan  -2.49973  -0.299727  1.00027  -0.00103313  0.0111459  -0.0104464  0.0068267  0.0068267  0.0066317  0  0  0  0.128  0.128  0.112932  -0.0051083  0.00955835  -0.0103747  0.0162812  -0.0114202  -0.00378968  0.00260601  0.0138197  -0.0218653  0.0116774  0.0881411  -0.0595294 
1703170311.303669000  0  0  11.651  0.00115074  -0.133154  0.0220941  nan  nan  nan  nan  nan  nan  -2.49969  -0.299691  1.00031  -0.000953818  0.012263  -0.0105024  0.0074869  0.0074869  0.0072064  0  0  0  0.136125  0.136125  0.116925  -0.00503942  0.00951864  -0.0103715  0.0156897  -0.0101104  -0.0015312  0.0021397  0.0136395  -0.0216153  -0.0270833  0.128601  -0.0174449 
1703170311.308641000  0  0  11.6259  -0.0176442  -0.107926  0.0215588  nan  nan  nan  nan  nan  nan  -2.49965  -0.299652  1.00034  -0.00308355  0.0147973  -0.0105969  0.0081883  0.0081883  0.0078005  0  0  0  0.1445  0.1445  0.120668  -0.00513669  0.00951965  -0.0102892  0.0136707  -0.01183  0.000433267  0.00433324  0.0115304  -0.0214936  -0.0120174  0.0987693  -0.012176 
1703170311.314110000  0  0  11.6589  -0.0438933  -0.115749  0.0254246  nan  nan  nan  nan  nan  nan  -2.49961  -0.299609  1.00038  -0.0045546  0.0135542  -0.0106786  0.0089323  0.0089323  0.0084127  0  0  0  0.153125  0.153125  0.124161  -0.00510843  0.0094957  -0.010276  0.0163237  -0.0126344  -0.00169037  0.00619101  0.0132698  -0.0220321  0.0228948  0.0955353  -0.054326 
1703170311.318640000  0  0  11.6527  -0.00292357  -0.145204  0.0211383  nan  nan  nan  nan  nan  nan  -2.49956  -0.299563  1.00043  -0.00440561  0.0153799  -0.0107554  0.00972  0.00972  0.0090417  0  0  0  0.162  0.162  0.127404  -0.00505783  0.00945398  -0.010285  0.0149043  -0.0111145  -0.000936158  0.0052941  0.0126773  -0.0216555  -0.0546361  0.165511  -0.0049337 
1703170311.323674000  0  0  11.5777  -0.0261481  -0.098069  0.0218885  nan  nan  nan  nan  nan  nan  -2.49951  -0.299512  1.00047  -0.00690911  0.0184203  -0.0108909  0.0105527  0.0105527  0.0096863  0  0  0  0.171125  0.171125  0.130398  -0.00513743  0.00944425  -0.0101807  0.012363  -0.0131491  0.00448528  0.00777451  0.00980303  -0.0216109  -0.0333724  0.097507  -0.0149112 
1703170311.328636000  0  0  11.6287  -0.061976  -0.104157  0.0275228  nan  nan  nan  nan  nan  nan  -2.49946  -0.299457  1.00052  -0.00864397  0.0163148  -0.010986  0.0114317  0.0114317  0.0103453  0  0  0  0.1805  0.1805  0.133141  -0.00503609  0.00937684  -0.0101987  0.0160045  -0.014122  0.00106584  0.00996567  0.0121763  -0.0223858  0.0182438  0.0832584  -0.0764617 
1703170311.333634000  0  0  11.6397  0.00336242  -0.138979  0.0218618  nan  nan  nan  nan  nan  nan  -2.4994  -0.299398  1.00058  -0.00785191  0.0192867  -0.0110833  0.0123581  0.0123581  0.0110173  0  0  0  0.190125  0.190125  0.135634  -0.00515156  0.00941127  -0.0101473  0.0135945  -0.0118493  0.000447286  0.00790208  0.0107474  -0.0219163  -0.0981179  0.174364  -0.0108938 
1703170311.339104000  0  0  11.5493  -0.0179826  -0.0819039  0.02325  nan  nan  nan  nan  nan  nan  -2.49933  -0.299333  1.00063  -0.0106755  0.0220489  -0.0112599  0.0133333  0.0133333  0.0117012  0  0  0  0.2  0.2  0.137877  -0.00518262  0.00938141  -0.0100363  0.0114581  -0.014105  0.00688732  0.0103614  0.00795002  -0.0219507  -0.0806422  0.0841627  -0.0279467 
1703170311.343668000  0  0  11.6005  -0.0437007  -0.0934555  0.0286775  nan  nan  nan  nan  nan  nan  -2.49926  -0.299264  1.00069  -0.0123058  0.0199845  -0.0113687  0.0143585  0.0143585  0.0123957  0  0  0  0.210125  0.210125  0.13987  -0.00510069  0.00931231  -0.0100507  0.0151692  -0.0148501  0.00338934  0.0120771  0.0103107  -0.0227267  -0.0452342  0.081774  -0.0868832 
1703170311.348639000  0  0  11.6073  0.0288728  -0.126728  0.02139  nan  nan  nan  nan  nan  nan  -2.49919  -0.29919  1.00076  -0.0116098  0.0230392  -0.0114944  0.015435  0.015435  0.0130995  0  0  0  0.2205  0.2205  0.141613  -0.00519473  0.00933729  -0.0100511  0.0127012  -0.0125781  0.00312728  0.00971901  0.008757  -0.0220607  -0.173721  0.170993  -0.00321761 
1703170311.353641000  0  0  11.5512  -0.00578972  -0.0724868  0.0238841  nan  nan  nan  nan  nan  nan  -2.49911  -0.29911  1.00083  -0.0147119  0.0251286  -0.0117067  0.016564  0.016564  0.0138114  0  0  0  0.231125  0.231125  0.143107  -0.00514431  0.00925476  -0.0100006  0.0112712  -0.014971  0.00719741  0.012427  0.00654041  -0.0221911  -0.130549  0.0801867  -0.0330261 
1703170311.358647000  0  0  11.598  -0.0196112  -0.0919205  0.0287127  nan  nan  nan  nan  nan  nan  -2.49902  -0.299024  1.0009  -0.0155954  0.0242878  -0.0118319  0.0177467  0.0177467  0.0145301  0  0  0  0.242  0.242  0.14435  -0.00522313  0.00928949  -0.00994028  0.0139009  -0.014907  0.00382843  0.0129704  0.0080789  -0.0229101  -0.107165  0.104158  -0.0851144 
1703170311.364145000  0  0  11.5678  0.0474603  -0.125107  0.0222089  nan  nan  nan  nan  nan  nan  -2.49893  -0.298932  1.00097  -0.0156853  0.0267027  -0.0119941  0.0189844  0.0189844  0.0152545  0  0  0  0.253125  0.253125  0.145343  -0.00524565  0.00928434  -0.00988961  0.0122864  -0.013448  0.00602085  0.0109896  0.0072873  -0.0223128  -0.228194  0.184425  -0.0104817 
1703170311.368639000  0  0  11.5434  0.00794011  -0.0827246  0.0242464  nan  nan  nan  nan  nan  nan  -2.49883  -0.298834  1.00105  -0.0185455  0.028532  -0.0122326  0.0202783  0.0202783  0.0159831  0  0  0  0.2645  0.2645  0.146086  -0.00521107  0.0091998  -0.00985776  0.0112749  -0.0154421  0.00781265  0.0134867  0.00551211  -0.0223894  -0.17218  0.113969  -0.0351952 
1703170311.372649000  0  0  11.5922  -0.00397123  -0.0976021  0.0270405  nan  nan  nan  nan  nan  nan  -2.49873  -0.298729  1.00113  -0.0204245  0.0284488  -0.0124191  0.0216298  0.0216298  0.0167149  0  0  0  0.276125  0.276125  0.146579  -0.00516669  0.00911672  -0.0098745  0.0125959  -0.0162881  0.00443291  0.0148139  0.00632328  -0.0227229  -0.161908  0.136538  -0.0663309 
1703170311.378646000  0  0  11.5547  0.0486045  -0.122073  0.0216353  nan  nan  nan  nan  nan  nan  -2.49862  -0.298618  1.00122  -0.0203258  0.030065  -0.0125897  0.02304  0.02304  0.0174485  0  0  0  0.288  0.288  0.146823  -0.00524596  0.00918053  -0.00981806  0.0123518  -0.01465  0.00705756  0.0126914  0.0062897  -0.0222003  -0.250226  0.189397  -0.00462111 
1703170311.383669000  0  0  11.5917  0.0241448  -0.0956893  0.0232955  nan  nan  nan  nan  nan  nan  -2.4985  -0.298499  1.00131  -0.0221443  0.0326257  -0.012848  0.0245102  0.0245102  0.0181827  0  0  0  0.300125  0.300125  0.146816  -0.0053567  0.00919986  -0.0098118  0.0106702  -0.0155721  0.00451369  0.0138048  0.00433123  -0.0222237  -0.210587  0.155354  -0.0252276 
1703170311.389110000  0  0  11.6169  0.0206791  -0.105659  0.0252269  nan  nan  nan  nan  nan  nan  -2.49837  -0.298372  1.0014  -0.023246  0.0337342  -0.0130629  0.0260417  0.0260417  0.0189163  0  0  0  0.3125  0.3125  0.146559  -0.00547281  0.00925126  -0.00979245  0.0110234  -0.015599  0.00271186  0.0139542  0.00437793  -0.0224528  -0.204874  0.176194  -0.0467665 
1703170311.393634000  0  0  11.5865  0.0336204  -0.118007  0.0229267  nan  nan  nan  nan  nan  nan  -2.49824  -0.298238  1.00149  -0.0249136  0.0343947  -0.0132949  0.0276356  0.0276356  0.0196479  0  0  0  0.325125  0.325125  0.146052  -0.00542436  0.00917201  -0.00975788  0.0117513  -0.0158401  0.00480139  0.0143087  0.0048153  -0.0221333  -0.236702  0.19764  -0.0216778 
1703170311.398648000  0  0  11.646  0.031413  -0.111274  0.0223862  nan  nan  nan  nan  nan  nan  -2.4981  -0.298096  1.00159  -0.0261075  0.037692  -0.0135877  0.0292933  0.0292933  0.0203764  0  0  0  0.338  0.338  0.145295  -0.00553364  0.00920016  -0.00975879  0.00905703  -0.0159225  0.000647217  0.0144633  0.00270695  -0.0219327  -0.233747  0.207456  -0.0172941 
1703170311.403670000  0  0  11.6183  0.00986855  -0.103825  0.0249126  nan  nan  nan  nan  nan  nan  -2.49795  -0.297945  1.0017  -0.0285828  0.038051  -0.0138631  0.031016  0.031016  0.0211004  0  0  0  0.351125  0.351125  0.144289  -0.00547361  0.00911375  -0.00973621  0.0102042  -0.0171676  0.00252893  0.0160991  0.00316625  -0.0221015  -0.20637  0.1862  -0.0470475 
1703170311.408640000  0  0  11.6512  0.0257324  -0.122167  0.0237625  nan  nan  nan  nan  nan  nan  -2.49779  -0.297786  1.00181  -0.0294829  0.0396422  -0.0141225  0.032805  0.032805  0.0218188  0  0  0  0.3645  0.3645  0.143032  -0.00558751  0.00914699  -0.00973992  0.00997916  -0.0167724  0.000180127  0.0157133  0.00303145  -0.0219602  -0.235947  0.227081  -0.0342793 
1703170311.414016000  0  0  11.6875  0.0283205  -0.108711  0.0220468  nan  nan  nan  nan  nan  nan  -2.49762  -0.297617  1.00192  -0.0305843  0.0434894  -0.0144681  0.0346615  0.0346615  0.0225303  0  0  0  0.378125  0.378125  0.141525  -0.00569091  0.00917298  -0.00973241  0.00667884  -0.0165638  -0.0023694  0.0156181  0.000482889  -0.0216537  -0.240402  0.227548  -0.0163862 
1703170311.418649000  0  0  11.6512  -0.00217465  -0.0935023  0.0246069  nan  nan  nan  nan  nan  nan  -2.49744  -0.297439  1.00203  -0.0339198  0.0438638  -0.0148166  0.0365867  0.0365867  0.0232337  0  0  0  0.392  0.392  0.139768  -0.00565754  0.00906865  -0.00971394  0.00801738  -0.0187758  8.89338e-05  0.0182561  0.000714184  -0.0217869  -0.205361  0.192276  -0.0469934 
1703170311.423669000  0  0  11.7035  0.0214133  -0.121195  0.0229898  nan  nan  nan  nan  nan  nan  -2.49725  -0.297251  1.00215  -0.0345652  0.0451094  -0.0150848  0.0385819  0.0385819  0.0239276  0  0  0  0.406125  0.406125  0.137761  -0.00578251  0.009099  -0.00971978  0.0082609  -0.0180305  -0.0036908  0.0174709  0.00110484  -0.021595  -0.246907  0.247162  -0.0289593 
1703170311.428645000  0  0  11.6793  0.0200633  -0.0942632  0.0210207  nan  nan  nan  nan  nan  nan  -2.49705  -0.297053  1.00227  -0.0368717  0.0483826  -0.0155128  0.0406483  0.0406483  0.0246109  0  0  0  0.4205  0.4205  0.135505  -0.00576822  0.00900842  -0.0097164  0.0057695  -0.0188012  -0.00198722  0.0184835  -0.00117535  -0.021098  -0.25566  0.215645  -0.0101736 
1703170311.433641000  0  0  11.6292  -0.0250532  -0.0832802  0.0245153  nan  nan  nan  nan  nan  nan  -2.49684  -0.296844  1.00239  -0.0404534  0.0490284  -0.0159217  0.0427873  0.0427873  0.0252822  0  0  0  0.435125  0.435125  0.132998  -0.0058795  0.00901002  -0.00966854  0.00733815  -0.0214406  0.00135474  0.0216183  -0.00100845  -0.0213113  -0.194984  0.190175  -0.0515741 
1703170311.439057000  0  0  11.6881  0.0144603  -0.11529  0.0227081  nan  nan  nan  nan  nan  nan  -2.49662  -0.296625  1.00252  -0.0399672  0.0509317  -0.0161895  0.045  0.045  0.0259404  0  0  0  0.45  0.45  0.130241  -0.00600211  0.00904801  -0.00968214  0.006741  -0.0191392  -0.00292177  0.0193994  -0.00111006  -0.0211815  -0.254183  0.259981  -0.030399 
1703170311.443671000  0  0  11.6312  0.0174269  -0.0979239  0.0203799  nan  nan  nan  nan  nan  nan  -2.49639  -0.296394  1.00265  -0.0426333  0.0539259  -0.0166748  0.0472877  0.0472877  0.0265842  0  0  0  0.465125  0.465125  0.127234  -0.0060035  0.00893983  -0.00966385  0.00498298  -0.020063  0.0010277  0.020638  -0.00302545  -0.0206274  -0.274794  0.244779  -0.00778449 
1703170311.448640000  0  0  11.6463  -0.0244563  -0.0887988  0.0241726  nan  nan  nan  nan  nan  nan  -2.49615  -0.296152  1.00279  -0.0458388  0.0545767  -0.0171058  0.0496517  0.0496517  0.0272124  0  0  0  0.4805  0.4805  0.123977  -0.00610581  0.0089403  -0.00965637  0.00623951  -0.0223762  -0.000215078  0.0231767  -0.00277348  -0.0208222  -0.214191  0.222314  -0.0531571 
1703170311.453639000  0  0  11.6717  0.00804166  -0.10539  0.0225011  nan  nan  nan  nan  nan  nan  -2.4959  -0.295898  1.00293  -0.0465708  0.0559789  -0.0174455  0.0520931  0.0520931  0.0278236  0  0  0  0.496125  0.496125  0.120471  -0.00607356  0.00885103  -0.00967912  0.00612605  -0.0211221  -0.0021417  0.0221639  -0.00264954  -0.0205942  -0.272224  0.256463  -0.0348733 
1703170311.458647000  0  0  11.636  0.0119229  -0.0845603  0.020468  nan  nan  nan  nan  nan  nan  -2.49563  -0.295631  1.00307  -0.0490862  0.05929  -0.0179895  0.0546133  0.0546133  0.0284166  0  0  0  0.512  0.512  0.116714  -0.00622308  0.00884439  -0.00964747  0.00434938  -0.0220813  0.000251046  0.0230775  -0.00490457  -0.0201102  -0.291057  0.237742  -0.0151265 
1703170311.464139000  0  0  11.6531  -0.0189727  -0.0717117  0.0247296  nan  nan  nan  nan  nan  nan  -2.49535  -0.295351  1.00321  -0.0514243  0.0610448  -0.0184655  0.0572135  0.0572135  0.0289903  0  0  0  0.528125  0.528125  0.112707  -0.00630913  0.00887235  -0.00961228  0.00416182  -0.0231948  -0.00120687  0.0245195  -0.00554526  -0.0204237  -0.241398  0.217562  -0.0649698 
1703170311.468639000  0  0  11.6373  0.00329506  -0.0823508  0.0232328  nan  nan  nan  nan  nan  nan  -2.49506  -0.295059  1.00336  -0.0530697  0.0620215  -0.018871  0.059895  0.059895  0.0295433  0  0  0  0.5445  0.5445  0.10845  -0.00630599  0.00875361  -0.00962691  0.00505365  -0.0227593  -0.000280205  0.0245332  -0.00530531  -0.0201815  -0.289303  0.237615  -0.0490562 
1703170311.473644000  0  0  11.6486  0.0106276  -0.0869746  0.0205277  nan  nan  nan  nan  nan  nan  -2.49475  -0.294752  1.00351  -0.0554363  0.065414  -0.0194654  0.062659  0.062659  0.0300744  0  0  0  0.561125  0.561125  0.103943  -0.0064372  0.0087369  -0.00960786  0.00288905  -0.0236324  -0.00122574  0.0252502  -0.00707678  -0.0196309  -0.313275  0.267909  -0.0216562 
1703170311.478645000  0  0  11.6355  -0.0222039  -0.058263  0.0236638  nan  nan  nan  nan  nan  nan  -2.49443  -0.294432  1.00366  -0.0584791  0.0673306  -0.0200426  0.0655067  0.0655067  0.0305823  0  0  0  0.578  0.578  0.0991865  -0.00642331  0.00861402  -0.00960477  0.00249347  -0.0249647  -0.000493146  0.0272763  -0.00818902  -0.0197043  -0.266185  0.219139  -0.0602297 
1703170311.483667000  0  0  11.6191  -0.0013582  -0.079826  0.0228497  nan  nan  nan  nan  nan  nan  -2.4941  -0.294097  1.00381  -0.0604552  0.0675506  -0.0204611  0.0684394  0.068439  0.0310658  0  0  0  0.595125  0.594911  0.0941797  -0.00642022  0.00852443  -0.00956068  0.0045025  -0.0249776  0.000282542  0.0273677  -0.00700232  -0.019527  -0.311935  0.251724  -0.0521247 
1703170311.488640000  0  0  11.6553  0.00627756  -0.0894239  0.0191235  nan  nan  nan  nan  nan  nan  -2.49375  -0.293747  1.00397  -0.0630057  0.0709643  -0.0211269  0.0714583  0.0714554  0.0315237  0  0  0  0.6125  0.611572  0.0889229  -0.00642678  0.00839593  -0.00958972  0.0018329  -0.0259375  -0.00234362  0.0280519  -0.00863257  -0.0188104  -0.336179  0.291059  -0.013878 
1703170311.493641000  0  0  11.587  -0.030893  -0.0436499  0.0232754  nan  nan  nan  nan  nan  nan  -2.49338  -0.293382  1.00413  -0.0659579  0.0736668  -0.0217995  0.0745648  0.0745544  0.0319546  0  0  0  0.630125  0.627984  0.0834161  -0.00655416  0.00835556  -0.00955205  0.00135318  -0.0269833  0.00221413  0.030007  -0.0107818  -0.0189276  -0.278968  0.217634  -0.0647047 
1703170311.498634000  0  0  11.6336  0.00487665  -0.0792616  0.0228431  nan  nan  nan  nan  nan  nan  -2.493  -0.293002  1.00429  -0.0670605  0.0745015  -0.0222275  0.07776  0.0777348  0.0323574  0  0  0  0.647955  0.644146  0.0776593  -0.00675286  0.00838249  -0.00944601  0.00268805  -0.0266829  -0.00162258  0.0289587  -0.0100297  -0.0188329  -0.343606  0.285342  -0.0604072 
1703170311.503666000  0  0  11.6394  0.024831  -0.0921165  0.0183882  nan  nan  nan  nan  nan  nan  -2.4926  -0.292605  1.00445  -0.0689866  0.0782042  -0.0229236  0.081044  0.0809954  0.0327308  0  0  0  0.665619  0.660058  0.0716736  -0.00676903  0.00825881  -0.00945079  -5.08611e-05  -0.0266802  -0.00217398  0.0286454  -0.011686  -0.0180629  -0.38279  0.33196  -0.0136357 
1703170311.508650000  0  0  11.5524  -0.0189765  -0.0462326  0.0235157  nan  nan  nan  nan  nan  nan  -2.49219  -0.292192  1.00461  -0.0721663  0.0811968  -0.0236921  0.0844157  0.0843349  0.0330744  0  0  0  0.683032  0.67572  0.0658122  -0.0069436  0.00824744  -0.00924717  -0.000589423  -0.0279759  0.00338419  0.0306836  -0.0141676  -0.0182781  -0.312304  0.262123  -0.0755586 
1703170311.513646000  0  0  11.6212  0.0154715  -0.103815  0.0226359  nan  nan  nan  nan  nan  nan  -2.49176  -0.291761  1.00478  -0.0736477  0.0803197  -0.0240576  0.0878739  0.0877522  0.0333894  0  0  0  0.700196  0.691132  0.0602008  -0.00692249  0.00811442  -0.0092874  0.00206407  -0.0280921  -0.001769  0.0298536  -0.0110057  -0.0181753  -0.37662  0.349219  -0.0657267 
1703170311.518645000  0  0  11.6065  0.0309006  -0.0987566  0.0179914  nan  nan  nan  nan  nan  nan  -2.49131  -0.291314  1.00495  -0.0752982  0.0851055  -0.0248663  0.0914173  0.0912458  0.0336769  0  0  0  0.71711  0.706294  0.0548394  -0.00707805  0.0080683  -0.00930796  -0.00162725  -0.0278031  -0.00070853  0.029312  -0.0137504  -0.0173654  -0.403474  0.369948  -0.0170518 
1703170311.523686000  0  0  11.57  -0.0148435  -0.0626087  0.0236689  nan  nan  nan  nan  nan  nan  -2.49085  -0.290849  1.00512  -0.0785966  0.0867911  -0.0256024  0.0950446  0.0948147  0.0339382  0  0  0  0.733773  0.721205  0.0497281  -0.00717896  0.00800888  -0.00930848  -0.00118284  -0.029624  0.00171876  0.0314073  -0.0144198  -0.0176361  -0.329492  0.300139  -0.0852244 
1703170311.528646000  0  0  11.6242  0.0274271  -0.122209  0.0220572  nan  nan  nan  nan  nan  nan  -2.49036  -0.290366  1.00529  -0.0797141  0.0864841  -0.0260035  0.0987546  0.0984575  0.0341746  0  0  0  0.750187  0.735867  0.0448667  -0.0071767  0.0078715  -0.00934169  0.000770793  -0.0292309  -0.00231128  0.0300064  -0.0115456  -0.0174758  -0.404013  0.394872  -0.0668774 
1703170311.533647000  0  0  11.5797  0.0441952  -0.109974  0.018233  nan  nan  nan  nan  nan  nan  -2.48986  -0.289864  1.00546  -0.0816893  0.0910531  -0.0268822  0.102546  0.102173  0.0343873  0  0  0  0.76635  0.750279  0.0402553  -0.00733127  0.0078084  -0.0093322  -0.00242353  -0.0291251  0.000878727  0.0295634  -0.0140765  -0.0167265  -0.434872  0.397752  -0.0277932 
1703170311.539163000  0  0  11.5846  0.00412151  -0.09263  0.0232265  nan  nan  nan  nan  nan  nan  -2.48934  -0.289344  1.00563  -0.0843117  0.091864  -0.0275312  0.106418  0.10596  0.0345775  0  0  0  0.782264  0.764441  0.0358939  -0.00739796  0.00780546  -0.00932947  -0.00140815  -0.0306862  0.000393052  0.0307009  -0.01325  -0.0170164  -0.362031  0.351055  -0.0871276 
1703170311.543668000  0  0  11.621  0.0310811  -0.13661  0.0220279  nan  nan  nan  nan  nan  nan  -2.48879  -0.288804  1.00581  -0.0854654  0.0925292  -0.0280414  0.110368  0.109817  0.0347466  0  0  0  0.797928  0.778353  0.0317825  -0.0074559  0.00762976  -0.00937697  -0.00053965  -0.0301472  -0.00223198  0.0296891  -0.0114774  -0.0168434  -0.408199  0.424966  -0.0741315 
1703170311.548654000  0  0  11.5874  0.0387032  -0.128075  0.01903  nan  nan  nan  nan  nan  nan  -2.48823  -0.288246  1.00598  -0.0879211  0.0960946  -0.028936  0.114397  0.113743  0.0348958  0  0  0  0.813341  0.792015  0.0279211  -0.00759315  0.00756479  -0.0093719  -0.00265718  -0.0308693  0.000246986  0.0298614  -0.0129018  -0.0161994  -0.426524  0.42305  -0.0441748 
1703170311.553650000  0  0  11.6184  0.000948907  -0.11633  0.023671  nan  nan  nan  nan  nan  nan  -2.48765  -0.287667  1.00615  -0.0910288  0.0970445  -0.0296822  0.118501  0.117737  0.0350263  0  0  0  0.828505  0.805427  0.0243098  -0.00760028  0.00739714  -0.00938862  -0.00243196  -0.0329571  -0.00192826  0.031535  -0.0121558  -0.0164119  -0.364824  0.389285  -0.100007 
1703170311.558651000  0  0  11.593  0.0227669  -0.139499  0.0218445  nan  nan  nan  nan  nan  nan  -2.48705  -0.287068  1.00633  -0.0921742  0.098248  -0.0302704  0.122681  0.121797  0.0351393  0  0  0  0.843418  0.818589  0.0209484  -0.00773232  0.00736259  -0.00938231  -0.00149509  -0.0322625  -0.000207292  0.0305043  -0.0109679  -0.0162076  -0.399749  0.425299  -0.0794879 
1703170311.562653000  0  0  11.5964  0.0236091  -0.138287  0.0187744  nan  nan  nan  nan  nan  nan  -2.48642  -0.286449  1.00651  -0.0952035  0.101024  -0.0312058  0.126935  0.125922  0.0352362  0  0  0  0.858082  0.8315  0.017837  -0.00787856  0.0071085  -0.00942319  -0.00307864  -0.0336833  -0.000192764  0.0316772  -0.0119634  -0.0154667  -0.415048  0.434153  -0.0497902 
1703170311.568650000  0  0  11.6161  0.0102982  -0.120284  0.0213962  nan  nan  nan  nan  nan  nan  -2.48578  -0.285809  1.00668  -0.0963456  0.103233  -0.0319125  0.131262  0.130111  0.0353181  0  0  0  0.872495  0.844162  0.0149756  -0.00793914  0.00714979  -0.00937836  -0.00429569  -0.0336717  -0.00160983  0.0308193  -0.0120409  -0.0156  -0.376637  0.396441  -0.0811719 
1703170311.573643000  0  0  11.5747  0.0206458  -0.130325  0.0211851  nan  nan  nan  nan  nan  nan  -2.48511  -0.285148  1.00686  -0.0983412  0.104045  -0.0325841  0.13566  0.134363  0.0353863  0  0  0  0.886659  0.856574  0.0123642  -0.00809207  0.0070939  -0.00936279  -0.00270518  -0.0339574  0.00130284  0.0307268  -0.0107972  -0.0154131  -0.39776  0.403664  -0.0807687 
1703170311.578646000  0  0  11.6324  0.027153  -0.14636  0.0186664  nan  nan  nan  nan  nan  nan  -2.48442  -0.284465  1.00704  -0.0999688  0.105721  -0.0333126  0.140128  0.138677  0.0354421  0  0  0  0.900573  0.868736  0.0100028  -0.00811907  0.00692541  -0.00939857  -0.00387375  -0.0345045  -0.00257527  0.0301998  -0.0101719  -0.0149068  -0.405651  0.430854  -0.0551806 
1703170311.583669000  0  0  11.614  0.0189219  -0.113004  0.0192612  nan  nan  nan  nan  nan  nan  -2.48371  -0.283761  1.00721  -0.101868  0.109245  -0.0342701  0.144665  0.14305  0.0354868  0  0  0  0.914236  0.880648  0.0078914  -0.0082959  0.006861  -0.00937265  -0.00620505  -0.0347877  -0.00105898  0.0302527  -0.0121425  -0.014641  -0.38861  0.381999  -0.0658671 
1703170311.589150000  0  0  11.5943  0.0209298  -0.122028  0.0209639  nan  nan  nan  nan  nan  nan  -2.48297  -0.283034  1.00739  -0.103739  0.109017  -0.0348557  0.14927  0.147483  0.0355215  0  0  0  0.92765  0.89231  0.0060301  -0.0083935  0.00684525  -0.00932239  -0.00373511  -0.0353954  0.000230561  0.029988  -0.00994303  -0.0146626  -0.38987  0.376045  -0.0870316 
1703170311.593647000  0  0  11.6688  0.0372645  -0.137036  0.0180056  nan  nan  nan  nan  nan  nan  -2.48222  -0.282286  1.00757  -0.10479  0.111582  -0.0356488  0.153941  0.151973  0.0355475  0  0  0  0.940813  0.903722  0.0044187  -0.00850081  0.00662253  -0.00938719  -0.00621376  -0.035283  -0.00465593  0.0289531  -0.0104273  -0.0141284  -0.41299  0.413798  -0.0562488 
1703170311.597657000  0  0  11.6319  0.0275462  -0.0928584  0.0179095  nan  nan  nan  nan  nan  nan  -2.48143  -0.281515  1.00775  -0.108133  0.115426  -0.0368554  0.158677  0.15652  0.0355661  0  0  0  0.953727  0.914883  0.0030573  -0.00870404  0.00632717  -0.0094089  -0.00883734  -0.0366532  -0.00154523  0.0305605  -0.0133511  -0.0135737  -0.410643  0.352706  -0.0617267 
1703170311.603668000  0  0  11.6252  0.0134497  -0.0982751  0.0220678  nan  nan  nan  nan  nan  nan  -2.48063  -0.280721  1.00792  -0.109795  0.113982  -0.0373128  0.163478  0.161121  0.0355785  0  0  0  0.966391  0.925795  0.0019459  -0.00869943  0.00635504  -0.00935003  -0.00528508  -0.0374253  -0.00123797  0.0301931  -0.010183  -0.0139561  -0.376191  0.327875  -0.109437 
1703170311.608653000  0  0  11.6903  0.0484151  -0.114515  0.0184417  nan  nan  nan  nan  nan  nan  -2.4798  -0.279903  1.0081  -0.109256  0.117671  -0.0380808  0.168341  0.165777  0.0355859  0  0  0  0.978804  0.936457  0.0010845  -0.0089215  0.00628119  -0.00938473  -0.00889907  -0.0355606  -0.00544597  0.0272776  -0.0116715  -0.0135977  -0.417624  0.37982  -0.0681324 
1703170311.614109000  0  0  11.6095  0.0347024  -0.0661093  0.0198095  nan  nan  nan  nan  nan  nan  -2.47895  -0.279063  1.00828  -0.111655  0.120773  -0.0391455  0.173265  0.170486  0.0355897  0  0  0  0.990968  0.946869  0.0004731  -0.00906474  0.00626002  -0.00933107  -0.010106  -0.0360221  0.00055298  0.0275955  -0.0137447  -0.0134424  -0.391878  0.299878  -0.0872149 
1703170311.618650000  0  0  11.6949  0.0214643  -0.0869901  0.0230868  nan  nan  nan  nan  nan  nan  -2.47807  -0.278198  1.00846  -0.114025  0.119731  -0.0397568  0.17825  0.175245  0.0355911  0  0  0  1.00288  0.957031  0.0001118  -0.00917201  0.00600679  -0.00939948  -0.00823652  -0.0381517  -0.00519426  0.0283555  -0.0112276  -0.0135907  -0.372235  0.315694  -0.126663 
1703170311.623679000  0  0  11.7268  0.0650093  -0.106507  0.0179682  nan  nan  nan  nan  nan  nan  -2.47716  -0.27731  1.00864  -0.113709  0.123708  -0.0406162  0.183294  0.180055  0.0355913  0  0  0  1.01454  0.966943  -0  -0.00943372  0.00593507  -0.00941615  -0.01183  -0.0362508  -0.00698821  0.025437  -0.0129523  -0.013092  -0.432031  0.377385  -0.0682708 
1703170311.628653000  0  0  11.6465  0.0352993  -0.0661222  0.0194852  nan  nan  nan  nan  nan  nan  -2.47623  -0.276398  1.00881  -0.11742  0.125715  -0.0417681  0.188395  0.184914  0.0355913  0  0  0  1.02596  0.976605  -0  -0.00949586  0.00573883  -0.0093796  -0.0119433  -0.0380774  -0.000931286  0.0273149  -0.0140516  -0.0127742  -0.38993  0.303436  -0.0911889 
1703170311.633652000  0  0  11.698  0.0305342  -0.0921992  0.0226106  nan  nan  nan  nan  nan  nan  -2.47528  -0.275461  1.00899  -0.118506  0.1257  -0.0423638  0.193553  0.189821  0.0355913  0  0  0  1.03712  0.986017  -0  -0.00972534  0.00566732  -0.00939904  -0.0106965  -0.0386491  -0.00436316  0.0266823  -0.0122163  -0.0130838  -0.372435  0.338238  -0.126781 
1703170311.637664000  0  0  11.7198  0.0546984  -0.1109  0.0196096  nan  nan  nan  nan  nan  nan  -2.4743  -0.274499  1.00917  -0.120014  0.128517  -0.043358  0.198766  0.194774  0.0355913  0  0  0  1.04804  0.995178  -0  -0.00997587  0.00533667  -0.00945938  -0.0128367  -0.0384799  -0.0053175  0.0260868  -0.0131654  -0.0125668  -0.417397  0.389256  -0.0952545 
1703170311.643670000  0  0  11.6299  0.0353366  -0.0805584  0.0210896  nan  nan  nan  nan  nan  nan  -2.47329  -0.273513  1.00935  -0.122101  0.131567  -0.0444723  0.204033  0.199772  0.0355913  0  0  0  1.0587  1.00409  -0  -0.010188  0.00544106  -0.00915031  -0.0137426  -0.0388239  0.000846034  0.0259938  -0.0147688  -0.0125445  -0.374812  0.342642  -0.114145 
1703170311.648648000  0  0  11.6746  0.0333357  -0.0949962  0.0231359  nan  nan  nan  nan  nan  nan  -2.47226  -0.272502  1.00953  -0.122712  0.132223  -0.0451119  0.209353  0.204815  0.0355913  0  0  0  1.06911  1.01275  -0  -0.0104202  0.00534752  -0.00916002  -0.0133991  -0.0386722  -0.00209503  0.0249656  -0.0135988  -0.0128445  -0.358692  0.360141  -0.136275 
1703170311.653647000  0  0  11.6843  0.066524  -0.119679  0.0193248  nan  nan  nan  nan  nan  nan  -2.4712  -0.271465  1.0097  -0.123609  0.133402  -0.0458617  0.214724  0.2099  0.0355913  0  0  0  1.07928  1.02116  -0  -0.0104919  0.00516434  -0.00916401  -0.0137165  -0.038159  -0.00249819  0.0233478  -0.0125511  -0.0124157  -0.411244  0.401013  -0.0934922 
1703170311.658649000  0  0  11.6817  0.0438818  -0.105846  0.0203506  nan  nan  nan  nan  nan  nan  -2.47011  -0.270403  1.00988  -0.126031  0.135675  -0.0469647  0.220145  0.215026  0.0355913  0  0  0  1.08919  1.02933  -0  -0.0107408  0.00503229  -0.00912761  -0.014955  -0.0395746  -0.00191404  0.0240478  -0.0131556  -0.0121837  -0.370747  0.378306  -0.109196 
1703170311.663672000  0  0  11.6782  0.0295921  -0.109832  0.0232508  nan  nan  nan  nan  nan  nan  -2.469  -0.269315  1.01006  -0.126983  0.135403  -0.0475579  0.225615  0.220192  0.0355913  0  0  0  1.09885  1.03724  -0  -0.0107916  0.00484725  -0.00913445  -0.0132481  -0.0391321  -0.00155664  0.0235552  -0.0112196  -0.0125222  -0.33444  0.364581  -0.141607 
1703170311.668645000  0  0  11.7206  0.0627735  -0.142236  0.0191461  nan  nan  nan  nan  nan  nan  -2.46785  -0.268201  1.01024  -0.127546  0.136656  -0.0482974  0.231133  0.225398  0.0355913  0  0  0  1.10827  1.0449  -0  -0.0110354  0.0047336  -0.00914653  -0.0137999  -0.0389169  -0.00424912  0.0217878  -0.0100843  -0.012078  -0.385256  0.421003  -0.0953141 
1703170311.673647000  0  0  11.7182  0.0407166  -0.120316  0.0205524  nan  nan  nan  nan  nan  nan  -2.46668  -0.267061  1.01042  -0.129477  0.139951  -0.049499  0.236697  0.230641  0.0355913  0  0  0  1.11743  1.05231  -0  -0.0113472  0.00462997  -0.00913933  -0.0163333  -0.039764  -0.00354301  0.0222154  -0.0116772  -0.0119432  -0.34288  0.392326  -0.114634 
1703170311.678649000  0  0  11.6687  0.0285242  -0.121769  0.0238991  nan  nan  nan  nan  nan  nan  -2.46549  -0.265894  1.01059  -0.130765  0.139466  -0.0501341  0.242307  0.235921  0.0355913  0  0  0  1.12634  1.05947  -0  -0.0113971  0.00444029  -0.00911479  -0.0137039  -0.0392108  -3.84369e-05  0.0221012  -0.00959457  -0.0123101  -0.315423  0.371482  -0.152319 
1703170311.683670000  0  0  11.7614  0.0586237  -0.164781  0.0198902  nan  nan  nan  nan  nan  nan  -2.46426  -0.264701  1.01077  -0.131098  0.139955  -0.0507668  0.24796  0.241235  0.0355913  0  0  0  1.13501  1.06639  -0  -0.0116776  0.00432343  -0.00914864  -0.0140725  -0.039571  -0.00629686  0.0202992  -0.00750332  -0.0119464  -0.359232  0.439651  -0.106262 
1703170311.689097000  0  0  11.7228  0.0297637  -0.134272  0.0207195  nan  nan  nan  nan  nan  nan  -2.46301  -0.263482  1.01095  -0.132467  0.142662  -0.051846  0.253657  0.246584  0.0355913  0  0  0  1.14342  1.07305  -0  -0.0118135  0.00427888  -0.00909581  -0.0157708  -0.0394566  -0.00325732  0.0203425  -0.00855196  -0.0118682  -0.297848  0.386296  -0.11764 
1703170311.693633000  0  0  11.6637  0.0117049  -0.125582  0.0224383  nan  nan  nan  nan  nan  nan  -2.46172  -0.262235  1.01113  -0.134699  0.142433  -0.0526724  0.259394  0.251965  0.0355913  0  0  0  1.15159  1.07946  -0  -0.0119864  0.00398735  -0.00908922  -0.0131359  -0.0397703  0.00105396  0.0214748  -0.00713464  -0.0118526  -0.272151  0.351358  -0.139454 
1703170311.698648000  0  0  11.7625  0.0443019  -0.166231  0.0177279  nan  nan  nan  nan  nan  nan  -2.46041  -0.260962  1.01131  -0.134483  0.143357  -0.0533049  0.265172  0.257378  0.0355913  0  0  0  1.1595  1.08562  -0  -0.0122771  0.00387781  -0.00909928  -0.0142721  -0.0396006  -0.00567897  0.0193435  -0.00559602  -0.0113986  -0.317528  0.420819  -0.0856589 
1703170311.703670000  0  0  11.6923  0.0138918  -0.126644  0.0189646  nan  nan  nan  nan  nan  nan  -2.45907  -0.259662  1.01148  -0.137016  0.14546  -0.0545065  0.270989  0.262821  0.0355913  0  0  0  1.16716  1.09153  -0  -0.0123551  0.00368212  -0.0090631  -0.0149488  -0.0402462  -0.000359037  0.020682  -0.00652773  -0.0110817  -0.26772  0.346653  -0.105039 
1703170311.708659000  0  0  11.6617  -0.00235731  -0.12095  0.0219891  nan  nan  nan  nan  nan  nan  -2.4577  -0.258334  1.01166  -0.138005  0.14529  -0.0551813  0.276843  0.268293  0.0355913  0  0  0  1.17458  1.09719  -0  -0.0126145  0.00356278  -0.00900004  -0.0126411  -0.0399002  0.00173962  0.0207787  -0.00515575  -0.0113594  -0.233991  0.318661  -0.139748 
1703170311.714123000  0  0  11.7452  0.0391467  -0.157345  0.0173338  nan  nan  nan  nan  nan  nan  -2.4563  -0.256979  1.01184  -0.137037  0.146037  -0.0556983  0.282734  0.273793  0.0355913  0  0  0  1.18174  1.10261  -0  -0.0127388  0.00352076  -0.0090015  -0.0138239  -0.0388441  -0.00404465  0.0178024  -0.00354702  -0.0110248  -0.288744  0.378193  -0.0852062 
1703170311.718647000  0  0  11.6949  -0.000656356  -0.105257  0.019066  nan  nan  nan  nan  nan  nan  -2.45488  -0.255596  1.01202  -0.140237  0.148392  -0.0570652  0.28866  0.279319  0.0355913  0  0  0  1.18865  1.10777  -0  -0.0129402  0.00320471  -0.0089954  -0.0149801  -0.0403558  4.99521e-05  0.0201566  -0.00536576  -0.0106454  -0.23048  0.287427  -0.111576 
1703170311.723674000  0  0  11.6326  -0.00242964  -0.0945174  0.0221428  nan  nan  nan  nan  nan  nan  -2.45342  -0.254185  1.01219  -0.14049  0.149719  -0.0578581  0.29462  0.28487  0.0355913  0  0  0  1.19532  1.11268  -0  -0.0133128  0.00313721  -0.00869757  -0.0138304  -0.0386412  0.00396747  0.0193474  -0.0060447  -0.0109952  -0.217369  0.272209  -0.146071 
1703170311.728649000  0  0  11.713  0.0360621  -0.119147  0.0179905  nan  nan  nan  nan  nan  nan  -2.45193  -0.252747  1.01237  -0.14068  0.1502  -0.0585293  0.300613  0.290445  0.0355913  0  0  0  1.20173  1.11734  -0  -0.0134084  0.00293651  -0.00873695  -0.0149154  -0.0387465  -0.00142607  0.0176049  -0.00475907  -0.0105534  -0.279858  0.310231  -0.0991515 
1703170311.733649000  0  0  11.6798  -0.000953619  -0.0760057  0.0211795  nan  nan  nan  nan  nan  nan  -2.45041  -0.251281  1.01255  -0.142623  0.152495  -0.0597316  0.306637  0.296043  0.0355913  0  0  0  1.20789  1.12175  -0  -0.0136618  0.00279297  -0.00868871  -0.0161316  -0.0394212  0.00126686  0.0187795  -0.00650746  -0.0106127  -0.214001  0.237839  -0.138561 
1703170311.737653000  0  0  11.645  -0.00915893  -0.0665072  0.0232414  nan  nan  nan  nan  nan  nan  -2.44886  -0.249787  1.01273  -0.144751  0.153577  -0.0608028  0.312691  0.301662  0.0355913  0  0  0  1.21381  1.12592  -0  -0.0140232  0.00234539  -0.00869821  -0.0154203  -0.0395939  0.00406387  0.0199913  -0.00694477  -0.0105905  -0.210347  0.222503  -0.164772 
1703170311.743672000  0  0  11.6737  0.041947  -0.09353  0.0197757  nan  nan  nan  nan  nan  nan  -2.44728  -0.248264  1.01291  -0.143399  0.153317  -0.0611452  0.318775  0.307302  0.0355913  0  0  0  1.21947  1.12983  -0  -0.0140303  0.00250412  -0.0086221  -0.014817  -0.0381023  0.00178448  0.0164983  -0.00497075  -0.010633  -0.279746  0.257737  -0.120654 
1703170311.748648000  0  0  11.7134  0.0141816  -0.0692184  0.0229507  nan  nan  nan  nan  nan  nan  -2.44568  -0.246714  1.01308  -0.144352  0.155216  -0.062162  0.324886  0.31296  0.0355913  0  0  0  1.22488  1.13349  -0  -0.0143315  0.00237263  -0.00859326  -0.0167284  -0.0387628  -0.000691077  0.0166456  -0.00618375  -0.0109006  -0.221905  0.219561  -0.157378 
1703170311.753648000  0  0  11.6119  0.0325289  -0.0697863  0.022821  nan  nan  nan  nan  nan  nan  -2.44404  -0.245135  1.01326  -0.144714  0.155578  -0.0628716  0.331023  0.318636  0.0355913  0  0  0  1.23005  1.1369  -0  -0.0143978  0.00220069  -0.00852983  -0.0145803  -0.0365463  0.00633293  0.0155306  -0.00562563  -0.0110344  -0.248419  0.214358  -0.154133 
1703170311.758653000  0  0  11.6494  0.051124  -0.0898081  0.0198544  nan  nan  nan  nan  nan  nan  -2.44237  -0.243527  1.01344  -0.145836  0.156045  -0.0637219  0.337186  0.324329  0.0355913  0  0  0  1.23496  1.14006  -0  -0.0146906  0.00207277  -0.00848086  -0.0146317  -0.037615  0.00383222  0.0149204  -0.00480154  -0.0106154  -0.281271  0.247809  -0.121856 
1703170311.764145000  0  0  11.7118  0.0377186  -0.0900157  0.0214863  nan  nan  nan  nan  nan  nan  -2.44066  -0.241891  1.01362  -0.144617  0.157339  -0.064324  0.343372  0.330036  0.0355913  0  0  0  1.23963  1.14298  -0  -0.014871  0.00211343  -0.00845158  -0.0164231  -0.0364419  -0.000519315  0.0127784  -0.00485679  -0.0110441  -0.227885  0.24889  -0.137222 
1703170311.768649000  0  0  11.5706  0.0540284  -0.0836723  0.0210142  nan  nan  nan  nan  nan  nan  -2.43893  -0.240227  1.0138  -0.1461  0.158457  -0.0653373  0.349582  0.335758  0.0355913  0  0  0  1.24404  1.14564  -0  -0.0150937  0.00180527  -0.00837792  -0.0142564  -0.0346778  0.00945172  0.0127011  -0.00512176  -0.0107987  -0.261968  0.238336  -0.13424 
1703170311.773648000  0  0  11.6951  0.0640168  -0.112092  0.0197627  nan  nan  nan  nan  nan  nan  -2.43717  -0.238534  1.01397  -0.146412  0.157539  -0.0658717  0.355812  0.341492  0.0355913  0  0  0  1.2482  1.14805  -0  -0.0153755  0.00167798  -0.00837509  -0.0141881  -0.0363156  0.000743391  0.0115619  -0.00275981  -0.010623  -0.270279  0.272104  -0.12061 
1703170311.778654000  0  0  11.7634  0.0630997  -0.117255  0.0204323  nan  nan  nan  nan  nan  nan  -2.43537  -0.236812  1.01415  -0.145547  0.158678  -0.0665196  0.362063  0.347238  0.0355913  0  0  0  1.25212  1.15021  -0  -0.0154778  0.00151005  -0.00840559  -0.0162547  -0.0352124  -0.00387696  0.00953995  -0.00252122  -0.0108246  -0.245052  0.280428  -0.126606 
1703170311.783674000  0  0  11.5914  0.0695547  -0.0923217  0.0211658  nan  nan  nan  nan  nan  nan  -2.43355  -0.235061  1.01433  -0.146575  0.161272  -0.0676884  0.368333  0.352994  0.0355913  0  0  0  1.25578  1.15212  -0  -0.0158756  0.00148785  -0.00803112  -0.0150094  -0.0331  0.00774686  0.00906129  -0.0046169  -0.0107707  -0.253386  0.251075  -0.136484 
1703170311.789162000  0  0  11.7399  0.0809523  -0.130815  0.0213109  nan  nan  nan  nan  nan  nan  -2.43169  -0.233282  1.01451  -0.145144  0.159514  -0.0678288  0.374621  0.358759  0.0355913  0  0  0  1.25919  1.15378  -0  -0.0160065  0.00154807  -0.00804958  -0.0146885  -0.0335694  -0.00289887  0.00634113  -0.0011171  -0.0110992  -0.246532  0.293351  -0.13435 
1703170311.793649000  0  0  11.7388  0.0766995  -0.125417  0.0207974  nan  nan  nan  nan  nan  nan  -2.4298  -0.231474  1.01469  -0.145558  0.16171  -0.0688453  0.380925  0.364531  0.0355913  0  0  0  1.26236  1.1552  -0  -0.016286  0.00122511  -0.00806624  -0.0165692  -0.032576  -0.0024442  0.00568835  -0.002102  -0.0109533  -0.229903  0.293108  -0.129649 
1703170311.798653000  0  0  11.5923  0.0617682  -0.105212  0.0230938  nan  nan  nan  nan  nan  nan  -2.42788  -0.229637  1.01486  -0.147103  0.16267  -0.069874  0.387244  0.37031  0.0355913  0  0  0  1.26527  1.15636  -0  -0.016559  0.00112717  -0.00792704  -0.0140852  -0.0316079  0.00773478  0.00626235  -0.00234595  -0.011062  -0.20449  0.252589  -0.157231 
1703170311.803675000  0  0  11.7575  0.069997  -0.154597  0.0235307  nan  nan  nan  nan  nan  nan  -2.42593  -0.227771  1.01504  -0.146148  0.160042  -0.0699717  0.393577  0.376095  0.0355913  0  0  0  1.26793  1.15727  -0  -0.0166239  0.000965892  -0.00800928  -0.013276  -0.0325457  -0.00400715  0.00431527  0.00211534  -0.0114228  -0.199735  0.307159  -0.15838 
1703170311.808637000  0  0  11.7075  0.073531  -0.139606  0.0218513  nan  nan  nan  nan  nan  nan  -2.42395  -0.225876  1.01522  -0.146142  0.163579  -0.0711238  0.399923  0.381883  0.0355913  0  0  0  1.27035  1.15793  -0  -0.0169901  0.000909383  -0.00763839  -0.0158201  -0.0309216  -0.000835719  0.00323023  -0.000531083  -0.0113493  -0.19483  0.30546  -0.138136 
1703170311.814100000  0  0  11.6027  0.0533621  -0.132485  0.0240959  nan  nan  nan  nan  nan  nan  -2.42193  -0.223952  1.0154  -0.146821  0.162344  -0.0716985  0.40628  0.387673  0.0355913  0  0  0  1.27251  1.15834  -0  -0.0169769  0.000955746  -0.00755235  -0.0120349  -0.0302609  0.00617503  0.00328765  0.00170946  -0.0116547  -0.152244  0.264414  -0.162696 
1703170311.818650000  0  0  11.7205  0.0612665  -0.163479  0.02283  nan  nan  nan  nan  nan  nan  -2.41988  -0.221999  1.01558  -0.146215  0.161417  -0.0721074  0.412647  0.393466  0.0355913  0  0  0  1.27442  1.15851  -0  -0.0172272  0.000643562  -0.00762462  -0.0122029  -0.0303694  -0.00204995  0.0019207  0.00419883  -0.0117092  -0.153467  0.302235  -0.146112 
1703170311.823674000  0  0  11.6746  0.0589261  -0.147158  0.0206863  nan  nan  nan  nan  nan  nan  -2.4178  -0.220017  1.01575  -0.146342  0.163156  -0.0730267  0.419024  0.399258  0.0355913  0  0  0  1.27609  1.15842  -0  -0.0174946  0.000581837  -0.0075732  -0.0127857  -0.0292879  0.00127884  0.00129051  0.00350908  -0.0114808  -0.141199  0.275173  -0.121892 
1703170311.828647000  0  0  11.6104  0.0336922  -0.140954  0.0225389  nan  nan  nan  nan  nan  nan  -2.41569  -0.218006  1.01593  -0.14732  0.161895  -0.0736516  0.425408  0.405049  0.0355913  0  0  0  1.2775  1.15808  -0  -0.0175482  0.000423622  -0.00753105  -0.00971193  -0.0291704  0.00558569  0.00200693  0.00557012  -0.0115536  -0.0953328  0.238161  -0.144324 
1703170311.833650000  0  0  11.6876  0.0505044  -0.152806  0.0211331  nan  nan  nan  nan  nan  nan  -2.41355  -0.215967  1.01611  -0.145781  0.162184  -0.0740887  0.431798  0.410839  0.0355913  0  0  0  1.27867  1.15749  -0  -0.0177958  0.00035283  -0.00738465  -0.0107277  -0.0280659  -0.0002198  -0.000209777  0.00625518  -0.0116882  -0.105881  0.255693  -0.125013 
1703170311.838653000  0  0  11.6723  0.0452821  -0.147648  0.020034  nan  nan  nan  nan  nan  nan  -2.41137  -0.213898  1.01629  -0.146307  0.161646  -0.0747472  0.438194  0.416624  0.0355913  0  0  0  1.27958  1.15665  -0  -0.0178511  0.000209676  -0.00736972  -0.00959983  -0.0281417  0.000794376  -0.000250322  0.00765336  -0.0114507  -0.0942162  0.228548  -0.114048 
1703170311.843673000  0  0  11.6118  0.0328829  -0.124053  0.0222352  nan  nan  nan  nan  nan  nan  -2.40917  -0.2118  1.01647  -0.146181  0.162428  -0.0754911  0.444594  0.422405  0.0355913  0  0  0  1.28024  1.15556  -0  -0.0180239  0.000137116  -0.00719699  -0.00898305  -0.0267321  0.00472482  -0.000605771  0.00711702  -0.0117092  -0.0635401  0.184123  -0.138626 
1703170311.848653000  0  0  11.6414  0.0413989  -0.121917  0.0212418  nan  nan  nan  nan  nan  nan  -2.40693  -0.209674  1.01664  -0.145461  0.162425  -0.0760237  0.450996  0.428179  0.0355913  0  0  0  1.28066  1.15423  -0  -0.0182704  6.59664e-05  -0.00704931  -0.00885521  -0.0260826  0.00227729  -0.00177917  0.00752182  -0.0117158  -0.0683014  0.174886  -0.126049 
1703170311.853653000  0  0  11.6944  0.0310863  -0.127872  0.0213578  nan  nan  nan  nan  nan  nan  -2.40466  -0.207519  1.01682  -0.145451  0.161143  -0.0764899  0.4574  0.433946  0.0355913  0  0  0  1.28082  1.15264  -0  -0.018316  -7.31934e-05  -0.00707009  -0.00814983  -0.0267209  -0.001541  -0.00195931  0.00946779  -0.0117083  -0.0441162  0.165268  -0.127599 
1703170311.858639000  0  0  11.6243  0.0297772  -0.101847  0.0220477  nan  nan  nan  nan  nan  nan  -2.40235  -0.205334  1.017  -0.144838  0.162846  -0.077288  0.463804  0.439705  0.0355913  0  0  0  1.28073  1.1508  -0  -0.0185184  -0.000132016  -0.00698069  -0.00854003  -0.0245559  0.00329388  -0.00272727  0.00791216  -0.011893  -0.0324745  0.127362  -0.134054 
1703170311.862643000  0  0  11.6179  0.0164  -0.0882829  0.0220543  nan  nan  nan  nan  nan  nan  -2.40002  -0.203121  1.01718  -0.146699  0.163106  -0.0782881  0.470207  0.445454  0.0355913  0  0  0  1.2804  1.14871  -0  -0.0190029  -0.000674576  -0.00700051  -0.00773494  -0.0254095  0.00403972  -0.00104773  0.00772288  -0.0115348  -0.0231123  0.100454  -0.138454 
1703170311.868639000  0  0  11.7121  0.0323886  -0.101516  0.0218539  nan  nan  nan  nan  nan  nan  -2.39765  -0.20088  1.01736  -0.143534  0.162415  -0.0783196  0.476607  0.451192  0.0355913  0  0  0  1.27981  1.14637  -0  -0.0189791  -0.000243648  -0.00676996  -0.00861451  -0.0242209  -0.00345128  -0.00427919  0.00864219  -0.0121389  -0.02022  0.118254  -0.128651 
1703170311.873640000  0  0  11.5933  0.0322845  -0.0717584  0.0219304  nan  nan  nan  nan  nan  nan  -2.39525  -0.19861  1.01753  -0.143528  0.163208  -0.0790867  0.483005  0.456917  0.0355913  0  0  0  1.27897  1.14379  -0  -0.0190197  -0.000347241  -0.00669188  -0.00743227  -0.0222146  0.00474129  -0.00448677  0.00773295  -0.0121362  -0.0176088  0.0649054  -0.129646 
1703170311.878638000  0  0  11.6257  0.0275968  -0.0735756  0.0232249  nan  nan  nan  nan  nan  nan  -2.39282  -0.196311  1.01771  -0.142865  0.162082  -0.0794724  0.489397  0.462629  0.0355913  0  0  0  1.27789  1.14095  -0  -0.019293  -0.000384267  -0.0066219  -0.00599219  -0.0221208  0.00210922  -0.00503103  0.00872369  -0.0124064  -0.00129583  0.0574041  -0.142677 
