ts fx fy fz tx ty tz exfx exfy exfz extx exty extz xd yd zd rolld pitchd yawd vxd vyd vzd wxd wyd wzd axd ayd azd e_x e_y e_z e_vx e_vy e_vz e_rx e_ry e_rz e_wx e_wy e_wz
1699974443.000622000  0  0  12.0213  0.19341  -0.185216  0.002881  nan  nan  nan  nan  nan  nan  -1  0  1  0.0438916  -0.0621633  -0.00272843  0  0  0  0  0  0  0  0  0  0.0420453  0.01983  -0.0367418  -0.0101412  0.0144792  0.00352114  -0.0535927  0.052662  -0.00260397  0.106232  -0.114058  -0.00997284 
1699974443.004594000  0  0  12.062  0.215056  -0.201866  0.00206528  nan  nan  nan  nan  nan  nan  -1  0  1  0.0430945  -0.0624899  -0.00269288  0  0  0  0  0  0  0  0  0  0.0420804  0.019719  -0.0367401  -0.00950377  0.0138541  0.000138203  -0.0529299  0.0528408  -0.00251597  0.0568429  -0.0824032  -0.00065628 
1699974443.009543000  0  0  12.1027  0.230407  -0.235386  0.00175413  nan  nan  nan  nan  nan  nan  -1  0  1  0.0437123  -0.0618999  -0.00270577  0  0  0  0  0  0  0  0  0  0.0420313  0.0197934  -0.0367617  -0.00990164  0.0147185  -0.00324613  -0.0535816  0.0527149  -0.00247482  0.0321361  -0.0142051  0.00282157 
1699974443.014599000  0  0  12.1375  0.263147  -0.262696  0.00217815  nan  nan  nan  nan  nan  nan  -1  0  1  0.0434928  -0.0621462  -0.00270287  0  0  0  0  0  0  0  0  0  0.0420429  0.0197124  -0.0367603  -0.00935059  0.0147732  -0.00619826  -0.0539155  0.0534459  -0.00251105  -0.0302718  0.033689  -0.00211638 
1699974443.019601000  0  0  12.13  0.310359  -0.28192  0.00223869  nan  nan  nan  nan  nan  nan  -1  0  1  0.0442528  -0.0624087  -0.00276176  0  0  0  0  0  0  0  0  0  0.0420005  0.0197893  -0.0367722  -0.00893838  0.0155954  -0.00565073  -0.0557828  0.0542314  -0.00248731  -0.107516  0.0649107  -0.00311051 
1699974443.024622000  0  0  12.1028  0.313945  -0.307481  0.00247506  nan  nan  nan  nan  nan  nan  -1  0  1  0.0441053  -0.0625357  -0.00275814  0  0  0  0  0  0  0  0  0  0.0420117  0.019716  -0.0367527  -0.00897573  0.0154303  -0.00349669  -0.05621  0.0551687  -0.00252514  -0.110758  0.10741  -0.00568682 
1699974443.029562000  0  0  12.0853  0.297322  -0.292329  0.00273093  nan  nan  nan  nan  nan  nan  -1  0  1  0.0440579  -0.0625324  -0.00275503  0  0  0  0  0  0  0  0  0  0.0420294  0.0196492  -0.0367461  -0.0091408  0.0154301  -0.00206333  -0.0563041  0.0553081  -0.00257063  -0.0766471  0.0758241  -0.00843032 
1699974443.034619000  0  0  12.0161  0.301359  -0.244756  0.00185794  nan  nan  nan  nan  nan  nan  -1  0  1  0.0445435  -0.0626727  -0.00279168  0  0  0  0  0  0  0  0  0  0.041983  0.0197237  -0.0367115  -0.00932881  0.0155737  0.00363899  -0.0571604  0.0547498  -0.00244368  -0.0768431  -0.0141848  0.00121259 
1699974443.041564000  0  0  11.9454  0.264617  -0.224609  0.00132186  nan  nan  nan  nan  nan  nan  -1  0  1  0.0449154  -0.0621217  -0.0027903  0  0  0  0  0  0  0  0  0  0.0419673  0.0196943  -0.0366386  -0.0105243  0.0157829  0.00942095  -0.0571424  0.0536705  -0.00233868  -0.00352322  -0.0445505  0.00686356 
1699974443.047008000  0  0  12.0178  0.221049  -0.156329  0.00117182  nan  nan  nan  nan  nan  nan  -1  0  1  0.0435824  -0.0616333  -0.00268612  0  0  0  0  0  0  0  0  0  0.0419594  0.0196496  -0.0366708  -0.0106834  0.0144559  0.0036022  -0.0549286  0.0514937  -0.00230874  0.0632458  -0.161085  0.00843956 
1699974443.051614000  0  0  12.0249  0.236833  -0.167738  0.000410762  nan  nan  nan  nan  nan  nan  -1  0  1  0.0445817  -0.0612204  -0.00272941  0  0  0  0  0  0  0  0  0  0.0419101  0.0197251  -0.0366573  -0.0110729  0.0156589  0.00298836  -0.0559158  0.0506747  -0.00214637  0.0407588  -0.130731  0.0163292 
1699974443.056614000  0  0  12.0386  0.237265  -0.201848  -0.000181471  nan  nan  nan  nan  nan  nan  -1  0  1  0.0439823  -0.0613596  -0.00269878  0  0  0  0  0  0  0  0  0  0.0419062  0.0196347  -0.0365999  -0.010789  0.0151245  0.00174013  -0.0551686  0.0510029  -0.00199429  0.0330199  -0.0655303  0.0222113 
1699974443.062174000  0  0  12.121  0.247338  -0.23032  -1.51836e-05  nan  nan  nan  nan  nan  nan  -1  0  1  0.0434432  -0.0610793  -0.00265349  0  0  0  0  0  0  0  0  0  0.0418861  0.0195849  -0.0366242  -0.0105629  0.0149135  -0.00509489  -0.0546896  0.0510613  -0.00192113  0.00846837  -0.00912319  0.0194011 
1699974443.066608000  0  0  12.1472  0.286571  -0.269524  0.000303402  nan  nan  nan  nan  nan  nan  -1  -0  1  0.0438913  -0.0613053  -0.00269081  6e-07  -6e-07  6e-07  0  0  0  0  0  0  0.0418459  0.0196529  -0.036651  -0.00997787  0.0154978  -0.00731132  -0.0559051  0.0520792  -0.00186902  -0.0588154  0.0599193  0.0148976 
1699974443.071600000  0  0  12.1287  0.297767  -0.301275  0.00154967  nan  nan  nan  nan  nan  nan  -1  -0  1  0.0436871  -0.0616768  -0.00269448  5e-06  -5e-06  5e-06  0  0  0  0  0  0  0.0418652  0.0195465  -0.036653  -0.00963971  0.0153712  -0.00583182  -0.0562393  0.0533145  -0.00195491  -0.078133  0.112057  0.000178213 
1699974443.076554000  0  0  12.1131  0.296135  -0.310228  0.00365138  nan  nan  nan  nan  nan  nan  -1  -1e-07  1  0.0444061  -0.0615163  -0.00273177  1.69e-05  -1.69e-05  1.69e-05  0  0  0  0  0  0  0.0418158  0.0196243  -0.0366634  -0.00984378  0.0160952  -0.00457503  -0.0572071  0.0538674  -0.00223551  -0.0659649  0.124877  -0.0232872 
1699974443.081623000  0  0  12.1136  0.291249  -0.28718  0.00487207  nan  nan  nan  nan  nan  nan  -1  -2e-07  1  0.0439446  -0.0619473  -0.00272215  4e-05  -4e-05  4e-05  0  0  0  0  0  0  0.0418286  0.0195529  -0.036713  -0.00928805  0.0156338  -0.00452202  -0.0569819  0.0543517  -0.00248896  -0.0582649  0.0743238  -0.0360113 
1699974443.087118000  0  0  11.9956  0.268948  -0.27022  0.00453407  nan  nan  nan  nan  nan  nan  -1  -5e-07  1  0.0441819  -0.0619427  -0.00273657  7.81e-05  -7.81e-05  7.81e-05  0  0  0  0  0  0  0.0418285  0.0195065  -0.0366408  -0.0101085  0.0154769  0.0051786  -0.056997  0.054299  -0.00261161  -0.0135231  0.0408889  -0.0305598 
1699974443.091741000  0  0  12.0242  0.224172  -0.223409  0.00194336  nan  nan  nan  nan  nan  nan  -0.999999  -1e-06  1  0.0443781  -0.0610998  -0.00271118  0.000135  -0.000135  0.000135  0  0  0  0  0  0  0.0417769  0.0195763  -0.0366528  -0.0109335  0.0157231  0.00289075  -0.0562928  0.0527949  -0.00243331  0.0695494  -0.038895  4.10158e-05 
1699974443.096609000  0  0  12.0234  0.208487  -0.196893  -0.000212245  nan  nan  nan  nan  nan  nan  -0.999998  -1.9e-06  1  0.0431687  -0.0612482  -0.00264339  0.0002141  -0.0002144  0.0002134  0  0  0  0  0  0  0.0418168  0.019425  -0.0366092  -0.0108446  0.0144336  0.0029625  -0.0545071  0.0521481  -0.00218572  0.0844902  -0.0859765  0.0245103 
1699974443.101608000  0  0  12.0071  0.210319  -0.192789  -0.00194076  nan  nan  nan  nan  nan  nan  -0.999997  -3.2e-06  1  0.0436392  -0.0607123  -0.00264869  0.0003149  -0.00032  0.0003113  0  0  0  0  0  0  0.0417604  0.0194976  -0.0365845  -0.011549  0.0148218  0.00430163  -0.0545771  0.0511933  -0.00183264  0.0814721  -0.0853991  0.0425858 
1699974443.106632000  0  0  12.0639  0.20217  -0.206399  -0.0020406  nan  nan  nan  nan  nan  nan  -0.999995  -5.1e-06  1.00001  0.0433026  -0.0600992  -0.00260151  0.0004338  -0.0004556  0.0004249  0  0  0  0  0  0  0.0417609  0.0194203  -0.0366089  -0.0119967  0.014818  -0.000353719  -0.0536815  0.0505015  -0.00163485  0.0895292  -0.0518171  0.0418559 
1699974443.112054000  0  0  12.1129  0.230821  -0.219858  -0.00055277  nan  nan  nan  nan  nan  nan  -0.999992  -7.8e-06  1.00001  0.0427805  -0.0604212  -0.00258365  0.0005669  -0.000625  0.0005504  0  0  0  0  0  0  0.0417497  0.019353  -0.0366137  -0.0112113  0.0144994  -0.0044292  -0.0533692  0.0507904  -0.00162393  0.0293538  -0.0275568  0.0231489 
1699974443.116738000  0  0  12.1355  0.279817  -0.273679  0.00228256  nan  nan  nan  nan  nan  nan  -0.999989  -1.14e-05  1.00001  0.0440066  -0.0600125  -0.00263966  0.0007105  -0.0008319  0.0006841  0  0  0  0  0  0  0.0416969  0.0194307  -0.0366351  -0.0114784  0.0160952  -0.00637756  -0.05543  0.0514004  -0.00186836  -0.0496793  0.0744742  -0.00984846 
1699974443.122393000  0  0  12.1521  0.284407  -0.295289  0.00430522  nan  nan  nan  nan  nan  nan  -0.999985  -1.62e-05  1.00001  0.0437333  -0.0599958  -0.00262231  0.000861  -0.00108  0.0008222  0  0  0  0  0  0  0.0416977  0.0193476  -0.0366391  -0.0113891  0.0159955  -0.00781235  -0.0555274  0.0521707  -0.00219487  -0.0579618  0.110607  -0.0318665 
1699974443.126694000  0  0  12.1273  0.306037  -0.28936  0.00524682  nan  nan  nan  nan  nan  nan  -0.999981  -2.23e-05  1.00002  0.0446358  -0.0601857  -0.0026849  0.0010145  -0.0013731  0.000961  0  0  0  0  0  0  0.0416523  0.019419  -0.0366506  -0.0111854  0.0169356  -0.00577991  -0.057018  0.0526269  -0.00241364  -0.0875084  0.094553  -0.0414488 
1699974443.131690000  0  0  12.1021  0.301403  -0.295962  0.00469836  nan  nan  nan  nan  nan  nan  -0.999975  -3e-05  1.00002  0.0449961  -0.0600758  -0.00270157  0.0011672  -0.001715  0.0010968  0  0  0  0  0  0  0.0416439  0.0193822  -0.0366352  -0.0114775  0.0173811  -0.00376589  -0.0576757  0.0530561  -0.00253487  -0.0721889  0.103808  -0.0333807 
1699974443.136690000  0  0  12.0583  0.269598  -0.252036  0.00274341  nan  nan  nan  nan  nan  nan  -0.999969  -3.96e-05  1.00003  0.0453885  -0.0596571  -0.0027063  0.0013155  -0.0021094  0.0012257  0  0  0  0  0  0  0.0416316  0.0193579  -0.0366325  -0.0123071  0.0177423  -9.54584e-05  -0.0577652  0.0523072  -0.00244764  -0.00775663  0.0228465  -0.00981621 
1699974443.141692000  0  0  11.9968  0.261056  -0.205804  0.00075109  nan  nan  nan  nan  nan  nan  -0.999962  -5.12e-05  1.00004  0.0461043  -0.0591138  -0.00272434  0.0014556  -0.0025587  0.0013441  0  0  0  0  0  0  0.0415654  0.0194437  -0.0366036  -0.0132957  0.0181955  0.00501459  -0.0582462  0.0509574  -0.00221421  0.0137523  -0.0571997  0.0127535 
1699974443.146610000  0  0  11.9974  0.253293  -0.186157  -0.000904265  nan  nan  nan  nan  nan  nan  -0.999954  -6.52e-05  1.00004  0.0460182  -0.0591713  -0.00272239  0.0015837  -0.0030604  0.0014482  0  0  0  0  0  0  0.0415544  0.0194107  -0.0365805  -0.0131952  0.0181536  0.00497007  -0.0579292  0.0503068  -0.00192174  0.0263627  -0.0905097  0.0305207 
1699974443.151636000  0  0  12.0341  0.224922  -0.179408  -0.00163505  nan  nan  nan  nan  nan  nan  -0.999946  -8.19e-05  1.00005  0.0469721  -0.0580394  -0.0027267  0.0016961  -0.0036108  0.0015342  0  0  0  0  0  0  0.0414816  0.0195072  -0.0365954  -0.01431  0.019404  0.00198852  -0.0580607  0.048723  -0.00169793  0.0843151  -0.0894362  0.0374174 
1699974443.156554000  0  0  12.0702  0.24234  -0.175677  -0.00091151  nan  nan  nan  nan  nan  nan  -0.999938  -0.0001014  1.00006  0.0469703  -0.0578013  -0.00271672  0.001789  -0.0042061  0.0015988  0  0  0  0  0  0  0.0414595  0.019467  -0.036589  -0.0143501  0.0196781  -0.00100845  -0.0580186  0.0480137  -0.00160036  0.0490902  -0.0903712  0.0273974 
1699974443.162265000  0  0  12.0867  0.286688  -0.213563  0.00143488  nan  nan  nan  nan  nan  nan  -0.999928  -0.000124  1.00007  0.0471907  -0.0582806  -0.00275388  0.0018593  -0.0048425  0.0016434  0  0  0  0  0  0  0.0414365  0.0193999  -0.036565  -0.01354  0.0202107  -0.00248238  -0.058968  0.0487161  -0.00173486  -0.0308703  -0.0210628  -0.000587336 
1699974443.166611000  0  0  12.1339  0.301564  -0.251864  0.00298108  nan  nan  nan  nan  nan  nan  -0.999919  -0.0001499  1.00007  0.0483579  -0.0578336  -0.00280283  0.0019086  -0.0055164  0.0016716  0  0  0  0  0  0  0.0413763  0.019497  -0.0365943  -0.0136908  0.0218233  -0.00643063  -0.0604728  0.0490357  -0.00192884  -0.0467784  0.0525985  -0.0179751 
1699974443.171590000  0  0  12.1717  0.319209  -0.275427  0.00386241  nan  nan  nan  nan  nan  nan  -0.999909  -0.0001792  1.00008  0.0484477  -0.0580233  -0.00282041  0.0019405  -0.0062239  0.0016872  0  0  0  0  0  0  0.0413785  0.019414  -0.0366171  -0.0131871  0.0223363  -0.00961057  -0.061134  0.0499178  -0.00212216  -0.0759857  0.0916107  -0.0270585 
1699974443.176575000  0  0  12.1168  0.352208  -0.28206  0.00339621  nan  nan  nan  nan  nan  nan  -0.9999  -0.0002122  1.00009  0.0496836  -0.0585176  -0.00292079  0.0019589  -0.0069612  0.0016939  0  0  0  0  0  0  0.0413176  0.0195256  -0.0366141  -0.0127202  0.0234627  -0.00513649  -0.063302  0.0509145  -0.00212582  -0.122038  0.0957071  -0.0211944 
1699974443.181598000  0  0  12.1335  0.327058  -0.302859  0.00280941  nan  nan  nan  nan  nan  nan  -0.99989  -0.0002489  1.0001  0.050579  -0.0581048  -0.00295753  0.0019674  -0.0077248  0.0016954  0  0  0  0  0  0  0.041305  0.0195147  -0.0366331  -0.0131308  0.0247928  -0.00655071  -0.0641768  0.0514005  -0.00213483  -0.0636901  0.132834  -0.0137693 
1699974443.186618000  0  0  12.1079  0.294386  -0.280742  0.00236889  nan  nan  nan  nan  nan  nan  -0.99988  -0.0002895  1.00011  0.0513032  -0.0578965  -0.00299522  0.0019699  -0.0085107  0.0016955  0  0  0  0  0  0  0.0412374  0.0196331  -0.0366456  -0.0134237  0.0253606  -0.00437236  -0.0643518  0.0513664  -0.00213162  0.00326444  0.0889135  -0.00829497 
1699974443.191628000  0  0  12.0093  0.28447  -0.237018  0.000829195  nan  nan  nan  nan  nan  nan  -0.99987  -0.000334  1.00012  0.0518298  -0.058506  -0.00306483  0.0019701  -0.0093153  0.0016955  0  0  0  0  0  0  0.0412402  0.0196331  -0.0365965  -0.013247  0.0254963  0.00378898  -0.064625  0.0513487  -0.00190898  0.0256102  0.00162746  0.00872486 
1699974443.196574000  0  0  12.0437  0.249345  -0.230248  0.000223518  nan  nan  nan  nan  nan  nan  -0.99986  -0.0003826  1.00013  0.0516386  -0.0583837  -0.00305631  0.0019701  -0.0101348  0.0016955  0  0  0  0  0  0  0.0412671  0.0195639  -0.0366047  -0.0132532  0.0255869  0.00100833  -0.0635681  0.0510317  -0.00180521  0.0861363  -0.00899614  0.0152581 
1699974443.201616000  0  0  12.1309  0.217869  -0.211884  0.000590577  nan  nan  nan  nan  nan  nan  -0.99985  -0.0004354  1.00013  0.0520162  -0.0576411  -0.00305041  0.0019701  -0.0109655  0.0016955  0  0  0  0  0  0  0.0411997  0.0196911  -0.0366608  -0.0135456  0.0263103  -0.00605753  -0.0627858  0.0499415  -0.00179804  0.141892  -0.0356946  0.0105982 
1699974443.206617000  0  0  12.0892  0.237971  -0.207233  0.00103054  nan  nan  nan  nan  nan  nan  -0.999841  -0.0004923  1.00014  0.0527018  -0.0580455  -0.00312371  0.0019701  -0.0118035  0.0016955  0  0  0  0  0  0  0.0411891  0.0197056  -0.0366491  -0.0132393  0.0269545  -0.00257763  -0.0631827  0.0499854  -0.00174343  0.105339  -0.0454011  0.00455256 
1699974443.212117000  0  0  12.1358  0.25713  -0.24004  0.0024212  nan  nan  nan  nan  nan  nan  -0.999831  -0.0005534  1.00015  0.053048  -0.0582368  -0.00316849  0.0019701  -0.0126452  0.0016955  0  0  0  0  0  0  0.0411783  0.0197135  -0.0366859  -0.0126488  0.0276762  -0.00640011  -0.0634371  0.0505879  -0.00186163  0.0693607  0.0146707  -0.0116487 
1699974443.216681000  0  0  12.2092  0.277431  -0.277571  0.00422319  nan  nan  nan  nan  nan  nan  -0.999821  -0.0006188  1.00016  0.053953  -0.0579068  -0.00322032  0.0019701  -0.0134869  0.0016955  0  0  0  0  0  0  0.0411211  0.0198493  -0.0367612  -0.0124811  0.0290409  -0.0124266  -0.0643863  0.0511194  -0.00213913  0.0374921  0.0848427  -0.0313986 
1699974443.221692000  0  0  12.1286  0.321353  -0.308702  0.00479038  nan  nan  nan  nan  nan  nan  -0.999811  -0.0006883  1.00017  0.0542938  -0.0593705  -0.00333871  0.0019701  -0.0143246  0.0016955  0  0  0  0  0  0  0.0411534  0.0197797  -0.0367041  -0.0110776  0.0291704  -0.00590567  -0.0653336  0.0534282  -0.00225993  -0.0416366  0.125865  -0.0372805 
1699974443.226688000  0  0  12.117  0.339066  -0.32367  0.00503531  nan  nan  nan  nan  nan  nan  -0.999801  -0.000762  1.00018  0.0557071  -0.059348  -0.00344338  0.0019701  -0.0151548  0.0016955  0  0  0  0  0  0  0.0410962  0.0199298  -0.0367298  -0.0110362  0.0306781  -0.00497906  -0.0672037  0.0542718  -0.00240872  -0.0598591  0.14804  -0.0388542 
1699974443.231598000  0  0  12.1177  0.317475  -0.324935  0.00459039  nan  nan  nan  nan  nan  nan  -0.999791  -0.0008398  1.00018  0.0557032  -0.0595878  -0.00348129  0.0019701  -0.0159736  0.0016955  0  0  0  0  0  0  0.0411334  0.0198814  -0.0367139  -0.0107852  0.0307833  -0.00509571  -0.0670707  0.0551363  -0.00252636  -0.0179001  0.142616  -0.0321163 
1699974443.236622000  0  0  12.0733  0.293612  -0.281694  0.00291091  nan  nan  nan  nan  nan  nan  -0.999781  -0.0009217  1.00019  0.0565653  -0.0597873  -0.00357207  0.0019701  -0.0167773  0.0016955  0  0  0  0  0  0  0.0410796  0.0200321  -0.0367116  -0.0106849  0.0313257  -0.00135363  -0.0674106  0.0550995  -0.00240616  0.0329531  0.0564725  -0.0123248 
1699974443.241595000  0  0  11.9536  0.278493  -0.243808  0.000630963  nan  nan  nan  nan  nan  nan  -0.999772  -0.0010076  1.0002  0.0573577  -0.0601042  -0.00366903  0.0019701  -0.0175622  0.0016955  0  0  0  0  0  0  0.0410703  0.0201004  -0.0366343  -0.0110346  0.0314677  0.00852533  -0.0676582  0.0547734  -0.00208253  0.065469  -0.0162984  0.0129383 
1699974443.246619000  0  0  12.0299  0.229017  -0.228372  -0.000761804  nan  nan  nan  nan  nan  nan  -0.999762  -0.0010973  1.00021  0.0571031  -0.0593962  -0.00364829  0.0019701  -0.0183245  0.0016955  0  0  0  0  0  0  0.041083  0.0201088  -0.0366568  -0.0115123  0.0315864  0.00232099  -0.0660255  0.0537021  -0.00184971  0.149401  -0.0373156  0.0280196 
1699974443.251626000  0  0  12.045  0.218141  -0.199416  -0.000408499  nan  nan  nan  nan  nan  nan  -0.999752  -0.0011908  1.00022  0.0576674  -0.0590381  -0.00370016  0.0019701  -0.0190604  0.0016955  0  0  0  0  0  0  0.0410256  0.0202652  -0.0366622  -0.0117668  0.0320822  0.00117302  -0.065604  0.0526077  -0.00171581  0.167274  -0.085158  0.0222644 
1699974443.256619000  0  0  11.9799  0.237877  -0.198117  0.000547752  nan  nan  nan  nan  nan  nan  -0.999742  -0.0012879  1.00023  0.0579571  -0.0597947  -0.00380413  0.0019701  -0.0197662  0.0016955  0  0  0  0  0  0  0.0410411  0.0202657  -0.0365871  -0.0112152  0.0320384  0.00650454  -0.0654835  0.0527865  -0.00163862  0.126694  -0.089402  0.00953929 
1699974443.262119000  0  0  12.1014  0.245164  -0.243714  0.002027  nan  nan  nan  nan  nan  nan  -0.999732  -0.0013884  1.00024  0.0578679  -0.0593537  -0.00382048  0.0019701  -0.0204382  0.0016955  0  0  0  0  0  0  0.0410389  0.0202621  -0.0366133  -0.0109934  0.0327062  -0.00356306  -0.0648771  0.0529158  -0.00176689  0.106541  0.000602421  -0.00766863 
1699974443.266619000  0  0  12.1366  0.271397  -0.268286  0.00387968  nan  nan  nan  nan  nan  nan  -0.999722  -0.0014922  1.00024  0.0584198  -0.0594758  -0.00391216  0.0019701  -0.0210726  0.0016955  0  0  0  0  0  0  0.0409936  0.0204178  -0.0366352  -0.0104814  0.03333  -0.00648863  -0.065506  0.0535671  -0.00200059  0.0598621  0.0437559  -0.0284901 
1699974443.271617000  0  0  12.082  0.302977  -0.293849  0.00440473  nan  nan  nan  nan  nan  nan  -0.999712  -0.001599  1.00025  0.0586489  -0.0602812  -0.00402943  0.0019701  -0.0216656  0.0016955  0  0  0  0  0  0  0.0410042  0.0204065  -0.0365691  -0.00976747  0.0333044  -0.00212899  -0.0660603  0.0549735  -0.00209857  0.00180029  0.0819409  -0.0340735 
1699974443.276574000  0  0  12.099  0.313031  -0.330609  0.00488998  nan  nan  nan  nan  nan  nan  -0.999703  -0.0017087  1.00026  0.0599364  -0.0601783  -0.0041622  0.0019701  -0.0222136  0.0016955  0  0  0  0  0  0  0.0409564  0.0205791  -0.0365918  -0.00966095  0.0347681  -0.00358733  -0.0674478  0.0560556  -0.00226017  -0.00554195  0.145508  -0.038523 
1699974443.281612000  0  0  12.0488  0.303051  -0.31339  0.00388593  nan  nan  nan  nan  nan  nan  -0.999693  -0.0018211  1.00027  0.0599094  -0.0605328  -0.004248  0.0019701  -0.0227126  0.0016955  0  0  0  0  0  0  0.0409676  0.0206127  -0.0365614  -0.00954042  0.0343155  0.000538472  -0.0672271  0.0566808  -0.00221943  0.0123879  0.105316  -0.0263798 
1699974443.287104000  0  0  11.9492  0.29134  -0.281746  0.0017215  nan  nan  nan  nan  nan  nan  -0.999683  -0.0019358  1.00028  0.059907  -0.0610815  -0.0043521  0.0019701  -0.0231591  0.0016955  0  0  0  0  0  0  0.0409791  0.0206536  -0.0364842  -0.00950345  0.033547  0.0087207  -0.0668786  0.0569728  -0.00194435  0.0326041  0.0393429  -0.0020753 
1699974443.291616000  0  0  11.9458  0.253591  -0.251108  0.000383346  nan  nan  nan  nan  nan  nan  -0.999673  -0.0020526  1.00029  0.0607665  -0.0606452  -0.00445486  0.0019701  -0.0235507  0.0016955  0  0  0  0  0  0  0.0409318  0.0208196  -0.0364623  -0.00999603  0.0342886  0.00903739  -0.0667546  0.0561089  -0.00170451  0.10696  -0.0139849  0.0122533 
1699974443.296618000  0  0  11.9714  0.226902  -0.221242  -0.000658527  nan  nan  nan  nan  nan  nan  -0.999663  -0.0021712  1.0003  0.0601864  -0.0601202  -0.00447  0.0019701  -0.0238899  0.0016955  0  0  0  0  0  0  0.0409297  0.0208617  -0.0364427  -0.0105297  0.0335826  0.00696692  -0.065147  0.0549205  -0.00144614  0.145548  -0.0627852  0.022693 
1699974443.301611000  0  0  11.941  0.224049  -0.179649  0.000232937  nan  nan  nan  nan  nan  nan  -0.999653  -0.0022914  1.0003  0.0605218  -0.0603283  -0.00459041  0.0019701  -0.0241806  0.0016955  0  0  0  0  0  0  0.0408818  0.0210264  -0.0363819  -0.0103482  0.0334415  0.00949423  -0.0647172  0.0539181  -0.00134292  0.147301  -0.136748  0.0105174 
1699974443.306622000  0  0  11.9736  0.216111  -0.186399  0.00203919  nan  nan  nan  nan  nan  nan  -0.999643  -0.0024129  1.00031  0.060377  -0.0599575  -0.00465257  0.0019701  -0.0244265  0.0016955  0  0  0  0  0  0  0.0408738  0.0210526  -0.0363672  -0.0106081  0.0333976  0.00682671  -0.0637287  0.0530225  -0.00144537  0.154083  -0.115009  -0.0110362 
1699974443.312043000  0  0  12.0606  0.227115  -0.215449  0.00354494  nan  nan  nan  nan  nan  nan  -0.999634  -0.0025356  1.00032  0.0596455  -0.0594367  -0.00467653  0.0019701  -0.0246313  0.0016955  0  0  0  0  0  0  0.0408643  0.0210591  -0.0364016  -0.0107094  0.0329769  -0.000321765  -0.0625144  0.0525592  -0.0016424  0.120902  -0.0526474  -0.0278878 
1699974443.316572000  0  0  12.0689  0.26537  -0.233425  0.00490091  nan  nan  nan  nan  nan  nan  -0.999624  -0.0026592  1.00033  0.0601369  -0.0598528  -0.00483574  0.0019701  -0.0247989  0.0016955  0  0  0  0  0  0  0.0408231  0.0212203  -0.0363973  -0.00998466  0.0333245  -0.00104867  -0.0633141  0.0531196  -0.00182156  0.0517506  -0.0218496  -0.0430458 
1699974443.321616000  0  0  12.0645  0.28831  -0.281564  0.00481846  nan  nan  nan  nan  nan  nan  -0.999614  -0.0027835  1.00034  0.0597546  -0.0603054  -0.00495062  0.0019701  -0.0249328  0.0016955  0  0  0  0  0  0  0.040836  0.0211973  -0.0364162  -0.0094224  0.032826  -0.000704254  -0.0632326  0.0543088  -0.00188545  0.00512031  0.0634863  -0.0413762 
1699974443.326624000  0  0  12.119  0.29439  -0.316965  0.00322226  nan  nan  nan  nan  nan  nan  -0.999604  -0.0029085  1.00035  0.0602669  -0.0597798  -0.00506685  0.0019701  -0.025037  0.0016955  0  0  0  0  0  0  0.0407862  0.0213644  -0.0364543  -0.00963644  0.0335061  -0.00523183  -0.063794  0.0549436  -0.00177602  -0.00187398  0.12845  -0.022518 
1699974443.331621000  0  0  12.0395  0.301755  -0.293631  0.00173923  nan  nan  nan  nan  nan  nan  -0.999594  -0.0030339  1.00035  0.0598069  -0.0608494  -0.0052261  0.0019701  -0.0251151  0.0016955  0  0  0  0  0  0  0.0407965  0.0213793  -0.0364173  -0.00874381  0.0323091  0.00130069  -0.0635865  0.0560436  -0.00151613  -0.0185153  0.0716607  -0.00657915 
1699974443.336583000  0  0  11.9889  0.282942  -0.283071  0.000397082  nan  nan  nan  nan  nan  nan  -0.999584  -0.0031596  1.00036  0.0598298  -0.0604853  -0.00533482  0.0019701  -0.0251709  0.0016955  0  0  0  0  0  0  0.0407835  0.0214227  -0.03639  -0.00953738  0.0318998  0.00546154  -0.0633826  0.0558231  -0.00124824  0.0172351  0.0525694  0.00751882 
1699974443.341623000  0  0  12.0512  0.235831  -0.258904  0.000127241  nan  nan  nan  nan  nan  nan  -0.999575  -0.0032855  1.00037  0.0595524  -0.0596523  -0.00540362  0.0019701  -0.0252082  0.0016955  0  0  0  0  0  0  0.0407333  0.0215781  -0.0364216  -0.0101269  0.0315839  0.000418872  -0.0620027  0.0548347  -0.00110822  0.0987632  0.0133282  0.0094917 
1699974443.346632000  0  0  11.9827  0.213838  -0.208706  -2.62702e-05  nan  nan  nan  nan  nan  nan  -0.999565  -0.0034116  1.00038  0.0590022  -0.0599693  -0.00553079  0.0019701  -0.0252306  0.0016955  0  0  0  0  0  0  0.0407212  0.0216133  -0.036378  -0.010136  0.030298  0.00614022  -0.0606034  0.0541142  -0.000882362  0.129875  -0.0804383  0.009152 
1699974443.352153000  0  0  11.9755  0.204855  -0.198276  0.000372249  nan  nan  nan  nan  nan  nan  -0.999555  -0.0035378  1.00039  0.0582651  -0.0597764  -0.00562293  0.0019701  -0.025242  0.0016955  0  0  0  0  0  0  0.0407088  0.0216079  -0.0363623  -0.0104192  0.029264  0.00679006  -0.0591655  0.0532256  -0.00075592  0.134614  -0.0931242  0.00290608 
1699974443.356626000  0  0  12.0473  0.189204  -0.201618  0.00208863  nan  nan  nan  nan  nan  nan  -0.999545  -0.003664  1.0004  0.0582211  -0.0591123  -0.00573555  0.0019701  -0.0252461  0.0016955  0  0  0  0  0  0  0.0406609  0.021753  -0.0363905  -0.0107212  0.0293338  0.000930737  -0.0582472  0.052326  -0.000867609  0.157465  -0.0781645  -0.0174318 
1699974443.361568000  0  0  12.0583  0.204421  -0.212442  0.0042002  nan  nan  nan  nan  nan  nan  -0.999535  -0.0037903  1.00041  0.0573845  -0.059285  -0.00585607  0.0019701  -0.0252466  0.0016955  0  0  0  0  0  0  0.0406621  0.0217354  -0.0364043  -0.0104177  0.0283062  6.16619e-05  -0.0571716  0.0523226  -0.00109433  0.117136  -0.0564848  -0.0415593 
1699974443.366624000  0  0  12.0482  0.247789  -0.237279  0.00415725  nan  nan  nan  nan  nan  nan  -0.999525  -0.0039165  1.00041  0.0580191  -0.0596393  -0.00608074  0.0019701  -0.0252462  0.0016955  0  0  0  0  0  0  0.0406156  0.0218806  -0.0363805  -0.00988108  0.0287557  0.000825685  -0.0581832  0.0529053  -0.00110421  0.0397071  -0.0121702  -0.0409235 
1699974443.371611000  0  0  12.1182  0.265559  -0.281782  0.00324609  nan  nan  nan  nan  nan  nan  -0.999515  -0.0040427  1.00042  0.0572815  -0.0595666  -0.00620517  0.0019701  -0.0252424  0.0016955  0  0  0  0  0  0  0.0406078  0.0218833  -0.03643  -0.00948621  0.0281966  -0.0049684  -0.0577667  0.0537355  -0.00103438  0.000334668  0.069196  -0.0302323 
1699974443.377110000  0  0  12.0787  0.287728  -0.291621  0.00244971  nan  nan  nan  nan  nan  nan  -0.999506  -0.0041689  1.00043  0.0570182  -0.0601653  -0.00640245  0.0019701  -0.0252316  0.0016955  0  0  0  0  0  0  0.0406127  0.0218926  -0.0364295  -0.00893629  0.0275571  -0.00174261  -0.0580066  0.0549012  -0.000918988  -0.0417949  0.0781511  -0.0214315 
1699974443.381618000  0  0  12.0231  0.310285  -0.285151  0.00184213  nan  nan  nan  nan  nan  nan  -0.999496  -0.004295  1.00044  0.0574284  -0.0606219  -0.0066386  0.0019701  -0.02521  0.0016955  0  0  0  0  0  0  0.0405738  0.0220269  -0.0364025  -0.00858709  0.0274404  0.00279412  -0.0590242  0.0554953  -0.000726844  -0.0775465  0.0597445  -0.0157581 
1699974443.387097000  0  0  12.0127  0.290198  -0.289864  0.00116703  nan  nan  nan  nan  nan  nan  -0.999486  -0.004421  1.00045  0.0575552  -0.0602369  -0.00681557  0.0019701  -0.0251737  0.0016955  0  0  0  0  0  0  0.0405634  0.0220699  -0.0364098  -0.00913367  0.027438  0.00365181  -0.0591367  0.0555779  -0.000541438  -0.0363376  0.0684111  -0.00917354 
1699974443.391624000  0  0  12.0076  0.258826  -0.256383  0.000787777  nan  nan  nan  nan  nan  nan  -0.999476  -0.0045467  1.00046  0.057321  -0.0597734  -0.00697257  0.0019701  -0.0251192  0.0016955  0  0  0  0  0  0  0.0405169  0.0221988  -0.036401  -0.00967908  0.0267911  0.00410363  -0.058376  0.0547826  -0.000373528  0.0194078  0.00876673  -0.00611194 
1699974443.396611000  0  0  11.9293  0.236562  -0.197703  0.000110054  nan  nan  nan  nan  nan  nan  -0.999466  -0.0046722  1.00046  0.0569122  -0.060045  -0.00716742  0.0019701  -0.0250426  0.0016955  0  0  0  0  0  0  0.0405133  0.0222354  -0.0363385  -0.00983105  0.0256446  0.0105958  -0.0574793  0.0538487  -9.95762e-05  0.0556851  -0.100001  -0.000379917 
1699974443.401659000  0  0  11.9997  0.211398  -0.201315  -0.00014454  nan  nan  nan  nan  nan  nan  -0.999456  -0.0047971  1.00047  0.0570518  -0.0589758  -0.00732496  0.0019701  -0.0249402  0.0016955  0  0  0  0  0  0  0.0404589  0.022368  -0.036357  -0.0106581  0.0259686  0.00482422  -0.0567795  0.0525122  7.68948e-05  0.0995744  -0.0804818  0.0010378 
1699974443.406613000  0  0  12.0516  0.195357  -0.196629  0.000652885  nan  nan  nan  nan  nan  nan  -0.999446  -0.0049215  1.00048  0.0563059  -0.0585623  -0.00747399  0.0019701  -0.0248082  0.0016955  0  0  0  0  0  0  0.0404371  0.0224124  -0.0363901  -0.0108225  0.0251805  0.000620227  -0.0553145  0.0517457  0.000130866  0.118179  -0.0828029  -0.00946972 
1699974443.412173000  0  0  12.0401  0.208186  -0.193844  0.00112286  nan  nan  nan  nan  nan  nan  -0.999437  -0.0050451  1.00049  0.0548447  -0.0590529  -0.0076378  0.0019701  -0.0246429  0.0016955  0  0  0  0  0  0  0.0404245  0.0223446  -0.0364219  -0.0102177  0.0232775  0.00168736  -0.0536259  0.0516971  0.000178327  0.0769851  -0.0879248  -0.015819 
1699974443.416629000  0  0  12.1304  0.231529  -0.242245  0.00114893  nan  nan  nan  nan  nan  nan  -0.999427  -0.0051679  1.0005  0.0552297  -0.0584468  -0.00785603  0.0019701  -0.0244405  0.0016955  0  0  0  0  0  0  0.0403779  0.0224702  -0.0364772  -0.0103128  0.0240561  -0.00576409  -0.0541633  0.0518361  0.000300942  0.0352447  0.00759788  -0.017371 
1699974443.421610000  0  0  12.1487  0.261292  -0.283145  0.00120867  nan  nan  nan  nan  nan  nan  -0.999417  -0.0052895  1.00051  0.0546388  -0.0589381  -0.00808344  0.0019701  -0.0241973  0.0016955  0  0  0  0  0  0  0.040371  0.0224801  -0.0365203  -0.00949545  0.0233293  -0.00728106  -0.0541643  0.0532302  0.000405735  -0.0242711  0.0765719  -0.0191658 
1699974443.426618000  0  0  12.0753  0.299251  -0.297844  0.000950649  nan  nan  nan  nan  nan  nan  -0.999407  -0.0054098  1.00052  0.0551711  -0.0597371  -0.00840034  0.0019701  -0.0239095  0.0016955  0  0  0  0  0  0  0.0403295  0.0225968  -0.0364899  -0.0087775  0.0233192  -0.00130313  -0.05559  0.0546098  0.000606778  -0.0870744  0.0932778  -0.0179509 
1699974443.431612000  0  0  12.1123  0.303861  -0.326468  0.000809739  nan  nan  nan  nan  nan  nan  -0.999397  -0.0055285  1.00052  0.0549189  -0.0596442  -0.00862784  0.0019701  -0.0235734  0.0016955  0  0  0  0  0  0  0.0403152  0.0226565  -0.0365403  -0.00860194  0.0230599  -0.00437494  -0.0558938  0.0556189  0.000757247  -0.0935001  0.141242  -0.0176942 
1699974443.436958000  0  0  12.0682  0.281051  -0.309806  0.00121888  nan  nan  nan  nan  nan  nan  -0.999387  -0.0056454  1.00053  0.0546709  -0.0597461  -0.00887248  0.0019701  -0.0231852  0.0016955  0  0  0  0  0  0  0.0403029  0.0227097  -0.0365487  -0.00871605  0.022321  -0.000699715  -0.0556331  0.0560706  0.000836332  -0.0502786  0.103762  -0.0235993 
1699974443.441609000  0  0  11.9494  0.265785  -0.266036  0.000179553  nan  nan  nan  nan  nan  nan  -0.999378  -0.0057603  1.00054  0.0547982  -0.0603514  -0.00917344  0.0019701  -0.0227412  0.0016955  0  0  0  0  0  0  0.0402637  0.0228159  -0.0364766  -0.00859871  0.0215062  0.00909213  -0.0555893  0.0561059  0.00113674  -0.0201485  0.0158989  -0.0136119 
1699974443.446582000  0  0  11.9698  0.236911  -0.242682  -0.00031197  nan  nan  nan  nan  nan  nan  -0.999368  -0.0058727  1.00055  0.0540875  -0.0598094  -0.00936755  0.0019701  -0.0222377  0.0016955  0  0  0  0  0  0  0.0402507  0.0228576  -0.0364896  -0.00915325  0.0205732  0.00745924  -0.0544272  0.0552062  0.00134878  0.0269083  -0.0225335  -0.00958818 
1699974443.452172000  0  0  11.9681  0.195381  -0.202739  -3.70207e-05  nan  nan  nan  nan  nan  nan  -0.999358  -0.0059825  1.00056  0.0533453  -0.0589503  -0.00954987  0.0019701  -0.0216708  0.0016955  0  0  0  0  0  0  0.0402244  0.0228842  -0.0364736  -0.0102564  0.0194986  0.00766359  -0.0527136  0.0534783  0.00146385  0.0942024  -0.0865231  -0.0141757 
1699974443.456610000  0  0  11.9554  0.195381  -0.184017  -0.000153697  nan  nan  nan  nan  nan  nan  -0.999348  -0.0060893  1.00057  0.0529052  -0.0589901  -0.00980498  0.0019701  -0.0210368  0.0016955  0  0  0  0  0  0  0.040182  0.0229789  -0.036441  -0.0101853  0.018602  0.00870927  -0.0519182  0.0527759  0.00167272  0.0868858  -0.117504  -0.014806 
1699974443.461623000  0  0  12.0012  0.213948  -0.194714  -0.00120277  nan  nan  nan  nan  nan  nan  -0.999338  -0.0061928  1.00057  0.0528563  -0.0588775  -0.0100812  0.0019701  -0.0203326  0.0016955  0  0  0  0  0  0  0.040136  0.0230763  -0.036428  -0.00991293  0.0185652  0.00488049  -0.0518825  0.0523383  0.00201384  0.0494221  -0.0920838  -0.00510378 
1699974443.466761000  0  0  12.0911  0.23054  -0.242468  -0.0017954  nan  nan  nan  nan  nan  nan  -0.999328  -0.0062925  1.00058  0.0519775  -0.058259  -0.0102887  0.0019701  -0.0195595  0.0016955  0  0  0  0  0  0  0.0401144  0.0230906  -0.0364848  -0.0100987  0.0178637  -0.00253548  -0.0512013  0.0524376  0.00228599  0.009971  0.00250998  -0.000417374 
1699974443.471613000  0  0  12.0953  0.256723  -0.24815  -0.00185293  nan  nan  nan  nan  nan  nan  -0.999318  -0.0063883  1.00059  0.0508216  -0.0588307  -0.0105479  0.0019701  -0.0187213  0.0016955  0  0  0  0  0  0  0.0401214  0.0230734  -0.0365141  -0.00931172  0.0163425  -0.00286089  -0.0506493  0.0531312  0.00254062  -0.047473  0.00749253  -0.00224459 
1699974443.476623000  0  0  12.0778  0.292478  -0.276075  -0.00136641  nan  nan  nan  nan  nan  nan  -0.999309  -0.0064796  1.0006  0.0511137  -0.0593578  -0.010896  0.0019701  -0.0178216  0.0016955  0  0  0  0  0  0  0.0400822  0.0231599  -0.0365059  -0.00859594  0.0164184  -0.00150364  -0.0519255  0.0542458  0.00276731  -0.10724  0.0530884  -0.010593 
1699974443.481615000  0  0  12.1383  0.299543  -0.326833  -0.000714875  nan  nan  nan  nan  nan  nan  -0.999299  -0.0065664  1.00061  0.050415  -0.0589013  -0.0111416  0.0019701  -0.0168643  0.0016955  0  0  0  0  0  0  0.0400755  0.0231541  -0.0365764  -0.00878046  0.0158178  -0.00651219  -0.0519455  0.055241  0.0028781  -0.121188  0.145449  -0.0198451 
1699974443.486628000  0  0  12.03  0.286733  -0.296785  0.000804194  nan  nan  nan  nan  nan  nan  -0.999289  -0.0066482  1.00062  0.0499391  -0.0595561  -0.0114626  0.0019701  -0.0158531  0.0016955  0  0  0  0  0  0  0.0400338  0.0232228  -0.0365197  -0.00851081  0.0143942  0.00238132  -0.0517733  0.0558722  0.00286802  -0.0971518  0.0795452  -0.0387326 
1699974443.491569000  0  0  11.955  0.279174  -0.275573  0.000508694  nan  nan  nan  nan  nan  nan  -0.999279  -0.0067248  1.00063  0.0491563  -0.0601025  -0.0117654  0.0019701  -0.0147918  0.0016955  0  0  0  0  0  0  0.0400408  0.0232078  -0.0364854  -0.00829159  0.0129418  0.00855318  -0.0513329  0.0562612  0.00302508  -0.0860852  0.0335418  -0.0366095 
1699974443.496598000  0  0  12.0077  0.237929  -0.267609  -0.00163284  nan  nan  nan  nan  nan  nan  -0.999269  -0.006796  1.00063  0.0477461  -0.059495  -0.0119804  0.0019701  -0.0136841  0.0016955  0  0  0  0  0  0  0.0400638  0.0231488  -0.0365218  -0.00881001  0.0114574  0.00425132  -0.0495534  0.0557757  0.00337943  -0.0199666  0.0220817  -0.0133838 
1699974443.501612000  0  0  11.9357  0.194166  -0.197201  -0.00284385  nan  nan  nan  nan  nan  nan  -0.999259  -0.0068616  1.00064  0.0467318  -0.0594636  -0.0122537  0.0019701  -0.0125337  0.0016955  0  0  0  0  0  0  0.040018  0.0231955  -0.0364569  -0.00923998  0.00959751  0.010234  -0.0477218  0.0543192  0.00377325  0.0507094  -0.105335  -0.00218444 
1699974443.506618000  0  0  11.9234  0.198209  -0.183684  -0.00405114  nan  nan  nan  nan  nan  nan  -0.999249  -0.0069213  1.00065  0.0453506  -0.0593939  -0.0125097  0.0019701  -0.0113444  0.0016955  0  0  0  0  0  0  0.0400308  0.0231285  -0.0364379  -0.00945372  0.00782523  0.0112592  -0.0463244  0.0535088  0.00421746  0.0297673  -0.124913  0.00846462 
1699974443.511571000  0  0  12.0383  0.184615  -0.188997  -0.00376259  nan  nan  nan  nan  nan  nan  -0.99924  -0.006975  1.00066  0.0446158  -0.0587891  -0.0127866  0.0019701  -0.01012  0.0016955  0  0  0  0  0  0  0.0399885  0.023171  -0.0364837  -0.00940383  0.00729926  0.00181544  -0.0452073  0.05255  0.0044918  0.0466769  -0.105467  0.00211447 
1699974443.516616000  0  0  12.0425  0.204312  -0.205389  -0.00315365  nan  nan  nan  nan  nan  nan  -0.99923  -0.0070225  1.00067  0.0432762  -0.0588867  -0.013066  0.0019701  -0.0088642  0.0016955  0  0  0  0  0  0  0.039998  0.0230877  -0.0364971  -0.00927293  0.00568329  0.00148738  -0.0441963  0.0525535  0.00470943  -0.00201816  -0.0727141  -0.00767373 
1699974443.521612000  0  0  12.0425  0.254021  -0.228477  -0.00146576  nan  nan  nan  nan  nan  nan  -0.99922  -0.0070636  1.00068  0.0420936  -0.059561  -0.0133847  0.0019701  -0.0075807  0.0016955  0  0  0  0  0  0  0.0400124  0.0229966  -0.0365081  -0.008398  0.00426632  0.00145194  -0.0442144  0.0533514  0.00477187  -0.10127  -0.0338776  -0.0293968 
1699974443.526616000  0  0  12.1284  0.275582  -0.267927  -0.000347385  nan  nan  nan  nan  nan  nan  -0.99921  -0.0070982  1.00069  0.0416447  -0.0590871  -0.0135927  0.0019701  -0.0062733  0.0016955  0  0  0  0  0  0  0.0399706  0.0230211  -0.0365614  -0.00836179  0.00399466  -0.00567347  -0.044756  0.0536301  0.0047027  -0.139409  0.0424566  -0.0426847 
1699974443.531618000  0  0  12.1188  0.283933  -0.29188  0.000683756  nan  nan  nan  nan  nan  nan  -0.9992  -0.0071263  1.00069  0.0407414  -0.0596519  -0.0135622  0.0019701  -0.0049458  0.0016954  0  0  0  0  0  0  0.0399929  0.0229249  -0.0365884  -0.00772385  0.00294286  -0.00489627  -0.0447561  0.0548988  0.00436842  -0.156109  0.0786903  -0.0522311 
1699974443.536990000  0  0  12.0476  0.298498  -0.294877  0.000237706  nan  nan  nan  nan  nan  nan  -0.99919  -0.0071477  1.0007  0.0391139  -0.0609353  -0.0135152  0.0019701  -0.0036019  0.0016932  0  0  0  0  0  0  0.0400672  0.0227844  -0.0365763  -0.00666958  0.000740013  0.000956783  -0.0443508  0.0565214  0.00416979  -0.18897  0.0697573  -0.0446693 
1699974443.541610000  0  0  12.0402  0.271832  -0.282659  -0.000814377  nan  nan  nan  nan  nan  nan  -0.999181  -0.0071623  1.00071  0.0389779  -0.0602596  -0.0134806  0.0019701  -0.0022454  0.0016853  0  0  0  0  0  0  0.0400284  0.0227925  -0.036575  -0.00754344  0.000522135  0.00154813  -0.044484  0.0559422  0.00410998  -0.134412  0.050649  -0.0309201 
1699974443.546617000  0  0  12.0252  0.239909  -0.249037  -0.00196583  nan  nan  nan  nan  nan  nan  -0.999171  -0.0071701  1.00072  0.0378634  -0.0596817  -0.0133915  0.0019701  -0.0008799  0.001668  0  0  0  0  0  0  0.0399846  0.0227855  -0.036565  -0.00834919  -0.00100558  0.00280687  -0.0433691  0.0549377  0.00409357  -0.0808225  -0.00735336  -0.0163629 
1699974443.551566000  0  0  11.9629  0.226623  -0.218243  -0.00270118  nan  nan  nan  nan  nan  nan  -0.999161  -0.0071711  1.00073  0.0360902  -0.0606419  -0.0133202  0.0019701  0.0004907  0.0016374  0  0  0  0  0  0  0.0400452  0.022635  -0.0365646  -0.00765902  -0.00330307  0.00804235  -0.0418601  0.0550999  0.00411711  -0.0681331  -0.0704336  -0.00740639 
1699974443.556616000  0  0  12.0369  0.188809  -0.201717  -0.00320683  nan  nan  nan  nan  nan  nan  -0.999151  -0.0071652  1.00074  0.0347194  -0.0600531  -0.0132166  0.0019701  0.0018626  0.0015898  0  0  0  0  0  0  0.0400869  0.0225054  -0.0366136  -0.00807274  -0.00454838  0.0020369  -0.0400769  0.0538613  0.00410439  -0.00891072  -0.0920901  -0.000958629 
1699974443.562065000  0  0  12.115  0.175043  -0.193732  -0.00159671  nan  nan  nan  nan  nan  nan  -0.999141  -0.0071525  1.00074  0.0330474  -0.059558  -0.0130998  0.0019701  0.0032323  0.0015215  0  0  0  0  0  0  0.0401132  0.022346  -0.036692  -0.00831177  -0.00614028  -0.00427382  -0.0383038  0.052828  0.00383857  0.00230967  -0.0985523  -0.0184268 
1699974443.566617000  0  0  12.0497  0.209792  -0.184207  -0.000879639  nan  nan  nan  nan  nan  nan  -0.999131  -0.0071329  1.00075  0.0322916  -0.0602418  -0.0130768  0.0019701  0.0045958  0.0014287  0  0  0  0  0  0  0.0400824  0.0223116  -0.0366532  -0.00777643  -0.00732232  0.00110718  -0.03836  0.0527894  0.00368686  -0.0666732  -0.117248  -0.0258731 
1699974443.571546000  0  0  12.1309  0.230251  -0.226368  -0.000401495  nan  nan  nan  nan  nan  nan  -0.999121  -0.0071065  1.00076  0.0311075  -0.0601156  -0.0130015  0.0019701  0.0059495  0.0013081  0  0  0  0  0  0  0.0401044  0.0221385  -0.0367378  -0.00746806  -0.00824289  -0.00553112  -0.0380711  0.0530376  0.00348648  -0.110248  -0.0352099  -0.0298461 
1699974443.576615000  0  0  12.2059  0.251647  -0.272127  0.000680718  nan  nan  nan  nan  nan  nan  -0.999112  -0.0070734  1.00076  0.0304771  -0.0599778  -0.0129594  0.0019701  0.0072895  0.0011611  0  0  0  0  0  0  0.0400718  0.0220965  -0.0368023  -0.00708423  -0.00874452  -0.0117334  -0.0384836  0.0537978  0.00319463  -0.149245  0.0493144  -0.0404553 
1699974443.581610000  0  0  12.0866  0.299948  -0.284735  0.000732437  nan  nan  nan  nan  nan  nan  -0.999102  -0.0070336  1.00077  0.0295429  -0.0617263  -0.0129549  0.0019701  0.0086123  0.0009912  0  0  0  0  0  0  0.0401503  0.0219076  -0.0367734  -0.00571445  -0.0100004  -0.001914  -0.0393794  0.0557608  0.00301683  -0.237605  0.0564703  -0.0393238 
1699974443.587091000  0  0  12.0902  0.308639  -0.314296  -9.93108e-05  nan  nan  nan  nan  nan  nan  -0.999092  -0.0069873  1.00077  0.0286058  -0.0620451  -0.0129062  0.0019701  0.0099139  0.0008024  0  0  0  0  0  0  0.0402148  0.0217061  -0.0368314  -0.00541296  -0.0108003  -0.00219504  -0.0400462  0.0569789  0.0029234  -0.248852  0.104387  -0.0279926 
1699974443.591618000  0  0  12.0696  0.283799  -0.298494  -0.000500854  nan  nan  nan  nan  nan  nan  -0.999082  -0.0069346  1.00078  0.0279747  -0.0619479  -0.0128643  0.0019701  0.0111906  0.0005983  0  0  0  0  0  0  0.0401869  0.0216479  -0.0368406  -0.00563527  -0.0115775  -0.00048323  -0.0399909  0.0570179  0.00284651  -0.199682  0.0724225  -0.0222044 
1699974443.596600000  0  0  11.9922  0.263952  -0.26828  -0.00170467  nan  nan  nan  nan  nan  nan  -0.999072  -0.0068755  1.00078  0.0267045  -0.0628059  -0.0128085  0.0019701  0.0124388  0.0003827  0  0  0  0  0  0  0.0402601  0.0214394  -0.0368229  -0.00521138  -0.0130541  0.00594109  -0.0393554  0.0574934  0.00289943  -0.165835  0.00762118  -0.00768597 
1699974443.601609000  0  0  11.9343  0.246713  -0.22605  -0.00313394  nan  nan  nan  nan  nan  nan  -0.999062  -0.0068102  1.00078  0.0261997  -0.0623816  -0.0127657  0.0019701  0.0136546  0.0001593  0  0  0  0  0  0  0.0402269  0.0213708  -0.0367683  -0.00612224  -0.0137312  0.0106888  -0.0393006  0.0562297  0.00306671  -0.13186  -0.0652132  0.00850713 
1699974443.606618000  0  0  11.9974  0.198493  -0.192448  -0.00250899  nan  nan  nan  nan  nan  nan  -0.999052  -0.006739  1.00078  0.0244966  -0.0621105  -0.0126528  0.0019701  0.0148343  -6.81e-05  0  0  0  0  0  0  0.0403017  0.0211035  -0.036828  -0.00625039  -0.0152239  0.00563502  -0.0373651  0.054999  0.00294679  -0.0532283  -0.121095  0.00189444 
1699974443.612042000  0  0  11.9659  0.202354  -0.18187  -0.00133009  nan  nan  nan  nan  nan  nan  -0.999043  -0.0066619  1.00078  0.0233443  -0.0624444  -0.012589  0.0019701  0.0159741  -0.0002958  0  0  0  0  0  0  0.0403198  0.0209382  -0.0367924  -0.0060893  -0.0164766  0.00823608  -0.036661  0.0544638  0.00279657  -0.0674271  -0.137328  -0.0113397 
1699974443.616622000  0  0  11.9652  0.224706  -0.179952  -0.000122415  nan  nan  nan  nan  nan  nan  -0.999033  -0.0065793  1.00078  0.0233961  -0.0623718  -0.0125906  0.0019701  0.0170704  -0.00052  0  0  0  0  0  0  0.0402929  0.0208613  -0.0367641  -0.00613059  -0.0162378  0.00823835  -0.0375104  0.053761  0.0026159  -0.104315  -0.134696  -0.0246288 
1699974443.621614000  0  0  12.0751  0.245246  -0.228184  0.000597911  nan  nan  nan  nan  nan  nan  -0.999023  -0.0064913  1.00077  0.0227638  -0.061723  -0.0125364  0.0019701  0.0181193  -0.000737  0  0  0  0  0  0  0.0403197  0.0206721  -0.0368216  -0.00630519  -0.016375  -0.000857553  -0.03792  0.0535624  0.00238295  -0.141628  -0.036406  -0.0313034 
1699974443.626629000  0  0  12.0876  0.282469  -0.25612  0.000261677  nan  nan  nan  nan  nan  nan  -0.999013  -0.0063982  1.00077  0.0225608  -0.0623437  -0.0125379  0.0019701  0.019117  -0.000943  0  0  0  0  0  0  0.0402991  0.0205889  -0.0368232  -0.00533412  -0.0164401  -0.00196393  -0.0391851  0.0545971  0.00231599  -0.204435  0.00994593  -0.0264309 
1699974443.631570000  0  0  12.0555  0.31568  -0.274995  -0.000271573  nan  nan  nan  nan  nan  nan  -0.999003  -0.0063002  1.00077  0.0221239  -0.0630377  -0.0125259  0.0019701  0.02006  -0.0011342  0  0  0  0  0  0  0.0403487  0.0203563  -0.0368727  -0.00473546  -0.0165948  0.000732968  -0.0405032  0.055654  0.00227032  -0.258731  0.0379732  -0.0193085 
1699974443.636995000  0  0  12.1041  0.329048  -0.307193  -0.000640859  nan  nan  nan  nan  nan  nan  -0.998993  -0.0061977  1.00076  0.0219873  -0.0631187  -0.0125191  0.0019701  0.0209443  -0.001307  0  0  0  0  0  0  0.0403838  0.0201839  -0.0369606  -0.00435448  -0.0162778  -0.00325237  -0.0420556  0.0567028  0.00222769  -0.271184  0.0927214  -0.0142661 
1699974443.641618000  0  0  12.0476  0.312988  -0.287469  0.000393237  nan  nan  nan  nan  nan  nan  -0.998984  -0.0060909  1.00075  0.0218155  -0.0633894  -0.0125142  0.0019701  0.0217663  -0.0014575  0  0  0  0  0  0  0.0403635  0.0200964  -0.0369281  -0.00434447  -0.01645  0.00136041  -0.0427206  0.0569491  0.00205811  -0.232947  0.0510066  -0.0254966 
1699974443.646602000  0  0  11.9419  0.297025  -0.262404  -0.000297862  nan  nan  nan  nan  nan  nan  -0.998974  -0.0059802  1.00074  0.0211331  -0.0644796  -0.0124939  0.0019703  0.0225221  -0.0015821  0  0  0  0  0  0  0.0404474  0.0198491  -0.0369182  -0.00383866  -0.0170702  0.010149  -0.0429223  0.0576734  0.0020002  -0.199165  -0.00578803  -0.0162787 
1699974443.651579000  0  0  11.9959  0.268607  -0.248337  -0.00117912  nan  nan  nan  nan  nan  nan  -0.998964  -0.0058658  1.00074  0.0211449  -0.0634436  -0.0124728  0.0019731  0.0232082  -0.0016769  0  0  0  0  0  0  0.0404206  0.0197635  -0.0369376  -0.00477691  -0.0167248  0.00568417  -0.0432114  0.0564204  0.00203854  -0.139669  -0.0223938  -0.0056464 
1699974443.656617000  0  0  12.0122  0.224371  -0.200821  -0.00111828  nan  nan  nan  nan  nan  nan  -0.998954  -0.0057482  1.00073  0.0205688  -0.063257  -0.0124324  0.0019823  0.0238206  -0.0017383  0  0  0  0  0  0  0.0404449  0.019615  -0.0369439  -0.00498334  -0.0171246  0.00442241  -0.0423759  0.055091  0.00200059  -0.0588833  -0.105195  -0.00602746 
1699974443.662082000  0  0  11.9788  0.224477  -0.180957  -0.00104844  nan  nan  nan  nan  nan  nan  -0.998944  -0.0056277  1.00072  0.0199524  -0.0632574  -0.0123935  0.0020015  0.0243556  -0.0017624  0  0  0  0  0  0  0.0404617  0.0194351  -0.0369238  -0.00527176  -0.017619  0.0072161  -0.0421263  0.0540886  0.00196762  -0.0613913  -0.135701  -0.00657074 
1699974443.666619000  0  0  12.0787  0.216855  -0.199446  7.43268e-05  nan  nan  nan  nan  nan  nan  -0.998934  -0.0055048  1.00071  0.0203605  -0.0624217  -0.0124023  0.0020346  0.0248096  -0.0017455  0  0  0  0  0  0  0.0404369  0.0193506  -0.0369685  -0.00562876  -0.016657  -0.00102721  -0.0425684  0.0531851  0.00178414  -0.0420803  -0.0904106  -0.0187705 
1699974443.671627000  0  0  12.1357  0.239282  -0.218148  0.00073642  nan  nan  nan  nan  nan  nan  -0.998924  -0.0053798  1.0007  0.0201324  -0.0625395  -0.0123904  0.0020853  0.0251787  -0.0016839  0  0  0  0  0  0  0.0404535  0.019191  -0.0370086  -0.00511078  -0.0164865  -0.00572087  -0.0430438  0.0532861  0.00163096  -0.082561  -0.0539361  -0.0255149 
1699974443.676621000  0  0  12.1099  0.282726  -0.243451  0.000675568  nan  nan  nan  nan  nan  nan  -0.998913  -0.0052531  1.00069  0.021093  -0.0626676  -0.0124532  0.0021573  0.0254592  -0.0015738  0  0  0  0  0  0  0.0404298  0.019116  -0.0369974  -0.00503975  -0.0150843  -0.00368535  -0.0452467  0.0537081  0.0015825  -0.149182  -0.00721217  -0.0242696 
1699974443.681602000  0  0  12.1872  0.310431  -0.291802  0.000830766  nan  nan  nan  nan  nan  nan  -0.998902  -0.0051253  1.00069  0.0212774  -0.0629021  -0.0124697  0.0022544  0.0256473  -0.0014115  0  0  0  0  0  0  0.0404535  0.018961  -0.0370781  -0.00421846  -0.0143164  -0.0100815  -0.0467133  0.0549417  0.00148668  -0.191099  0.0781396  -0.0252513 
1699974443.687090000  0  0  12.1832  0.317406  -0.315362  0.00154463  nan  nan  nan  nan  nan  nan  -0.99889  -0.0049968  1.00068  0.0219902  -0.0629941  -0.0125166  0.0023803  0.0257393  -0.0011932  0  0  0  0  0  0  0.0404776  0.0188187  -0.0371142  -0.00415193  -0.0130437  -0.00978858  -0.0484869  0.0559737  0.00129309  -0.188733  0.115766  -0.0322389 
1699974443.691616000  0  0  12.113  0.332829  -0.305097  0.00174901  nan  nan  nan  nan  nan  nan  -0.998878  -0.0048681  1.00067  0.0227199  -0.0634596  -0.0125731  0.0025388  0.0257315  -0.0009152  0  0  0  0  0  0  0.0404605  0.0187471  -0.0370926  -0.00395822  -0.0120749  -0.00406125  -0.0502482  0.0566478  0.00118762  -0.203375  0.0890351  -0.0337388 
1699974443.696620000  0  0  12.0941  0.319169  -0.290179  0.00101247  nan  nan  nan  nan  nan  nan  -0.998865  -0.0047397  1.00067  0.0238446  -0.0627223  -0.0126269  0.0027337  0.0256201  -0.0005737  0  0  0  0  0  0  0.0404322  0.0186913  -0.0371065  -0.00499744  -0.0104723  -0.00253361  -0.0518967  0.0560493  0.00116164  -0.160887  0.0647038  -0.0242723 
1699974443.701600000  0  0  12.1102  0.272025  -0.259742  9.24917e-05  nan  nan  nan  nan  nan  nan  -0.998851  -0.0046121  1.00067  0.0235694  -0.0623407  -0.0126007  0.0029687  0.0254013  -0.0001649  0  0  0  0  0  0  0.0404859  0.0185064  -0.037147  -0.00552788  -0.0103845  -0.0037575  -0.0513762  0.0553709  0.00114768  -0.0713891  0.0100716  -0.0126329 
1699974443.706620000  0  0  12.0371  0.255495  -0.213659  -0.000611474  nan  nan  nan  nan  nan  nan  -0.998835  -0.0044858  1.00067  0.0235242  -0.0630754  -0.0126151  0.0032475  0.0250714  0.0003148  0  0  0  0  0  0  0.0405466  0.0183229  -0.0371182  -0.00519163  -0.0102372  0.00234711  -0.0513203  0.0550753  0.00122008  -0.0388428  -0.0793747  -0.00455735 
1699974443.712004000  0  0  12.0514  0.239883  -0.208188  -0.00104799  nan  nan  nan  nan  nan  nan  -0.998818  -0.0043615  1.00067  0.0234569  -0.0628174  -0.0126048  0.0035738  0.0246267  0.0008692  0  0  0  0  0  0  0.040614  0.0180681  -0.0371338  -0.0055915  -0.00972125  0.00121647  -0.0511277  0.0543394  0.0012453  -0.00939133  -0.0835464  0.00064686 
1699974443.716623000  0  0  12.1729  0.228158  -0.209984  -0.000676189  nan  nan  nan  nan  nan  nan  -0.998799  -0.0042398  1.00068  0.0243126  -0.0615614  -0.0126281  0.0039516  0.0240634  0.0015022  0  0  0  0  0  0  0.0405846  0.0180174  -0.0372254  -0.00636269  -0.00812369  -0.00873271  -0.0516534  0.0529121  0.00120179  0.0188953  -0.0668223  -0.00356552 
1699974443.721604000  0  0  12.1501  0.258813  -0.208096  -8.55664e-05  nan  nan  nan  nan  nan  nan  -0.998779  -0.0041211  1.00069  0.0244958  -0.0623013  -0.0126574  0.0043844  0.0233777  0.0022173  0  0  0  0  0  0  0.0406209  0.0178338  -0.0372327  -0.00559307  -0.00754111  -0.00681445  -0.0523577  0.0532461  0.00114465  -0.0359343  -0.0736715  -0.0103769 
1699974443.726624000  0  0  12.202  0.297765  -0.254921  0.000803973  nan  nan  nan  nan  nan  nan  -0.998755  -0.0040062  1.0007  0.0266962  -0.0614678  -0.0127723  0.004876  0.0225659  0.0030185  0  0  0  0  0  0  0.0405894  0.0178126  -0.0372931  -0.00624171  -0.00435633  -0.0111711  -0.0553695  0.0531648  0.00104025  -0.0861304  0.0207255  -0.0204521 
1699974443.731623000  0  0  12.2876  0.315099  -0.280294  0.00218028  nan  nan  nan  nan  nan  nan  -0.99873  -0.0038957  1.00072  0.0269468  -0.0611462  -0.0127791  0.0054303  0.0216242  0.0039094  0  0  0  0  0  0  0.0406389  0.0175944  -0.037393  -0.00619132  -0.00327353  -0.0181957  -0.0563736  0.0535557  0.000750767  -0.11156  0.0678755  -0.0347611 
1699974443.736624000  0  0  12.198  0.362207  -0.287999  0.00456985  nan  nan  nan  nan  nan  nan  -0.998701  -0.0037902  1.00074  0.0291812  -0.061768  -0.0129338  0.0060509  0.020549  0.0048937  0  0  0  0  0  0  0.0406147  0.0175858  -0.0373951  -0.00584551  -0.000493065  -0.0108883  -0.0599296  0.0545836  0.000360888  -0.173061  0.0738285  -0.060732 
1699974443.741600000  0  0  12.1944  0.369412  -0.317413  0.00454558  nan  nan  nan  nan  nan  nan  -0.998669  -0.0036904  1.00077  0.030158  -0.0616112  -0.0129895  0.0067415  0.0193364  0.0059753  0  0  0  0  0  0  0.0406786  0.017383  -0.0374457  -0.00619444  0.0012781  -0.0106288  -0.0617938  0.055482  7.68306e-05  -0.17032  0.124391  -0.0575881 
1699974443.746625000  0  0  12.1829  0.349704  -0.294518  0.00364423  nan  nan  nan  nan  nan  nan  -0.998633  -0.0035971  1.0008  0.0311238  -0.0612437  -0.0130376  0.0075047  0.0179827  0.0071579  0  0  0  0  0  0  0.0407291  0.0172294  -0.0374773  -0.00686204  0.00289814  -0.00966428  -0.0630519  0.0552954  -6.91066e-05  -0.11933  0.0803183  -0.0448618 
1699974443.751607000  0  0  12.128  0.340264  -0.2602  0.00182868  nan  nan  nan  nan  nan  nan  -0.998594  -0.0035108  1.00084  0.0333442  -0.0605129  -0.0131493  0.0083378  0.0164841  0.0084452  0  0  0  0  0  0  0.0406905  0.0172487  -0.0374886  -0.0080933  0.00567822  -0.00512342  -0.0653503  0.0542554  2.2759e-05  -0.0793061  0.0212506  -0.0230861 
1699974443.756622000  0  0  12.0973  0.301902  -0.222776  -0.000640323  nan  nan  nan  nan  nan  nan  -0.99855  -0.0034325  1.00088  0.0343783  -0.0604701  -0.0132104  0.009237  0.0148369  0.009841  0  0  0  0  0  0  0.0407368  0.0171083  -0.0374788  -0.00844428  0.00726861  -0.00254658  -0.0658415  0.0535541  0.00026014  0.00193812  -0.0471453  0.00540264 
1699974443.762118000  0  0  12.1873  0.261975  -0.200516  -0.00167839  nan  nan  nan  nan  nan  nan  -0.998501  -0.0033627  1.00094  0.0349801  -0.05883  -0.0131895  0.0101986  0.0130374  0.011349  0  0  0  0  0  0  0.04077  0.0169696  -0.0375569  -0.0101339  0.00875567  -0.00982997  -0.0654256  0.0513793  0.000376792  0.0779661  -0.0716568  0.017212 
1699974443.766623000  0  0  12.1926  0.261673  -0.175695  -0.000957883  nan  nan  nan  nan  nan  nan  -0.998448  -0.0033023  1.001  0.0370107  -0.0580279  -0.0132794  0.0112189  0.0110818  0.012973  0  0  0  0  0  0  0.0407213  0.0170071  -0.0375996  -0.0110422  0.0114589  -0.0101723  -0.0669005  0.0498418  0.000401642  0.0921395  -0.107154  0.00795712 
1699974443.771571000  0  0  12.2257  0.277717  -0.179091  0.000656367  nan  nan  nan  nan  nan  nan  -0.998389  -0.0032522  1.00107  0.0382497  -0.0576291  -0.0133362  0.012294  0.0089663  0.0147168  0  0  0  0  0  0  0.0407367  0.0168882  -0.0376533  -0.0113788  0.013549  -0.0128294  -0.0679399  0.049041  0.000238906  0.0696118  -0.0929949  -0.0105936 
1699974443.776617000  0  0  12.3735  0.309647  -0.250516  0.00351515  nan  nan  nan  nan  nan  nan  -0.998325  -0.003213  1.00115  0.0409273  -0.0560539  -0.0134262  0.0134203  0.0066872  0.016584  0  0  0  0  0  0  0.040679  0.016972  -0.0378104  -0.0124015  0.0177033  -0.0250046  -0.070743  0.0487335  -0.000206856  0.0315418  0.0526837  -0.0418708 
1699974443.781611000  0  0  12.3903  0.338578  -0.268827  0.00541941  nan  nan  nan  nan  nan  nan  -0.998255  -0.0031856  1.00123  0.0425337  -0.055827  -0.0135067  0.0145941  0.0042408  0.0185784  0  0  0  0  0  0  0.040686  0.0168903  -0.037891  -0.0125823  0.0201849  -0.0263457  -0.0726623  0.0491741  -0.000649882  -0.0086621  0.0852524  -0.0612438 
1699974443.787085000  0  0  12.3415  0.373983  -0.282496  0.00575342  nan  nan  nan  nan  nan  nan  -0.998179  -0.0031708  1.00133  0.0448634  -0.0562332  -0.0136552  0.0158114  0.0016233  0.0207039  0  0  0  0  0  0  0.0406998  0.0168339  -0.0379439  -0.0122965  0.0232838  -0.0223114  -0.0756257  0.0502474  -0.000968096  -0.0522106  0.102715  -0.0622368 
1699974443.791632000  0  0  12.4178  0.378632  -0.316892  0.00531637  nan  nan  nan  nan  nan  nan  -0.998097  -0.0031696  1.00144  0.0477744  -0.0550511  -0.0137627  0.0170687  -0.0011691  0.022964  0  0  0  0  0  0  0.040634  0.0169499  -0.0381006  -0.0132303  0.0274594  -0.0285308  -0.0785703  0.0503455  -0.00116474  -0.0344176  0.170605  -0.0548072 
1699974443.796588000  0  0  12.3836  0.361854  -0.311207  0.00399728  nan  nan  nan  nan  nan  nan  -0.998008  -0.0031828  1.00156  0.0497142  -0.0544722  -0.0138409  0.0183621  -0.0041401  0.0253627  0  0  0  0  0  0  0.040632  0.0169358  -0.0381733  -0.0141908  0.0300029  -0.0255964  -0.0801208  0.0505512  -0.00124896  0.0134026  0.157342  -0.0374764 
1699974443.802227000  0  0  12.2854  0.341505  -0.250417  0.00269422  nan  nan  nan  nan  nan  nan  -0.997913  -0.0032113  1.00169  0.0523726  -0.0540487  -0.0139639  0.0196879  -0.0072916  0.0279036  0  0  0  0  0  0  0.0406349  0.0169465  -0.0381925  -0.0153231  0.0330886  -0.0173454  -0.0820184  0.0495663  -0.00123039  0.07156  0.0448247  -0.0213739 
1699974443.806632000  0  0  12.3723  0.311072  -0.249607  0.00161923  nan  nan  nan  nan  nan  nan  -0.997811  -0.003256  1.00184  0.0552107  -0.0524761  -0.0140309  0.0210424  -0.0106205  0.0305904  0  0  0  0  0  0  0.0405519  0.0171055  -0.0383571  -0.0167194  0.037181  -0.0242687  -0.0836452  0.0483252  -0.00119423  0.147392  0.0546224  -0.00829806 
1699974443.812036000  0  0  12.3912  0.274503  -0.225605  0.00140707  nan  nan  nan  nan  nan  nan  -0.997703  -0.0033178  1.002  0.0569465  -0.0516067  -0.0140727  0.0224217  -0.0141232  0.033427  0  0  0  0  0  0  0.0405383  0.0171396  -0.0384501  -0.0177506  0.0396262  -0.0255374  -0.0836121  0.0472945  -0.00122947  0.220224  0.0161  -0.00529377 
1699974443.816595000  0  0  12.3858  0.26858  -0.188568  0.00288539  nan  nan  nan  nan  nan  nan  -0.997587  -0.0033976  1.00217  0.0603236  -0.05028  -0.0141675  0.0238222  -0.0177958  0.0364171  0  0  0  0  0  0  0.0404422  0.0173363  -0.0385586  -0.0193319  0.0438419  -0.0248104  -0.0856023  0.045318  -0.00140911  0.250382  -0.03979  -0.0219762 
1699974443.822116000  0  0  12.5182  0.273814  -0.20555  0.00501175  nan  nan  nan  nan  nan  nan  -0.997464  -0.0034961  1.00236  0.0619184  -0.0496954  -0.0142117  0.0252401  -0.0216346  0.0395644  0  0  0  0  0  0  0.0404289  0.0173633  -0.0387065  -0.0193338  0.0468953  -0.0354843  -0.0858626  0.0449355  -0.00185744  0.242309  -0.00230701  -0.0440724 
1699974443.826614000  0  0  12.5997  0.296904  -0.251677  0.00691631  nan  nan  nan  nan  nan  nan  -0.997335  -0.0036142  1.00257  0.0653785  -0.0480657  -0.0142777  0.0266717  -0.0256359  0.0428717  0  0  0  0  0  0  0.0403241  0.0175996  -0.0389181  -0.020852  0.0518309  -0.0419226  -0.0885158  0.0444389  -0.00234472  0.220536  0.0945159  -0.0630067 
1699974443.831612000  0  0  12.6234  0.321371  -0.263982  0.00799653  nan  nan  nan  nan  nan  nan  -0.997198  -0.0037527  1.00279  0.0676046  -0.0480693  -0.0143854  0.0281131  -0.029796  0.0463367  0  0  0  0  0  0  0.0403101  0.0176358  -0.0390517  -0.02063  0.0550604  -0.0436432  -0.0900288  0.0451167  -0.00279705  0.185524  0.112891  -0.0719862 
1699974443.836984000  0  0  12.6649  0.371623  -0.309523  0.00753982  nan  nan  nan  nan  nan  nan  -0.997053  -0.0039124  1.00303  0.0704775  -0.047637  -0.0144936  0.0295607  -0.034111  0.0499558  0  0  0  0  0  0  0.0402867  0.0177511  -0.0392118  -0.0208839  0.0591994  -0.0469127  -0.0928405  0.046237  -0.00314092  0.110887  0.193665  -0.0628385 
1699974443.841608000  0  0  12.7249  0.372677  -0.342712  0.007163  nan  nan  nan  nan  nan  nan  -0.996902  -0.0040941  1.00329  0.0742857  -0.0464335  -0.0145864  0.0310107  -0.0385773  0.0537252  0  0  0  0  0  0  0.0401762  0.0180508  -0.0394627  -0.0219272  0.06445  -0.0514901  -0.095847  0.0467195  -0.00339813  0.136439  0.255605  -0.0555563 
