ts fx fy fz tx ty tz exfx exfy exfz extx exty extz xd yd zd rolld pitchd yawd vxd vyd vzd wxd wyd wzd axd ayd azd e_x e_y e_z e_vx e_vy e_vz e_rx e_ry e_rz e_wx e_wy e_wz
1699968819.192464000  0  0  11.9019  0.193042  -0.181264  0.00794752  nan  nan  nan  nan  nan  nan  -1  0  1  0.0353549  -0.0465826  -0.00164701  0  0  0  0  0  0  0  0  0  0.0327099  0.00975246  -0.0274002  -0.010972  0.0250455  -0.00594323  -0.0431416  0.0364177  -0.00889397  0.0108187  0.0274843  -0.0104044 
1699968819.196895000  0  0  11.8574  0.191063  -0.168413  0.00768534  nan  nan  nan  nan  nan  nan  -1  0  1  0.0347136  -0.0474091  -0.00164578  0  0  0  0  0  0  0  0  0  0.0327556  0.00969174  -0.0274016  -0.0102158  0.0241582  -0.00221261  -0.0424723  0.0369952  -0.00888962  0.0086197  -0.00352919  -0.00717056 
1699968819.201403000  0  0  11.8482  0.201249  -0.179963  0.00662501  nan  nan  nan  nan  nan  nan  -1  0  1  0.0352096  -0.0473032  -0.00166559  0  0  0  0  0  0  0  0  0  0.0327103  0.00980036  -0.0274064  -0.0103004  0.0245352  -0.00145259  -0.0431104  0.0371085  -0.00876904  -0.00588285  0.0185286  0.00487776 
1699968819.206420000  0  0  11.915  0.181659  -0.197571  0.00671456  nan  nan  nan  nan  nan  nan  -1  0  1  0.0350396  -0.0469853  -0.00164641  0  0  0  0  0  0  0  0  0  0.0327361  0.00977136  -0.0274872  -0.0104285  0.0246369  -0.00685975  -0.0425769  0.0372806  -0.008774  0.0283892  0.0521606  0.00380802 
1699968819.211543000  0  0  11.8779  0.192046  -0.183111  0.00714425  nan  nan  nan  nan  nan  nan  -1  0  1  0.0353694  -0.0470494  -0.00166419  0  0  0  0  0  0  0  0  0  0.0326849  0.00989315  -0.0274851  -0.0104222  0.024657  -0.00377199  -0.0429088  0.0372843  -0.00880468  0.010669  0.0232062  -0.0012563 
1699968819.216424000  0  0  11.8755  0.200072  -0.192511  0.00692371  nan  nan  nan  nan  nan  nan  -1  0  1  0.0350135  -0.0474744  -0.0016623  0  0  0  0  0  0  0  0  0  0.0327159  0.00986042  -0.0275029  -0.00994254  0.0242501  -0.00353993  -0.0427085  0.0379478  -0.00878515  -0.00722596  0.0359024  0.00130506 
1699968819.221369000  0  0  11.9213  0.188693  -0.213395  0.00638875  nan  nan  nan  nan  nan  nan  -1  0  1  0.0357314  -0.0468616  -0.00167453  0  0  0  0  0  0  0  0  0  0.0326638  0.00998474  -0.0275537  -0.0103941  0.0251054  -0.00727766  -0.0431534  0.0379901  -0.00872196  0.0196257  0.0772805  0.00736023 
1699968819.226432000  0  0  11.8985  0.187152  -0.204331  0.00559147  nan  nan  nan  nan  nan  nan  -1  0  1  0.0349707  -0.0471898  -0.00165032  0  0  0  0  0  0  0  0  0  0.032698  0.00992599  -0.0275797  -0.0101573  0.0241389  -0.00531943  -0.0423269  0.038479  -0.00859346  0.0151041  0.0546559  0.0160412 
1699968819.231408000  0  0  11.8695  0.196361  -0.19899  0.00565778  nan  nan  nan  nan  nan  nan  -1  0  1  0.0346261  -0.0477697  -0.00165411  0  0  0  0  0  0  0  0  0  0.0327375  0.0098831  -0.027593  -0.00963141  0.0236658  -0.00287601  -0.0421677  0.0391088  -0.00852841  -0.00477912  0.0381791  0.0145619 
1699968819.236407000  0  0  11.9064  0.193118  -0.212609  0.0060547  nan  nan  nan  nan  nan  nan  -1  0  1  0.0355146  -0.0471337  -0.00167402  0  0  0  0  0  0  0  0  0  0.0326859  0.0100076  -0.0276395  -0.0101593  0.0247091  -0.00587954  -0.0429253  0.0389888  -0.0085151  0.00867779  0.0665211  0.00946731 
1699968819.241407000  0  0  11.8986  0.189647  -0.200185  0.00680902  nan  nan  nan  nan  nan  nan  -1  0  1  0.0350123  -0.0473355  -0.00165738  0  0  0  0  0  0  0  0  0  0.0327061  0.00997976  -0.0276557  -0.00998039  0.0240751  -0.00518585  -0.0423489  0.0392373  -0.00857098  0.0103163  0.0393871  0.000597103 
1699968819.246833000  0  0  11.862  0.194363  -0.183476  0.00674865  nan  nan  nan  nan  nan  nan  -1  0  1  0.034474  -0.0480858  -0.00165772  0  0  0  0  0  0  0  0  0  0.0327483  0.00992689  -0.0276459  -0.00927817  0.0233384  -0.00213857  -0.0419063  0.0397161  -0.00855164  -0.00318879  0.00156389  0.00115827 
1699968819.251416000  0  0  11.8843  0.19408  -0.191268  0.00632279  nan  nan  nan  nan  nan  nan  -1  0  1  0.0353284  -0.0475743  -0.00168079  0  0  0  0  0  0  0  0  0  0.0327025  0.0100396  -0.0276782  -0.00972969  0.0243037  -0.00395025  -0.0426887  0.0394242  -0.00848041  0.00457664  0.0198328  0.00576924 
1699968819.256407000  0  0  11.8953  0.183272  -0.18959  0.00665592  nan  nan  nan  nan  nan  nan  -1  0  1  0.0348246  -0.0474786  -0.00165347  0  0  0  0  0  0  0  0  0  0.0327299  0.00999973  -0.0277013  -0.00986167  0.0237695  -0.00481341  -0.0419674  0.0394154  -0.00851042  0.019557  0.0165593  0.00190514 
1699968819.261411000  0  0  11.8621  0.199494  -0.168067  0.00678539  nan  nan  nan  nan  nan  nan  -1  0  1  0.0353746  -0.0476165  -0.00168448  0  0  0  0  0  0  0  0  0  0.0326838  0.0101179  -0.0277001  -0.00975058  0.0241027  -0.00204117  -0.0427167  0.039135  -0.00849107  -0.00599498  -0.0239078  9.3224e-05 
1699968819.266414000  0  0  11.8821  0.200734  -0.182352  0.00695898  nan  nan  nan  nan  nan  nan  -1  0  1  0.0352922  -0.0473737  -0.00167199  0  0  0  0  0  0  0  0  0  0.0327071  0.0100796  -0.0277211  -0.0100175  0.0241588  -0.00367855  -0.0427127  0.0390941  -0.00852167  -0.00851085  0.00503854  -0.00177063 
1699968819.271805000  0  0  11.9088  0.193649  -0.189257  0.0071943  nan  nan  nan  nan  nan  nan  -1  0  1  0.0347041  -0.0472454  -0.00163965  0  0  0  0  0  0  0  0  0  0.0327347  0.0100114  -0.027746  -0.0101109  0.023637  -0.0058523  -0.042071  0.0391911  -0.00858347  -0.000244768  0.0179553  -0.004094 
1699968819.276555000  0  0  11.8283  0.213243  -0.16133  0.00681686  nan  nan  nan  nan  nan  nan  -1  0  1  0.035102  -0.0477328  -0.00167557  0  0  0  0  0  0  0  0  0  0.0326921  0.0101195  -0.0277142  -0.00979563  0.0236081  0.000800346  -0.0428373  0.0391003  -0.00851643  -0.0323823  -0.0370631  -4.64536e-05 
1699968819.281501000  0  0  11.8873  0.204622  -0.181775  0.00629216  nan  nan  nan  nan  nan  nan  -1  0  1  0.0348233  -0.0473101  -0.00164754  0  0  0  0  0  0  0  0  0  0.0327228  0.0100644  -0.0277505  -0.0101111  0.0235938  -0.00405276  -0.042553  0.038955  -0.00846199  -0.0177575  0.00516455  0.00596793 
1699968819.286506000  0  0  11.8963  0.202219  -0.179663  0.0066979  nan  nan  nan  nan  nan  nan  -1  0  1  0.0352747  -0.046793  -0.00165069  0  0  0  0  0  0  0  0  0  0.0326702  0.0101816  -0.027774  -0.0106299  0.0239666  -0.00476624  -0.0429702  0.0384932  -0.00848791  -0.00911141  0.00518842  0.0011554 
1699968819.291503000  0  0  11.8263  0.211271  -0.159225  0.00689765  nan  nan  nan  nan  nan  nan  -1  0  1  0.0348532  -0.0475155  -0.00165611  0  0  0  0  0  0  0  0  0  0.0326922  0.0101371  -0.0277308  -0.0100938  0.023235  0.000995079  -0.0427956  0.038767  -0.00848791  -0.0288237  -0.0382077  -0.00134143 
1699968819.296845000  0  0  11.886  0.20209  -0.174429  0.00698508  nan  nan  nan  nan  nan  nan  -1  0  1  0.0348582  -0.0469507  -0.00163667  0  0  0  0  0  0  0  0  0  0.0327014  0.0101001  -0.0277646  -0.0105464  0.0235566  -0.00391766  -0.0427543  0.038365  -0.00851525  -0.01084  -0.00410064  -0.00216095 
1699968819.301369000  0  0  11.925  0.195149  -0.185036  0.00721849  nan  nan  nan  nan  nan  nan  -1  0  1  0.0351569  -0.04629  -0.0016275  0  0  0  0  0  0  0  0  0  0.0326515  0.0102048  -0.0278068  -0.0111076  0.0238726  -0.00709414  -0.0428961  0.0380077  -0.00856992  0.00434687  0.0204013  -0.00453199 
1699968819.306407000  0  0  11.8283  0.199182  -0.157983  0.00778146  nan  nan  nan  nan  nan  nan  -1  0  1  0.0345172  -0.0472481  -0.00163091  0  0  0  0  0  0  0  0  0  0.0326843  0.0101333  -0.0277495  -0.0104203  0.0228097  0.000877274  -0.0423859  0.0383874  -0.00865011  -0.00841285  -0.0371985  -0.0107671 
1699968819.311390000  0  0  11.8677  0.198128  -0.174347  0.00762866  nan  nan  nan  nan  nan  nan  -1  0  1  0.0354988  -0.0467104  -0.00165825  0  0  0  0  0  0  0  0  0  0.0326306  0.0102544  -0.0277841  -0.0108001  0.023988  -0.00234891  -0.0432867  0.0380463  -0.00867338  0.00198194  -0.00133243  -0.00862439 
1699968819.316442000  0  0  11.9126  0.193023  -0.189774  0.00717124  nan  nan  nan  nan  nan  nan  -1  0  1  0.0349397  -0.0463747  -0.0016204  0  0  0  0  0  0  0  0  0  0.0326302  0.0102238  -0.0278075  -0.011013  0.0234943  -0.00605538  -0.0426475  0.0380988  -0.00866816  0.00631183  0.0290394  -0.00295896 
1699968819.321435000  0  0  11.8316  0.198355  -0.167106  0.0075255  nan  nan  nan  nan  nan  nan  -1  0  1  0.0355707  -0.0466733  -0.0016603  0  0  0  0  0  0  0  0  0  0.0325782  0.0103396  -0.0277724  -0.0109199  0.0237508  0.00063536  -0.0432911  0.038041  -0.00870313  0.0015677  -0.0157648  -0.00703749 
1699968819.326425000  0  0  11.863  0.196622  -0.18001  0.00733639  nan  nan  nan  nan  nan  nan  -1  0  1  0.0350517  -0.046924  -0.00164483  0  0  0  0  0  0  0  0  0  0.0326092  0.0102647  -0.0277789  -0.010496  0.0233567  -0.00197202  -0.0427743  0.0384392  -0.00870893  0.000280304  0.00637897  -0.00461556 
1699968819.331421000  0  0  11.8972  0.190858  -0.197985  0.00674857  nan  nan  nan  nan  nan  nan  -1  0  1  0.0347034  -0.046504  -0.00161391  0  0  0  0  0  0  0  0  0  0.0326075  0.0102283  -0.0277833  -0.0108714  0.0231118  -0.00482378  -0.042301  0.0385154  -0.0086619  0.00745346  0.0416287  0.00226181 
1699968819.336370000  0  0  11.8337  0.188707  -0.181048  0.00653315  nan  nan  nan  nan  nan  nan  -1  0  1  0.0351646  -0.0464923  -0.00163497  0  0  0  0  0  0  0  0  0  0.0325537  0.0103399  -0.0277563  -0.0110943  0.0232254  0.00041444  -0.0426257  0.0383337  -0.00861421  0.0147424  0.00942552  0.00447771 
1699968819.341421000  0  0  11.8354  0.190818  -0.177472  0.00591438  nan  nan  nan  nan  nan  nan  -1  0  1  0.0346293  -0.0467689  -0.00161963  0  0  0  0  0  0  0  0  0  0.0325666  0.0102854  -0.0277235  -0.0107521  0.0226482  0.000214906  -0.0420976  0.0385078  -0.00850552  0.00566114  0.000671777  0.0111254 
1699968819.346894000  0  0  11.8942  0.179631  -0.195428  0.00612805  nan  nan  nan  nan  nan  nan  -1  0  1  0.0342821  -0.0462913  -0.00158702  0  0  0  0  0  0  0  0  0  0.032573  0.010245  -0.0277467  -0.0110944  0.0225066  -0.00464472  -0.0414697  0.0385175  -0.0084897  0.0222586  0.0364946  0.00829634 
1699968819.351370000  0  0  11.8464  0.18402  -0.171875  0.0065159  nan  nan  nan  nan  nan  nan  -1  0  1  0.0346471  -0.0462872  -0.00160379  0  0  0  0  0  0  0  0  0  0.0325242  0.0103429  -0.0277254  -0.011237  0.0225868  -0.000692011  -0.0417753  0.0382049  -0.00849595  0.016292  -0.00773523  0.00351076 
1699968819.356421000  0  0  11.8136  0.197083  -0.160581  0.00674766  nan  nan  nan  nan  nan  nan  -1  0  1  0.0355484  -0.0462436  -0.00164399  0  0  0  0  0  0  0  0  0  0.0324686  0.0104611  -0.0277087  -0.0113362  0.0233811  0.00200893  -0.0428064  0.0378333  -0.00848056  -0.000347796  -0.0269032  0.000459861 
1699968819.361405000  0  0  11.9004  0.192421  -0.188373  0.00679676  nan  nan  nan  nan  nan  nan  -1  0  1  0.0351663  -0.0457352  -0.00160844  0  0  0  0  0  0  0  0  0  0.0324767  0.010411  -0.0277361  -0.0115827  0.0233315  -0.00518226  -0.0423258  0.0378465  -0.00850357  0.00455475  0.0285592  7.62763e-05 
1699968819.366424000  0  0  11.8363  0.18442  -0.175648  0.00724368  nan  nan  nan  nan  nan  nan  -1  0  1  0.0344984  -0.0460021  -0.00158707  0  0  0  0  0  0  0  0  0  0.032486  0.0103458  -0.0276762  -0.011581  0.0223465  4.82873e-05  -0.0414845  0.0379868  -0.00855942  0.0128176  0.00181764  -0.00495179 
1699968819.371844000  0  0  11.7866  0.191376  -0.162858  0.00718192  nan  nan  nan  nan  nan  nan  -1  0  1  0.0341017  -0.0466239  -0.00158999  0  0  0  0  0  0  0  0  0  0.0325049  0.01028  -0.027614  -0.0110634  0.0217808  0.00407853  -0.0411892  0.0382257  -0.00856008  -0.0038117  -0.0259614  -0.00417319 
1699968819.376431000  0  0  11.888  0.194127  -0.19254  0.00646085  nan  nan  nan  nan  nan  nan  -1  0  1  0.0348477  -0.0455038  -0.0015858  0  0  0  0  0  0  0  0  0  0.0324484  0.0103866  -0.027676  -0.0118905  0.0229173  -0.00427867  -0.0419407  0.0377404  -0.00849108  -0.00239988  0.0378695  0.00415026 
1699968819.381421000  0  0  11.8432  0.187067  -0.171643  0.00652908  nan  nan  nan  nan  nan  nan  -1  0  1  0.0341703  -0.0458953  -0.00156831  0  0  0  0  0  0  0  0  0  0.0324474  0.0103451  -0.0276341  -0.0116025  0.0219428  -0.000612086  -0.0411417  0.0379283  -0.00847495  0.00436911  -0.00565435  0.00313595 
1699968819.386431000  0  0  11.7887  0.197824  -0.154591  0.00661252  nan  nan  nan  nan  nan  nan  -1  0  1  0.0350882  -0.046033  -0.00161531  0  0  0  0  0  0  0  0  0  0.0323912  0.0104585  -0.0276009  -0.0115716  0.022686  0.00386557  -0.0421687  0.0376375  -0.00844175  -0.00769505  -0.0370832  0.001761 
1699968819.391432000  0  0  11.8626  0.19619  -0.192316  0.00603375  nan  nan  nan  nan  nan  nan  -1  0  1  0.0348322  -0.0455932  -0.0015882  0  0  0  0  0  0  0  0  0  0.0323937  0.0104045  -0.0276119  -0.0117796  0.0227585  -0.00229612  -0.0418963  0.0378698  -0.00837491  -0.00693483  0.0362305  0.00832716 
1699968819.396787000  0  0  11.8492  0.185049  -0.187972  0.00624191  nan  nan  nan  nan  nan  nan  -1  0  1  0.0338458  -0.0459015  -0.00155362  0  0  0  0  0  0  0  0  0  0.0324076  0.0103366  -0.0275776  -0.0114762  0.0215575  -0.00123493  -0.0407592  0.0382706  -0.00837192  0.00488621  0.0238538  0.00569534 
1699968819.401425000  0  0  11.7853  0.194662  -0.159089  0.00698449  nan  nan  nan  nan  nan  nan  -1  0  1  0.034655  -0.0461136  -0.00159814  0  0  0  0  0  0  0  0  0  0.0323567  0.0104388  -0.0275329  -0.0114081  0.022149  0.00400454  -0.0416785  0.037873  -0.00841969  -0.00588127  -0.0302539  -0.00310931 
1699968819.406421000  0  0  11.8853  0.204272  -0.199178  0.00712176  nan  nan  nan  nan  nan  nan  -1  -0  1  0.0353107  -0.0453959  -0.00160307  6e-07  -6e-07  6e-07  0  0  0  0  0  0  0.0322981  0.0105549  -0.0275911  -0.01171  0.0231455  -0.00425372  -0.0425073  0.0379496  -0.0084602  -0.0174766  0.0492194  -0.00442005 
1699968819.411428000  0  0  11.8419  0.192556  -0.18775  0.00736323  nan  nan  nan  nan  nan  nan  -1  -0  1  0.0346522  -0.0457267  -0.00158461  5e-06  -5e-06  5e-06  0  0  0  0  0  0  0.0323149  0.0104722  -0.0275353  -0.0115336  0.0222911  -0.000735928  -0.0417044  0.0382852  -0.00850153  -0.00143135  0.0232761  -0.007025 
1699968819.416377000  0  0  11.7945  0.19147  -0.169783  0.00704551  nan  nan  nan  nan  nan  nan  -1  -1e-07  1  0.0340537  -0.0462565  -0.00157525  1.69e-05  -1.69e-05  1.69e-05  0  0  0  0  0  0  0.032336  0.0103793  -0.0274741  -0.0111291  0.0215288  0.00310803  -0.0411304  0.0384909  -0.00847488  -0.00453911  -0.0145508  -0.00332006 
1699968819.421798000  0  0  11.8646  0.194568  -0.195683  0.00643107  nan  nan  nan  nan  nan  nan  -1  -2e-07  1  0.0334793  -0.0463455  -0.00155154  4e-05  -4e-05  4e-05  0  0  0  0  0  0  0.0323567  0.0103112  -0.0274911  -0.0106974  0.0211886  -0.0027197  -0.0406749  0.0390718  -0.0084109  -0.0149277  0.0319062  0.00372056 
1699968819.426392000  0  0  11.8306  0.181942  -0.198424  0.00655332  nan  nan  nan  nan  nan  nan  -1  -5e-07  1  0.0340853  -0.0459118  -0.00156478  7.81e-05  -7.81e-05  7.81e-05  0  0  0  0  0  0  0.0323032  0.0104089  -0.0274738  -0.0113228  0.0216431  6.9626e-05  -0.0410053  0.0389005  -0.00840905  0.0133642  0.0389645  0.00217395 
1699968819.431442000  0  0  11.8011  0.183715  -0.182702  0.00667139  nan  nan  nan  nan  nan  nan  -0.999999  -1e-06  1  0.0334427  -0.0465177  -0.00155529  0.000135  -0.000135  0.000135  0  0  0  0  0  0  0.0323325  0.010326  -0.0274177  -0.0107453  0.020871  0.0024263  -0.0403615  0.0392831  -0.00840487  0.00389543  0.00399876  0.000656318 
1699968819.436385000  0  0  11.8594  0.196934  -0.18668  0.0065011  nan  nan  nan  nan  nan  nan  -0.999998  -1.9e-06  1  0.0340965  -0.0461393  -0.00157264  0.0002141  -0.0002144  0.0002134  0  0  0  0  0  0  0.0322799  0.0104332  -0.0274506  -0.0108229  0.0217127  -0.00238187  -0.0412303  0.0390282  -0.00836667  -0.0145492  0.0143014  0.00240291 
1699968819.441438000  0  0  11.8709  0.179372  -0.204845  0.00672121  nan  nan  nan  nan  nan  nan  -0.999997  -3.2e-06  1  0.0336073  -0.0459903  -0.00154485  0.0003149  -0.00032  0.0003113  0  0  0  0  0  0  0.0322998  0.0103545  -0.0274411  -0.0110071  0.0212862  -0.00336448  -0.0404217  0.0394062  -0.00840205  0.0131344  0.0471535  5.40058e-06 
1699968819.446866000  0  0  11.8283  0.18078  -0.178403  0.00677793  nan  nan  nan  nan  nan  nan  -0.999995  -5.1e-06  1.00001  0.0329752  -0.0465713  -0.0015347  0.0004338  -0.0004556  0.0004249  0  0  0  0  0  0  0.0323304  0.0102737  -0.0274064  -0.010531  0.0204738  0.000136461  -0.0397878  0.0395703  -0.00840669  0.00448766  -0.00724152  -0.000657262 
1699968819.451440000  0  0  11.8545  0.192061  -0.183272  0.00671008  nan  nan  nan  nan  nan  nan  -0.999992  -7.8e-06  1.00001  0.0338107  -0.0462425  -0.00156233  0.0005669  -0.000625  0.0005504  0  0  0  0  0  0  0.0322814  0.0103723  -0.0274241  -0.0107167  0.0214524  -0.00202398  -0.0407795  0.0393152  -0.00838082  -0.00895076  0.00484465  -6.77362e-05 
1699968819.456395000  0  0  11.9006  0.183729  -0.209286  0.00675025  nan  nan  nan  nan  nan  nan  -0.999989  -1.14e-05  1.00001  0.0337792  -0.045655  -0.00154084  0.0007105  -0.0008319  0.0006841  0  0  0  0  0  0  0.0322828  0.0103316  -0.0274392  -0.0112605  0.0216766  -0.00585747  -0.0405865  0.0394002  -0.00841024  0.00593751  0.0560907  -0.000275738 
1699968819.461491000  0  0  11.8623  0.188427  -0.178314  0.00720464  nan  nan  nan  nan  nan  nan  -0.999985  -1.62e-05  1.00001  0.0343846  -0.0456849  -0.00156933  0.000861  -0.00108  0.0008222  0  0  0  0  0  0  0.0322279  0.0104394  -0.0274263  -0.0112917  0.0220908  -0.0026832  -0.0412065  0.0389954  -0.00844926  0.00224493  -0.00212911  -0.00556536 
1699968819.466442000  0  0  11.8618  0.197365  -0.171691  0.00645521  nan  nan  nan  nan  nan  nan  -0.999981  -2.23e-05  1.00002  0.0343381  -0.0457977  -0.00157097  0.0010145  -0.0013731  0.000961  0  0  0  0  0  0  0.0322603  0.0103545  -0.0274107  -0.0112177  0.022216  -0.00267045  -0.0413171  0.0389066  -0.00835612  -0.0146128  -0.0145593  0.00287107 
1699968819.471805000  0  0  11.8861  0.1917  -0.185816  0.00615599  nan  nan  nan  nan  nan  nan  -0.999975  -3e-05  1.00002  0.0340487  -0.0455673  -0.00154977  0.0011672  -0.001715  0.0010968  0  0  0  0  0  0  0.0322796  0.0102797  -0.0274125  -0.0114423  0.0220936  -0.00470436  -0.0409673  0.0389883  -0.00830667  -0.0065015  0.0129392  0.00611686 
1699968819.476439000  0  0  11.8338  0.188913  -0.155497  0.00622563  nan  nan  nan  nan  nan  nan  -0.999969  -3.96e-05  1.00003  0.0346476  -0.0456195  -0.00157899  0.0013155  -0.0021094  0.0012257  0  0  0  0  0  0  0.0322283  0.0103794  -0.0273983  -0.0115238  0.0224605  -0.000348635  -0.0414567  0.038442  -0.00826086  0.00357561  -0.0426713  0.00478829 
1699968819.481433000  0  0  11.8183  0.202117  -0.158714  0.00567639  nan  nan  nan  nan  nan  nan  -0.999962  -5.12e-05  1.00004  0.0346627  -0.0458031  -0.00158634  0.0014556  -0.0025587  0.0013441  0  0  0  0  0  0  0.0322527  0.0103051  -0.0273754  -0.0114147  0.0225856  0.000894192  -0.0417155  0.0384629  -0.00813971  -0.0204504  -0.0364295  0.0104423 
1699968819.486443000  0  0  11.8958  0.205303  -0.183201  0.00525698  nan  nan  nan  nan  nan  nan  -0.999954  -6.52e-05  1.00004  0.0355654  -0.04473  -0.00159008  0.0015837  -0.0030604  0.0014482  0  0  0  0  0  0  0.0321894  0.0104222  -0.0274275  -0.0122957  0.023821  -0.00549662  -0.0426909  0.0379037  -0.00803563  -0.0178487  0.0176884  0.014644 
1699968819.491419000  0  0  11.8563  0.198391  -0.164249  0.00620109  nan  nan  nan  nan  nan  nan  -0.999946  -8.19e-05  1.00005  0.0354146  -0.0451292  -0.00159836  0.0016961  -0.0036108  0.0015342  0  0  0  0  0  0  0.0322031  0.0103591  -0.0274005  -0.0119971  0.0236046  -0.00223787  -0.0424655  0.0379507  -0.00807507  -0.00609923  -0.0206488  0.00323705 
1699968819.496370000  0  0  11.8408  0.20877  -0.166435  0.00620415  nan  nan  nan  nan  nan  nan  -0.999938  -0.0001014  1.00006  0.0354339  -0.0453873  -0.00160967  0.001789  -0.0042061  0.0015988  0  0  0  0  0  0  0.0322285  0.0102913  -0.0273842  -0.0117905  0.0237193  -0.000980844  -0.0426948  0.0381152  -0.0080434  -0.0247476  -0.0177903  0.00288208 
1699968819.501421000  0  0  11.9004  0.208582  -0.190399  0.00650243  nan  nan  nan  nan  nan  nan  -0.999928  -0.000124  1.00007  0.0363545  -0.0446022  -0.00162476  0.0018593  -0.0048425  0.0016434  0  0  0  0  0  0  0.0321649  0.0104137  -0.0274381  -0.0123836  0.0249026  -0.00586956  -0.0436407  0.0379008  -0.00806474  -0.0156686  0.0321112  -0.000633038 
1699968819.506441000  0  0  11.8406  0.192438  -0.164484  0.00765829  nan  nan  nan  nan  nan  nan  -0.999919  -0.0001499  1.00007  0.0365096  -0.0450592  -0.00165077  0.0019086  -0.0055164  0.0016716  0  0  0  0  0  0  0.0321855  0.0103523  -0.0273836  -0.0121242  0.0249989  -0.000967723  -0.0434647  0.037892  -0.00819791  0.0149985  -0.0196387  -0.0137494 
1699968819.511589000  0  0  11.866  0.218597  -0.18114  0.00758087  nan  nan  nan  nan  nan  nan  -0.999909  -0.0001792  1.00008  0.0375526  -0.0449137  -0.00169555  0.0019405  -0.0062239  0.0016872  0  0  0  0  0  0  0.0321256  0.0104825  -0.0274094  -0.0120491  0.0261903  -0.00306868  -0.0448991  0.0379374  -0.00822097  -0.0241228  0.0132557  -0.0125512 
1699968819.516370000  0  0  11.8992  0.210223  -0.194071  0.00784074  nan  nan  nan  nan  nan  nan  -0.9999  -0.0002122  1.00009  0.0374427  -0.0446696  -0.00168547  0.0019589  -0.0069612  0.0016939  0  0  0  0  0  0  0.0321375  0.0104135  -0.0274266  -0.0122331  0.0263376  -0.00581075  -0.0447007  0.03806  -0.00832207  -0.00920018  0.0379898  -0.0147885 
1699968819.521841000  0  0  11.873  0.184767  -0.172886  0.00886271  nan  nan  nan  nan  nan  nan  -0.99989  -0.0002489  1.0001  0.0373969  -0.0450316  -0.00170205  0.0019674  -0.0077248  0.0016954  0  0  0  0  0  0  0.0321626  0.0103619  -0.0274088  -0.0119421  0.0262797  -0.00362491  -0.0441029  0.0381228  -0.00852703  0.0362122  -0.00495754  -0.0255136 
1699968819.526554000  0  0  11.8602  0.209685  -0.18021  0.00780719  nan  nan  nan  nan  nan  nan  -0.99988  -0.0002895  1.00011  0.0383826  -0.0452261  -0.00176016  0.0019699  -0.0085107  0.0016955  0  0  0  0  0  0  0.03211  0.0104884  -0.0274164  -0.0116263  0.027245  -0.00256028  -0.045379  0.0383671  -0.00845763  -0.00188217  0.00744252  -0.0130135 
1699968819.531420000  0  0  11.8858  0.20289  -0.193846  0.00720725  nan  nan  nan  nan  nan  nan  -0.99987  -0.000334  1.00012  0.0385343  -0.0452502  -0.00177545  0.0019701  -0.0093153  0.0016955  0  0  0  0  0  0  0.0321173  0.0104526  -0.0274228  -0.0114803  0.0276339  -0.00468633  -0.0453426  0.0387333  -0.0084264  0.0113717  0.0313457  -0.00582663 
1699968819.536369000  0  0  11.8896  0.186976  -0.191395  0.00686551  nan  nan  nan  nan  nan  nan  -0.99986  -0.0003826  1.00013  0.0397146  -0.0446365  -0.00181356  0.0019701  -0.0101348  0.0016955  0  0  0  0  0  0  0.0320552  0.0105928  -0.0274462  -0.0121314  0.0288992  -0.00494595  -0.0459914  0.0382673  -0.00839249  0.0491693  0.0307304  -0.00189403 
1699968819.541421000  0  0  11.8549  0.204072  -0.180594  0.00613818  nan  nan  nan  nan  nan  nan  -0.99985  -0.0004354  1.00013  0.0394967  -0.0454082  -0.00184489  0.0019701  -0.0109655  0.0016955  0  0  0  0  0  0  0.0320766  0.0105488  -0.0274052  -0.0113318  0.028554  -0.00213522  -0.0459347  0.0388682  -0.00825737  0.0144546  0.0035994  0.00584644 
1699968819.546430000  0  0  11.887  0.206106  -0.205869  0.00570228  nan  nan  nan  nan  nan  nan  -0.999841  -0.0004923  1.00014  0.0409394  -0.0451183  -0.00191102  0.0019701  -0.0118035  0.0016955  0  0  0  0  0  0  0.0320205  0.0106995  -0.0274431  -0.0114199  0.030268  -0.00475763  -0.0472341  0.0391607  -0.0081461  0.0223414  0.0514595  0.0101824 
1699968819.551428000  0  0  11.9148  0.18896  -0.20715  0.00562857  nan  nan  nan  nan  nan  nan  -0.999831  -0.0005534  1.00015  0.040616  -0.0451021  -0.00191025  0.0019701  -0.0126452  0.0016955  0  0  0  0  0  0  0.0320454  0.010654  -0.0274557  -0.0113588  0.0300655  -0.00703415  -0.046417  0.0394274  -0.00808725  0.0491158  0.0515677  0.0105154 
1699968819.556377000  0  0  11.8779  0.197409  -0.179902  0.00558135  nan  nan  nan  nan  nan  nan  -0.999821  -0.0006188  1.00016  0.0402247  -0.0460275  -0.00194659  0.0019701  -0.0134869  0.0016955  0  0  0  0  0  0  0.0320852  0.0105845  -0.0274125  -0.0104094  0.029532  -0.00402149  -0.0460122  0.0399169  -0.00799181  0.0284933  -0.00743103  0.0101512 
1699968819.561404000  0  0  11.8837  0.203739  -0.202114  0.00562123  nan  nan  nan  nan  nan  nan  -0.999811  -0.0006883  1.00017  0.0418144  -0.0456925  -0.00202505  0.0019701  -0.0143246  0.0016955  0  0  0  0  0  0  0.0320303  0.0107413  -0.0274368  -0.0106912  0.0313107  -0.00447554  -0.0474554  0.040042  -0.00790483  0.0291118  0.035841  0.00878292 
1699968819.566441000  0  0  11.9203  0.184212  -0.204724  0.00667334  nan  nan  nan  nan  nan  nan  -0.999801  -0.000762  1.00018  0.0412857  -0.0455767  -0.00201788  0.0019701  -0.0151548  0.0016955  0  0  0  0  0  0  0.0320554  0.0106825  -0.0274604  -0.0107171  0.0309087  -0.00746328  -0.0464066  0.0402016  -0.00800917  0.0585166  0.0395923  -0.00332506 
1699968819.571871000  0  0  11.8874  0.185635  -0.189327  0.00713804  nan  nan  nan  nan  nan  nan  -0.999791  -0.0008398  1.00018  0.0411033  -0.0462456  -0.00206184  0.0019701  -0.0159736  0.0016955  0  0  0  0  0  0  0.0320823  0.010643  -0.0274141  -0.0100579  0.0306001  -0.00479722  -0.0459584  0.0406387  -0.00807621  0.0515478  0.00477884  -0.00846337 
1699968819.576374000  0  0  11.861  0.200756  -0.195003  0.00680464  nan  nan  nan  nan  nan  nan  -0.999781  -0.0009217  1.00019  0.0425309  -0.0460781  -0.00214883  0.0019701  -0.0167773  0.0016955  0  0  0  0  0  0  0.0320344  0.0107946  -0.0274194  -0.0102995  0.0320244  -0.00259289  -0.0473656  0.0406141  -0.0080124  0.034252  0.0163571  -0.00493398 
1699968819.581857000  0  0  11.9038  0.185517  -0.19801  0.00667572  nan  nan  nan  nan  nan  nan  -0.999772  -0.0010076  1.0002  0.0424539  -0.0459695  -0.00217197  0.0019701  -0.0175622  0.0016955  0  0  0  0  0  0  0.0320502  0.0107804  -0.0274275  -0.0102586  0.032154  -0.00612797  -0.0467648  0.040694  -0.00801495  0.0592013  0.0216364  -0.003297 
1699968819.586439000  0  0  11.8564  0.196639  -0.176255  0.00677547  nan  nan  nan  nan  nan  nan  -0.999762  -0.0010973  1.00021  0.043454  -0.0463197  -0.00226822  0.0019701  -0.0183245  0.0016955  0  0  0  0  0  0  0.0320064  0.0109344  -0.0274204  -0.00993435  0.0329025  -0.00217531  -0.0476429  0.0406013  -0.00797374  0.0450363  -0.0210218  -0.00495593 
1699968819.591441000  0  0  11.8547  0.205208  -0.190071  0.00690273  nan  nan  nan  nan  nan  nan  -0.999752  -0.0011908  1.00022  0.0434474  -0.0463247  -0.00230703  0.0019701  -0.0190604  0.0016955  0  0  0  0  0  0  0.0320272  0.0109147  -0.0273924  -0.00998034  0.0329273  -0.00209492  -0.047621  0.040796  -0.00798411  0.0276963  0.00481764  -0.00644302 
1699968819.596844000  0  0  11.8953  0.189513  -0.18973  0.00733322  nan  nan  nan  nan  nan  nan  -0.999742  -0.0012879  1.00023  0.0435101  -0.0460377  -0.00234046  0.0019701  -0.0197662  0.0016955  0  0  0  0  0  0  0.0320489  0.0109005  -0.0273917  -0.0101981  0.0332347  -0.00546155  -0.0471768  0.0405603  -0.00806244  0.0550001  0.00630384  -0.0110409 
1699968819.601434000  0  0  11.8412  0.200593  -0.165387  0.00686551  nan  nan  nan  nan  nan  nan  -0.999732  -0.0013884  1.00024  0.0442945  -0.046285  -0.00243478  0.0019701  -0.0204382  0.0016955  0  0  0  0  0  0  0.0320045  0.0110579  -0.0273741  -0.0100449  0.0336512  -0.000963244  -0.0478544  0.0402698  -0.00797864  0.0390746  -0.0397069  -0.00603252 
1699968819.606442000  0  0  11.8303  0.210813  -0.170967  0.0057744  nan  nan  nan  nan  nan  nan  -0.999722  -0.0014922  1.00024  0.0443092  -0.046394  -0.00249199  0.0019701  -0.0210726  0.0016955  0  0  0  0  0  0  0.0320068  0.0110749  -0.0273235  -0.00995947  0.0335754  -0.000155499  -0.047903  0.0403151  -0.00780186  0.019082  -0.0289651  0.00583855 
1699968819.611447000  0  0  11.8657  0.193572  -0.172233  0.00538443  nan  nan  nan  nan  nan  nan  -0.999712  -0.001599  1.00025  0.0455327  -0.0455986  -0.00256904  0.0019701  -0.0216656  0.0016955  0  0  0  0  0  0  0.0319514  0.0112501  -0.0273578  -0.0106962  0.034973  -0.003021  -0.0485217  0.0395076  -0.00766967  0.0592556  -0.0190047  0.00939131 
1699968819.616389000  0  0  11.8313  0.196356  -0.160175  0.00521724  nan  nan  nan  nan  nan  nan  -0.999703  -0.0017087  1.00026  0.0450277  -0.046238  -0.00263585  0.0019701  -0.0222136  0.0016955  0  0  0  0  0  0  0.0319835  0.0112221  -0.0273  -0.0101002  0.0341889  -0.000238142  -0.0478345  0.0397498  -0.00755196  0.0473646  -0.0453486  0.0103041 
1699968819.621810000  0  0  11.8101  0.206314  -0.163691  0.00522326  nan  nan  nan  nan  nan  nan  -0.999693  -0.0018211  1.00027  0.0450232  -0.0465139  -0.00271426  0.0019701  -0.0227126  0.0016955  0  0  0  0  0  0  0.0319996  0.0112238  -0.0272469  -0.00987812  0.0340682  0.0014202  -0.0478405  0.0398517  -0.00743253  0.027505  -0.0392528  0.0090345 
1699968819.626441000  0  0  11.855  0.186148  -0.1736  0.00524093  nan  nan  nan  nan  nan  nan  -0.999683  -0.0019358  1.00028  0.0460552  -0.0457167  -0.00279704  0.0019701  -0.0231591  0.0016955  0  0  0  0  0  0  0.0319482  0.0113958  -0.0272793  -0.0105759  0.0352679  -0.00223051  -0.0482028  0.0391938  -0.00734179  0.0711686  -0.0133822  0.00790624 
1699968819.631440000  0  0  11.8371  0.187719  -0.16902  0.00586639  nan  nan  nan  nan  nan  nan  -0.999673  -0.0020526  1.00029  0.0445838  -0.0464596  -0.00283937  0.0019701  -0.0235507  0.0016955  0  0  0  0  0  0  0.0320238  0.0112639  -0.0272246  -0.00986031  0.0335239  -0.000831437  -0.0465776  0.0397286  -0.00735785  0.0530752  -0.0274632  0.000248562 
1699968819.636389000  0  0  11.8104  0.194535  -0.160321  0.00596789  nan  nan  nan  nan  nan  nan  -0.999663  -0.0021712  1.0003  0.0453839  -0.046576  -0.00296388  0.0019701  -0.0238899  0.0016955  0  0  0  0  0  0  0.0319775  0.0114323  -0.0272101  -0.00973381  0.0340617  0.00138456  -0.0472191  0.0395078  -0.00727345  0.0453463  -0.0428292  -0.00186412 
1699968819.641949000  0  0  11.8573  0.169194  -0.188025  0.00666298  nan  nan  nan  nan  nan  nan  -0.999653  -0.0022914  1.0003  0.044605  -0.0466666  -0.00301919  0.0019701  -0.0241806  0.0016955  0  0  0  0  0  0  0.0320413  0.0113401  -0.027192  -0.00951322  0.033469  -0.00254315  -0.0457065  0.0400287  -0.00734471  0.0821121  0.00778516  -0.00984018 
1699968819.646859000  0  0  11.83  0.165324  -0.181478  0.00691111  nan  nan  nan  nan  nan  nan  -0.999643  -0.0024129  1.00031  0.0436072  -0.0471318  -0.00308612  0.0019701  -0.0244265  0.0016955  0  0  0  0  0  0  0.0320728  0.0113104  -0.0271405  -0.00911402  0.0320786  -0.000355632  -0.0443618  0.0403741  -0.00736114  0.0774802  -0.00848575  -0.0127775 
1699968819.651440000  0  0  11.8035  0.168795  -0.173201  0.0067187  nan  nan  nan  nan  nan  nan  -0.999634  -0.0025356  1.00032  0.0442601  -0.0472863  -0.00322278  0.0019701  -0.0246313  0.0016955  0  0  0  0  0  0  0.0320336  0.0114689  -0.0271251  -0.0089542  0.032447  0.00184454  -0.0447102  0.0402757  -0.00728344  0.0737432  -0.0241349  -0.0111494 
1699968819.656389000  0  0  11.8504  0.155062  -0.200018  0.00646556  nan  nan  nan  nan  nan  nan  -0.999624  -0.0026592  1.00033  0.0433806  -0.047198  -0.0032822  0.0019701  -0.0247989  0.0016955  0  0  0  0  0  0  0.0320866  0.0113794  -0.0271108  -0.00894143  0.031711  -0.00209002  -0.0433009  0.0407001  -0.00726197  0.0882444  0.0255945  -0.00819978 
1699968819.661433000  0  0  11.8578  0.151378  -0.193816  0.00647497  nan  nan  nan  nan  nan  nan  -0.999614  -0.0027835  1.00034  0.0435523  -0.0470629  -0.00339523  0.0019701  -0.0249328  0.0016955  0  0  0  0  0  0  0.0320426  0.0115346  -0.0271238  -0.00897714  0.0316206  -0.00266048  -0.0429624  0.0405912  -0.00720451  0.0924984  0.0141926  -0.00889205 
1699968819.666433000  0  0  11.767  0.158804  -0.178265  0.00590401  nan  nan  nan  nan  nan  nan  -0.999604  -0.0029085  1.00035  0.0428004  -0.0481855  -0.00352472  0.0019701  -0.025037  0.0016955  0  0  0  0  0  0  0.0320925  0.0114733  -0.0270238  -0.00809249  0.0303205  0.00473156  -0.0420157  0.0413585  -0.00705077  0.0689355  -0.0239688  -0.00329248 
1699968819.671857000  0  0  11.8224  0.149358  -0.205495  0.00516645  nan  nan  nan  nan  nan  nan  -0.999594  -0.0030339  1.00035  0.041787  -0.0478407  -0.00358432  0.0019701  -0.0251151  0.0016955  0  0  0  0  0  0  0.0321135  0.0113891  -0.0270045  -0.00829609  0.0294333  6.73263e-05  -0.0405011  0.0416139  -0.00690334  0.0738941  0.0281426  0.00445274 
1699968819.676382000  0  0  11.8488  0.152944  -0.19787  0.00521074  nan  nan  nan  nan  nan  nan  -0.999584  -0.0031596  1.00036  0.0420837  -0.0474176  -0.00370984  0.0019701  -0.0251709  0.0016955  0  0  0  0  0  0  0.0320735  0.011534  -0.0270227  -0.00861624  0.0296179  -0.0020923  -0.0405414  0.0411959  -0.00678019  0.0670932  0.0167369  0.00266765 
1699968819.681413000  0  0  11.757  0.167887  -0.179056  0.005019  nan  nan  nan  nan  nan  nan  -0.999575  -0.0032855  1.00037  0.041703  -0.048303  -0.00386386  0.0019701  -0.0252082  0.0016955  0  0  0  0  0  0  0.0320936  0.0115412  -0.0269264  -0.00798213  0.0286624  0.00537453  -0.0402172  0.0416687  -0.00660416  0.0342236  -0.0252403  0.00330409 
1699968819.686432000  0  0  11.8316  0.173676  -0.196702  0.00466445  nan  nan  nan  nan  nan  nan  -0.999565  -0.0034116  1.00038  0.0424351  -0.0472307  -0.0039952  0.0019701  -0.0252306  0.0016955  0  0  0  0  0  0  0.0320464  0.0116921  -0.0269636  -0.00887627  0.0296317  -0.00077276  -0.0408591  0.040965  -0.00641736  0.0285518  0.0165251  0.00586791 
1699968819.691384000  0  0  11.8359  0.16528  -0.182902  0.00545094  nan  nan  nan  nan  nan  nan  -0.999555  -0.0035378  1.00039  0.0418435  -0.0471898  -0.0041132  0.0019701  -0.025242  0.0016955  0  0  0  0  0  0  0.0320637  0.0116928  -0.0269289  -0.00894303  0.0288625  -0.00119381  -0.0400161  0.0407549  -0.00637531  0.0375871  -0.00914109  -0.0043837 
1699968819.696383000  0  0  11.7402  0.181911  -0.160929  0.00576895  nan  nan  nan  nan  nan  nan  -0.999545  -0.003664  1.0004  0.0410836  -0.0482087  -0.00427303  0.0019701  -0.0252461  0.0016955  0  0  0  0  0  0  0.0320912  0.011662  -0.0268342  -0.00817313  0.0274797  0.00660054  -0.0394795  0.0411813  -0.0062829  -0.000610532  -0.0570106  -0.0092829 
1699968819.701426000  0  0  11.8177  0.193551  -0.17781  0.00651419  nan  nan  nan  nan  nan  nan  -0.999535  -0.0037903  1.00041  0.0421026  -0.0470858  -0.00443517  0.0019701  -0.0252466  0.0016955  0  0  0  0  0  0  0.0320429  0.0118105  -0.0268692  -0.00911056  0.0288379  0.000199607  -0.0406826  0.0402428  -0.00626784  -0.0128207  -0.0146145  -0.0187489 
1699968819.706432000  0  0  11.8367  0.193103  -0.166179  0.00704064  nan  nan  nan  nan  nan  nan  -0.999525  -0.0039165  1.00041  0.0424073  -0.046445  -0.00458878  0.0019701  -0.0252462  0.0016955  0  0  0  0  0  0  0.0319944  0.0119526  -0.0268687  -0.00973729  0.0290046  -0.00137656  -0.0409872  0.039375  -0.00627735  -0.00912387  -0.0298916  -0.0252344 
1699968819.711942000  0  0  11.7965  0.20814  -0.14445  0.00637028  nan  nan  nan  nan  nan  nan  -0.999515  -0.0040427  1.00042  0.0416694  -0.0467397  -0.00473943  0.0019701  -0.0252424  0.0016955  0  0  0  0  0  0  0.0320122  0.0119024  -0.0268143  -0.0095949  0.0279475  0.001863  -0.0406291  0.0390743  -0.00615055  -0.0424931  -0.0705828  -0.018123 
1699968819.716381000  0  0  11.8473  0.21257  -0.157195  0.00562587  nan  nan  nan  nan  nan  nan  -0.999506  -0.0041689  1.00043  0.0424666  -0.0459582  -0.00492247  0.0019701  -0.0252316  0.0016955  0  0  0  0  0  0  0.0319666  0.0120465  -0.0268441  -0.0102432  0.0289057  -0.00231649  -0.0416011  0.038357  -0.00595502  -0.0424093  -0.0384944  -0.0107732 
1699968819.721378000  0  0  11.8891  0.204612  -0.160478  0.00507973  nan  nan  nan  nan  nan  nan  -0.999496  -0.004295  1.00044  0.0413322  -0.045917  -0.00505376  0.0019701  -0.02521  0.0016955  0  0  0  0  0  0  0.0319951  0.0120087  -0.0268654  -0.0101469  0.0276763  -0.00575542  -0.0405411  0.0382932  -0.00577704  -0.0362469  -0.0313416  -0.0057262 
1699968819.726432000  0  0  11.8017  0.216253  -0.137224  0.0046172  nan  nan  nan  nan  nan  nan  -0.999486  -0.004421  1.00045  0.0416063  -0.0462392  -0.00527116  0.0019701  -0.0251737  0.0016955  0  0  0  0  0  0  0.0319477  0.012142  -0.0268216  -0.0100535  0.0273254  0.00144668  -0.0411897  0.0379384  -0.00553749  -0.0535599  -0.0745857  -0.00234017 
1699968819.731434000  0  0  11.8573  0.212437  -0.155361  0.00342587  nan  nan  nan  nan  nan  nan  -0.999476  -0.0045467  1.00046  0.0410752  -0.0461652  -0.00544124  0.0019701  -0.0251192  0.0016955  0  0  0  0  0  0  0.0319668  0.0121189  -0.0268455  -0.0099001  0.0269219  -0.00314969  -0.0408337  0.0379573  -0.00521438  -0.0492037  -0.0384857  0.00932046 
1699968819.736367000  0  0  11.8878  0.208473  -0.165812  0.00339945  nan  nan  nan  nan  nan  nan  -0.999466  -0.0046722  1.00046  0.0414988  -0.0454545  -0.00563524  0.0019701  -0.0250426  0.0016955  0  0  0  0  0  0  0.0319139  0.0122553  -0.0268692  -0.0105512  0.0273107  -0.00565593  -0.0413361  0.0373977  -0.00498537  -0.0366545  -0.0124346  0.00736057 
1699968819.741425000  0  0  11.8192  0.205108  -0.145611  0.0042861  nan  nan  nan  nan  nan  nan  -0.999456  -0.0047971  1.00047  0.0408402  -0.0461482  -0.00584368  0.0019701  -0.0249402  0.0016955  0  0  0  0  0  0  0.0319255  0.0122646  -0.0268099  -0.0100077  0.0260909  -4.58791e-05  -0.0408618  0.0375309  -0.00486857  -0.0342862  -0.0540629  -0.00489049 
1699968819.746383000  0  0  11.8725  0.19564  -0.162351  0.0045822  nan  nan  nan  nan  nan  nan  -0.999446  -0.0049215  1.00048  0.0406643  -0.0459583  -0.00604423  0.0019701  -0.0248082  0.0016955  0  0  0  0  0  0  0.031921  0.0122981  -0.0268281  -0.00996419  0.0260136  -0.00445379  -0.0406651  0.0374626  -0.00473936  -0.0171612  -0.0199543  -0.0098839 
1699968819.751383000  0  0  11.9096  0.18797  -0.17716  0.00507618  nan  nan  nan  nan  nan  nan  -0.999437  -0.0050451  1.00049  0.0408894  -0.0452182  -0.00624704  0.0019701  -0.0246429  0.0016955  0  0  0  0  0  0  0.0318678  0.0124285  -0.0268733  -0.0106228  0.0261818  -0.00746338  -0.0407907  0.0370491  -0.00466049  -0.000665355  0.0134677  -0.0168474 
1699968819.756382000  0  0  11.8488  0.1808  -0.164863  0.0052349  nan  nan  nan  nan  nan  nan  -0.999427  -0.0051679  1.0005  0.0399395  -0.0459723  -0.00646304  0.0019701  -0.0244405  0.0016955  0  0  0  0  0  0  0.0318869  0.01242  -0.0268265  -0.00997584  0.024654  -0.00247843  -0.039785  0.0375552  -0.00454524  0.00442116  -0.0157827  -0.0199839 
1699968819.761424000  0  0  11.8658  0.185717  -0.181531  0.00498818  nan  nan  nan  nan  nan  nan  -0.999417  -0.0052895  1.00051  0.0402749  -0.0457857  -0.00670616  0.0019701  -0.0241973  0.0016955  0  0  0  0  0  0  0.0318376  0.0125463  -0.0268549  -0.0100085  0.024879  -0.00385367  -0.0401838  0.0376585  -0.00438924  -0.00174229  0.0166035  -0.0184599 
1699968819.766997000  0  0  11.9572  0.170006  -0.207636  0.0048977  nan  nan  nan  nan  nan  nan  -0.999407  -0.0054098  1.00052  0.0394913  -0.0453107  -0.0068929  0.0019701  -0.0239095  0.0016955  0  0  0  0  0  0  0.0318549  0.0125421  -0.0269253  -0.0102072  0.0242441  -0.0113407  -0.0391624  0.0379159  -0.00429529  0.0202816  0.0664455  -0.0182684 
1699968819.771387000  0  0  11.8877  0.167352  -0.189487  0.00463064  nan  nan  nan  nan  nan  nan  -0.999397  -0.0055285  1.00052  0.0384698  -0.046239  -0.00712994  0.0019701  -0.0235734  0.0016955  0  0  0  0  0  0  0.0318872  0.0125218  -0.026868  -0.00940099  0.0226122  -0.00565592  -0.0380614  0.0386693  -0.00410725  0.0154612  0.0232163  -0.0168104 
1699968819.776388000  0  0  11.8625  0.171658  -0.191951  0.00393217  nan  nan  nan  nan  nan  nan  -0.999387  -0.0056454  1.00053  0.0386189  -0.0462587  -0.00739151  0.0019701  -0.0231852  0.0016955  0  0  0  0  0  0  0.0318408  0.0126353  -0.0268795  -0.00938733  0.0224341  -0.00353504  -0.0382159  0.0388434  -0.00385453  0.00827024  0.0265423  -0.0106068 
1699968819.781419000  0  0  11.9548  0.154523  -0.21479  0.00345509  nan  nan  nan  nan  nan  nan  -0.999378  -0.0057603  1.00054  0.0376031  -0.0459341  -0.00759247  0.0019701  -0.0227412  0.0016955  0  0  0  0  0  0  0.0318709  0.0126121  -0.0269392  -0.00940785  0.0215174  -0.0111165  -0.0368746  0.039209  -0.00363472  0.0302006  0.0688572  -0.00684136 
1699968819.786440000  0  0  11.8648  0.148278  -0.189227  0.00294699  nan  nan  nan  nan  nan  nan  -0.999368  -0.0058727  1.00055  0.0374965  -0.0462088  -0.00786426  0.0019701  -0.0222377  0.0016955  0  0  0  0  0  0  0.0318248  0.0127148  -0.0269199  -0.00939366  0.0207558  -0.0036432  -0.0364709  0.0392534  -0.00335601  0.0389773  0.0173234  -0.00327724 
1699968819.791441000  0  0  11.8412  0.163562  -0.182753  0.00212936  nan  nan  nan  nan  nan  nan  -0.999358  -0.0059825  1.00056  0.0374097  -0.0460962  -0.00812864  0.0019701  -0.0216708  0.0016955  0  0  0  0  0  0  0.0317773  0.0128175  -0.0269287  -0.00954647  0.0203006  -0.00166088  -0.0365364  0.0390526  -0.00301652  0.00901008  0.00622201  0.00354823 
1699968819.796374000  0  0  11.9066  0.154123  -0.202482  0.00227793  nan  nan  nan  nan  nan  nan  -0.999348  -0.0060893  1.00057  0.0358051  -0.0463032  -0.00834101  0.0019701  -0.0210368  0.0016955  0  0  0  0  0  0  0.0318655  0.0126539  -0.026925  -0.0091374  0.018792  -0.00712877  -0.0347976  0.0397652  -0.00278316  0.0118908  0.0391229  -0.000642555 
1699968819.801435000  0  0  11.8465  0.151954  -0.188784  0.00351579  nan  nan  nan  nan  nan  nan  -0.999338  -0.0061928  1.00057  0.035239  -0.0465811  -0.00860966  0.0019701  -0.0203326  0.0016955  0  0  0  0  0  0  0.0318222  0.0127394  -0.0269044  -0.00898012  0.0175994  -0.00215968  -0.0341545  0.0399284  -0.00270165  0.010313  0.0102274  -0.0169309 
1699968819.806441000  0  0  11.7945  0.173784  -0.179114  0.00445036  nan  nan  nan  nan  nan  nan  -0.999328  -0.0062925  1.00058  0.0346224  -0.0468637  -0.00888209  0.0019701  -0.0195595  0.0016955  0  0  0  0  0  0  0.0318462  0.0126873  -0.0268478  -0.00892798  0.0166845  0.00205317  -0.0340122  0.0399972  -0.00263706  -0.0346569  -0.00974736  -0.0292589 
1699968819.811439000  0  0  11.857  0.174761  -0.195353  0.0042021  nan  nan  nan  nan  nan  nan  -0.999318  -0.0063883  1.00059  0.0345356  -0.0460582  -0.00914792  0.0019701  -0.0187213  0.0016955  0  0  0  0  0  0  0.0317974  0.0127733  -0.0268988  -0.00954242  0.0166095  -0.00307549  -0.0341088  0.0396238  -0.00248028  -0.03572  0.026167  -0.0277235 
1699968819.816390000  0  0  11.8137  0.167207  -0.180258  0.00462368  nan  nan  nan  nan  nan  nan  -0.999309  -0.0064796  1.0006  0.0329317  -0.046519  -0.00939305  0.0019701  -0.0178216  0.0016955  0  0  0  0  0  0  0.0318186  0.0127135  -0.026859  -0.00921594  0.0144489  0.000453029  -0.03263  0.0398528  -0.00240991  -0.0342187  -0.00612854  -0.0336969 
1699968819.821857000  0  0  11.7784  0.184578  -0.164644  0.00423269  nan  nan  nan  nan  nan  nan  -0.999299  -0.0065664  1.00061  0.032427  -0.0464793  -0.00967847  0.0019701  -0.0168643  0.0016955  0  0  0  0  0  0  0.0318251  0.01267  -0.0268073  -0.00945994  0.0137395  0.00328085  -0.0327036  0.0394049  -0.00224031  -0.0682833  -0.0332365  -0.0305055 
1699968819.826388000  0  0  11.817  0.191703  -0.173501  0.00368629  nan  nan  nan  nan  nan  nan  -0.999289  -0.0066482  1.00062  0.0321262  -0.0459005  -0.0099623  0.0019701  -0.0158531  0.0016955  0  0  0  0  0  0  0.0317796  0.01274  -0.0268317  -0.00990995  0.0133156  9.21058e-05  -0.0328683  0.0389637  -0.00201147  -0.0810172  -0.0114641  -0.025964 
1699968819.831389000  0  0  11.7795  0.184082  -0.153641  0.00420368  nan  nan  nan  nan  nan  nan  -0.999279  -0.0067248  1.00063  0.031512  -0.0458335  -0.0102547  0.0019701  -0.0147918  0.0016955  0  0  0  0  0  0  0.0317309  0.0128005  -0.0268061  -0.0100788  0.0122265  0.00317092  -0.0324994  0.0384769  -0.00190858  -0.069169  -0.0467052  -0.0334602 
1699968819.836389000  0  0  11.7571  0.186335  -0.139209  0.00365015  nan  nan  nan  nan  nan  nan  -0.999269  -0.006796  1.00063  0.030338  -0.0461663  -0.0105398  0.0019701  -0.0136841  0.0016955  0  0  0  0  0  0  0.0317485  0.0127231  -0.0267401  -0.0098025  0.0107634  0.00490955  -0.0317688  0.0382596  -0.00168963  -0.0803977  -0.0735696  -0.0287306 
1699968819.841419000  0  0  11.8089  0.189873  -0.155759  0.00221087  nan  nan  nan  nan  nan  nan  -0.999259  -0.0068616  1.00064  0.0292541  -0.045633  -0.0108094  0.0019701  -0.0125337  0.0016955  0  0  0  0  0  0  0.0317619  0.012642  -0.0267342  -0.0102693  0.00968196  0.000561457  -0.0312165  0.037854  -0.00133171  -0.0925551  -0.0367395  -0.0143188 
1699968819.846391000  0  0  11.7924  0.179216  -0.146156  0.00183857  nan  nan  nan  nan  nan  nan  -0.999249  -0.0069213  1.00065  0.0277734  -0.0458942  -0.0110904  0.0019701  -0.0113444  0.0016955  0  0  0  0  0  0  0.0317762  0.012561  -0.0266923  -0.0100541  0.00784552  0.0018593  -0.0300163  0.0377654  -0.00104889  -0.0822812  -0.0551291  -0.0124932 
1699968819.851369000  0  0  11.7926  0.188683  -0.147737  0.00180246  nan  nan  nan  nan  nan  nan  -0.99924  -0.006975  1.00066  0.0273042  -0.0458056  -0.0114141  0.0019701  -0.01012  0.0016955  0  0  0  0  0  0  0.0317295  0.0125989  -0.0266836  -0.0100605  0.00712808  0.00181583  -0.0301496  0.0374564  -0.000787856  -0.0999894  -0.049125  -0.0146522 
1699968819.856383000  0  0  11.8314  0.188734  -0.162715  0.00159611  nan  nan  nan  nan  nan  nan  -0.99923  -0.0070225  1.00067  0.0261382  -0.0455011  -0.0117067  0.0019701  -0.0088642  0.0016955  0  0  0  0  0  0  0.0317327  0.0124917  -0.026671  -0.0102761  0.00593397  -0.00146592  -0.0295441  0.0373334  -0.000529325  -0.105663  -0.0180377  -0.0146581 
1699968819.861428000  0  0  11.8195  0.179918  -0.158129  0.00303926  nan  nan  nan  nan  nan  nan  -0.99922  -0.0070636  1.00068  0.0255959  -0.0452416  -0.0120355  0.0019701  -0.0075807  0.0016955  0  0  0  0  0  0  0.0316805  0.0125182  -0.0266637  -0.010559  0.00511226  -0.000497663  -0.0293283  0.0369531  -0.000477094  -0.0900147  -0.023711  -0.0332198 
1699968819.866568000  0  0  11.7906  0.181184  -0.162333  0.00375976  nan  nan  nan  nan  nan  nan  -0.99921  -0.0070982  1.00069  0.0240517  -0.0458831  -0.0122354  0.0019701  -0.0062733  0.0016955  0  0  0  0  0  0  0.0317089  0.0123774  -0.0266179  -0.00994467  0.00329793  0.0018116  -0.0283746  0.0375108  -0.000515962  -0.101321  -0.0204334  -0.0418374 
1699968819.871433000  0  0  11.8326  0.170748  -0.177274  0.00416192  nan  nan  nan  nan  nan  nan  -0.9992  -0.0071263  1.00069  0.0236872  -0.0450914  -0.0121999  0.0019701  -0.0049458  0.0016954  0  0  0  0  0  0  0.0316554  0.0123956  -0.0266325  -0.0106585  0.00290153  -0.00167656  -0.0283003  0.0369968  -0.000767167  -0.0811339  0.0141782  -0.0443523 
1699968819.876382000  0  0  11.8421  0.148626  -0.172298  0.00419721  nan  nan  nan  nan  nan  nan  -0.99919  -0.0071477  1.0007  0.0219447  -0.0449691  -0.0121187  0.0019701  -0.0036019  0.0016932  0  0  0  0  0  0  0.0316761  0.0122318  -0.0266031  -0.0108488  0.00100079  -0.00251919  -0.0265868  0.0368812  -0.0010125  -0.0526536  0.0052879  -0.0423402 
1699968819.881426000  0  0  11.8027  0.151264  -0.164253  0.00382401  nan  nan  nan  nan  nan  nan  -0.999181  -0.0071623  1.00071  0.0198399  -0.0460095  -0.0120446  0.0019701  -0.0022454  0.0016853  0  0  0  0  0  0  0.0317217  0.0120355  -0.0265466  -0.00981762  -0.00143128  0.000659766  -0.0250027  0.03768  -0.00118034  -0.0725033  -0.0181494  -0.0359966 
1699968819.886382000  0  0  11.8504  0.159141  -0.184157  0.00322815  nan  nan  nan  nan  nan  nan  -0.999171  -0.0071701  1.00072  0.0195428  -0.0454388  -0.0120198  0.0019701  -0.0008799  0.001668  0  0  0  0  0  0  0.0316704  0.0120317  -0.0265807  -0.0102145  -0.00170152  -0.00327772  -0.0252523  0.0375149  -0.00126583  -0.0859607  0.0231775  -0.0276936 
1699968819.891418000  0  0  11.8814  0.139825  -0.183641  0.00362953  nan  nan  nan  nan  nan  nan  -0.999161  -0.0071711  1.00073  0.0175407  -0.0457565  -0.0119344  0.0019701  0.0004907  0.0016374  0  0  0  0  0  0  0.0317196  0.0118347  -0.0265846  -0.00978002  -0.00384385  -0.00585161  -0.023422  0.0379756  -0.00150125  -0.0641665  0.0179069  -0.0303566 
1699968819.896386000  0  0  11.8078  0.152938  -0.173735  0.00345527  nan  nan  nan  nan  nan  nan  -0.999151  -0.0071652  1.00074  0.0159454  -0.0468963  -0.0118796  0.0019701  0.0018626  0.0015898  0  0  0  0  0  0  0.0317575  0.011668  -0.026528  -0.00876898  -0.00572134  0.000174254  -0.0225619  0.0388582  -0.00164233  -0.0983061  -0.0100254  -0.0267676 
1699968819.901425000  0  0  11.8421  0.160162  -0.195216  0.00283181  nan  nan  nan  nan  nan  nan  -0.999141  -0.0071525  1.00074  0.0157534  -0.0462637  -0.0118606  0.0019701  0.0032323  0.0015215  0  0  0  0  0  0  0.031708  0.0116438  -0.0265518  -0.00931456  -0.00585045  -0.00267103  -0.0230161  0.0387193  -0.00167028  -0.108577  0.0342146  -0.0186949 
1699968819.906434000  0  0  11.8598  0.144698  -0.206401  0.00352818  nan  nan  nan  nan  nan  nan  -0.999131  -0.0071329  1.00075  0.0140848  -0.0464146  -0.0117855  0.0019701  0.0045958  0.0014287  0  0  0  0  0  0  0.0317312  0.0114791  -0.0265501  -0.00910236  -0.00765327  -0.00415687  -0.0216595  0.0393219  -0.00188197  -0.090129  0.0510396  -0.0252826 
1699968819.911431000  0  0  11.7887  0.160844  -0.181048  0.0040642  nan  nan  nan  nan  nan  nan  -0.999121  -0.0071065  1.00076  0.0136917  -0.0465921  -0.0117697  0.0019701  0.0059495  0.0013081  0  0  0  0  0  0  0.0316865  0.0114406  -0.0265177  -0.0091449  -0.00819186  0.00170451  -0.0220463  0.0391377  -0.00206036  -0.118862  0.00202998  -0.030199 
1699968819.916381000  0  0  11.7888  0.1727  -0.194651  0.00438536  nan  nan  nan  nan  nan  nan  -0.999112  -0.0070734  1.00076  0.0128753  -0.0466609  -0.0117326  0.0019701  0.0072895  0.0011611  0  0  0  0  0  0  0.031731  0.0112478  -0.0264837  -0.00916463  -0.00883198  0.0015994  -0.0221147  0.0395284  -0.00224511  -0.141945  0.0256412  -0.0323658 
1699968819.921380000  0  0  11.8031  0.161958  -0.19285  0.00457204  nan  nan  nan  nan  nan  nan  -0.999102  -0.0070336  1.00077  0.0113224  -0.0469378  -0.0116633  0.0019701  0.0086123  0.0009912  0  0  0  0  0  0  0.0317852  0.0110414  -0.0264641  -0.00887175  -0.0103923  0.00036845  -0.0211618  0.0398811  -0.00244859  -0.129228  0.0187936  -0.0326646 
1699968819.926433000  0  0  11.7482  0.172431  -0.167941  0.0039675  nan  nan  nan  nan  nan  nan  -0.999092  -0.0069873  1.00077  0.0108982  -0.0471113  -0.0116453  0.0019701  0.0099139  0.0008024  0  0  0  0  0  0  0.0317424  0.0109873  -0.0264205  -0.00884412  -0.0108936  0.00485878  -0.0215804  0.0395632  -0.00251538  -0.146323  -0.0280998  -0.02444 
1699968819.931433000  0  0  11.7644  0.186665  -0.183085  0.00319952  nan  nan  nan  nan  nan  nan  -0.999082  -0.0069346  1.00078  0.00969638  -0.0473101  -0.0115906  0.0019701  0.0111906  0.0005983  0  0  0  0  0  0  0.0318216  0.0107323  -0.0263852  -0.00869282  -0.0118801  0.0034219  -0.0215012  0.0399048  -0.00254545  -0.175519  -0.000953309  -0.0145396 
1699968819.936383000  0  0  11.7715  0.187485  -0.180008  0.00330035  nan  nan  nan  nan  nan  nan  -0.999072  -0.0068755  1.00078  0.00945194  -0.0469168  -0.0115753  0.0019701  0.0124388  0.0003827  0  0  0  0  0  0  0.031777  0.0106725  -0.0263751  -0.00907417  -0.0120531  0.00278691  -0.022084  0.0394961  -0.00261594  -0.171798  -0.00334794  -0.015095 
1699968819.941433000  0  0  11.7455  0.1943  -0.16336  0.00334252  nan  nan  nan  nan  nan  nan  -0.999062  -0.0068102  1.00078  0.00841394  -0.0475941  -0.0115323  0.0019701  0.0136546  0.0001593  0  0  0  0  0  0  0.0318367  0.0104648  -0.0263288  -0.00847434  -0.0129808  0.0048752  -0.0220958  0.0397007  -0.00270227  -0.185319  -0.0385256  -0.0147588 
1699968819.946938000  0  0  11.7729  0.214432  -0.177251  0.0032567  nan  nan  nan  nan  nan  nan  -0.999052  -0.006739  1.00078  0.00777794  -0.0474396  -0.0115009  0.0019701  0.0148343  -6.81e-05  0  0  0  0  0  0  0.0318754  0.010267  -0.0263112  -0.00862508  -0.0133453  0.00251989  -0.0229463  0.0396565  -0.00275378  -0.217758  -0.0103374  -0.013171 
1699968819.951424000  0  0  11.7689  0.210156  -0.170391  0.00368168  nan  nan  nan  nan  nan  nan  -0.999043  -0.0066619  1.00078  0.00775628  -0.0470559  -0.0114969  0.0019701  0.0159741  -0.0002958  0  0  0  0  0  0  0.0318347  0.0102005  -0.0262964  -0.00905847  -0.0132233  0.00281197  -0.0237262  0.0391503  -0.00285502  -0.202031  -0.0194005  -0.0174708 
1699968819.956389000  0  0  11.7458  0.212941  -0.158434  0.00354967  nan  nan  nan  nan  nan  nan  -0.999033  -0.0065793  1.00078  0.00763304  -0.0470459  -0.011491  0.0019701  0.0170704  -0.00052  0  0  0  0  0  0  0.0317915  0.010133  -0.0262677  -0.00909793  -0.0132521  0.00466824  -0.0245705  0.0387843  -0.00289467  -0.199833  -0.0399481  -0.0154242 
1699968819.961366000  0  0  11.7613  0.229518  -0.164832  0.00339672  nan  nan  nan  nan  nan  nan  -0.999023  -0.0064913  1.00077  0.00700874  -0.0471338  -0.0114622  0.0019701  0.0181193  -0.000737  0  0  0  0  0  0  0.031832  0.00992286  -0.026225  -0.00899979  -0.013589  0.00326609  -0.0253365  0.0388177  -0.00293242  -0.225941  -0.0274591  -0.0131348 
1699968819.966432000  0  0  11.7632  0.21074  -0.16752  0.00555779  nan  nan  nan  nan  nan  nan  -0.999013  -0.0063982  1.00077  0.00644006  -0.0469245  -0.0114341  0.0019701  0.019117  -0.000943  0  0  0  0  0  0  0.0318562  0.0097158  -0.0261994  -0.00932618  -0.0138667  0.00304771  -0.0254921  0.038582  -0.00328686  -0.186952  -0.0199155  -0.0366038 
1699968819.971432000  0  0  11.7518  0.212462  -0.155939  0.00602358  nan  nan  nan  nan  nan  nan  -0.999003  -0.0063002  1.00077  0.00655519  -0.0468493  -0.011439  0.0019701  0.02006  -0.0011342  0  0  0  0  0  0  0.031812  0.00964624  -0.0261799  -0.00938313  -0.0135682  0.0039431  -0.0264622  0.0381517  -0.00350122  -0.181471  -0.0391166  -0.0402826 
1699968819.976380000  0  0  11.7446  0.228742  -0.164556  0.00541724  nan  nan  nan  nan  nan  nan  -0.998993  -0.0061977  1.00076  0.00577414  -0.047298  -0.011405  0.0019701  0.0209443  -0.001307  0  0  0  0  0  0  0.0318584  0.0094152  -0.0261505  -0.00894827  -0.0140843  0.00447079  -0.0269908  0.0385551  -0.0036002  -0.209169  -0.0255951  -0.0317134 
1699968819.982025000  0  0  11.7857  0.202077  -0.180139  0.00462535  nan  nan  nan  nan  nan  nan  -0.998984  -0.0060909  1.00075  0.00534038  -0.0470045  -0.0113829  0.0019701  0.0217663  -0.0014575  0  0  0  0  0  0  0.031878  0.00920447  -0.0261474  -0.00916572  -0.0141549  0.00101535  -0.0271163  0.0385682  -0.00366021  -0.154685  0.00545129  -0.0212148 
1699968819.986520000  0  0  11.7892  0.206816  -0.168359  0.00399642  nan  nan  nan  nan  nan  nan  -0.998974  -0.0059802  1.00074  0.00515864  -0.0470627  -0.0113747  0.0019703  0.0225221  -0.0015821  0  0  0  0  0  0  0.0318393  0.00912642  -0.026137  -0.00898766  -0.0142182  0.000700126  -0.0276651  0.0383982  -0.00364853  -0.159114  -0.0165443  -0.01347 
1699968819.991441000  0  0  11.795  0.213487  -0.185797  0.00342556  nan  nan  nan  nan  nan  nan  -0.998964  -0.0058658  1.00074  0.00489977  -0.0472474  -0.0113634  0.0019731  0.0232082  -0.0016769  0  0  0  0  0  0  0.0318786  0.00889619  -0.0261292  -0.00880437  -0.0140451  0.000176308  -0.0283188  0.0388281  -0.00363926  -0.166441  0.0143757  -0.00642689 
1699968819.996430000  0  0  11.8424  0.196557  -0.202103  0.00377729  nan  nan  nan  nan  nan  nan  -0.998954  -0.0057482  1.00073  0.005268  -0.0465346  -0.0113771  0.0019823  0.0238206  -0.0017383  0  0  0  0  0  0  0.031831  0.00882678  -0.0261564  -0.00938066  -0.0133729  -0.00376425  -0.0290154  0.0386378  -0.00371012  -0.126172  0.0487381  -0.0101149 
1699968820.001434000  0  0  11.8424  0.187768  -0.184351  0.00435514  nan  nan  nan  nan  nan  nan  -0.998944  -0.0056277  1.00072  0.00411225  -0.0470464  -0.0113254  0.0020015  0.0243556  -0.0017624  0  0  0  0  0  0  0.031858  0.00852913  -0.0261704  -0.00878483  -0.0142383  -0.00371161  -0.028418  0.0390053  -0.00385481  -0.114091  0.00985373  -0.0158911 
1699968820.006442000  0  0  11.8018  0.196887  -0.191075  0.00470498  nan  nan  nan  nan  nan  nan  -0.998934  -0.0055048  1.00071  0.00385125  -0.0475001  -0.0113149  0.0020346  0.0248096  -0.0017455  0  0  0  0  0  0  0.0318802  0.00828136  -0.026146  -0.00845309  -0.0140524  -0.000399343  -0.0289405  0.0396087  -0.00398198  -0.127521  0.0177491  -0.0189924 
1699968820.011440000  0  0  11.8473  0.190305  -0.201467  0.00445047  nan  nan  nan  nan  nan  nan  -0.998924  -0.0053798  1.0007  0.00445145  -0.0468034  -0.0113403  0.0020853  0.0251787  -0.0016839  0  0  0  0  0  0  0.0318345  0.00821346  -0.02618  -0.00901836  -0.0130849  -0.00416565  -0.029922  0.0393041  -0.00401961  -0.105329  0.0413374  -0.0154348 
1699968820.016440000  0  0  11.8365  0.180757  -0.187936  0.0045996  nan  nan  nan  nan  nan  nan  -0.998913  -0.0052531  1.00069  0.00383955  -0.0474767  -0.0113142  0.0021573  0.0254592  -0.0015738  0  0  0  0  0  0  0.0318652  0.00799518  -0.0261738  -0.00826568  -0.0134186  -0.00326155  -0.0296797  0.0398351  -0.00410513  -0.0884602  0.0093896  -0.0164437 
1699968820.021812000  0  0  11.8281  0.192653  -0.20127  0.00416195  nan  nan  nan  nan  nan  nan  -0.998902  -0.0051253  1.00069  0.00418427  -0.047515  -0.0113307  0.0022544  0.0256473  -0.0014115  0  0  0  0  0  0  0.0318865  0.00780386  -0.0261722  -0.0082989  -0.0125443  -0.00260877  -0.0307088  0.0401533  -0.00411055  -0.102785  0.0331291  -0.010919 
1699968820.026442000  0  0  11.8654  0.195512  -0.212455  0.00412955  nan  nan  nan  nan  nan  nan  -0.99889  -0.0049968  1.00068  0.00516936  -0.0468145  -0.0113739  0.0023803  0.0257393  -0.0011932  0  0  0  0  0  0  0.0318432  0.0077413  -0.0262057  -0.00891231  -0.0110819  -0.00570837  -0.0320805  0.0399354  -0.00413338  -0.095883  0.0575049  -0.0102856 
1699968820.031391000  0  0  11.8418  0.190481  -0.190233  0.00528581  nan  nan  nan  nan  nan  nan  -0.998878  -0.0048681  1.00067  0.00510533  -0.0472764  -0.0113733  0.0025388  0.0257315  -0.0009152  0  0  0  0  0  0  0.0318746  0.00753237  -0.0261861  -0.00849698  -0.0107209  -0.00377897  -0.0323754  0.0401386  -0.00431606  -0.0831086  0.0111914  -0.022912 
1699968820.036440000  0  0  11.8223  0.21458  -0.192569  0.00594716  nan  nan  nan  nan  nan  nan  -0.998865  -0.0047397  1.00067  0.0063927  -0.0470773  -0.0114328  0.0027337  0.0256201  -0.0005737  0  0  0  0  0  0  0.0318318  0.00748541  -0.0261935  -0.00874325  -0.00893349  -0.00219991  -0.0344506  0.0400125  -0.00446907  -0.112214  0.0170237  -0.0296488 
1699968820.041434000  0  0  11.8375  0.205893  -0.19424  0.00618309  nan  nan  nan  nan  nan  nan  -0.998851  -0.0046121  1.00067  0.00637598  -0.0468156  -0.0114304  0.0029687  0.0254013  -0.0001649  0  0  0  0  0  0  0.031859  0.00725495  -0.0261997  -0.00906747  -0.00842926  -0.00348166  -0.0348104  0.0399244  -0.00464318  -0.0915303  0.0211752  -0.0308568 
1699968820.046954000  0  0  11.8317  0.194552  -0.171612  0.00588588  nan  nan  nan  nan  nan  nan  -0.998835  -0.0044858  1.00067  0.0066818  -0.0469857  -0.0114458  0.0032475  0.0250714  0.0003148  0  0  0  0  0  0  0.0318982  0.00704019  -0.0261897  -0.00895645  -0.00755672  -0.00300957  -0.0353072  0.039667  -0.00476178  -0.0642777  -0.0217133  -0.0259557 
