ts x y z roll pitch yaw vx vy vz wx wy wz ax ay az dwx dwy dwz jx jy jz ddwx ddwy ddwz
1701778671.165449000  -2  -1  1.5  0  0  0  -6e-07  -6e-07  6e-07  0  0  0  -0.000375  -0.000375  0.000375  0  0  0  0  0  0  0  0  0 
1701778671.170419000  -2  -1  1.5  0  0  0  -5e-06  -5e-06  5e-06  0  0  0  -0.0015  -0.0015  0.0014996  0  0  0  0  0  0  0  0  0 
1701778671.175415000  -2  -1  1.5  0  0  0  -1.69e-05  -1.69e-05  1.55e-05  0  0  0  -0.003375  -0.003375  0.0025892  0  0  0  0  0  0  0  0  0 
1701778671.180426000  -2  -1  1.5  0  0  1e-07  -4e-05  -4e-05  2.96e-05  0  0  0  -0.006  -0.006  0.0029289  0  0  0  0  0  0  0  0  0 
1701778671.185425000  -2  -1  1.5  0  0  2e-07  -7.81e-05  -7.81e-05  4.36e-05  0  0  0  -0.009375  -0.009375  0.0025185  0  0  0  0  0  0  0  0  0 
1701778671.190418000  -2  -1  1.5  0  0  4e-07  -0.000135  -0.000135  5.36e-05  0  0  0  -0.0135  -0.0135  0.0013619  0  0  0  0  0  0  0  0  0 
1701778671.195421000  -2  -1  1.5  0  0  6e-07  -0.0002144  -0.0002144  5.74e-05  0  0  0  -0.018375  -0.018375  0.0003076  0  0  0  0  0  0  0  0  0 
1701778671.200425000  -2  -1  1.5  0  0  8e-07  -0.00032  -0.00032  5.79e-05  0  0  0  -0.024  -0.024  -3.3e-06  0  0  0  0  0  0  0  0  0 
1701778671.205423000  -2.00001  -1.00001  1.5  0  0  1e-06  -0.0004549  -0.0004556  5.71e-05  0  0  0  -0.0298319  -0.030375  -0.0004491  0  0  0  0  0  0  0  0  0 
1701778671.210422000  -2.00001  -1.00001  1.5  0  0  1.2e-06  -0.0006171  -0.000625  5.22e-05  0  0  0  -0.0349304  -0.0375  -0.0016448  0  0  0  0  0  0  0  0  0 
1701778671.215435000  -2.00001  -1.00001  1.5  0  0  1.4e-06  -0.0008029  -0.0008318  3.94e-05  0  0  0  -0.0392789  -0.0452796  -0.0035905  0  0  0  0  0  0  0  0  0 
1701778671.220434000  -2.00002  -1.00002  1.5  0  0  1.7e-06  -0.0010086  -0.0010769  1.5e-05  0  0  0  -0.0428774  -0.0526197  -0.0062863  0  0  0  0  0  0  0  0  0 
1701778671.225419000  -2.00002  -1.00002  1.5  0  0  2e-06  -0.0012224  -0.0013394  -1.7e-05  0  0  0  -0.0425024  -0.0522447  -0.0066612  0  0  0  0  0  0  0  0  0 
1701778671.230419000  -2.00003  -1.00003  1.5  0  0  2.3e-06  -0.0014324  -0.0015981  -5.29e-05  0  0  0  -0.0413774  -0.0511197  -0.0077862  0  0  0  0  0  0  0  0  0 
1701778671.235419000  -2.00004  -1.00004  1.5  0  0  2.7e-06  -0.0016349  -0.0018493  -9.62e-05  0  0  0  -0.0395024  -0.0492447  -0.0096612  0  0  0  0  0  0  0  0  0 
1701778671.240434000  -2.00004  -1.00005  1.5  0  0  3.3e-06  -0.0018262  -0.0020893  -0.0001507  0  0  0  -0.0368774  -0.0466197  -0.0122863  0  0  0  0  0  0  0  0  0 
1701778671.245420000  -2.00005  -1.00006  1.5  0  0  3.9e-06  -0.0020024  -0.0023142  -0.0002203  0  0  0  -0.0335024  -0.0432447  -0.0156613  0  0  0  0  0  0  0  0  0 
1701778671.250417000  -2.00006  -1.00007  1.5  0  0  4.7e-06  -0.0021599  -0.0025205  -0.0003086  0  0  0  -0.0293774  -0.0391197  -0.0197863  0  0  0  0  0  0  0  0  0 
1701778671.255420000  -2.00008  -1.00008  1.5  0  0  5.8e-06  -0.0022949  -0.0027042  -0.0004194  0  0  0  -0.0245024  -0.0342447  -0.0246613  0  0  0  0  0  0  0  0  0 
1701778671.260434000  -2.00009  -1.0001  1.49999  0  0  7.1e-06  -0.0024037  -0.0028617  -0.0005564  0  0  0  -0.0188774  -0.0286197  -0.0302863  0  0  0  0  0  0  0  0  0 
1701778671.265419000  -2.0001  -1.00011  1.49999  0  0  8.9e-06  -0.0024825  -0.0029891  -0.0007235  0  0  0  -0.0125024  -0.0222447  -0.0366613  0  0  0  0  0  0  0  0  0 
1701778671.270420000  -2.00011  -1.00013  1.49999  0  0  1.1e-05  -0.0025275  -0.0030829  -0.0009243  0  0  0  -0.0053774  -0.0151197  -0.0437863  0  0  0  0  0  0  0  0  0 
1701778671.275418000  -2.00012  -1.00014  1.49998  0  0  1.38e-05  -0.002535  -0.0031391  -0.0011626  0  0  0  0.0024976  -0.0072447  -0.0516613  0  0  0  0  0  0  0  0  0 
1701778671.280436000  -2.00014  -1.00016  1.49998  0  0  1.71e-05  -0.0025013  -0.0031541  -0.0014422  0  0  0  0.0111226  0.0013803  -0.0602863  0  0  0  0  0  0  0  0  0 
1701778671.285420000  -2.00015  -1.00018  1.49997  0  0  2.13e-05  -0.0024225  -0.003124  -0.0017667  0  0  0  0.0204976  0.0107553  -0.0696613  0  0  0  0  0  0  0  0  0 
1701778671.290419000  -2.00016  -1.00019  1.49996  0  0  2.63e-05  -0.002295  -0.0030453  -0.00214  0  0  0  0.0306226  0.0208803  -0.0797863  0  0  0  0  0  0  0  0  0 
1701778671.295418000  -2.00017  -1.00021  1.49995  0  0  3.24e-05  -0.002115  -0.002914  -0.0025658  0  0  0  0.0414976  0.0317553  -0.0906613  0  0  0  0  0  0  0  0  0 
1701778671.300434000  -2.00018  -1.00022  1.49993  0  0  3.97e-05  -0.0018788  -0.0027265  -0.0030479  0  0  0  0.0531226  0.0433803  -0.102286  0  0  0  0  0  0  0  0  0 
1701778671.305419000  -2.00019  -1.00023  1.49992  0  0  4.83e-05  -0.0015826  -0.0024789  -0.00359  0  0  0  0.0654976  0.0557553  -0.114661  0  0  0  0  0  0  0  0  0 
1701778671.310420000  -2.0002  -1.00024  1.4999  0  0  5.83e-05  -0.0012226  -0.0021677  -0.0041958  0  0  0  0.0786226  0.0688803  -0.127786  0  0  0  0  0  0  0  0  0 
1701778671.315420000  -2.0002  -1.00025  1.49987  0  0  7.01e-05  -0.0007951  -0.0017889  -0.0048691  0  0  0  0.0924976  0.0827553  -0.141661  0  0  0  0  0  0  0  0  0 
1701778671.320435000  -2.00021  -1.00026  1.49985  0  0  8.37e-05  -0.0002963  -0.0013388  -0.0056136  0  0  0  0.107123  0.0973803  -0.156286  0  0  0  0  0  0  0  0  0 
1701778671.325419000  -2.00021  -1.00027  1.49982  0  0  9.94e-05  0.0002774  -0.0008138  -0.0064332  0  0  0  0.122498  0.112755  -0.171661  0  0  0  0  0  0  0  0  0 
1701778671.330419000  -2.0002  -1.00027  1.49978  0  0  0.0001173  0.0009299  -0.00021  -0.0073315  0  0  0  0.138623  0.12888  -0.187786  0  0  0  0  0  0  0  0  0 
1701778671.335419000  -2.0002  -1.00027  1.49974  0  0  0.0001377  0.0016649  0.0004762  -0.0083123  0  0  0  0.155498  0.145755  -0.204661  0  0  0  0  0  0  0  0  0 
1701778671.340434000  -2.00019  -1.00027  1.4997  0  0  0.0001607  0.0024861  0.0012488  -0.0093793  0  0  0  0.173123  0.16338  -0.222286  0  0  0  0  0  0  0  0  0 
1701778671.345419000  -2.00017  -1.00026  1.49965  0  0  0.0001867  0.0033973  0.0021113  -0.0105364  0  0  0  0.191498  0.181755  -0.240661  0  0  0  0  0  0  0  0  0 
1701778671.350419000  -2.00015  -1.00024  1.49959  0  0  0.0002158  0.0044023  0.0030676  -0.0117872  0  0  0  0.210623  0.20088  -0.259786  0  0  0  0  0  0  0  0  0 
1701778671.355417000  -2.00013  -1.00023  1.49953  0  0  0.0002481  0.0055048  0.0041213  -0.0131355  0  0  0  0.230498  0.220755  -0.279661  0  0  0  0  0  0  0  0  0 
1701778671.360435000  -2.0001  -1.0002  1.49946  0  0  0.0002839  0.0067086  0.0052764  -0.0145851  0  0  0  0.251123  0.24138  -0.300286  0  0  0  0  0  0  0  0  0 
1701778671.365420000  -2.00006  -1.00017  1.49939  0  0  0.0003233  0.0080173  0.0065364  -0.0161396  0  0  0  0.272498  0.262755  -0.321661  0  0  0  0  0  0  0  0  0 
1701778671.370419000  -2.00002  -1.00014  1.4993  0  0  0.0003665  0.0094348  0.0079052  -0.0178029  0  0  0  0.294623  0.28488  -0.343786  0  0  0  0  0  0  0  0  0 
1701778671.375420000  -1.99997  -1.00009  1.49921  0  0  0.0004136  0.0109648  0.0093864  -0.0195787  0  0  0  0.317498  0.307755  -0.366661  0  0  0  0  0  0  0  0  0 
1701778671.380434000  -1.99991  -1.00004  1.4991  0  0  0.0004647  0.012611  0.010984  -0.0214708  0  0  0  0.341123  0.33138  -0.390286  0  0  0  0  0  0  0  0  0 
1701778671.385419000  -1.99984  -0.999984  1.49899  0  0  0.0005201  0.0143772  0.0127015  -0.0234829  0  0  0  0.365498  0.355755  -0.414661  0  0  0  0  0  0  0  0  0 
1701778671.390419000  -1.99976  -0.999916  1.49887  0  0  0.0005798  0.0162672  0.0145428  -0.0256187  0  0  0  0.390623  0.38088  -0.439786  0  0  0  0  0  0  0  0  0 
1701778671.395424000  -1.99968  -0.999838  1.49874  0  0  0.0006438  0.0182847  0.0165116  -0.027882  0  0  0  0.416498  0.406755  -0.465661  0  0  0  0  0  0  0  0  0 
1701778671.400432000  -1.99958  -0.99975  1.49859  0  0  0.0007124  0.0204335  0.0186116  -0.0302763  0  0  0  0.443123  0.43338  -0.492044  0  0  0  0  0  0  0  0  0 
1701778671.405419000  -1.99947  -0.999652  1.49843  0  0  0.0007856  0.0227172  0.0208466  -0.0328013  0  0  0  0.470498  0.460755  -0.517817  0  0  0  0  0  0  0  0  0 
1701778671.410419000  -1.99935  -0.999542  1.49826  0  0  0.0008634  0.0251397  0.0232204  -0.0354532  0  0  0  0.498623  0.48888  -0.542839  0  0  0  0  0  0  0  0  0 
1701778671.415420000  -1.99922  -0.999419  1.49808  0  0  0.000946  0.0277047  0.0257367  -0.0382284  0  0  0  0.527498  0.517755  -0.567112  0  0  0  0  0  0  0  0  0 
1701778671.420435000  -1.99908  -0.999284  1.49788  0  0  0.0010334  0.0304159  0.0283992  -0.0411231  0  0  0  0.557123  0.54738  -0.590635  0  0  0  0  0  0  0  0  0 
1701778671.425423000  -1.99892  -0.999135  1.49767  0  0  0.0011256  0.0332772  0.0312117  -0.0441335  0  0  0  0.587498  0.577755  -0.613407  0  0  0  0  0  0  0  0  0 
1701778671.430420000  -1.99874  -0.998972  1.49744  0  0  0.0012228  0.0362921  0.034178  -0.0472559  0  0  0  0.618623  0.60888  -0.63543  0  0  0  0  0  0  0  0  0 
1701778671.435420000  -1.99855  -0.998793  1.49719  0  0  0.0013248  0.0394646  0.0373018  -0.0504865  0  0  0  0.650498  0.640755  -0.656702  0  0  0  0  0  0  0  0  0 
1701778671.440434000  -1.99835  -0.998598  1.49693  0  0  0.0014317  0.0427984  0.0405868  -0.0538217  0  0  0  0.683123  0.67338  -0.677225  0  0  0  0  0  0  0  0  0 
1701778671.445420000  -1.99812  -0.998387  1.49666  0  0  0.0015436  0.0462971  0.0440368  -0.0572575  0  0  0  0.716498  0.706755  -0.696998  0  0  0  0  0  0  0  0  0 
1701778671.450419000  -1.99788  -0.998158  1.49636  0  0  0.0016604  0.0499643  0.0476554  -0.0607904  0  0  0  0.750312  0.740692  -0.71602  0  0  0  0  0  0  0  0  0 
1701778671.455418000  -1.99762  -0.99791  1.49605  0  0  0.0017821  0.053799  0.0514426  -0.0644165  0  0  0  0.783471  0.774066  -0.734293  0  0  0  0  0  0  0  0  0 
1701778671.460435000  -1.99735  -0.997643  1.49572  0  0  0.0019087  0.0577977  0.0553948  -0.0681321  0  0  0  0.81588  0.806689  -0.751815  0  0  0  0  0  0  0  0  0 
1701778671.465420000  -1.99705  -0.997356  1.49537  0  0  0.0020402  0.0619566  0.0595083  -0.0719334  0  0  0  0.847539  0.838563  -0.768588  0  0  0  0  0  0  0  0  0 
1701778671.470420000  -1.99673  -0.997048  1.495  0  0  0.0021765  0.0662719  0.0637792  -0.0758167  0  0  0  0.878448  0.869686  -0.784611  0  0  0  0  0  0  0  0  0 
1701778671.475420000  -1.99638  -0.996718  1.49461  0  0  0.0023175  0.0707398  0.0682039  -0.0797783  0  0  0  0.908607  0.90006  -0.799883  0  0  0  0  0  0  0  0  0 
1701778671.480434000  -1.99602  -0.996365  1.4942  0  0  0.0024633  0.0753567  0.0727786  -0.0838143  0  0  0  0.938016  0.929683  -0.814406  0  0  0  0  0  0  0  0  0 
1701778671.485420000  -1.99563  -0.99599  1.49377  0  0  0.0026136  0.0801187  0.0774995  -0.0879211  0  0  0  0.966675  0.958557  -0.828179  0  0  0  0  0  0  0  0  0 
1701778671.490419000  -1.99522  -0.99559  1.49332  0  0  0.0027685  0.0850222  0.0823629  -0.0920948  0  0  0  0.994584  0.98668  -0.841201  0  0  0  0  0  0  0  0  0 
1701778671.495420000  -1.99478  -0.995166  1.49285  0  0  0.0029279  0.0900633  0.087365  -0.0963318  0  0  0  1.02174  1.01405  -0.853474  0  0  0  0  0  0  0  0  0 
1701778671.500434000  -1.99432  -0.994716  1.49236  0  0  0.0030916  0.0952384  0.0925022  -0.100628  0  0  0  1.04815  1.04068  -0.864996  0  0  0  0  0  0  0  0  0 
1701778671.505420000  -1.99383  -0.994241  1.49184  0  0  0.0032595  0.100544  0.0977706  -0.104981  0  0  0  1.07381  1.06655  -0.875769  0  0  0  0  0  0  0  0  0 
1701778671.510420000  -1.99331  -0.993738  1.49131  0  0  0.0034316  0.105975  0.103166  -0.109385  0  0  0  1.09872  1.09167  -0.885792  0  0  0  0  0  0  0  0  0 
1701778671.515419000  -1.99277  -0.993209  1.49075  0  0  0.0036076  0.11153  0.108686  -0.113837  0  0  0  1.12288  1.11605  -0.895064  0  0  0  0  0  0  0  0  0 
1701778671.520435000  -1.99219  -0.992651  1.49017  0  0  0.0037875  0.117203  0.114326  -0.118334  0  0  0  1.14629  1.13967  -0.903587  0  0  0  0  0  0  0  0  0 
1701778671.525427000  -1.99159  -0.992065  1.48957  0  0  0.0039711  0.122991  0.120082  -0.122872  0  0  0  1.16895  1.16254  -0.911359  0  0  0  0  0  0  0  0  0 
1701778671.530420000  -1.99096  -0.99145  1.48894  0  0  0.0041581  0.128891  0.12595  -0.127446  0  0  0  1.19086  1.18467  -0.918382  0  0  0  0  0  0  0  0  0 
1701778671.535424000  -1.99031  -0.990806  1.48829  0  0  0.0043485  0.134898  0.131927  -0.132054  0  0  0  1.21202  1.20604  -0.924655  0  0  0  0  0  0  0  0  0 
1701778671.540435000  -1.98962  -0.990131  1.48762  0  0  0.0045421  0.14101  0.138009  -0.136692  0  0  0  1.23242  1.22667  -0.930177  0  0  0  0  0  0  0  0  0 
1701778671.545420000  -1.98889  -0.989425  1.48692  0  0  0.0047386  0.147221  0.144192  -0.141355  0  0  0  1.25208  1.24654  -0.93495  0  0  0  0  0  0  0  0  0 
1701778671.550421000  -1.98814  -0.988689  1.48621  0  0  0.004938  0.153529  0.150473  -0.14604  0  0  0  1.27099  1.26566  -0.938973  0  0  0  0  0  0  0  0  0 
1701778671.555421000  -1.98736  -0.98792  1.48546  0  0  0.0051398  0.15993  0.156848  -0.150743  0  0  0  1.28915  1.28404  -0.942245  0  0  0  0  0  0  0  0  0 
1701778671.560436000  -1.98654  -0.98712  1.4847  0  0  0.005344  0.16642  0.163312  -0.155461  0  0  0  1.30656  1.30166  -0.944768  0  0  0  0  0  0  0  0  0 
1701778671.565419000  -1.9857  -0.986287  1.48391  0  0  0.0055503  0.172995  0.169863  -0.16019  0  0  0  1.32322  1.31853  -0.94654  0  0  0  0  0  0  0  0  0 
1701778671.570420000  -1.98481  -0.985421  1.4831  0  0  0.0057586  0.179651  0.176496  -0.164925  0  0  0  1.33913  1.33466  -0.947563  0  0  0  0  0  0  0  0  0 
1701778671.575419000  -1.9839  -0.984522  1.48226  0  0  0.0059686  0.186385  0.183208  -0.169664  0  0  0  1.35429  1.35003  -0.947836  0  0  0  0  0  0  0  0  0 
1701778671.580434000  -1.98295  -0.983589  1.4814  0  0  0.0061801  0.193192  0.189995  -0.174402  0  0  0  1.3687  1.36465  -0.947358  0  0  0  0  0  0  0  0  0 
1701778671.585418000  -1.98197  -0.982622  1.48052  0  0  0.006393  0.20007  0.196854  -0.179137  0  0  0  1.38236  1.37853  -0.946131  0  0  0  0  0  0  0  0  0 
1701778671.590418000  -1.98095  -0.98162  1.47961  0  0  0.0066071  0.207015  0.203779  -0.183863  0  0  0  1.39527  1.39165  -0.944153  0  0  0  0  0  0  0  0  0 
1701778671.595418000  -1.9799  -0.980584  1.47868  0  0  0.0068223  0.214022  0.210769  -0.188577  0  0  0  1.40742  1.40402  -0.941426  0  0  0  0  0  0  0  0  0 
1701778671.600440000  -1.97881  -0.979513  1.47772  0  0  0.0070385  0.221088  0.217818  -0.193276  0  0  0  1.41883  1.41565  -0.937949  0  0  0  0  0  0  0  0  0 
1701778671.605418000  -1.97769  -0.978406  1.47674  0  0  0.0072554  0.228209  0.224924  -0.197955  0  0  0  1.42949  1.42652  -0.933721  0  0  0  0  0  0  0  0  0 
1701778671.610423000  -1.97653  -0.977263  1.47574  0  0  0.007473  0.235381  0.232082  -0.202612  0  0  0  1.4394  1.43664  -0.928744  0  0  0  0  0  0  0  0  0 
1701778671.615417000  -1.97533  -0.976085  1.47472  0  0  0.0076911  0.242602  0.239289  -0.207241  0  0  0  1.44856  1.44602  -0.923017  0  0  0  0  0  0  0  0  0 
1701778671.620434000  -1.9741  -0.97487  1.47367  0  0  0.0079097  0.249866  0.246541  -0.21184  0  0  0  1.45697  1.45464  -0.916539  0  0  0  0  0  0  0  0  0 
1701778671.625416000  -1.97283  -0.973619  1.4726  0  0  0.0081287  0.25717  0.253834  -0.216405  0  0  0  1.46463  1.46251  -0.909312  0  0  0  0  0  0  0  0  0 
1701778671.630417000  -1.97153  -0.972332  1.47151  0  0  0.008348  0.264511  0.261165  -0.220932  0  0  0  1.47154  1.46964  -0.901334  0  0  0  0  0  0  0  0  0 
1701778671.635417000  -1.97019  -0.971008  1.47039  0  0  0.0085675  0.271884  0.26853  -0.225417  0  0  0  1.4777  1.47601  -0.892607  0  0  0  0  0  0  0  0  0 
1701778671.640432000  -1.96881  -0.969647  1.46925  0  0  0.0087872  0.279286  0.275924  -0.229857  0  0  0  1.48311  1.48164  -0.88313  0  0  0  0  0  0  0  0  0 
1701778671.645418000  -1.96739  -0.968248  1.46809  0  0  0.0090069  0.286714  0.283345  -0.234248  0  0  0  1.48776  1.48651  -0.872902  0  0  0  0  0  0  0  0  0 
1701778671.650418000  -1.96594  -0.966813  1.46691  0  0  0.0092268  0.294163  0.290788  -0.238585  0  0  0  1.49167  1.49063  -0.861925  0  0  0  0  0  0  0  0  0 
1701778671.655417000  -1.96445  -0.965341  1.46571  0  0  0.0094466  0.301629  0.29825  -0.242866  0  0  0  1.49483  1.49401  -0.850197  0  0  0  0  0  0  0  0  0 
1701778671.660433000  -1.96293  -0.963831  1.46448  0  0  0.0096665  0.30911  0.305727  -0.247086  0  0  0  1.49724  1.49663  -0.83772  0  0  0  0  0  0  0  0  0 
1701778671.665417000  -1.96136  -0.962283  1.46324  0  0  0.0098864  0.316601  0.313215  -0.251241  0  0  0  1.4989  1.4985  -0.824493  0  0  0  0  0  0  0  0  0 
1701778671.670418000  -1.95976  -0.960698  1.46197  0  0  0.0101063  0.324098  0.32071  -0.255329  0  0  0  1.49981  1.49963  -0.810515  0  0  0  0  0  0  0  0  0 
1701778671.675418000  -1.95812  -0.959076  1.46068  0  0  0.0103261  0.331597  0.32821  -0.259345  0  0  0  1.5  1.5  -0.795788  0  0  0  0  0  0  0  0  0 
1701778671.680423000  -1.95644  -0.957416  1.45938  0  0  0.010546  0.339097  0.33571  -0.263286  0  0  0  1.5  1.5  -0.780311  0  0  0  0  0  0  0  0  0 
1701778671.685417000  -1.95473  -0.955719  1.45805  0  0  0.0107659  0.346597  0.34321  -0.267147  0  0  0  1.5  1.5  -0.764083  0  0  0  0  0  0  0  0  0 
1701778671.690417000  -1.95298  -0.953984  1.4567  0  0  0.0109858  0.354097  0.35071  -0.270926  0  0  0  1.5  1.5  -0.747106  0  0  0  0  0  0  0  0  0 
1701778671.695417000  -1.95119  -0.952212  1.45534  0  0  0.0112057  0.361597  0.35821  -0.274617  0  0  0  1.5  1.5  -0.729378  0  0  0  0  0  0  0  0  0 
1701778671.700432000  -1.94936  -0.950402  1.45396  0  0  0.0114255  0.369097  0.36571  -0.278218  0  0  0  1.5  1.5  -0.710901  0  0  0  0  0  0  0  0  0 
1701778671.705417000  -1.9475  -0.948555  1.45256  0  0  0.0116454  0.376597  0.37321  -0.281772  0  0  0  1.5  1.5  -0.710526  0  0  0  0  0  0  0  0  0 
1701778671.710416000  -1.9456  -0.94667  1.45114  0  0  0.0118653  0.384097  0.38071  -0.285322  0  0  0  1.5  1.5  -0.709401  0  0  0  0  0  0  0  0  0 
1701778671.715417000  -1.94366  -0.944748  1.4497  0  0  0.0120852  0.391597  0.38821  -0.288865  0  0  0  1.5  1.5  -0.707526  0  0  0  0  0  0  0  0  0 
1701778671.720433000  -1.94168  -0.942788  1.44825  0  0  0.012305  0.399097  0.39571  -0.292396  0  0  0  1.5  1.5  -0.704901  0  0  0  0  0  0  0  0  0 
1701778671.725425000  -1.93967  -0.940791  1.44678  0  0  0.0125247  0.406597  0.40321  -0.295912  0  0  0  1.5  1.5  -0.701526  0  0  0  0  0  0  0  0  0 
1701778671.730416000  -1.93761  -0.938756  1.44529  0  0  0.0127443  0.414097  0.41071  -0.29941  0  0  0  1.5  1.5  -0.697401  0  0  0  0  0  0  0  0  0 
1701778671.735418000  -1.93553  -0.936684  1.44379  0  0  0.0129637  0.421597  0.41821  -0.302885  0  0  0  1.5  1.5  -0.692526  0  0  0  0  0  0  0  0  0 
1701778671.740432000  -1.9334  -0.934574  1.44226  0  0  0.0131829  0.429097  0.42571  -0.306334  0  0  0  1.5  1.5  -0.686901  0  0  0  0  0  0  0  0  0 
1701778671.745418000  -1.93123  -0.932426  1.44072  0  0  0.0134017  0.436597  0.43321  -0.309753  0  0  0  1.5  1.5  -0.680526  0  0  0  0  0  0  0  0  0 
1701778671.750417000  -1.92903  -0.930242  1.43917  0  0  0.0136202  0.444097  0.44071  -0.313138  0  0  0  1.5  1.5  -0.673401  0  0  0  0  0  0  0  0  0 
1701778671.755418000  -1.92679  -0.928019  1.43759  0  0  0.0138381  0.451597  0.44821  -0.316486  0  0  0  1.5  1.5  -0.665526  0  0  0  0  0  0  0  0  0 
1701778671.760452000  -1.92452  -0.92576  1.436  0  0  0.0140555  0.459097  0.45571  -0.319792  0  0  0  1.5  1.5  -0.656901  0  0  0  0  0  0  0  0  0 
1701778671.765433000  -1.9222  -0.923462  1.43439  0  0  0.0142721  0.466597  0.46321  -0.323053  0  0  0  1.5  1.5  -0.647526  0  0  0  0  0  0  0  0  0 
1701778671.770433000  -1.91985  -0.921127  1.43277  0  0  0.0144879  0.474097  0.47071  -0.326266  0  0  0  1.5  1.5  -0.637401  0  0  0  0  0  0  0  0  0 
1701778671.775432000  -1.91746  -0.918755  1.43113  0  0  0.0147027  0.481597  0.47821  -0.329426  0  0  0  1.5  1.5  -0.626526  0  0  0  0  0  0  0  0  0 
1701778671.780443000  -1.91503  -0.916345  1.42948  0  0  0.0149164  0.489097  0.48571  -0.33253  0  0  0  1.5  1.5  -0.614901  0  0  0  0  0  0  0  0  0 
1701778671.785433000  -1.91257  -0.913898  1.42781  0  0  0.0151288  0.496597  0.49321  -0.335574  0  0  0  1.5  1.5  -0.602526  0  0  0  0  0  0  0  0  0 
1701778671.790432000  -1.91007  -0.911413  1.42612  0  0  0.0153399  0.504097  0.50071  -0.338554  0  0  0  1.5  1.5  -0.589401  0  0  0  0  0  0  0  0  0 
1701778671.795433000  -1.90753  -0.908891  1.42442  0  0  0.0155496  0.511597  0.50821  -0.341467  0  0  0  1.5  1.5  -0.575526  0  0  0  0  0  0  0  0  0 
1701778671.800441000  -1.90495  -0.906331  1.42271  0  0  0.0157577  0.519097  0.51571  -0.344308  0  0  0  1.5  1.5  -0.560901  0  0  0  0  0  0  0  0  0 
1701778671.805433000  -1.90234  -0.903734  1.42098  0  0  0.0159643  0.526597  0.52321  -0.347075  0  0  0  1.5  1.5  -0.545526  0  0  0  0  0  0  0  0  0 
1701778671.810423000  -1.89969  -0.901099  1.41924  0  0  0.0161691  0.534097  0.53071  -0.349762  0  0  0  1.5  1.5  -0.529401  0  0  0  0  0  0  0  0  0 
1701778671.815420000  -1.897  -0.898427  1.41748  0  0  0.0163722  0.541597  0.53821  -0.352367  0  0  0  1.5  1.5  -0.512526  0  0  0  0  0  0  0  0  0 
1701778671.820437000  -1.89427  -0.895717  1.41571  0  0  0.0165735  0.549097  0.54571  -0.354886  0  0  0  1.5  1.5  -0.494901  0  0  0  0  0  0  0  0  0 
1701778671.825422000  -1.89151  -0.89297  1.41393  0  0  0.0167729  0.556597  0.55321  -0.357315  0  0  0  1.5  1.5  -0.476526  0  0  0  0  0  0  0  0  0 
1701778671.830422000  -1.8887  -0.890185  1.41214  0  0  0.0169705  0.564097  0.56071  -0.35965  0  0  0  1.5  1.5  -0.457401  0  0  0  0  0  0  0  0  0 
1701778671.835423000  -1.88587  -0.887363  1.41034  0  0  0.0171662  0.571597  0.56821  -0.361888  0  0  0  1.5  1.5  -0.437526  0  0  0  0  0  0  0  0  0 
1701778671.840430000  -1.88299  -0.884503  1.40852  0  0  0.01736  0.579097  0.57571  -0.364024  0  0  0  1.5  1.5  -0.416901  0  0  0  0  0  0  0  0  0 
1701778671.845436000  -1.88007  -0.881605  1.4067  0  0  0.0175519  0.586597  0.58321  -0.366056  0  0  0  1.5  1.5  -0.395526  0  0  0  0  0  0  0  0  0 
1701778671.850438000  -1.87712  -0.878671  1.40486  0  0  0.0177419  0.594097  0.59071  -0.367978  0  0  0  1.5  1.5  -0.373401  0  0  0  0  0  0  0  0  0 
1701778671.855431000  -1.87413  -0.875698  1.40302  0  0  0.01793  0.601597  0.59821  -0.369788  0  0  0  1.5  1.5  -0.350526  0  0  0  0  0  0  0  0  0 
1701778671.860448000  -1.87111  -0.872689  1.40116  0  0  0.0181163  0.609097  0.60571  -0.371482  0  0  0  1.5  1.5  -0.326901  0  0  0  0  0  0  0  0  0 
1701778671.865422000  -1.86804  -0.869641  1.3993  0  0  0.0183007  0.616597  0.61321  -0.373056  0  0  0  1.5  1.5  -0.302526  0  0  0  0  0  0  0  0  0 
1701778671.870437000  -1.86494  -0.866556  1.39743  0  0  0.0184834  0.624097  0.62071  -0.374506  0  0  0  1.5  1.5  -0.277401  0  0  0  0  0  0  0  0  0 
1701778671.875438000  -1.8618  -0.863434  1.39556  0  0  0.0186645  0.631597  0.62821  -0.375829  0  0  0  1.5  1.5  -0.251526  0  0  0  0  0  0  0  0  0 
1701778671.880439000  -1.85862  -0.860274  1.39367  0  0  0.0188438  0.639097  0.63571  -0.37702  0  0  0  1.5  1.5  -0.224901  0  0  0  0  0  0  0  0  0 
1701778671.885437000  -1.85541  -0.857077  1.39179  0  0  0.0190217  0.646597  0.64321  -0.378077  0  0  0  1.5  1.5  -0.197629  0  0  0  0  0  0  0  0  0 
1701778671.890419000  -1.85216  -0.853842  1.38989  0  0  0.019198  0.654097  0.65071  -0.378997  0  0  0  1.5  1.5  -0.17081  0  0  0  0  0  0  0  0  0 
1701778671.895418000  -1.84887  -0.85057  1.388  0  0  0.0193731  0.661597  0.65821  -0.379786  0  0  0  1.5  1.5  -0.144741  0  0  0  0  0  0  0  0  0 
1701778671.900434000  -1.84554  -0.84726  1.3861  0  0  0.0195468  0.669097  0.66571  -0.380446  0  0  0  1.5  1.5  -0.119421  0  0  0  0  0  0  0  0  0 
1701778671.905420000  -1.84218  -0.843913  1.38419  0  0  0.0197194  0.676597  0.67321  -0.380981  0  0  0  1.5  1.5  -0.0948522  0  0  0  0  0  0  0  0  0 
1701778671.910420000  -1.83878  -0.840528  1.38229  0  0  0.019891  0.684097  0.68071  -0.381396  0  0  0  1.5  1.5  -0.071033  0  0  0  0  0  0  0  0  0 
1701778671.915419000  -1.83534  -0.837106  1.38038  0  0  0.0200618  0.691597  0.68821  -0.381693  0  0  0  1.5  1.5  -0.0479638  0  0  0  0  0  0  0  0  0 
1701778671.920433000  -1.83186  -0.833646  1.37847  0  0  0.0202318  0.699097  0.69571  -0.381877  0  0  0  1.5  1.5  -0.0256446  0  0  0  0  0  0  0  0  0 
1701778671.925434000  -1.82835  -0.830149  1.37656  0  0  0.0204011  0.706597  0.70321  -0.381951  0  0  0  1.5  1.5  -0.0040754  0  0  0  0  0  0  0  0  0 
1701778671.930419000  -1.82479  -0.826614  1.37465  0  0  0.02057  0.714097  0.71071  -0.381919  0  0  0  1.5  1.5  0.0167438  0  0  0  0  0  0  0  0  0 
1701778671.935419000  -1.82121  -0.823042  1.37274  0  0  0.0207384  0.721597  0.71821  -0.381785  0  0  0  1.5  1.5  0.036813  0  0  0  0  0  0  0  0  0 
1701778671.940434000  -1.81758  -0.819432  1.37083  0  0  0.0209065  0.729097  0.72571  -0.381552  0  0  0  1.5  1.5  0.0561322  0  0  0  0  0  0  0  0  0 
1701778671.945420000  -1.81391  -0.815784  1.36893  0  0  0.0210743  0.736597  0.73321  -0.381225  0  0  0  1.5  1.5  0.0747014  0  0  0  0  0  0  0  0  0 
1701778671.950417000  -1.81021  -0.8121  1.36702  0  0  0.021242  0.744097  0.74071  -0.380806  0  0  0  1.5  1.5  0.0925206  0  0  0  0  0  0  0  0  0 
1701778671.955419000  -1.80647  -0.808377  1.36512  0  0  0.0214095  0.751597  0.74821  -0.380301  0  0  0  1.5  1.5  0.10959  0  0  0  0  0  0  0  0  0 
1701778671.960439000  -1.8027  -0.804618  1.36322  0  0  0.0215769  0.759097  0.75571  -0.379711  0  0  0  1.5  1.5  0.125909  0  0  0  0  0  0  0  0  0 
1701778671.965418000  -1.79888  -0.80082  1.36132  0  0  0.0217442  0.766597  0.76321  -0.379043  0  0  0  1.5  1.5  0.141478  0  0  0  0  0  0  0  0  0 
1701778671.970418000  -1.79503  -0.796985  1.35943  0  0  0.0219116  0.774097  0.77071  -0.378298  0  0  0  1.5  1.5  0.156297  0  0  0  0  0  0  0  0  0 
1701778671.975419000  -1.79114  -0.793113  1.35754  0  0  0.0220789  0.781597  0.77821  -0.377481  0  0  0  1.5  1.5  0.170367  0  0  0  0  0  0  0  0  0 
1701778671.980433000  -1.78721  -0.789203  1.35565  0  0  0.0222462  0.789097  0.78571  -0.376596  0  0  0  1.5  1.5  0.183686  0  0  0  0  0  0  0  0  0 
1701778671.985418000  -1.78325  -0.785256  1.35377  0  0  0.0224135  0.796597  0.79321  -0.375645  0  0  0  1.5  1.5  0.196255  0  0  0  0  0  0  0  0  0 
1701778671.990419000  -1.77925  -0.781271  1.3519  0  0  0.0225809  0.804097  0.80071  -0.374634  0  0  0  1.5  1.5  0.208074  0  0  0  0  0  0  0  0  0 
1701778671.995433000  -1.77521  -0.777249  1.35003  0  0  0.0227482  0.811597  0.80821  -0.373566  0  0  0  1.5  1.5  0.219143  0  0  0  0  0  0  0  0  0 
1701778672.000424000  -1.77113  -0.773189  1.34816  0  0  0.0229155  0.819097  0.81571  -0.372444  0  0  0  1.5  1.5  0.229463  0  0  0  0  0  0  0  0  0 
1701778672.005419000  -1.76702  -0.769092  1.3463  0  0  0.0230828  0.826597  0.82321  -0.371273  0  0  0  1.5  1.5  0.239032  0  0  0  0  0  0  0  0  0 
1701778672.010419000  -1.76287  -0.764957  1.34445  0  0  0.0232502  0.834097  0.83071  -0.370055  0  0  0  1.5  1.5  0.247851  0  0  0  0  0  0  0  0  0 
1701778672.015418000  -1.75868  -0.760785  1.3426  0  0  0.0234175  0.841597  0.83821  -0.368795  0  0  0  1.5  1.5  0.25592  0  0  0  0  0  0  0  0  0 
1701778672.020433000  -1.75445  -0.756575  1.34076  0  0  0.0235848  0.849097  0.84571  -0.367497  0  0  0  1.5  1.5  0.263239  0  0  0  0  0  0  0  0  0 
1701778672.025482000  -1.75019  -0.752328  1.33893  0  0  0.0237521  0.856597  0.85321  -0.366164  0  0  0  1.5  1.5  0.269809  0  0  0  0  0  0  0  0  0 
1701778672.030417000  -1.74589  -0.748043  1.3371  0  0  0.0239195  0.864097  0.86071  -0.3648  0  0  0  1.5  1.5  0.275628  0  0  0  0  0  0  0  0  0 
1701778672.035420000  -1.74155  -0.743721  1.33528  0  0  0.0240868  0.871597  0.86821  -0.363409  0  0  0  1.5  1.5  0.280697  0  0  0  0  0  0  0  0  0 
1701778672.040433000  -1.73717  -0.739361  1.33346  0  0  0.0242541  0.879097  0.87571  -0.361994  0  0  0  1.5  1.5  0.285016  0  0  0  0  0  0  0  0  0 
1701778672.045420000  -1.73275  -0.734963  1.33166  0  0  0.0244214  0.886597  0.88321  -0.36056  0  0  0  1.5  1.5  0.288585  0  0  0  0  0  0  0  0  0 
1701778672.050418000  -1.7283  -0.730529  1.32986  0  0  0.0245887  0.894097  0.89071  -0.35911  0  0  0  1.5  1.5  0.291405  0  0  0  0  0  0  0  0  0 
1701778672.055419000  -1.72381  -0.726056  1.32807  0  0  0.0247561  0.901597  0.89821  -0.357647  0  0  0  1.5  1.5  0.293474  0  0  0  0  0  0  0  0  0 
1701778672.060425000  -1.71929  -0.721547  1.32628  0  0  0.0249234  0.909097  0.905709  -0.356176  0  0  0  1.5  1.49971  0.294793  0  0  0  0  0  0  0  0  0 
1701778672.065432000  -1.71472  -0.716999  1.32451  0  0  0.0250907  0.916597  0.913206  -0.354701  0  0  0  1.5  1.49868  0.295362  0  0  0  0  0  0  0  0  0 
1701778672.070432000  -1.71012  -0.712415  1.32274  0  0  0.025258  0.924097  0.920695  -0.353224  0  0  0  1.5  1.4969  0.295181  0  0  0  0  0  0  0  0  0 
1701778672.075417000  -1.70548  -0.707792  1.32097  0  0  0.0254254  0.931597  0.928174  -0.35175  0  0  0  1.5  1.49437  0.294251  0  0  0  0  0  0  0  0  0 
1701778672.080432000  -1.70081  -0.703133  1.31922  0  0  0.0255927  0.939097  0.935637  -0.350283  0  0  0  1.5  1.49109  0.29257  0  0  0  0  0  0  0  0  0 
1701778672.085418000  -1.69609  -0.698436  1.31747  0  0  0.02576  0.946597  0.943083  -0.348826  0  0  0  1.5  1.48706  0.290139  0  0  0  0  0  0  0  0  0 
1701778672.090419000  -1.69134  -0.693702  1.31573  0  0  0.0259273  0.954097  0.950507  -0.347383  0  0  0  1.5  1.48228  0.286958  0  0  0  0  0  0  0  0  0 
1701778672.095419000  -1.68655  -0.688931  1.314  0  0  0.0260947  0.961597  0.957905  -0.345957  0  0  0  1.5  1.47675  0.283028  0  0  0  0  0  0  0  0  0 
1701778672.100433000  -1.68172  -0.684123  1.31227  0  0  0.026262  0.969097  0.965273  -0.344554  0  0  0  1.5  1.47047  0.278347  0  0  0  0  0  0  0  0  0 
1701778672.105418000  -1.67686  -0.679278  1.31055  0  0  0.0264293  0.976597  0.972608  -0.343175  0  0  0  1.5  1.46344  0.272916  0  0  0  0  0  0  0  0  0 
1701778672.110426000  -1.67196  -0.674397  1.30884  0  0  0.0265966  0.984097  0.979906  -0.341826  0  0  0  1.5  1.45566  0.266735  0  0  0  0  0  0  0  0  0 
1701778672.115434000  -1.66702  -0.669479  1.30713  0  0  0.026764  0.991597  0.987163  -0.340509  0  0  0  1.5  1.44713  0.259804  0  0  0  0  0  0  0  0  0 
1701778672.120437000  -1.66204  -0.664525  1.30543  0  0  0.0269313  0.999097  0.994376  -0.339229  0  0  0  1.5  1.43785  0.252124  0  0  0  0  0  0  0  0  0 
1701778672.125432000  -1.65703  -0.659536  1.30374  0  0  0.0270986  1.0066  1.00154  -0.337989  0  0  0  1.5  1.42781  0.243693  0  0  0  0  0  0  0  0  0 
1701778672.130431000  -1.65198  -0.65451  1.30205  0  0  0.0272659  1.0141  1.00865  -0.336793  0  0  0  1.5  1.41703  0.234512  0  0  0  0  0  0  0  0  0 
1701778672.135429000  -1.64689  -0.649449  1.30037  0  0  0.0274332  1.0216  1.01571  -0.335645  0  0  0  1.5  1.4055  0.224581  0  0  0  0  0  0  0  0  0 
1701778672.140437000  -1.64176  -0.644353  1.2987  0  0  0.0276006  1.0291  1.02271  -0.334549  0  0  0  1.5  1.39322  0.2139  0  0  0  0  0  0  0  0  0 
1701778672.145431000  -1.6366  -0.639222  1.29703  0  0  0.0277679  1.0366  1.02964  -0.333507  0  0  0  1.5  1.38019  0.20247  0  0  0  0  0  0  0  0  0 
1701778672.150431000  -1.63139  -0.634057  1.29536  0  0  0.0279352  1.0441  1.03651  -0.332525  0  0  0  1.5  1.36641  0.190289  0  0  0  0  0  0  0  0  0 
1701778672.155431000  -1.62615  -0.628857  1.2937  0  0  0.0281025  1.0516  1.0433  -0.331606  0  0  0  1.5  1.35188  0.177358  0  0  0  0  0  0  0  0  0 
1701778672.160436000  -1.62088  -0.623624  1.29205  0  0  0.0282699  1.0591  1.05003  -0.330753  0  0  0  1.5  1.3366  0.163677  0  0  0  0  0  0  0  0  0 
1701778672.165423000  -1.61556  -0.618357  1.29039  0  0  0.0284372  1.0666  1.05667  -0.32997  0  0  0  1.5  1.32057  0.149246  0  0  0  0  0  0  0  0  0 
1701778672.170437000  -1.61021  -0.613057  1.28875  0  0  0.0286045  1.0741  1.06323  -0.329261  0  0  0  1.5  1.30379  0.134667  0  0  0  0  0  0  0  0  0 
1701778672.175436000  -1.60482  -0.607725  1.2871  0  0  0.0287718  1.0816  1.0697  -0.328622  0  0  0  1.5  1.28626  0.120829  0  0  0  0  0  0  0  0  0 
1701778672.180444000  -1.5994  -0.60236  1.28546  0  0  0.0289392  1.0891  1.07609  -0.328051  0  0  0  1.5  1.26798  0.107741  0  0  0  0  0  0  0  0  0 
1701778672.185438000  -1.59393  -0.596964  1.28382  0  0  0.0291065  1.0966  1.08238  -0.327544  0  0  0  1.5  1.24895  0.0954038  0  0  0  0  0  0  0  0  0 
1701778672.190436000  -1.58843  -0.591537  1.28218  0  0  0.0292738  1.1041  1.08858  -0.327096  0  0  0  1.5  1.22917  0.0838161  0  0  0  0  0  0  0  0  0 
1701778672.195436000  -1.58289  -0.586079  1.28055  0  0  0.0294411  1.1116  1.09467  -0.326704  0  0  0  1.5  1.20864  0.0729785  0  0  0  0  0  0  0  0  0 
1701778672.200444000  -1.57731  -0.58059  1.27892  0  0  0.0296085  1.1191  1.10066  -0.326365  0  0  0  1.5  1.18735  0.0628908  0  0  0  0  0  0  0  0  0 
1701778672.205437000  -1.5717  -0.575072  1.27729  0  0  0.0297758  1.1266  1.10655  -0.326074  0  0  0  1.5  1.16532  0.0535531  0  0  0  0  0  0  0  0  0 
1701778672.210437000  -1.56605  -0.569525  1.27566  0  0  0.0299431  1.1341  1.11232  -0.325828  0  0  0  1.5  1.14254  0.0449654  0  0  0  0  0  0  0  0  0 
1701778672.215436000  -1.56036  -0.563949  1.27403  0  0  0.0301104  1.1416  1.11797  -0.325623  0  0  0  1.5  1.11901  0.0371277  0  0  0  0  0  0  0  0  0 
1701778672.220444000  -1.55463  -0.558345  1.2724  0  0  0.0302778  1.1491  1.12351  -0.325456  0  0  0  1.5  1.09473  0.0300401  0  0  0  0  0  0  0  0  0 
1701778672.225436000  -1.54887  -0.552714  1.27077  0  0  0.0304451  1.1566  1.12892  -0.325322  0  0  0  1.5  1.0697  0.0237024  0  0  0  0  0  0  0  0  0 
1701778672.230436000  -1.54307  -0.547057  1.26915  0  0  0.0306124  1.1641  1.1342  -0.325217  0  0  0  1.49996  1.04392  0.0181147  0  0  0  0  0  0  0  0  0 
1701778672.235436000  -1.53723  -0.541373  1.26752  0  0  0.0307797  1.1716  1.13935  -0.325139  0  0  0  1.49934  1.01739  0.013277  0  0  0  0  0  0  0  0  0 
1701778672.240444000  -1.53135  -0.535663  1.26589  0  0  0.030947  1.17909  1.14437  -0.325083  0  0  0  1.49797  0.990109  0.0091893  0  0  0  0  0  0  0  0  0 
1701778672.245437000  -1.52544  -0.529929  1.26427  0  0  0.0311144  1.18657  1.14925  -0.325046  0  0  0  1.49586  0.962078  0.0058516  0  0  0  0  0  0  0  0  0 
1701778672.250436000  -1.51948  -0.524171  1.26264  0  0  0.0312817  1.19405  1.15399  -0.325024  0  0  0  1.49299  0.933298  0.003264  0  0  0  0  0  0  0  0  0 
1701778672.255436000  -1.5135  -0.518389  1.26102  0  0  0.031449  1.2015  1.15859  -0.325012  0  0  0  1.48937  0.903767  0.0014263  0  0  0  0  0  0  0  0  0 
1701778672.260444000  -1.50747  -0.512585  1.25939  0  0  0.0316163  1.20894  1.16303  -0.325008  0  0  0  1.485  0.873486  0.0003386  0  0  0  0  0  0  0  0  0 
1701778672.265438000  -1.50141  -0.506759  1.25777  0  0  0.0317837  1.21635  1.16732  -0.325007  0  0  0  1.47988  0.842456  -0  0  0  0  0  0  0  0  0  0 
1701778672.270436000  -1.49531  -0.500912  1.25614  0  0  0.031951  1.22374  1.17145  -0.325007  0  0  0  1.47401  0.810675  -0  0  0  0  0  0  0  0  0  0 
1701778672.275436000  -1.48917  -0.495045  1.25452  0  0  0.0321183  1.23109  1.17543  -0.325007  0  0  0  1.4674  0.778144  -0  0  0  0  0  0  0  0  0  0 
1701778672.280443000  -1.48299  -0.489158  1.25289  0  0  0.0322856  1.23841  1.17923  -0.325007  0  0  0  1.46003  0.744881  -0  0  0  0  0  0  0  0  0  0 
1701778672.285442000  -1.47678  -0.483253  1.25127  0  0  0.032453  1.24569  1.18287  -0.325007  0  0  0  1.45191  0.71183  -0  0  0  0  0  0  0  0  0  0 
1701778672.290436000  -1.47054  -0.47733  1.24964  0  0  0.0326203  1.25293  1.18635  -0.325007  0  0  0  1.44304  0.679529  -0  0  0  0  0  0  0  0  0  0 
1701778672.295437000  -1.46426  -0.47139  1.24802  0  0  0.0327876  1.26012  1.18967  -0.325007  0  0  0  1.43342  0.647977  -0  0  0  0  0  0  0  0  0  0 
1701778672.300444000  -1.45794  -0.465433  1.24639  0  0  0.0329549  1.26726  1.19283  -0.325007  0  0  0  1.42306  0.617176  -0  0  0  0  0  0  0  0  0  0 
1701778672.305439000  -1.45158  -0.459462  1.24477  0  0  0.0331223  1.27435  1.19584  -0.325007  0  0  0  1.41194  0.587124  -0  0  0  0  0  0  0  0  0  0 
1701778672.310439000  -1.44519  -0.453475  1.24314  0  0  0.0332896  1.28138  1.19871  -0.325007  0  0  0  1.40007  0.557823  -0  0  0  0  0  0  0  0  0  0 
1701778672.315422000  -1.43877  -0.447475  1.24152  0  0  0.0334569  1.28835  1.20142  -0.325007  0  0  0  1.38745  0.529272  -0  0  0  0  0  0  0  0  0  0 
1701778672.320426000  -1.43231  -0.441461  1.23989  0  0  0.0336242  1.29525  1.204  -0.325007  0  0  0  1.37408  0.50147  -0  0  0  0  0  0  0  0  0  0 
1701778672.325453000  -1.42582  -0.435435  1.23827  0  0  0.0337916  1.30209  1.20644  -0.325007  0  0  0  1.35996  0.474419  -0  0  0  0  0  0  0  0  0  0 
1701778672.330420000  -1.41929  -0.429397  1.23664  0  0  0.0339589  1.30885  1.20875  -0.325007  0  0  0  1.3451  0.448118  -0  0  0  0  0  0  0  0  0  0 
1701778672.335419000  -1.41273  -0.423348  1.23502  0  0  0.0341262  1.31554  1.21092  -0.325007  0  0  0  1.32948  0.422566  -0  0  0  0  0  0  0  0  0  0 
1701778672.340441000  -1.40613  -0.417288  1.23339  0  0  0.0342935  1.32214  1.21297  -0.325007  0  0  0  1.31311  0.397765  -0  0  0  0  0  0  0  0  0  0 
1701778672.345428000  -1.39951  -0.411218  1.23177  0  0  0.0344608  1.32867  1.2149  -0.325007  0  0  0  1.29599  0.373714  -0  0  0  0  0  0  0  0  0  0 
1701778672.350433000  -1.39285  -0.405139  1.23014  0  0  0.0346282  1.3351  1.21671  -0.325007  0  0  0  1.27812  0.350412  -0  0  0  0  0  0  0  0  0  0 
1701778672.355443000  -1.38616  -0.399051  1.22852  0  0  0.0347955  1.34145  1.21841  -0.325007  0  0  0  1.25951  0.327861  -0  0  0  0  0  0  0  0  0  0 
1701778672.360444000  -1.37943  -0.392955  1.22689  0  0  0.0349628  1.3477  1.21999  -0.325007  0  0  0  1.24014  0.306059  -0  0  0  0  0  0  0  0  0  0 
1701778672.365445000  -1.37268  -0.386852  1.22527  0  0  0.0351301  1.35385  1.22147  -0.325007  0  0  0  1.22002  0.285008  -0  0  0  0  0  0  0  0  0  0 
1701778672.370450000  -1.36589  -0.380741  1.22364  0  0  0.0352975  1.3599  1.22284  -0.325007  0  0  0  1.19915  0.264707  -0  0  0  0  0  0  0  0  0  0 
1701778672.375448000  -1.35908  -0.374623  1.22202  0  0  0.0354648  1.36584  1.22412  -0.325007  0  0  0  1.17753  0.245155  -0  0  0  0  0  0  0  0  0  0 
1701778672.380442000  -1.35224  -0.3685  1.22039  0  0  0.0356321  1.37167  1.22529  -0.325007  0  0  0  1.15516  0.226354  -0  0  0  0  0  0  0  0  0  0 
1701778672.385453000  -1.34536  -0.362371  1.21877  0  0  0.0357994  1.37739  1.22638  -0.325007  0  0  0  1.13205  0.208303  -0  0  0  0  0  0  0  0  0  0 
1701778672.390450000  -1.33846  -0.356236  1.21714  0  0  0.0359668  1.38299  1.22738  -0.325007  0  0  0  1.10818  0.191001  -0  0  0  0  0  0  0  0  0  0 
1701778672.395433000  -1.33153  -0.350097  1.21552  0  0  0.0361341  1.38847  1.22829  -0.325007  0  0  0  1.08356  0.17445  -0  0  0  0  0  0  0  0  0  0 
1701778672.400449000  -1.32458  -0.343953  1.21389  0  0  0.0363014  1.39382  1.22912  -0.325007  0  0  0  1.05819  0.158648  -0  0  0  0  0  0  0  0  0  0 
1701778672.405453000  -1.3176  -0.337806  1.21227  0  0  0.0364687  1.39905  1.22988  -0.325007  0  0  0  1.03207  0.143597  -0  0  0  0  0  0  0  0  0  0 
1701778672.410434000  -1.31059  -0.331655  1.21064  0  0  0.0366361  1.40414  1.23056  -0.325007  0  0  0  1.0052  0.129296  -0  0  0  0  0  0  0  0  0  0 
1701778672.415419000  -1.30355  -0.3255  1.20902  0  0  0.0368034  1.4091  1.23117  -0.325007  0  0  0  0.977587  0.115744  -0  0  0  0  0  0  0  0  0  0 
1701778672.420434000  -1.2965  -0.319343  1.20739  0  0  0.0369707  1.41392  1.23172  -0.325007  0  0  0  0.949218  0.102943  -0  0  0  0  0  0  0  0  0  0 
1701778672.425428000  -1.28942  -0.313183  1.20577  0  0  0.037138  1.41859  1.2322  -0.325007  0  0  0  0.9201  0.0908917  -0  0  0  0  0  0  0  0  0  0 
1701778672.430424000  -1.28231  -0.307021  1.20414  0  0  0.0373053  1.42312  1.23263  -0.325007  0  0  0  0.890232  0.0795903  -0  0  0  0  0  0  0  0  0  0 
1701778672.435418000  -1.27519  -0.300857  1.20252  0  0  0.0374727  1.42749  1.233  -0.325007  0  0  0  0.859614  0.0690389  -0  0  0  0  0  0  0  0  0  0 
1701778672.440444000  -1.26804  -0.294691  1.20089  0  0  0.03764  1.43171  1.23332  -0.325007  0  0  0  0.828246  0.0592376  -0  0  0  0  0  0  0  0  0  0 
1701778672.445438000  -1.26087  -0.288524  1.19927  0  0  0.0378073  1.43577  1.2336  -0.325007  0  0  0  0.796127  0.0501862  -0  0  0  0  0  0  0  0  0  0 
1701778672.450428000  -1.25368  -0.282355  1.19764  0  0  0.0379746  1.43967  1.23383  -0.325007  0  0  0  0.763259  0.0418848  -0  0  0  0  0  0  0  0  0  0 
1701778672.455435000  -1.24647  -0.276186  1.19602  0  0  0.038142  1.4434  1.23402  -0.325007  0  0  0  0.729914  0.0343335  -0  0  0  0  0  0  0  0  0  0 
1701778672.460443000  -1.23925  -0.270015  1.19439  0  0  0.0383093  1.44697  1.23417  -0.325007  0  0  0  0.6972  0.0275321  -0  0  0  0  0  0  0  0  0  0 
1701778672.465436000  -1.232  -0.263844  1.19277  0  0  0.0384766  1.45038  1.23429  -0.325007  0  0  0  0.665236  0.0214807  -0  0  0  0  0  0  0  0  0  0 
1701778672.470436000  -1.22474  -0.257672  1.19114  0  0  0.0386439  1.45363  1.23439  -0.325007  0  0  0  0.634022  0.0161794  -0  0  0  0  0  0  0  0  0  0 
1701778672.475437000  -1.21747  -0.2515  1.18952  0  0  0.0388113  1.45672  1.23446  -0.325007  0  0  0  0.603558  0.011628  -0  0  0  0  0  0  0  0  0  0 
1701778672.480442000  -1.21018  -0.245328  1.18789  0  0  0.0389786  1.45966  1.2345  -0.325007  0  0  0  0.573845  0.0078266  -0  0  0  0  0  0  0  0  0  0 
1701778672.485436000  -1.20287  -0.239155  1.18627  0  0  0.0391459  1.46246  1.23453  -0.325007  0  0  0  0.544881  0.0047753  -0  0  0  0  0  0  0  0  0  0 
1701778672.490435000  -1.19555  -0.232983  1.18464  0  0  0.0393132  1.46511  1.23455  -0.325007  0  0  0  0.516667  0.0024739  -0  0  0  0  0  0  0  0  0  0 
1701778672.495435000  -1.18822  -0.22681  1.18302  0  0  0.0394806  1.46763  1.23456  -0.325007  0  0  0  0.489203  0.0009226  -0  0  0  0  0  0  0  0  0  0 
1701778672.500444000  -1.18088  -0.220637  1.18139  0  0  0.0396479  1.47001  1.23456  -0.325007  0  0  0  0.462489  0.0001212  -0  0  0  0  0  0  0  0  0  0 
1701778672.505437000  -1.17352  -0.214464  1.17977  0  0  0.0398152  1.47225  1.23456  -0.325007  0  0  0  0.436525  -6.97e-05  -0  0  0  0  0  0  0  0  0  0 
1701778672.510437000  -1.16615  -0.208291  1.17814  0  0  0.0399825  1.47437  1.23456  -0.325007  0  0  0  0.411312  -0.0007682  -0  0  0  0  0  0  0  0  0  0 
1701778672.515436000  -1.15878  -0.202119  1.17652  0  0  0.0401499  1.47637  1.23455  -0.325007  0  0  0  0.386848  -0.0022167  -0  0  0  0  0  0  0  0  0  0 
1701778672.520431000  -1.15139  -0.195946  1.17489  0  0  0.0403172  1.47824  1.23454  -0.325007  0  0  0  0.363134  -0.0044151  -0  0  0  0  0  0  0  0  0  0 
1701778672.525418000  -1.14399  -0.189773  1.17327  0  0  0.0404845  1.48  1.23451  -0.325007  0  0  0  0.34017  -0.0073636  -0  0  0  0  0  0  0  0  0  0 
1701778672.530418000  -1.13659  -0.183601  1.17164  0  0  0.0406518  1.48164  1.23446  -0.325007  0  0  0  0.317956  -0.011062  -0  0  0  0  0  0  0  0  0  0 
1701778672.535418000  -1.12918  -0.177429  1.17002  0  0  0.0408191  1.48318  1.2344  -0.325007  0  0  0  0.296492  -0.0155105  -0  0  0  0  0  0  0  0  0  0 
1701778672.540432000  -1.12176  -0.171257  1.16839  0  0  0.0409865  1.48461  1.23431  -0.325007  0  0  0  0.275779  -0.0207089  -0  0  0  0  0  0  0  0  0  0 
1701778672.545418000  -1.11433  -0.165086  1.16677  0  0  0.0411538  1.48594  1.23419  -0.325007  0  0  0  0.255815  -0.0266574  -0  0  0  0  0  0  0  0  0  0 
1701778672.550419000  -1.1069  -0.158915  1.16514  0  0  0.0413211  1.48717  1.23404  -0.325007  0  0  0  0.236601  -0.0333558  -0  0  0  0  0  0  0  0  0  0 
1701778672.555418000  -1.09946  -0.152745  1.16352  0  0  0.0414884  1.48831  1.23385  -0.325007  0  0  0  0.218137  -0.0408043  -0  0  0  0  0  0  0  0  0  0 
1701778672.560434000  -1.09202  -0.146576  1.16189  0  0  0.0416558  1.48935  1.23363  -0.325007  0  0  0  0.200423  -0.0490027  -0  0  0  0  0  0  0  0  0  0 
1701778672.565417000  -1.08457  -0.140409  1.16027  0  0  0.0418231  1.49031  1.23336  -0.325007  0  0  0  0.183459  -0.0579512  -0  0  0  0  0  0  0  0  0  0 
1701778672.570418000  -1.07711  -0.134243  1.15864  0  0  0.0419904  1.49119  1.23305  -0.325007  0  0  0  0.167246  -0.0676496  -0  0  0  0  0  0  0  0  0  0 
1701778672.575423000  -1.06965  -0.128079  1.15702  0  0  0.0421577  1.49199  1.23268  -0.325007  0  0  0  0.151782  -0.0780981  -0  0  0  0  0  0  0  0  0  0 
1701778672.580434000  -1.06219  -0.121916  1.15539  0  0  0.0423251  1.49271  1.23227  -0.325007  0  0  0  0.137068  -0.0892966  -0  0  0  0  0  0  0  0  0  0 
1701778672.585420000  -1.05473  -0.115756  1.15377  0  0  0.0424924  1.49336  1.23179  -0.325007  0  0  0  0.123104  -0.101245  0.0003333  0  0  0  0  0  0  0  0  0 
1701778672.590419000  -1.04726  -0.109598  1.15214  0  0  0.0426597  1.49394  1.23125  -0.325003  0  0  0  0.10989  -0.113943  0.0014154  0  0  0  0  0  0  0  0  0 
1701778672.595421000  -1.03979  -0.103444  1.15052  0  0  0.042827  1.49446  1.23065  -0.324992  0  0  0  0.0974265  -0.127392  0.0032475  0  0  0  0  0  0  0  0  0 
1701778672.600425000  -1.03231  -0.097292  1.14889  0  0  0.0429944  1.49492  1.22998  -0.324969  0  0  0  0.0857127  -0.14159  0.0058296  0  0  0  0  0  0  0  0  0 
1701778672.605420000  -1.02484  -0.0911439  1.14727  0  0  0.0431617  1.49532  1.22923  -0.324932  0  0  0  0.0747488  -0.156539  0.0091617  0  0  0  0  0  0  0  0  0 
1701778672.610420000  -1.01736  -0.0849998  1.14564  0  0  0.043329  1.49566  1.22841  -0.324876  0  0  0  0.064535  -0.172237  0.0132438  0  0  0  0  0  0  0  0  0 
1701778672.615420000  -1.00988  -0.0788599  1.14402  0  0  0.0434963  1.49596  1.22751  -0.324798  0  0  0  0.0550712  -0.188686  0.0180759  0  0  0  0  0  0  0  0  0 
1701778672.620435000  -1.0024  -0.0727248  1.14239  0  0  0.0436636  1.49622  1.22652  -0.324694  0  0  0  0.0463574  -0.205884  0.023658  0  0  0  0  0  0  0  0  0 
1701778672.625420000  -0.994921  -0.0665949  1.14077  0  0  0.043831  1.49643  1.22545  -0.32456  0  0  0  0.0383935  -0.223833  0.0299901  0  0  0  0  0  0  0  0  0 
1701778672.630419000  -0.987438  -0.0604705  1.13915  0  0  0.0439983  1.4966  1.22428  -0.324393  0  0  0  0.0311797  -0.242531  0.0370722  0  0  0  0  0  0  0  0  0 
1701778672.635420000  -0.979955  -0.0543522  1.13753  0  0  0.0441656  1.49674  1.22302  -0.324189  0  0  0  0.0247159  -0.26198  0.0449043  0  0  0  0  0  0  0  0  0 
1701778672.640436000  -0.972471  -0.0482404  1.13591  0  0  0.0443329  1.49685  1.22166  -0.323943  0  0  0  0.019002  -0.282178  0.0534864  0  0  0  0  0  0  0  0  0 
1701778672.645423000  -0.964986  -0.0421357  1.13429  0  0  0.0445003  1.49693  1.2202  -0.323652  0  0  0  0.0140382  -0.303126  0.0628185  0  0  0  0  0  0  0  0  0 
1701778672.650418000  -0.957501  -0.0360386  1.13267  0  0  0.0446676  1.49699  1.21863  -0.323313  0  0  0  0.0098244  -0.324825  0.0729006  0  0  0  0  0  0  0  0  0 
1701778672.655420000  -0.950016  -0.0299496  1.13106  0  0  0.0448349  1.49703  1.21695  -0.322922  0  0  0  0.0063606  -0.347273  0.0837327  0  0  0  0  0  0  0  0  0 
1701778672.660435000  -0.942531  -0.0238693  1.12944  0  0  0.0450022  1.49706  1.21516  -0.322475  0  0  0  0.0036467  -0.370472  0.0953148  0  0  0  0  0  0  0  0  0 
1701778672.665422000  -0.935046  -0.0177982  1.12783  0  0  0.0451696  1.49707  1.21324  -0.321968  0  0  0  0.0016829  -0.39442  0.107647  0  0  0  0  0  0  0  0  0 
1701778672.670419000  -0.92756  -0.0117371  1.12622  0  0  0.0453369  1.49707  1.21121  -0.321397  0  0  0  0.0004691  -0.419119  0.120729  0  0  0  0  0  0  0  0  0 
1701778672.675420000  -0.920075  -0.0056863  1.12462  0  0  0.0455042  1.49708  1.20905  -0.320759  0  0  0  5.3e-06  -0.444567  0.134561  0  0  0  0  0  0  0  0  0 
1701778672.680434000  -0.91259  0.0003532  1.12301  0  0  0.0456715  1.49708  1.20676  -0.32005  0  0  0  0  -0.470766  0.149143  0  0  0  0  0  0  0  0  0 
1701778672.685420000  -0.905104  0.0063811  1.12142  0  0  0.0458389  1.49708  1.20434  -0.319267  0  0  0  0  -0.497714  0.164475  0  0  0  0  0  0  0  0  0 
1701778672.690420000  -0.897619  0.0123964  1.11982  0  0  0.0460062  1.49708  1.20179  -0.318404  0  0  0  0  -0.525413  0.180557  0  0  0  0  0  0  0  0  0 
1701778672.695419000  -0.890134  0.0183987  1.11823  0  0  0.0461735  1.49708  1.19909  -0.31746  0  0  0  0  -0.553861  0.197389  0  0  0  0  0  0  0  0  0 
1701778672.700434000  -0.882648  0.0243871  1.11665  0  0  0.0463408  1.49708  1.19625  -0.316429  0  0  0  0  -0.583059  0.214972  0  0  0  0  0  0  0  0  0 
1701778672.705420000  -0.875163  0.0303609  1.11507  0  0  0.0465082  1.49708  1.19326  -0.315309  0  0  0  0  -0.613008  0.233304  0  0  0  0  0  0  0  0  0 
1701778672.710421000  -0.867677  0.0363194  1.11349  0  0  0.0466755  1.49708  1.19011  -0.314095  0  0  0  6.66e-05  -0.643706  0.252386  0  0  0  0  0  0  0  0  0 
1701778672.715419000  -0.860192  0.0422618  1.11193  0  0  0.0468428  1.49708  1.18682  -0.312784  0  0  0  0.0007577  -0.675155  0.272218  0  0  0  0  0  0  0  0  0 
1701778672.720424000  -0.852707  0.0481873  1.11037  0  0  0.0470101  1.49708  1.18336  -0.311371  0  0  0  0.0021988  -0.707353  0.2928  0  0  0  0  0  0  0  0  0 
1701778672.725420000  -0.845221  0.0540951  1.10881  0  0  0.0471774  1.4971  1.17974  -0.309854  0  0  0  0.0043899  -0.740302  0.314132  0  0  0  0  0  0  0  0  0 
1701778672.730429000  -0.837736  0.0599844  1.10727  0  0  0.0473448  1.49713  1.17596  -0.308229  0  0  0  0.007331  -0.773622  0.336214  0  0  0  0  0  0  0  0  0 
1701778672.735430000  -0.83025  0.0658544  1.10573  0  0  0.0475121  1.49718  1.17201  -0.306491  0  0  0  0.011022  -0.806256  0.359046  0  0  0  0  0  0  0  0  0 
1701778672.740436000  -0.822764  0.0717042  1.1042  0  0  0.0476794  1.49724  1.1679  -0.304637  0  0  0  0.0154631  -0.838139  0.382628  0  0  0  0  0  0  0  0  0 
1701778672.745437000  -0.815277  0.0775331  1.10269  0  0  0.0478467  1.49733  1.16363  -0.302663  0  0  0  0.0206542  -0.869273  0.40696  0  0  0  0  0  0  0  0  0 
1701778672.750426000  -0.807791  0.0833403  1.10118  0  0  0.0480141  1.49745  1.1592  -0.300566  0  0  0  0.0265953  -0.899657  0.431926  0  0  0  0  0  0  0  0  0 
1701778672.755421000  -0.800303  0.0891249  1.09968  0  0  0.0481814  1.4976  1.15463  -0.298345  0  0  0  0.0332864  -0.92929  0.456416  0  0  0  0  0  0  0  0  0 
1701778672.760435000  -0.792814  0.0948863  1.09819  0  0  0.0483487  1.49778  1.14991  -0.296003  0  0  0  0.0407275  -0.958174  0.480157  0  0  0  0  0  0  0  0  0 
1701778672.765420000  -0.785325  0.100624  1.09672  0  0  0.048516  1.49801  1.14505  -0.293545  0  0  0  0.0489186  -0.986307  0.503147  0  0  0  0  0  0  0  0  0 
1701778672.770427000  -0.777834  0.106337  1.09526  0  0  0.0486833  1.49827  1.14005  -0.290973  0  0  0  0.0578596  -1.01369  0.525387  0  0  0  0  0  0  0  0  0 
1701778672.775434000  -0.770342  0.112024  1.09381  0  0  0.0488506  1.49859  1.13492  -0.288292  0  0  0  0.0675507  -1.04032  0.546878  0  0  0  0  0  0  0  0  0 
1701778672.780444000  -0.762848  0.117686  1.09238  0  0  0.0490178  1.49895  1.12965  -0.285506  0  0  0  0.0779918  -1.06621  0.567618  0  0  0  0  0  0  0  0  0 
1701778672.785437000  -0.755353  0.12332  1.09096  0  0  0.049185  1.49937  1.12425  -0.282617  0  0  0  0.0891829  -1.09134  0.587608  0  0  0  0  0  0  0  0  0 
1701778672.790430000  -0.747855  0.128928  1.08955  0  0  0.0493519  1.49984  1.11874  -0.279631  0  0  0  0.101124  -1.11573  0.606849  0  0  0  0  0  0  0  0  0 
1701778672.795422000  -0.740354  0.134508  1.08816  0  0  0.0495187  1.50038  1.1131  -0.27655  0  0  0  0.113815  -1.13936  0.625339  0  0  0  0  0  0  0  0  0 
1701778672.800436000  -0.732851  0.140059  1.08679  0  0  0.0496852  1.50098  1.10734  -0.273379  0  0  0  0.127256  -1.16224  0.643079  0  0  0  0  0  0  0  0  0 
1701778672.805420000  -0.725344  0.145581  1.08543  0  0  0.0498513  1.50165  1.10148  -0.270121  0  0  0  0.141447  -1.18438  0.66007  0  0  0  0  0  0  0  0  0 
1701778672.810420000  -0.717834  0.151073  1.08408  0  0  0.050017  1.5024  1.0955  -0.266779  0  0  0  0.156388  -1.20576  0.67631  0  0  0  0  0  0  0  0  0 
1701778672.815420000  -0.71032  0.156536  1.08276  0  0  0.0501821  1.50322  1.08942  -0.263359  0  0  0  0.172079  -1.22639  0.6918  0  0  0  0  0  0  0  0  0 
1701778672.820437000  -0.702802  0.161967  1.08145  0  0  0.0503466  1.50412  1.08324  -0.259863  0  0  0  0.188521  -1.24628  0.706541  0  0  0  0  0  0  0  0  0 
1701778672.825437000  -0.695279  0.167368  1.08016  0  0  0.0505103  1.50511  1.07696  -0.256295  0  0  0  0.205712  -1.26541  0.720531  0  0  0  0  0  0  0  0  0 
1701778672.830431000  -0.687751  0.172737  1.07889  0  0  0.0506732  1.50618  1.07059  -0.252658  0  0  0  0.223653  -1.28379  0.733771  0  0  0  0  0  0  0  0  0 
1701778672.835421000  -0.680217  0.178074  1.07763  0  0  0.0508349  1.50734  1.06412  -0.248958  0  0  0  0.242344  -1.30143  0.746262  0  0  0  0  0  0  0  0  0 
1701778672.840435000  -0.672677  0.183378  1.0764  0  0  0.0509955  1.5086  1.05757  -0.245197  0  0  0  0.261722  -1.31831  0.758002  0  0  0  0  0  0  0  0  0 
1701778672.845422000  -0.665131  0.188649  1.07518  0  0  0.0511547  1.50996  1.05094  -0.241379  0  0  0  0.280729  -1.33444  0.768992  0  0  0  0  0  0  0  0  0 
1701778672.850420000  -0.657577  0.193887  1.07398  0  0  0.0513124  1.51141  1.04423  -0.237508  0  0  0  0.298985  -1.34983  0.779233  0  0  0  0  0  0  0  0  0 
1701778672.855419000  -0.650016  0.199091  1.07281  0  0  0.0514684  1.51295  1.03744  -0.233588  0  0  0  0.316492  -1.36446  0.788723  0  0  0  0  0  0  0  0  0 
1701778672.860450000  -0.642448  0.204261  1.07165  0  0  0.0516225  1.51457  1.03059  -0.229622  0  0  0  0.333248  -1.37835  0.797464  0  0  0  0  0  0  0  0  0 
1701778672.865420000  -0.63487  0.209397  1.07051  0  0  0.0517745  1.51628  1.02366  -0.225615  0  0  0  0.349255  -1.39148  0.805454  0  0  0  0  0  0  0  0  0 
1701778672.870420000  -0.627285  0.214498  1.06939  0  0  0.0519243  1.51806  1.01667  -0.221569  0  0  0  0.364511  -1.40386  0.812694  0  0  0  0  0  0  0  0  0 
1701778672.875419000  -0.61969  0.219564  1.06829  0  0  0.0520715  1.51992  1.00962  -0.217489  0  0  0  0.379018  -1.4155  0.819185  0  0  0  0  0  0  0  0  0 
1701778672.880434000  -0.612085  0.224594  1.06722  0  0  0.0522159  1.52185  1.00252  -0.213379  0  0  0  0.392775  -1.42638  0.824925  0  0  0  0  0  0  0  0  0 
1701778672.885420000  -0.604471  0.229589  1.06616  0  0  0.0523574  1.52385  0.995362  -0.209241  0  0  0  0.405781  -1.43651  0.829915  0  0  0  0  0  0  0  0  0 
1701778672.890420000  -0.596847  0.234548  1.06513  0  0  0.0524957  1.52591  0.988156  -0.205081  0  0  0  0.418038  -1.4459  0.834156  0  0  0  0  0  0  0  0  0 
1701778672.895418000  -0.589212  0.23947  1.06411  0  0  0.0526304  1.52803  0.980905  -0.200901  0  0  0  0.429544  -1.45453  0.837646  0  0  0  0  0  0  0  0  0 
1701778672.900434000  -0.581566  0.244357  1.06312  0  0  0.0527615  1.5302  0.973612  -0.196705  0  0  0  0.440301  -1.46241  0.840386  0  0  0  0  0  0  0  0  0 
1701778672.905420000  -0.57391  0.249206  1.06214  0  0  0.0528887  1.53243  0.966282  -0.192498  0  0  0  0.450308  -1.46955  0.842377  0  0  0  0  0  0  0  0  0 
1701778672.910423000  -0.566242  0.254019  1.06119  0  0  0.0530118  1.53471  0.958918  -0.188283  0  0  0  0.459564  -1.47593  0.843617  0  0  0  0  0  0  0  0  0 
1701778672.915421000  -0.558563  0.258796  1.06026  0  0  0.0531306  1.53703  0.951524  -0.184063  0  0  0  0.468071  -1.48156  0.844107  0  0  0  0  0  0  0  0  0 
1701778672.920436000  -0.550872  0.263535  1.05935  0  0  0.053245  1.53939  0.944103  -0.179843  0  0  0  0.475827  -1.48645  0.843848  0  0  0  0  0  0  0  0  0 
1701778672.925420000  -0.543169  0.268237  1.05846  0  0  0.0533546  1.54178  0.93666  -0.175626  0  0  0  0.482834  -1.49058  0.842838  0  0  0  0  0  0  0  0  0 
1701778672.930429000  -0.535454  0.272901  1.05759  0  0  0.0534595  1.54421  0.929199  -0.171416  0  0  0  0.48909  -1.49397  0.841078  0  0  0  0  0  0  0  0  0 
1701778672.935430000  -0.527726  0.277528  1.05675  0  0  0.0535593  1.54667  0.921722  -0.167217  0  0  0  0.494597  -1.4966  0.838569  0  0  0  0  0  0  0  0  0 
1701778672.940437000  -0.519987  0.282118  1.05592  0  0  0.0536541  1.54916  0.914234  -0.163032  0  0  0  0.499354  -1.49848  0.835309  0  0  0  0  0  0  0  0  0 
1701778672.945422000  -0.512235  0.286671  1.05512  0  0  0.0537436  1.55166  0.906738  -0.158865  0  0  0  0.50336  -1.49962  0.831299  0  0  0  0  0  0  0  0  0 
1701778672.950420000  -0.50447  0.291186  1.05433  0  0  0.0538277  1.55419  0.899239  -0.15472  0  0  0  0.506617  -1.5  0.82654  0  0  0  0  0  0  0  0  0 
1701778672.955419000  -0.496693  0.295663  1.05357  0  0  0.0539064  1.55673  0.891739  -0.150601  0  0  0  0.509123  -1.5  0.82103  0  0  0  0  0  0  0  0  0 
1701778672.960433000  -0.488903  0.300103  1.05283  0  0  0.0539795  1.55928  0.884239  -0.146511  0  0  0  0.51088  -1.5  0.81477  0  0  0  0  0  0  0  0  0 
1701778672.965418000  -0.4811  0.304506  1.05211  0  0  0.0540468  1.56184  0.876739  -0.142454  0  0  0  0.511887  -1.5  0.807761  0  0  0  0  0  0  0  0  0 
1701778672.970429000  -0.473285  0.308871  1.0514  0  0  0.0541084  1.5644  0.869239  -0.138434  0  0  0  0.512143  -1.5  0.800001  0  0  0  0  0  0  0  0  0 
1701778672.975430000  -0.465456  0.313198  1.05072  0  0  0.0541642  1.56696  0.861739  -0.134455  0  0  0  0.51165  -1.5  0.791492  0  0  0  0  0  0  0  0  0 
1701778672.980437000  -0.457615  0.317488  1.05006  0  0  0.0542141  1.56951  0.854239  -0.130521  0  0  0  0.510406  -1.5  0.782232  0  0  0  0  0  0  0  0  0 
1701778672.985429000  -0.449761  0.32174  1.04942  0  0  0.054258  1.57206  0.846739  -0.126634  0  0  0  0.508413  -1.5  0.772222  0  0  0  0  0  0  0  0  0 
1701778672.990429000  -0.441894  0.325955  1.04879  0  0  0.0542959  1.5746  0.839239  -0.1228  0  0  0  0.505669  -1.5  0.761463  0  0  0  0  0  0  0  0  0 
1701778672.995422000  -0.434015  0.330133  1.04819  0  0  0.0543277  1.57712  0.831739  -0.119021  0  0  0  0.502176  -1.5  0.749953  0  0  0  0  0  0  0  0  0 
1701778673.000434000  -0.426123  0.334273  1.0476  0  0  0.0543535  1.57962  0.824239  -0.115301  0  0  0  0.497933  -1.5  0.737693  0  0  0  0  0  0  0  0  0 
1701778673.005429000  -0.418219  0.338375  1.04703  0  0  0.0543733  1.58209  0.816739  -0.111645  0  0  0  0.492939  -1.5  0.724684  0  0  0  0  0  0  0  0  0 
1701778673.010429000  -0.410302  0.34244  1.04649  0  0  0.0543869  1.58454  0.809239  -0.108056  0  0  0  0.487196  -1.5  0.710924  0  0  0  0  0  0  0  0  0 
1701778673.015430000  -0.402374  0.346468  1.04595  0  0  0.0543945  1.58696  0.801739  -0.104537  0  0  0  0.480702  -1.5  0.696414  0  0  0  0  0  0  0  0  0 
1701778673.020440000  -0.394433  0.350457  1.04544  0  0  0.054396  1.58935  0.794239  -0.101093  0  0  0  0.473459  -1.5  0.681155  0  0  0  0  0  0  0  0  0 
