ts fx fy fz tx ty tz exfx exfy exfz extx exty extz xd yd zd rolld pitchd yawd vxd vyd vzd wxd wyd wzd axd ayd azd e_x e_y e_z e_vx e_vy e_vz e_rx e_ry e_rz e_wx e_wy e_wz
1701778670.997893000  0  0  11.8611  -0.109366  -0.0682503  0.0136921  nan  nan  nan  nan  nan  nan  -2  -1  1.5  -0.0195285  -0.0131159  0.000256158  0  0  0  0  0  0  0  0  0  0.00631057  -0.0190441  -0.0203974  0.00326984  0.0165819  0.0048012  0.0195159  0.0146402  -0.0179279  0.0391846  0.00181029  0.00812838 
1701778671.002865000  0  0  11.8574  -0.122992  -0.0662568  0.0141429  nan  nan  nan  nan  nan  nan  -2  -1  1.5  -0.0197191  -0.0134181  0.000264621  0  0  0  0  0  0  0  0  0  0.00633636  -0.0190517  -0.0204286  0.00360594  0.0163557  0.00516577  0.0201512  0.0148763  -0.0179746  0.0605935  -0.00434872  0.00296031 
1701778671.007827000  0  0  11.8821  -0.109309  -0.0825476  0.0137938  nan  nan  nan  nan  nan  nan  -2  -1  1.5  -0.0197047  -0.013355  0.000263183  0  0  0  0  0  0  0  0  0  0.00635201  -0.0189726  -0.0204218  0.00352468  0.0161446  0.00308872  0.0201079  0.015156  -0.0179102  0.0336246  0.0256595  0.00668012 
1701778671.012889000  0  0  11.8543  -0.12409  -0.063065  0.0145384  nan  nan  nan  nan  nan  nan  -2  -1  1.5  -0.0200108  -0.0138137  0.000276451  0  0  0  0  0  0  0  0  0  0.00638325  -0.0189838  -0.0204412  0.00401877  0.0158271  0.00544368  0.0207805  0.0153467  -0.0179953  0.0569998  -0.0150596  -0.001778 
1701778671.017886000  0  0  11.8668  -0.117531  -0.0714282  0.0141719  nan  nan  nan  nan  nan  nan  -2  -1  1.5  -0.0198034  -0.0138961  0.000275216  0  0  0  0  0  0  0  0  0  0.00640267  -0.0189042  -0.0204262  0.00410336  0.015896  0.00436779  0.0207351  0.0154967  -0.0179604  0.0442997  0.00028644  0.00245518 
1701778671.022891000  0  0  11.8692  -0.108811  -0.0873829  0.0138048  nan  nan  nan  nan  nan  nan  -2  -1  1.5  -0.0202703  -0.0140772  0.000285378  0  0  0  0  0  0  0  0  0  0.00643006  -0.0189222  -0.0204576  0.0042856  0.0153147  0.00422915  0.0211261  0.0160552  -0.0179014  0.0232622  0.0270579  0.00645401 
1701778671.027834000  0  0  11.8377  -0.122922  -0.0733524  0.0139664  nan  nan  nan  nan  nan  nan  -2  -1  1.5  -0.0206385  -0.0146687  0.000302771  0  0  0  0  0  0  0  0  0  0.00647654  -0.0189388  -0.0204499  0.004912  0.014938  0.00682984  0.0218285  0.0164232  -0.0179096  0.045023  -0.00438833  0.00451614 
1701778671.032884000  0  0  11.8651  -0.103802  -0.0864645  0.0131883  nan  nan  nan  nan  nan  nan  -2  -1  1.5  -0.0205656  -0.0143856  0.00029588  0  0  0  0  0  0  0  0  0  0.00649646  -0.0188643  -0.0204412  0.00453888  0.0148057  0.00453054  0.0216169  0.0163897  -0.0177881  0.0087291  0.0221441  0.0130277 
1701778671.037880000  0  0  11.8565  -0.105303  -0.0802038  0.0135321  nan  nan  nan  nan  nan  nan  -2  -1  1.5  -0.0209896  -0.0146141  0.000306779  0  0  0  0  0  0  0  0  0  0.00652641  -0.0188855  -0.0204659  0.00476012  0.0143137  0.00529932  0.0220173  0.0166059  -0.0177904  0.00804702  0.00763363  0.00875215 
1701778671.042891000  0  0  11.8246  -0.112786  -0.0606357  0.0142168  nan  nan  nan  nan  nan  nan  -2  -1  1.5  -0.0206576  -0.0147081  0.000303866  0  0  0  0  0  0  0  0  0  0.00654989  -0.0188104  -0.0204178  0.00477952  0.0146577  0.00785449  0.0219302  0.0162902  -0.0178475  0.023815  -0.0285988  0.00076469 
1701778671.047833000  0  0  11.8517  -0.099991  -0.0729379  0.0137242  nan  nan  nan  nan  nan  nan  -2  -1  1.5  -0.021186  -0.0147792  0.000313148  0  0  0  0  0  0  0  0  0  0.00659004  -0.0188387  -0.0204352  0.00482862  0.0139623  0.00563633  0.0222293  0.016506  -0.0177799  -0.00452736  -0.00597902  0.00624602 
1701778671.051879000  0  0  11.845  -0.102805  -0.0627514  0.0136602  nan  nan  nan  nan  nan  nan  -2  -1  1.5  -0.0209164  -0.0147757  0.000309088  0  0  0  0  0  0  0  0  0  0.00660899  -0.01878  -0.020409  0.00477067  0.0142026  0.00614055  0.0219914  0.0162939  -0.0177545  0.00328822  -0.0244012  0.00679213 
1701778671.057836000  0  0  11.8148  -0.101135  -0.0461127  0.0137804  nan  nan  nan  nan  nan  nan  -2  -1  1.5  -0.0209482  -0.0149549  0.000313312  0  0  0  0  0  0  0  0  0  0.00665866  -0.0187943  -0.020388  0.00484587  0.0142633  0.00862524  0.0220024  0.0159412  -0.017753  -0.000152886  -0.0544333  0.00527566 
1701778671.062885000  0  0  11.8609  -0.0762125  -0.0583666  0.0135493  nan  nan  nan  nan  nan  nan  -2  -1  1.5  -0.0212666  -0.0149061  0.000317039  0  0  0  0  0  0  0  0  0  0.00669791  -0.0188239  -0.020422  0.00477112  0.0138022  0.00486315  0.0217276  0.0159165  -0.0176951  -0.0474688  -0.0296985  0.00758382 
1701778671.067826000  0  0  11.8488  -0.0942283  -0.0447376  0.0142391  nan  nan  nan  nan  nan  nan  -2  -1  1.5  -0.0207932  -0.0146985  0.000305663  0  0  0  0  0  0  0  0  0  0.00671876  -0.0187521  -0.0203856  0.00443066  0.0142948  0.00580297  0.021486  0.0152995  -0.0177559  -0.00921479  -0.0512799  -0.000428998 
1701778671.072889000  0  0  11.8314  -0.0770128  -0.0463533  0.0140942  nan  nan  nan  nan  nan  nan  -2  -1  1.5  -0.0213761  -0.0149402  0.000319401  0  0  0  0  0  0  0  0  0  0.00675634  -0.0187813  -0.0203877  0.00463705  0.0136336  0.0072629  0.0216216  0.0153055  -0.0177655  -0.0448926  -0.0481043  0.00147683 
1701778671.076891000  0  0  11.8414  -0.0659389  -0.0509165  0.0138996  nan  nan  nan  nan  nan  nan  -2  -1  1.5  -0.0211378  -0.0148515  0.000313963  0  0  0  0  0  0  0  0  0  0.00677399  -0.0187256  -0.0203685  0.00449717  0.0137999  0.00639963  0.0210033  0.015145  -0.0177254  -0.0613522  -0.0375009  0.00350951 
1701778671.082889000  0  0  11.8256  -0.0813693  -0.0470007  0.0142011  nan  nan  nan  nan  nan  nan  -2  -1  1.5  -0.0211374  -0.0146689  0.000310097  0  0  0  0  0  0  0  0  0  0.00680608  -0.0187379  -0.0203616  0.00415952  0.0138653  0.00771108  0.021012  0.0146909  -0.0177562  -0.0305718  -0.0411545  4.77599e-05 
1701778671.087830000  0  0  11.8074  -0.0692195  -0.047649  0.0144745  nan  nan  nan  nan  nan  nan  -2  -1  1.5  -0.0216528  -0.014902  0.000322709  0  0  0  0  0  0  0  0  0  0.00683546  -0.0187686  -0.0203556  0.00437097  0.0133001  0.00922117  0.0210378  0.0147404  -0.0178062  -0.0551084  -0.0403139  -0.00286915 
1701778671.092895000  0  0  11.8613  -0.073644  -0.0546732  0.0158723  nan  nan  nan  nan  nan  nan  -2  -1  1.5  -0.0210632  -0.0145995  0.000307546  0  0  0  0  0  0  0  0  0  0.00685501  -0.0186975  -0.0203551  0.00401722  0.0137898  0.00473251  0.0203089  0.0144258  -0.0179938  -0.0395542  -0.0233713  -0.0184652 
1701778671.097821000  0  0  11.8471  -0.0807673  -0.0501781  0.0161521  nan  nan  nan  nan  nan  nan  -2  -1  1.5  -0.0212625  -0.0144331  0.000306919  0  0  0  0  0  0  0  0  0  0.00687414  -0.0187253  -0.0203823  0.00373249  0.0136223  0.00598081  0.0204623  0.0140555  -0.018139  -0.0267186  -0.0289544  -0.0205116 
1701778671.102887000  0  0  11.8146  -0.0642894  -0.047057  0.0149521  nan  nan  nan  nan  nan  nan  -2  -1  1.5  -0.0221274  -0.0150515  0.000333092  0  0  0  0  0  0  0  0  0  0.00690135  -0.0187561  -0.0203956  0.00443257  0.0126327  0.00873437  0.0207346  0.0144045  -0.0181132  -0.0621796  -0.0384073  -0.00576856 
1701778671.107830000  0  0  11.843  -0.0747446  -0.0570523  0.0145481  nan  nan  nan  nan  nan  nan  -2  -1  1.5  -0.0214067  -0.014571  0.000311955  0  0  0  0  0  0  0  0  0  0.00691685  -0.0186871  -0.0203805  0.00381259  0.0133576  0.00632963  0.02004  0.0140008  -0.0180679  -0.0348788  -0.0147024  -0.00117286 
1701778671.112890000  0  0  11.8266  -0.0776299  -0.0576306  0.0146858  nan  nan  nan  nan  nan  nan  -2  -1  1.5  -0.0219289  -0.0147546  0.000323593  0  0  0  0  0  0  0  0  0  0.00694288  -0.0187208  -0.0203818  0.00396984  0.0127857  0.00770785  0.020426  0.0141652  -0.0181027  -0.0326591  -0.0150589  -0.00254452 
1701778671.117891000  0  0  11.797  -0.0721825  -0.0517156  0.0151763  nan  nan  nan  nan  nan  nan  -2  -1  1.5  -0.0219992  -0.0150807  0.000331803  0  0  0  0  0  0  0  0  0  0.00696586  -0.0186589  -0.0203247  0.00429782  0.0126282  0.0100593  0.0201947  0.0142575  -0.018178  -0.0414261  -0.0277382  -0.00792331 
1701778671.122887000  0  0  11.8642  -0.0889387  -0.0730116  0.0151602  nan  nan  nan  nan  nan  nan  -2  -1  1.5  -0.021699  -0.0143503  0.000311427  0  0  0  0  0  0  0  0  0  0.00697879  -0.0186892  -0.020374  0.00341826  0.0129267  0.00455601  0.0200839  0.0139171  -0.018214  -0.00689443  0.0179858  -0.00736257 
1701778671.126892000  0  0  11.8338  -0.0833313  -0.0611309  0.0149832  nan  nan  nan  nan  nan  nan  -2  -1  1.5  -0.0219549  -0.014625  0.000321131  0  0  0  0  0  0  0  0  0  0.00699612  -0.018642  -0.0203288  0.00369279  0.0125587  0.00699768  0.0201767  0.0140097  -0.0182228  -0.018963  -0.00662726  -0.00506246 
1701778671.132891000  0  0  11.8357  -0.0860514  -0.0495288  0.0141717  nan  nan  nan  nan  nan  nan  -2  -1  1.5  -0.0221105  -0.0144213  0.000318903  0  0  0  0  0  0  0  0  0  0.00699754  -0.0186569  -0.0203579  0.00342468  0.0123825  0.00690734  0.0202369  0.0135119  -0.0181653  -0.0140765  -0.0252521  0.00450629 
1701778671.137836000  0  0  11.879  -0.0926447  -0.0671265  0.0142532  nan  nan  nan  nan  nan  nan  -2  -1  1.5  -0.0220994  -0.0137285  0.000303431  0  0  0  0  0  0  0  0  0  0.00699055  -0.0186869  -0.0204212  0.00259461  0.012357  0.00342682  0.0203064  0.0131741  -0.0181615  -0.00152981  0.0130512  0.00345 
1701778671.142888000  0  0  11.7976  -0.0896909  -0.0407476  0.0150956  nan  nan  nan  nan  nan  nan  -2  -1  1.5  -0.0228296  -0.0145637  0.00033253  0  0  0  0  0  0  0  0  0  0.0070136  -0.0186334  -0.0203425  0.00351515  0.0114812  0.0100589  0.0208797  0.0134697  -0.0182715  -0.0127116  -0.0424262  -0.00598027 
1701778671.147830000  0  0  11.8087  -0.0965205  -0.0369742  0.0149399  nan  nan  nan  nan  nan  nan  -2  -1  1.5  -0.022825  -0.014223  0.000324686  0  0  0  0  0  0  0  0  0  0.00702894  -0.0186709  -0.0203531  0.00305173  0.0115423  0.00915522  0.020956  0.0128748  -0.0182889  0.000245379  -0.0444994  -0.00385955 
1701778671.149834000  0  0  11.8257  -0.0974343  -0.0434077  0.014917  nan  nan  nan  nan  nan  nan  -2  -1  1.5  -0.0226494  -0.0139745  0.000316557  0  0  0  0  0  0  0  0  0  0.00703271  -0.0186468  -0.02035  0.00274333  0.0116762  0.00772796  0.0208224  0.0127062  -0.0182892  0.00330234  -0.0300813  -0.00356961 
1701778671.158891000  0  0  11.8044  -0.108397  -0.0310734  0.0149107  nan  nan  nan  nan  nan  nan  -2  -1  1.5  -0.0233844  -0.0142078  0.00033229  0  0  0  0  0  0  0  0  0  0.0070655  -0.0186504  -0.0203155  0.00294414  0.0107738  0.0094402  0.0216968  0.0125088  -0.0183185  0.0171826  -0.0529345  -0.00319944 
1701778671.163881000  0  0  11.9167  -0.106038  -0.0655315  0.0151744  nan  nan  nan  nan  nan  nan  -2  -1  1.5  -0.0231669  -0.0132364  0.000306693  0  0  0  0  0  0  0  0  0  0.00707017  -0.0186936  -0.0203922  0.00182408  0.0108654  0.000232081  0.0215428  0.0121142  -0.0183718  0.0138829  0.0196125  -0.00596206 
1701778671.168888000  0  0  11.8858  -0.107184  -0.0635962  0.015878  nan  nan  nan  nan  nan  nan  -2  -1  1.5  -0.0233351  -0.0135414  0.000316038  -6e-07  -6e-07  6e-07  0  0  0  -0.000375  -0.000375  0.000375  0.00708461  -0.0186431  -0.0203509  0.00210126  0.0105623  0.00275528  0.0217646  0.012482  -0.0184956  0.014135  0.0123577  -0.013519 
1701778671.173889000  0  0  11.8572  -0.12314  -0.0409262  0.0166609  nan  nan  nan  nan  nan  nan  -2  -1  1.5  -0.0236664  -0.0140081  0.000331574  -5e-06  -5e-06  5e-06  0  0  0  -0.0015  -0.0015  0.0014996  0.00709869  -0.0186954  -0.0203494  0.00249718  0.0101706  0.00524142  0.022426  0.0124625  -0.0186869  0.0399599  -0.0328027  -0.0213918 
1701778671.178890000  0  0  11.92  -0.110144  -0.0732431  0.0161142  nan  nan  nan  nan  nan  nan  -2  -1  1.5  -0.0234278  -0.0135936  0.000318517  -1.69e-05  -1.69e-05  1.55e-05  0  0  0  -0.003375  -0.003375  0.0025892  0.00710171  -0.018747  -0.0204054  0.00179649  0.0101937  0.000225166  0.0221143  0.0126376  -0.0187182  0.0168356  0.0302202  -0.014245 
1701778671.183884000  0  0  11.8221  -0.106017  -0.0570775  0.0159102  nan  nan  nan  nan  nan  nan  -2  -1  1.5  -0.0237657  -0.0147958  0.000351787  -4e-05  -4e-05  2.96e-05  0  0  0  -0.006  -0.006  0.0029289  0.00712116  -0.0187031  -0.0203286  0.00284651  0.00956836  0.00826476  0.0223631  0.0135865  -0.0187723  0.00629456  -0.0108404  -0.0111538 
1701778671.188884000  0  0  11.784  -0.113864  -0.0484092  0.0155989  nan  nan  nan  nan  nan  nan  -2  -1  1.5  -0.0236814  -0.0150628  0.000356963  -7.81e-05  -7.81e-05  4.36e-05  0  0  0  -0.009375  -0.009375  0.0025185  0.00713017  -0.0187559  -0.0203054  0.0026775  0.00946088  0.011351  0.022481  0.013543  -0.0188018  0.0209035  -0.027777  -0.00696795 
1701778671.192887000  0  0  11.8703  -0.0923361  -0.0926703  0.014433  nan  nan  nan  nan  nan  nan  -2  -1  1.5  -0.0226652  -0.014827  0.000336503  -0.000135  -0.000135  5.36e-05  0  0  0  -0.0135  -0.0135  0.0013619  0.00713432  -0.0187154  -0.0203342  0.0019679  0.0099508  0.0040934  0.0212181  0.014115  -0.0186643  -0.0105341  0.0554828  0.00623052 
1701778671.198890000  0  0  11.8088  -0.0925094  -0.0672983  0.0149351  nan  nan  nan  nan  nan  nan  -2  -1  1.5  -0.0228017  -0.015828  0.000361553  -0.0002144  -0.0002144  5.74e-05  0  0  0  -0.018375  -0.018375  0.0003076  0.00713345  -0.01877  -0.0203101  0.00255261  0.00941894  0.00907918  0.0212062  0.0148037  -0.0187269  -0.0100781  -0.00159707  0.000580495 
1701778671.203885000  0  0  11.8365  -0.0930418  -0.0721837  0.014771  nan  nan  nan  nan  nan  nan  -2  -1  1.5  -0.0219145  -0.0157207  0.000345352  -0.00032  -0.00032  5.79e-05  0  0  0  -0.024  -0.024  -3.3e-06  0.00711668  -0.0188248  -0.0203388  0.00176984  0.00991057  0.00679562  0.0203832  0.014716  -0.0187214  -0.00144191  0.00898001  0.00257681 
1701778671.208910000  0  0  11.8572  -0.072013  -0.0917705  0.0146775  nan  nan  nan  nan  nan  nan  -2.00001  -1.00001  1.5  -0.0209122  -0.0161407  0.000338571  -0.0004549  -0.0004556  5.71e-05  0  0  0  -0.0298319  -0.030375  -0.0004491  0.00713281  -0.0187675  -0.020321  0.00156934  0.0102303  0.00499141  0.0190044  0.0155964  -0.0186859  -0.0308145  0.0400543  0.00338987 
1701778671.213878000  0  0  11.7911  -0.0767852  -0.0490102  0.0161185  nan  nan  nan  nan  nan  nan  -2.00001  -1.00001  1.5  -0.0202068  -0.0169999  0.000344744  -0.0006171  -0.000625  5.22e-05  0  0  0  -0.0349304  -0.0375  -0.0016448  0.00712311  -0.0188165  -0.0202921  0.00193912  0.010497  0.0103304  0.0182785  0.015665  -0.0188867  -0.0145916  -0.0460972  -0.0126142 
1701778671.217887000  0  0  11.8216  -0.0620086  -0.0662195  0.0158401  nan  nan  nan  nan  nan  nan  -2.00001  -1.00001  1.5  -0.0188168  -0.0169818  0.000320966  -0.0008029  -0.0008318  3.94e-05  0  0  0  -0.0392789  -0.0452796  -0.0035905  0.00712282  -0.0187753  -0.0202826  0.00141037  0.0111579  0.00758644  0.0166697  0.0158091  -0.0188817  -0.029344  -0.0130051  -0.00918425 
1701778671.223885000  0  0  11.8045  -0.0407085  -0.0743355  0.016412  nan  nan  nan  nan  nan  nan  -2.00002  -1.00002  1.5  -0.0181943  -0.0175645  0.000321293  -0.0010086  -0.0010769  1.5e-05  0  0  0  -0.0428774  -0.0526197  -0.0062863  0.00711884  -0.0188045  -0.0202735  0.0016861  0.0111268  0.00873086  0.0154233  0.0165679  -0.0189985  -0.060477  -0.00375326  -0.0151655 
1701778671.228891000  0  0  11.7755  -0.0509954  -0.0507577  0.0172865  nan  nan  nan  nan  nan  nan  -2.00002  -1.00002  1.5  -0.0179233  -0.0175085  0.000315828  -0.0012224  -0.0013394  -1.7e-05  0  0  0  -0.0425024  -0.0522447  -0.0066612  0.00710038  -0.0188389  -0.020251  0.00164521  0.0116651  0.0110732  0.0151117  0.015947  -0.019208  -0.0370369  -0.0451969  -0.0240015 
1701778671.233886000  0  0  11.8432  -0.029105  -0.0874846  0.0166324  nan  nan  nan  nan  nan  nan  -2.00003  -1.00003  1.5  -0.017548  -0.01698  0.000300281  -0.0014324  -0.0015981  -5.29e-05  0  0  0  -0.0413774  -0.0511197  -0.0077862  0.00710768  -0.0187789  -0.0202532  0.00121002  0.012036  0.00532609  0.0141677  0.0160036  -0.0192168  -0.0721329  0.0277365  -0.0157363 
1701778671.238887000  0  0  11.7886  -0.046918  -0.0621156  0.0168731  nan  nan  nan  nan  nan  nan  -2.00004  -1.00004  1.5  -0.0177771  -0.0172146  0.000308743  -0.0016349  -0.0018493  -9.62e-05  0  0  0  -0.0395024  -0.0492447  -0.0096612  0.00710376  -0.0188009  -0.0202204  0.00166552  0.0121339  0.00963147  0.0143842  0.0158391  -0.0193344  -0.0384987  -0.0214889  -0.0175696 
1701778671.242892000  0  0  11.8055  -0.0576043  -0.0499594  0.0162868  nan  nan  nan  nan  nan  nan  -2.00004  -1.00005  1.5  -0.0173293  -0.0169869  0.000297687  -0.0018262  -0.0020893  -0.0001507  0  0  0  -0.0368774  -0.0466197  -0.0122863  0.00710335  -0.0187471  -0.0201992  0.00173867  0.0129075  0.00793075  0.0140811  0.0152667  -0.0193245  -0.014338  -0.0405348  -0.0103405 
1701778671.248890000  0  0  11.8559  -0.0409957  -0.070277  0.0150305  nan  nan  nan  nan  nan  nan  -2.00005  -1.00006  1.5  -0.0176805  -0.0160989  0.000288554  -0.0020024  -0.0023142  -0.0002203  0  0  0  -0.0335024  -0.0432447  -0.0156613  0.00708747  -0.0187683  -0.02023  0.00113508  0.0128307  0.00346782  0.0139089  0.014771  -0.0192012  -0.0459702  0.00466126  0.0041308 
1701778671.253884000  0  0  11.7673  -0.075086  -0.0324631  0.0158573  nan  nan  nan  nan  nan  nan  -2.00006  -1.00007  1.5  -0.0178791  -0.0162293  0.000294882  -0.0021599  -0.0025205  -0.0003086  0  0  0  -0.0293774  -0.0391197  -0.0197863  0.00709817  -0.0187067  -0.0201451  0.00165637  0.0131417  0.0102821  0.0145838  0.0141229  -0.0192968  0.0160009  -0.0650046  -0.00524821 
1701778671.258886000  0  0  11.8202  -0.0701569  -0.0521166  0.0160011  nan  nan  nan  nan  nan  nan  -2.00008  -1.00008  1.5  -0.0181908  -0.0152686  0.000283567  -0.0022949  -0.0027042  -0.0004194  0  0  0  -0.0245024  -0.0342447  -0.0246613  0.00709187  -0.0187267  -0.0201799  0.00113367  0.013301  0.00547206  0.0148511  0.0133244  -0.0193542  0.00368386  -0.018351  -0.0064717 
1701778671.263884000  0  0  11.8022  -0.0699087  -0.0518292  0.0159088  nan  nan  nan  nan  nan  nan  -2.00009  -1.0001  1.49999  -0.018937  -0.0146271  0.000284118  -0.0024037  -0.0028617  -0.0005564  0  0  0  -0.0188774  -0.0286197  -0.0302863  0.00707445  -0.0187429  -0.0201551  0.00102786  0.0131213  0.00636998  0.0155176  0.0127289  -0.0193753  -0.0029442  -0.013447  -0.00510606 
1701778671.268889000  0  0  11.7316  -0.0963012  -0.0196951  0.0163874  nan  nan  nan  nan  nan  nan  -2.0001  -1.00011  1.49999  -0.0193042  -0.0140324  0.00027981  -0.0024825  -0.0029891  -0.0007235  0  0  0  -0.0125024  -0.0222447  -0.0366613  0.00707755  -0.0186811  -0.0200796  0.00095458  0.0134774  0.0114841  0.0164256  0.0114178  -0.0194777  0.0414866  -0.0656532  -0.0100662 
1701778671.273888000  0  0  11.8083  -0.0926761  -0.041978  0.0157751  nan  nan  nan  nan  nan  nan  -2.00011  -1.00013  1.49999  -0.0201663  -0.012858  0.000270326  -0.0025275  -0.0030829  -0.0009243  0  0  0  -0.0053774  -0.0151197  -0.0437863  0.00705835  -0.0186993  -0.020123  0.000496718  0.0131423  0.00448493  0.0173325  0.0105236  -0.0194642  0.0258935  -0.0128615  -0.00254631 
1701778671.278887000  0  0  11.787  -0.104445  -0.0338961  0.0158114  nan  nan  nan  nan  nan  nan  -2.00012  -1.00014  1.49998  -0.0208657  -0.0119907  0.000264025  -0.002535  -0.0031391  -0.0011626  0  0  0  0.0024976  -0.0072447  -0.0516613  0.00705873  -0.0186403  -0.0200789  0.000347297  0.0131597  0.00539994  0.0183226  0.00955832  -0.0194796  0.0403225  -0.0201443  -0.00284688 
1701778671.283884000  0  0  11.7048  -0.133444  -0.00597891  0.0157942  nan  nan  nan  nan  nan  nan  -2.00014  -1.00016  1.49998  -0.0219079  -0.0109756  0.000257585  -0.0025013  -0.0031541  -0.0014422  0  0  0  0.0111226  0.0013803  -0.0602863  0.0070482  -0.0186596  -0.0200306  5.57138e-05  0.0131513  0.011301  0.020096  0.00796478  -0.0195116  0.0820041  -0.0613182  -0.00231184 
1701778671.288889000  0  0  11.7446  -0.126532  -0.0179555  0.0151982  nan  nan  nan  nan  nan  nan  -2.00015  -1.00018  1.49997  -0.0232338  -0.0098186  0.000249461  -0.0024225  -0.003124  -0.0017667  0  0  0  0.0204976  0.0107553  -0.0696613  0.00702417  -0.0186845  -0.0200377  -0.000140521  0.0125901  0.00709283  0.0215159  0.00694558  -0.0194514  0.0551188  -0.0279884  0.00453661 
1701778671.292890000  0  0  11.7301  -0.135505  -0.0198836  0.0153566  nan  nan  nan  nan  nan  nan  -2.00016  -1.00019  1.49996  -0.0241233  -0.00848862  0.000231111  -0.002295  -0.0030453  -0.00214  0  0  0  0.0306226  0.0208803  -0.0797863  0.00702195  -0.0186357  -0.0200076  -0.000576658  0.0126667  0.00724392  0.0226953  0.00572587  -0.019446  0.0622138  -0.0129107  0.00250222 
1701778671.298886000  0  0  11.664  -0.149863  -0.00456214  0.0162196  nan  nan  nan  nan  nan  nan  -2.00017  -1.00021  1.49995  -0.0255275  -0.00718685  0.000215901  -0.002115  -0.002914  -0.0025658  0  0  0  0.0414976  0.0317553  -0.0906613  0.00699517  -0.0186484  -0.0199425  -0.00086131  0.0124559  0.0115502  0.0246749  0.00416258  -0.0195675  0.0727164  -0.0291714  -0.00706944 
1701778671.303879000  0  0  11.6801  -0.128216  -0.0208074  0.0160345  nan  nan  nan  nan  nan  nan  -2.00018  -1.00022  1.49993  -0.0272192  -0.00575211  0.000196306  -0.0018788  -0.0027265  -0.0030479  0  0  0  0.0531226  0.0433803  -0.102286  0.00697092  -0.0186862  -0.0199182  -0.0011546  0.0117996  0.00903686  0.0260757  0.00310719  -0.0195756  0.016536  0.0130288  -0.00467428 
1701778671.308890000  0  0  11.684  -0.147073  -0.0174544  0.0162433  nan  nan  nan  nan  nan  nan  -2.00019  -1.00023  1.49992  -0.0281991  -0.00408469  0.000163515  -0.0015826  -0.0024789  -0.00359  0  0  0  0.0654976  0.0557553  -0.114661  0.00696388  -0.0186274  -0.0198954  -0.00170286  0.0119823  0.00745178  0.0274735  0.0016331  -0.01961  0.0413903  0.0198844  -0.00694142 
1701778671.313886000  0  0  11.6214  -0.148122  -0.0101941  0.0152816  nan  nan  nan  nan  nan  nan  -2.0002  -1.00024  1.4999  -0.030066  -0.00283044  0.000143426  -0.0012226  -0.0021677  -0.0041958  0  0  0  0.0786226  0.0688803  -0.127786  0.00694881  -0.0186602  -0.0198331  -0.00162166  0.0115342  0.0112596  0.0294146  0.000467108  -0.0195334  0.0256291  0.0160909  0.00431462 
1701778671.317887000  0  0  11.6262  -0.132208  -0.0223798  0.0149359  nan  nan  nan  nan  nan  nan  -2.0002  -1.00025  1.49987  -0.0314211  -0.00123215  0.000108828  -0.0007951  -0.0017889  -0.0048691  0  0  0  0.0924976  0.0827553  -0.141661  0.00693838  -0.0186116  -0.0197979  -0.0018698  0.0114511  0.00944593  0.0304278  -0.000662599  -0.0194527  -0.0155202  0.0508554  0.00782861 
1701778671.323884000  0  0  11.6209  -0.151263  -0.0253665  0.0159917  nan  nan  nan  nan  nan  nan  -2.00021  -1.00026  1.49985  -0.0327767  0.000855616  5.56457e-05  -0.0002963  -0.0013388  -0.0056136  0  0  0  0.107123  0.0973803  -0.156286  0.00691412  -0.0186312  -0.0197737  -0.00262445  0.0116504  0.00841318  0.0320092  -0.00210714  -0.0195342  0.00804164  0.0701186  -0.00455496 
1701778671.328893000  0  0  11.5652  -0.146057  -0.0173677  0.0161943  nan  nan  nan  nan  nan  nan  -2.00021  -1.00027  1.49982  -0.0350204  0.00232646  1.78933e-05  0.0002774  -0.0008138  -0.0064332  0  0  0  0.122498  0.112755  -0.171661  0.00689676  -0.0186597  -0.019714  -0.00248532  0.0110176  0.0114541  0.0339806  -0.0032397  -0.0195879  -0.0205086  0.0645406  -0.00654926 
1701778671.333884000  0  0  11.5732  -0.128008  -0.0385002  0.015796  nan  nan  nan  nan  nan  nan  -2.0002  -1.00027  1.49978  -0.0361598  0.00437107  -4.08255e-05  0.0009299  -0.00021  -0.0073315  0  0  0  0.138623  0.12888  -0.187786  0.00687533  -0.0186029  -0.0196759  -0.00298774  0.0114779  0.00916912  0.0345612  -0.00438034  -0.0195344  -0.0619481  0.1173  -0.00210568 
1701778671.338886000  0  0  11.5585  -0.133117  -0.0378976  0.015607  nan  nan  nan  nan  nan  nan  -2.0002  -1.00027  1.49974  -0.0380324  0.0066023  -0.00011352  0.0016649  0.0004762  -0.0083123  0  0  0  0.155498  0.145755  -0.204661  0.00685737  -0.0186267  -0.0196412  -0.00362904  0.0113632  0.00869917  0.0361165  -0.00580832  -0.0194977  -0.0660378  0.129232  -0.000110437 
1701778671.342887000  0  0  11.4751  -0.117381  -0.0225326  0.0158771  nan  nan  nan  nan  nan  nan  -2.00019  -1.00027  1.4997  -0.0404011  0.00825404  -0.00017295  0.0024861  0.0012488  -0.0093793  0  0  0  0.173123  0.16338  -0.222286  0.00684772  -0.0185806  -0.019561  -0.00337774  0.0108687  0.013814  0.0377334  -0.00711613  -0.0195132  -0.112385  0.110534  -0.00333195 
1701778671.348889000  0  0  11.4957  -0.107913  -0.0382434  0.0161468  nan  nan  nan  nan  nan  nan  -2.00017  -1.00026  1.49965  -0.0419619  0.0106098  -0.000258762  0.0033973  0.0021113  -0.0105364  0  0  0  0.191498  0.181755  -0.240661  0.00681971  -0.0185907  -0.0195375  -0.00397312  0.0111797  0.0103199  0.0383054  -0.00823866  -0.019534  -0.136583  0.152282  -0.00649469 
1701778671.353883000  0  0  11.4742  -0.109971  -0.0424285  0.0166397  nan  nan  nan  nan  nan  nan  -2.00015  -1.00024  1.49959  -0.0442552  0.0128987  -0.000355392  0.0044023  0.0030676  -0.0117872  0  0  0  0.210623  0.20088  -0.259786  0.00680425  -0.0186172  -0.0194921  -0.00436545  0.0108851  0.0102109  0.0398669  -0.00940304  -0.0196003  -0.146833  0.171365  -0.0119931 
1701778671.358888000  0  0  11.4212  -0.0942034  -0.0333  0.0165412  nan  nan  nan  nan  nan  nan  -2.00013  -1.00023  1.49953  -0.0465496  0.0154629  -0.000472183  0.0055048  0.0041213  -0.0131355  0  0  0  0.230498  0.220755  -0.279661  0.00678623  -0.0185558  -0.0194239  -0.00494132  0.0106666  0.0126373  0.0410014  -0.0111092  -0.0195989  -0.188806  0.168805  -0.0107768 
1701778671.363884000  0  0  11.4439  -0.0968532  -0.0445789  0.0162037  nan  nan  nan  nan  nan  nan  -2.0001  -1.0002  1.49946  -0.0483012  0.0181878  -0.000595228  0.0067086  0.0052764  -0.0145851  0  0  0  0.251123  0.24138  -0.300286  0.00676895  -0.0185743  -0.0194049  -0.00574848  0.0110298  0.0087771  0.0418049  -0.0125214  -0.0195535  -0.190899  0.204354  -0.00701157 
1701778671.367835000  0  0  11.4172  -0.10239  -0.0390469  0.0160898  nan  nan  nan  nan  nan  nan  -2.00006  -1.00017  1.49939  -0.0509402  0.020933  -0.000743876  0.0080173  0.0065364  -0.0161396  0  0  0  0.272498  0.262755  -0.321661  0.00673669  -0.0185401  -0.0193588  -0.00635257  0.0105117  0.00891172  0.043674  -0.0143374  -0.0195067  -0.19702  0.209998  -0.00605552 
1701778671.373885000  0  0  11.3707  -0.0969377  -0.0318534  0.0164993  nan  nan  nan  nan  nan  nan  -2.00002  -1.00014  1.4993  -0.0536813  0.0234432  -0.000893054  0.0094348  0.0079052  -0.0178029  0  0  0  0.294623  0.28488  -0.343786  0.00672769  -0.0185336  -0.0193053  -0.00654554  0.0101596  0.0106528  0.0449072  -0.0155712  -0.0195591  -0.219271  0.206962  -0.0106499 
1701778671.378878000  0  0  11.3727  -0.106561  -0.0351973  0.0162741  nan  nan  nan  nan  nan  nan  -1.99997  -1.00009  1.49921  -0.0562492  0.0265484  -0.00108113  0.0109648  0.0093864  -0.0195787  0  0  0  0.317498  0.307755  -0.366661  0.00671063  -0.0185342  -0.0193089  -0.0074934  0.00986373  0.00838491  0.0464674  -0.0173023  -0.0195396  -0.214378  0.229576  -0.00803091 
1701778671.383878000  0  0  11.2887  -0.101396  -0.0170992  0.0156983  nan  nan  nan  nan  nan  nan  -1.99991  -1.00004  1.4991  -0.0595315  0.0291214  -0.00127075  0.012611  0.010984  -0.0214708  0  0  0  0.341123  0.33138  -0.390286  0.00667913  -0.018487  -0.0192189  -0.0073633  0.0092231  0.0130354  0.0483928  -0.0189174  -0.0194299  -0.242421  0.208239  -0.00192983 
1701778671.388883000  0  0  11.2701  -0.106956  -0.0194904  0.0148965  nan  nan  nan  nan  nan  nan  -1.99984  -0.999984  1.49899  -0.0625501  0.0323769  -0.00150736  0.0143772  0.0127015  -0.0234829  0  0  0  0.365498  0.355755  -0.414661  0.00665794  -0.0184903  -0.0191741  -0.00819964  0.00873077  0.0122849  0.0501537  -0.0207965  -0.0192487  -0.247501  0.230309  0.00628109 
1701778671.393879000  0  0  11.2458  -0.116216  -0.0241799  0.0144221  nan  nan  nan  nan  nan  nan  -1.99976  -0.999916  1.49887  -0.065484  0.0361138  -0.00178794  0.0162672  0.0145428  -0.0256187  0  0  0  0.390623  0.38088  -0.439786  0.00660833  -0.0184459  -0.0191257  -0.00944578  0.00839205  0.0119367  0.0519446  -0.0229843  -0.0190445  -0.245457  0.259815  0.0101683 
1701778671.398896000  0  0  11.1589  -0.119668  0.000232584  0.0152386  nan  nan  nan  nan  nan  nan  -1.99968  -0.999838  1.49874  -0.0695439  0.0390917  -0.00207848  0.0182847  0.0165116  -0.027882  0  0  0  0.416498  0.406755  -0.465661  0.00660726  -0.0184591  -0.0190303  -0.00946793  0.0073709  0.0166436  0.0545973  -0.0249267  -0.0189984  -0.26296  0.22886  -0.000499244 
1701778671.402892000  0  0  11.1787  -0.12898  -0.0039989  0.0154032  nan  nan  nan  nan  nan  nan  -1.99958  -0.99975  1.49859  -0.0729447  0.04293  -0.00242371  0.0204335  0.0186116  -0.0302763  0  0  0  0.443123  0.43338  -0.492044  0.00657725  -0.0184975  -0.0189935  -0.0108449  0.00653387  0.0125562  0.056924  -0.0274283  -0.0188967  -0.265741  0.260338  -0.00357325 
1701778671.408877000  0  0  11.161  -0.134808  -0.011507  0.0155071  nan  nan  nan  nan  nan  nan  -1.99947  -0.999652  1.49843  -0.0760528  0.0467055  -0.00277204  0.0227172  0.0208466  -0.0328013  0  0  0  0.470498  0.460755  -0.517817  0.00652859  -0.0184376  -0.0189538  -0.0118259  0.00624819  0.0116865  0.058473  -0.0291567  -0.018781  -0.268336  0.291255  -0.00602941 
1701778671.413877000  0  0  11.0926  -0.141396  0.0142906  0.0160026  nan  nan  nan  nan  nan  nan  -1.99935  -0.999542  1.49826  -0.0804434  0.0500773  -0.00317199  0.0251397  0.0232204  -0.0354532  0  0  0  0.498623  0.48888  -0.542839  0.00651977  -0.0184684  -0.0188968  -0.0120115  0.00513529  0.0150846  0.0613784  -0.0313592  -0.0187464  -0.281888  0.259923  -0.0125686 
1701778671.417871000  0  0  11.1136  -0.150623  0.0050674  0.0162196  nan  nan  nan  nan  nan  nan  -1.99922  -0.999419  1.49808  -0.0840688  0.0546113  -0.00365363  0.0277047  0.0257367  -0.0382284  0  0  0  0.527498  0.517755  -0.567112  0.00644066  -0.0184725  -0.0188468  -0.0138694  0.0042394  0.011139  0.0638901  -0.0343178  -0.0186225  -0.286543  0.305589  -0.01652 
1701778671.423875000  0  0  11.0496  -0.154547  0.00338453  0.0154526  nan  nan  nan  nan  nan  nan  -1.99908  -0.999284  1.49788  -0.0882593  0.0582651  -0.00411947  0.0304159  0.0283992  -0.0411231  0  0  0  0.557123  0.54738  -0.590635  0.00643787  -0.0184659  -0.0188107  -0.0141776  0.00353867  0.0144395  0.0662166  -0.0358091  -0.0184263  -0.300098  0.322675  -0.00889454 
1701778671.428879000  0  0  10.9847  -0.157257  0.0242886  0.0151007  nan  nan  nan  nan  nan  nan  -1.99892  -0.999135  1.49767  -0.0930865  0.0621435  -0.00467208  0.0332772  0.0312117  -0.0441335  0  0  0  0.587498  0.577755  -0.613407  0.00641907  -0.0185027  -0.0187343  -0.0145854  0.00232425  0.0178046  0.0692682  -0.0382722  -0.0182262  -0.322754  0.303527  -0.00649687 
1701778671.433873000  0  0  11.048  -0.152986  -0.00651535  0.0140372  nan  nan  nan  nan  nan  nan  -1.99874  -0.998972  1.49744  -0.0961902  0.0670944  -0.00524605  0.0362921  0.034178  -0.0472559  0  0  0  0.618623  0.60888  -0.63543  0.00632737  -0.0184876  -0.0187141  -0.0169335  0.00190726  0.0107578  0.0705825  -0.0407546  -0.0178812  -0.343387  0.387973  0.00334677 
1701778671.438875000  0  0  10.9567  -0.160949  0.00713741  0.0136758  nan  nan  nan  nan  nan  nan  -1.99855  -0.998793  1.49719  -0.101695  0.0715438  -0.00596971  0.0394646  0.0373018  -0.0504865  0  0  0  0.650498  0.640755  -0.656702  0.00628598  -0.018519  -0.0186058  -0.017544  0.000424605  0.0164966  0.0741813  -0.0432273  -0.0175145  -0.36057  0.383416  0.00419766 
1701778671.442886000  0  0  10.905  -0.167869  0.0401917  0.014061  nan  nan  nan  nan  nan  nan  -1.99835  -0.998598  1.49693  -0.106932  0.0763524  -0.00675591  0.0427984  0.0405868  -0.0538217  0  0  0  0.683123  0.67338  -0.677225  0.00618372  -0.0185571  -0.0184784  -0.018618  -0.000973517  0.0189624  0.0777756  -0.0468491  -0.0172418  -0.379797  0.350629  -0.00334408 
1701778671.448883000  0  0  10.9836  -0.160842  0.000849086  0.013252  nan  nan  nan  nan  nan  nan  -1.99812  -0.998387  1.49666  -0.110323  0.08036  -0.00734829  0.0462971  0.0440368  -0.0572575  0  0  0  0.716498  0.706755  -0.696998  0.00617391  -0.0185786  -0.0185061  -0.0199044  -0.00159843  0.0111112  0.0786098  -0.0476613  -0.0169071  -0.401526  0.436786  0.0034209 
1701778671.453875000  0  0  10.8725  -0.165189  0.0224249  0.0125357  nan  nan  nan  nan  nan  nan  -1.99788  -0.998158  1.49636  -0.116532  0.0848715  -0.00826259  0.0499643  0.0476554  -0.0607904  0  0  0  0.750312  0.740692  -0.71602  0.00614124  -0.0186317  -0.0184083  -0.0200411  -0.00314967  0.0188511  0.082489  -0.0501343  -0.01642  -0.42852  0.416386  0.00750342 
1701778671.458872000  0  0  10.8652  -0.165033  0.032374  0.012089  nan  nan  nan  nan  nan  nan  -1.99762  -0.99791  1.49605  -0.121074  0.0896885  -0.00911517  0.053799  0.0514426  -0.0644165  0  0  0  0.783471  0.774066  -0.734293  0.00603722  -0.0186469  -0.0183371  -0.0213824  -0.00408609  0.018113  0.0846491  -0.0528674  -0.0159878  -0.448707  0.421632  0.00876498 
1701778671.463878000  0  0  10.9283  -0.150099  -0.00427979  0.0117765  nan  nan  nan  nan  nan  nan  -1.99735  -0.997643  1.49572  -0.124552  0.0943156  -0.00988158  0.0577977  0.0553948  -0.0681321  0  0  0  0.81588  0.806689  -0.751815  0.00598194  -0.0186811  -0.0183566  -0.023408  -0.00473394  0.0118787  0.0854007  -0.0543542  -0.0156038  -0.485489  0.508618  0.00883167 
1701778671.467829000  0  0  10.8598  -0.15887  0.010796  0.011895  nan  nan  nan  nan  nan  nan  -1.99705  -0.997356  1.49537  -0.130748  0.099716  -0.0110498  0.0619566  0.0595083  -0.0719334  0  0  0  0.847539  0.838563  -0.768588  0.00582973  -0.018765  -0.0181961  -0.0249507  -0.00681972  0.0162831  0.0894189  -0.0577244  -0.0150885  -0.504914  0.509472  0.00219772 
1701778671.473876000  0  0  10.8429  -0.141933  0.0151253  0.0125457  nan  nan  nan  nan  nan  nan  -1.99673  -0.997048  1.495  -0.134573  0.103504  -0.0118111  0.0662719  0.0637792  -0.0758167  0  0  0  0.878448  0.869686  -0.784611  0.00580666  -0.0187412  -0.0182125  -0.0253619  -0.00706571  0.016901  0.0896835  -0.058549  -0.0149074  -0.541222  0.508401  -0.00774733 
1701778671.478874000  0  0  10.8843  -0.117692  -0.0174083  0.0117922  nan  nan  nan  nan  nan  nan  -1.99638  -0.996718  1.49461  -0.138067  0.107818  -0.0126339  0.0707398  0.0682039  -0.0797783  0  0  0  0.908607  0.90006  -0.799883  0.00572216  -0.0187739  -0.0182165  -0.0270623  -0.00773756  0.0127867  0.0898234  -0.0595014  -0.0145379  -0.590992  0.58223  -0.00202389 
1701778671.483879000  0  0  10.824  -0.11037  0.00450263  0.012457  nan  nan  nan  nan  nan  nan  -1.99602  -0.996365  1.4942  -0.143243  0.112177  -0.0136807  0.0753567  0.0727786  -0.0838143  0  0  0  0.938016  0.929683  -0.814406  0.00560022  -0.0188151  -0.0181105  -0.0276464  -0.00893649  0.0169838  0.091608  -0.0612424  -0.0142052  -0.622052  0.554425  -0.0136607 
1701778671.488883000  0  0  10.8273  -0.112618  0.00307261  0.0132752  nan  nan  nan  nan  nan  nan  -1.99563  -0.99599  1.49377  -0.147348  0.116515  -0.0146392  0.0801187  0.0774995  -0.0879211  0  0  0  0.966675  0.958557  -0.828179  0.00551454  -0.0188536  -0.0181021  -0.0291326  -0.00991069  0.016194  0.0924587  -0.0626349  -0.0140089  -0.625383  0.570096  -0.0258509 
1701778671.492883000  0  0  10.8525  -0.103005  -0.0146149  0.0131153  nan  nan  nan  nan  nan  nan  -1.99522  -0.99559  1.49332  -0.151424  0.121675  -0.0157502  0.0850222  0.0823629  -0.0920948  0  0  0  0.994584  0.98668  -0.841201  0.0053111  -0.0189698  -0.0179814  -0.0317741  -0.0111117  0.0134694  0.0936402  -0.0649172  -0.0136545  -0.65548  0.626468  -0.0273964 
1701778671.498877000  0  0  10.8332  -0.0777427  -0.00897504  0.0127511  nan  nan  nan  nan  nan  nan  -1.99478  -0.995166  1.49285  -0.155209  0.124164  -0.0164475  0.0900633  0.087365  -0.0963318  0  0  0  1.02174  1.01405  -0.853474  0.00528205  -0.0189577  -0.0180385  -0.0309862  -0.011634  0.0149156  0.0928373  -0.0638825  -0.013497  -0.698617  0.605669  -0.0244195 
1701778671.503879000  0  0  10.8457  -0.0753832  -0.0325229  0.012312  nan  nan  nan  nan  nan  nan  -1.99432  -0.994716  1.49236  -0.158884  0.128592  -0.0174535  0.0952384  0.0925022  -0.100628  0  0  0  1.04815  1.04068  -0.864996  0.00519148  -0.0190152  -0.0180421  -0.0329908  -0.0124467  0.0137488  0.0928222  -0.0647209  -0.0131631  -0.703198  0.660478  -0.0222692 
1701778671.508883000  0  0  10.8575  -0.0691844  -0.0406651  0.0124186  nan  nan  nan  nan  nan  nan  -1.99383  -0.994241  1.49184  -0.162574  0.13268  -0.0184357  0.100544  0.0977706  -0.104981  0  0  0  1.07381  1.06655  -0.875769  0.00502508  -0.0190761  -0.0179798  -0.0345125  -0.0133595  0.0125922  0.0927867  -0.0652554  -0.0128872  -0.715269  0.68168  -0.0263613 
1701778671.513827000  0  0  10.8312  -0.0536223  -0.0178598  0.0136488  nan  nan  nan  nan  nan  nan  -1.99331  -0.993738  1.49131  -0.167006  0.136232  -0.0194589  0.105975  0.103166  -0.109385  0  0  0  1.09872  1.09167  -0.885792  0.00492667  -0.0191587  -0.0179519  -0.0350829  -0.014527  0.0147276  0.0931256  -0.0659228  -0.0127772  -0.74951  0.642209  -0.0428372 
1701778671.517877000  0  0  10.8735  -0.0629673  -0.0412075  0.0132486  nan  nan  nan  nan  nan  nan  -1.99277  -0.993209  1.49075  -0.171307  0.141054  -0.0207095  0.11153  0.108686  -0.113837  0  0  0  1.12288  1.11605  -0.895064  0.00467521  -0.0193217  -0.0178227  -0.0380468  -0.0166629  0.0111505  0.0943665  -0.0675454  -0.0123833  -0.742237  0.703833  -0.0417748 
1701778671.523873000  0  0  10.8488  -0.0614835  -0.0512102  0.0113821  nan  nan  nan  nan  nan  nan  -1.99219  -0.992651  1.49017  -0.174533  0.14399  -0.0215087  0.117203  0.114326  -0.118334  0  0  0  1.14629  1.13967  -0.903587  0.0046066  -0.0193155  -0.0178809  -0.0380612  -0.0167617  0.0135345  0.0931062  -0.0661114  -0.0119961  -0.73361  0.710645  -0.0223151 
1701778671.528882000  0  0  10.8532  -0.0609407  -0.0334684  0.0104611  nan  nan  nan  nan  nan  nan  -1.99159  -0.992065  1.48957  -0.178331  0.147301  -0.0224772  0.122991  0.120082  -0.122872  0  0  0  1.16895  1.16254  -0.911359  0.00447834  -0.0193993  -0.0178928  -0.0390212  -0.0179882  0.0134661  0.0930327  -0.0663832  -0.0116037  -0.734019  0.677662  -0.0147274 
1701778671.533879000  0  0  10.9083  -0.063537  -0.0595305  0.0100585  nan  nan  nan  nan  nan  nan  -1.99096  -0.99145  1.48894  -0.181366  0.150926  -0.0234071  0.128891  0.12595  -0.127446  0  0  0  1.19086  1.18467  -0.918382  0.00427443  -0.0194924  -0.017861  -0.0411242  -0.0193552  0.0092585  0.0924398  -0.0661208  -0.0112597  -0.723372  0.727372  -0.0131349 
1701778671.538881000  0  0  10.8645  -0.0715794  -0.0556785  0.0105157  nan  nan  nan  nan  nan  nan  -1.99031  -0.990806  1.48829  -0.185738  0.154216  -0.0245065  0.134898  0.131927  -0.132054  0  0  0  1.21202  1.20604  -0.924655  0.00415748  -0.0195853  -0.017868  -0.0414938  -0.0204574  0.0133612  0.0931179  -0.0659317  -0.0108909  -0.713526  0.717929  -0.022537 
1701778671.542885000  0  0  10.8361  -0.0869276  -0.025035  0.0104104  nan  nan  nan  nan  nan  nan  -1.98962  -0.990131  1.48762  -0.190911  0.158884  -0.026026  0.14101  0.138009  -0.136692  0  0  0  1.23242  1.22667  -0.930177  0.00385225  -0.019804  -0.0176713  -0.0435557  -0.0225474  0.0159199  0.0953537  -0.0683118  -0.0103491  -0.703399  0.678539  -0.0266385 
1701778671.548882000  0  0  10.9272  -0.0738945  -0.0520745  0.00993576  nan  nan  nan  nan  nan  nan  -1.98889  -0.989425  1.48692  -0.191965  0.160759  -0.0263618  0.147221  0.144192  -0.141355  0  0  0  1.25208  1.24654  -0.93495  0.00377977  -0.0198038  -0.0178663  -0.0446844  -0.0229044  0.00932589  0.092161  -0.065765  -0.0103548  -0.700092  0.709187  -0.0206485 
1701778671.553880000  0  0  10.8573  -0.0802575  -0.0414629  0.00911856  nan  nan  nan  nan  nan  nan  -1.98814  -0.988689  1.48621  -0.196724  0.163958  -0.0275814  0.153529  0.150473  -0.14604  0  0  0  1.27099  1.26566  -0.938973  0.00362636  -0.0199229  -0.0178577  -0.0446646  -0.0240625  0.0157975  0.0932255  -0.0657376  -0.00979199  -0.697159  0.687712  -0.0160621 
1701778671.558884000  0  0  10.8796  -0.0908007  -0.0272317  0.0102257  nan  nan  nan  nan  nan  nan  -1.98736  -0.98792  1.48546  -0.199798  0.167015  -0.0285109  0.15993  0.156848  -0.150743  0  0  0  1.28915  1.28404  -0.942245  0.00340335  -0.0200449  -0.0177929  -0.046026  -0.025268  0.0145459  0.0929646  -0.0658085  -0.0096692  -0.673673  0.659902  -0.0311287 
1701778671.563820000  0  0  10.9838  -0.0779382  -0.0519751  0.0100937  nan  nan  nan  nan  nan  nan  -1.98654  -0.98712  1.4847  -0.201868  0.169751  -0.029216  0.16642  0.163312  -0.155461  0  0  0  1.30656  1.30166  -0.944768  0.00321027  -0.0202112  -0.0178777  -0.048668  -0.0270811  0.00700485  0.0914457  -0.0648942  -0.00956275  -0.685424  0.700977  -0.0305433 
1701778671.567819000  0  0  10.9395  -0.0885037  -0.0387202  0.00945998  nan  nan  nan  nan  nan  nan  -1.9857  -0.986287  1.48391  -0.207075  0.174471  -0.0309019  0.172995  0.169863  -0.16019  0  0  0  1.32322  1.31853  -0.94654  0.00285448  -0.0204862  -0.0176492  -0.050895  -0.0291242  0.0113093  0.0936698  -0.0670571  -0.0088981  -0.684755  0.694366  -0.0292687 
1701778671.573875000  0  0  10.9343  -0.0944385  -0.00939903  0.00986439  nan  nan  nan  nan  nan  nan  -1.98481  -0.985421  1.4831  -0.208709  0.175598  -0.0312242  0.179651  0.176496  -0.164925  0  0  0  1.33913  1.33466  -0.947563  0.00279207  -0.0205113  -0.0177761  -0.0499205  -0.0286291  0.0126749  0.0914766  -0.0650847  -0.00902304  -0.652708  0.617577  -0.0330745 
1701778671.578879000  0  0  11.0305  -0.0733857  -0.0473299  0.00916626  nan  nan  nan  nan  nan  nan  -1.9839  -0.984522  1.48226  -0.210449  0.178475  -0.0319356  0.186385  0.183208  -0.169664  0  0  0  1.35429  1.35003  -0.947836  0.00253123  -0.0206608  -0.0177728  -0.0528178  -0.0302587  0.00586468  0.089569  -0.0641305  -0.00887149  -0.677264  0.684661  -0.0258633 
1701778671.583883000  0  0  10.9164  -0.0886847  -0.0169331  0.00990078  nan  nan  nan  nan  nan  nan  -1.98295  -0.983589  1.4814  -0.21524  0.181595  -0.033283  0.193192  0.189995  -0.174402  0  0  0  1.3687  1.36465  -0.947358  0.00232326  -0.0208569  -0.0177029  -0.052191  -0.0306808  0.0162493  0.0909284  -0.0646388  -0.0084911  -0.659172  0.628543  -0.0388488 
1701778671.588894000  0  0  10.9236  -0.0889199  -0.00323608  0.0108126  nan  nan  nan  nan  nan  nan  -1.98197  -0.982622  1.48052  -0.217939  0.183824  -0.0340649  0.20007  0.196854  -0.179137  0  0  0  1.38236  1.37853  -0.946131  0.0021139  -0.0210461  -0.0177383  -0.0528801  -0.0315687  0.0168247  0.0902711  -0.0642408  -0.00850642  -0.652654  0.597487  -0.0500939 
1701778671.592891000  0  0  11.0199  -0.0775251  -0.0418842  0.00990427  nan  nan  nan  nan  nan  nan  -1.98095  -0.98162  1.47961  -0.22096  0.187288  -0.0351932  0.207015  0.203779  -0.183863  0  0  0  1.39527  1.39165  -0.944153  0.00167961  -0.021385  -0.0175571  -0.0566132  -0.0346204  0.0100436  0.0902637  -0.0645923  -0.00816666  -0.675376  0.678017  -0.0421368 
1701778671.598891000  0  0  10.9589  -0.0916389  -0.0114433  0.00945239  nan  nan  nan  nan  nan  nan  -1.9799  -0.980584  1.47868  -0.223276  0.188546  -0.0357104  0.214022  0.210769  -0.188577  0  0  0  1.40742  1.40402  -0.941426  0.00159684  -0.0214317  -0.0176969  -0.0551049  -0.0340015  0.016386  0.0888702  -0.06273  -0.00810853  -0.634328  0.600003  -0.0370696 
1701778671.603885000  0  0  10.9813  -0.0869562  -0.0180752  0.00947105  nan  nan  nan  nan  nan  nan  -1.97881  -0.979513  1.47772  -0.225335  0.190619  -0.0363652  0.221088  0.217818  -0.193276  0  0  0  1.41883  1.41565  -0.937949  0.00133326  -0.0216622  -0.017698  -0.0560767  -0.0347072  0.0158261  0.087698  -0.0619222  -0.00806679  -0.632909  0.605835  -0.0377202 
1701778671.608894000  0  0  11.0689  -0.0638013  -0.0551369  0.00951536  nan  nan  nan  nan  nan  nan  -1.97769  -0.978406  1.47674  -0.226562  0.19236  -0.0367859  0.228209  0.224924  -0.197955  0  0  0  1.42949  1.42652  -0.933721  0.00104677  -0.0218428  -0.0176781  -0.0580315  -0.0362387  0.0100063  0.085378  -0.059943  -0.00813922  -0.657875  0.66175  -0.0375498 
1701778671.613841000  0  0  11.0206  -0.0788168  -0.0364471  0.010527  nan  nan  nan  nan  nan  nan  -1.97653  -0.977263  1.47574  -0.229958  0.194566  -0.0377572  0.235381  0.232082  -0.202612  0  0  0  1.4394  1.43664  -0.928744  0.00076939  -0.022102  -0.0176592  -0.0579112  -0.0369259  0.0154032  0.0856445  -0.0595007  -0.00800466  -0.630296  0.6203  -0.051541 
1701778671.617889000  0  0  11.0217  -0.082201  -0.0328161  0.010869  nan  nan  nan  nan  nan  nan  -1.97533  -0.976085  1.47472  -0.233212  0.197784  -0.0389498  0.242602  0.239289  -0.207241  0  0  0  1.44856  1.44602  -0.923017  0.000299803  -0.0224747  -0.0174081  -0.0598095  -0.0384085  0.0164953  0.0862083  -0.0603669  -0.00781083  -0.628714  0.621007  -0.0577535 
1701778671.623884000  0  0  11.1343  -0.0338269  -0.0915357  0.00979976  nan  nan  nan  nan  nan  nan  -1.9741  -0.97487  1.47367  -0.232419  0.197486  -0.0384979  0.249866  0.246541  -0.21184  0  0  0  1.45697  1.45464  -0.916539  0.000184294  -0.0225548  -0.0176511  -0.060332  -0.0388924  0.00905068  0.0810503  -0.0554195  -0.00820302  -0.678009  0.692931  -0.0404667 
1701778671.628892000  0  0  11.1166  -0.0453504  -0.0775219  0.0101798  nan  nan  nan  nan  nan  nan  -1.97283  -0.973619  1.4726  -0.2348  0.199107  -0.0391508  0.25717  0.253834  -0.216405  0  0  0  1.46463  1.46251  -0.909312  -0.000112728  -0.0228227  -0.0176654  -0.0603318  -0.0394452  0.0121005  0.0802764  -0.0541859  -0.0081565  -0.647842  0.653554  -0.045682 
1701778671.633841000  0  0  11.1436  -0.0482278  -0.0869546  0.010536  nan  nan  nan  nan  nan  nan  -1.97153  -0.972332  1.47151  -0.235897  0.200527  -0.0394942  0.264511  0.261165  -0.220932  0  0  0  1.47154  1.46964  -0.901334  -0.000421516  -0.0230292  -0.0176051  -0.0610655  -0.0398511  0.0112992  0.0784102  -0.05238  -0.00834307  -0.624919  0.655806  -0.0482687 
1701778671.638889000  0  0  11.1945  -0.02466  -0.107148  0.0103156  nan  nan  nan  nan  nan  nan  -1.97019  -0.971008  1.47039  -0.237014  0.201473  -0.039733  0.271884  0.26853  -0.225417  0  0  0  1.4777  1.47601  -0.892607  -0.000720068  -0.0233162  -0.017644  -0.0618578  -0.0408352  0.00886413  0.0759997  -0.0498719  -0.00845764  -0.649877  0.673118  -0.0443692 
1701778671.642891000  0  0  11.1465  -0.0516063  -0.0740306  0.0102479  nan  nan  nan  nan  nan  nan  -1.96881  -0.969647  1.46925  -0.240559  0.204273  -0.0409339  0.279286  0.275924  -0.229857  0  0  0  1.48311  1.48164  -0.88313  -0.00123742  -0.0237468  -0.0173371  -0.0625699  -0.041826  0.0141167  0.0772186  -0.0507909  -0.0081239  -0.607198  0.615338  -0.0468597 
1701778671.648894000  0  0  11.1696  -0.03878  -0.0909663  0.0103006  nan  nan  nan  nan  nan  nan  -1.96739  -0.968248  1.46809  -0.239901  0.203843  -0.0404706  0.286714  0.283345  -0.234248  0  0  0  1.48776  1.48651  -0.872902  -0.00132271  -0.023806  -0.0175107  -0.0615484  -0.0408563  0.0138583  0.0732136  -0.0467442  -0.00864426  -0.596005  0.611979  -0.0423154 
1701778671.653840000  0  0  11.2092  -0.0255102  -0.1107  0.0103769  nan  nan  nan  nan  nan  nan  -1.96594  -0.966813  1.46691  -0.240851  0.204967  -0.0407236  0.294163  0.290788  -0.238585  0  0  0  1.49167  1.49063  -0.861925  -0.00166458  -0.0241247  -0.01753  -0.0625259  -0.0415918  0.0124503  0.0710875  -0.0447045  -0.00877869  -0.602984  0.63268  -0.0419247 
1701778671.658890000  0  0  11.1566  -0.0439663  -0.0713509  0.0119579  nan  nan  nan  nan  nan  nan  -1.96445  -0.965341  1.46571  -0.241885  0.205781  -0.0409225  0.301629  0.29825  -0.242866  0  0  0  1.49483  1.49401  -0.850197  -0.00195248  -0.0243096  -0.0174355  -0.0612287  -0.0405087  0.0180868  0.0696432  -0.0433742  -0.00915422  -0.552785  0.541745  -0.0579319 
1701778671.663884000  0  0  11.2262  -0.0279592  -0.0927114  0.0117423  nan  nan  nan  nan  nan  nan  -1.96293  -0.963831  1.46448  -0.24251  0.20622  -0.040944  0.30911  0.305727  -0.247086  0  0  0  1.49724  1.49663  -0.83772  -0.00227955  -0.0246304  -0.0174448  -0.0622594  -0.0419106  0.0142327  0.0674067  -0.0409677  -0.00941126  -0.564223  0.562325  -0.0526659 
1701778671.667830000  0  0  11.2563  -0.0257536  -0.0898723  0.0118079  nan  nan  nan  nan  nan  nan  -1.96136  -0.962283  1.46324  -0.24488  0.208325  -0.0417514  0.316601  0.313215  -0.251241  0  0  0  1.4989  1.4985  -0.824493  -0.00286531  -0.0251284  -0.017144  -0.0641556  -0.0439138  0.013418  0.0673547  -0.0410069  -0.00932463  -0.568156  0.557008  -0.0543522 
1701778671.673842000  0  0  11.2531  -0.0398327  -0.0739896  0.0133594  nan  nan  nan  nan  nan  nan  -1.95976  -0.960698  1.46197  -0.243244  0.207327  -0.0409313  0.324098  0.32071  -0.255329  0  0  0  1.49981  1.49963  -0.810515  -0.00292119  -0.0251585  -0.0173305  -0.062324  -0.0417699  0.0152279  0.0633288  -0.0373631  -0.0102757  -0.502959  0.49172  -0.0642361 
1701778671.678891000  0  0  11.2861  -0.0232523  -0.0855316  0.0126473  nan  nan  nan  nan  nan  nan  -1.95812  -0.959076  1.46068  -0.2442  0.207445  -0.0409486  0.331597  0.32821  -0.259345  0  0  0  1.5  1.5  -0.795788  -0.00326783  -0.0254958  -0.0173389  -0.0623817  -0.0429281  0.0144628  0.0615879  -0.035105  -0.0104427  -0.520104  0.494029  -0.0536636 
1701778671.683885000  0  0  11.3022  -0.0401494  -0.078503  0.0132162  nan  nan  nan  nan  nan  nan  -1.95644  -0.957416  1.45938  -0.243771  0.207874  -0.0407391  0.339097  0.33571  -0.263286  0  0  0  1.5  1.5  -0.780311  -0.00358591  -0.0257067  -0.0172703  -0.0624533  -0.042327  0.0147102  0.059245  -0.0333458  -0.0109862  -0.464755  0.463787  -0.0553405 
1701778671.688895000  0  0  11.3205  -0.046177  -0.0704907  0.0134385  nan  nan  nan  nan  nan  nan  -1.95473  -0.955719  1.45805  -0.244076  0.208275  -0.0406835  0.346597  0.34321  -0.267147  0  0  0  1.5  1.5  -0.764083  -0.00394553  -0.0260503  -0.0172585  -0.0625042  -0.042367  0.0150773  0.057636  -0.0318836  -0.011353  -0.437897  0.434311  -0.0544513 
1701778671.692897000  0  0  11.319  -0.0404537  -0.0668189  0.0123696  nan  nan  nan  nan  nan  nan  -1.95298  -0.953984  1.4567  -0.246441  0.209985  -0.0414016  0.354097  0.35071  -0.270926  0  0  0  1.5  1.5  -0.747106  -0.00454162  -0.0265706  -0.0169144  -0.0633758  -0.0437988  0.0169597  0.0579552  -0.0320166  -0.0111407  -0.45228  0.428191  -0.0432139 
1701778671.698891000  0  0  11.3445  -0.064248  -0.0630871  0.0125794  nan  nan  nan  nan  nan  nan  -1.95119  -0.952212  1.45534  -0.24446  0.208886  -0.0404764  0.361597  0.35821  -0.274617  0  0  0  1.5  1.5  -0.729378  -0.0046332  -0.026621  -0.0171351  -0.0621289  -0.0421351  0.0167363  0.0543526  -0.0287489  -0.0119063  -0.371548  0.390664  -0.0381794 
1701778671.703883000  0  0  11.3751  -0.0646167  -0.0569292  0.0129036  nan  nan  nan  nan  nan  nan  -1.94936  -0.950402  1.45396  -0.244884  0.209091  -0.0403999  0.369097  0.36571  -0.278218  0  0  0  1.5  1.5  -0.710901  -0.0050298  -0.0269986  -0.017097  -0.0621582  -0.0425945  0.0162458  0.0531593  -0.0274229  -0.0121812  -0.359832  0.366149  -0.0394835 
1701778671.708896000  0  0  11.3826  -0.0546998  -0.0573604  0.0130525  nan  nan  nan  nan  nan  nan  -1.9475  -0.948555  1.45256  -0.244959  0.209013  -0.0401773  0.376597  0.37321  -0.281772  0  0  0  1.5  1.5  -0.710526  -0.00532853  -0.0272088  -0.0170247  -0.0614722  -0.0424379  0.0156625  0.0514135  -0.0256325  -0.0125355  -0.363605  0.35054  -0.0378016 
1701778671.713843000  0  0  11.3954  -0.073447  -0.0520812  0.0136362  nan  nan  nan  nan  nan  nan  -1.9456  -0.94667  1.45114  -0.245666  0.210031  -0.0403621  0.384097  0.38071  -0.285322  0  0  0  1.5  1.5  -0.709401  -0.0057422  -0.027595  -0.0169687  -0.0621125  -0.0426749  0.0150312  0.0508438  -0.0252395  -0.0127801  -0.320869  0.336366  -0.0426508 
1701778671.717890000  0  0  11.3721  -0.0814943  -0.0382297  0.0132572  nan  nan  nan  nan  nan  nan  -1.94366  -0.944748  1.4497  -0.247768  0.211971  -0.0410855  0.391597  0.38821  -0.288865  0  0  0  1.5  1.5  -0.707526  -0.0063619  -0.0281315  -0.0166159  -0.0627129  -0.043184  0.0171214  0.0516378  -0.0261141  -0.0126643  -0.312079  0.316709  -0.0390721 
1701778671.723885000  0  0  11.3852  -0.0648858  -0.0428195  0.0129682  nan  nan  nan  nan  nan  nan  -1.94168  -0.942788  1.44825  -0.246362  0.210229  -0.0401249  0.399097  0.39571  -0.292396  0  0  0  1.5  1.5  -0.704901  -0.00638946  -0.0281379  -0.0168173  -0.0605411  -0.0420576  0.0163208  0.0484862  -0.0227323  -0.0132701  -0.316301  0.294776  -0.0294018 
1701778671.728896000  0  0  11.3946  -0.0764061  -0.0445259  0.013513  nan  nan  nan  nan  nan  nan  -1.93967  -0.940791  1.44678  -0.2467  0.211331  -0.0402505  0.406597  0.40321  -0.295912  0  0  0  1.5  1.5  -0.701526  -0.0068043  -0.0285122  -0.0167837  -0.0611869  -0.0417893  0.016158  0.0476684  -0.0225048  -0.0135409  -0.285737  0.296096  -0.0335028 
1701778671.733839000  0  0  11.3636  -0.0740085  -0.041874  0.0139482  nan  nan  nan  nan  nan  nan  -1.93761  -0.938756  1.44529  -0.246844  0.211146  -0.0400175  0.414097  0.41071  -0.29941  0  0  0  1.5  1.5  -0.697401  -0.00712567  -0.0287366  -0.0166631  -0.0594206  -0.0407  0.0188349  0.0465301  -0.0210122  -0.013901  -0.28006  0.277061  -0.0353427 
1701778671.738889000  0  0  11.382  -0.0674577  -0.0413874  0.0134902  nan  nan  nan  nan  nan  nan  -1.93553  -0.936684  1.44379  -0.246806  0.211645  -0.0399121  0.421597  0.41821  -0.302885  0  0  0  1.5  1.5  -0.692526  -0.00750597  -0.0290671  -0.0166123  -0.0595555  -0.0403804  0.0179105  0.0451058  -0.0203268  -0.0141558  -0.280058  0.269782  -0.0270699 
1701778671.742877000  0  0  11.4016  -0.0764547  -0.0478732  0.0136199  nan  nan  nan  nan  nan  nan  -1.9334  -0.934574  1.44226  -0.248242  0.213783  -0.0405413  0.429097  0.42571  -0.306334  0  0  0  1.5  1.5  -0.686901  -0.0081855  -0.0296565  -0.0162399  -0.0612547  -0.0410904  0.0168403  0.0455059  -0.0211943  -0.0141543  -0.265745  0.290734  -0.0287054 
1701778671.748895000  0  0  11.3824  -0.062426  -0.0442538  0.0145507  nan  nan  nan  nan  nan  nan  -1.93123  -0.932426  1.44072  -0.246606  0.211971  -0.0395097  0.436597  0.43321  -0.309753  0  0  0  1.5  1.5  -0.680526  -0.00822578  -0.029624  -0.0164535  -0.058199  -0.0389555  0.0188655  0.0424927  -0.0180489  -0.0148954  -0.266081  0.254558  -0.0329293 
1701778671.753840000  0  0  11.4518  -0.0679365  -0.0500012  0.0154349  nan  nan  nan  nan  nan  nan  -1.92903  -0.930242  1.43917  -0.246196  0.212332  -0.039288  0.444097  0.44071  -0.313138  0  0  0  1.5  1.5  -0.673401  -0.00863383  -0.0300006  -0.016367  -0.0592947  -0.0394526  0.0139329  0.0411508  -0.0172232  -0.0154028  -0.242715  0.258456  -0.038909 
1701778671.758891000  0  0  11.4349  -0.0575783  -0.0607957  0.0166043  nan  nan  nan  nan  nan  nan  -1.92679  -0.928019  1.43759  -0.245366  0.21193  -0.0387865  0.451597  0.44821  -0.316486  0  0  0  1.5  1.5  -0.665526  -0.00890173  -0.0301689  -0.0162857  -0.0576484  -0.0377339  0.0156923  0.0391953  -0.015274  -0.0160693  -0.245441  0.262113  -0.046861 
1701778671.763833000  0  0  11.3574  -0.0520558  -0.0443231  0.0166281  nan  nan  nan  nan  nan  nan  -1.92452  -0.92576  1.436  -0.247012  0.212365  -0.0390433  0.459097  0.45571  -0.319792  0  0  0  1.5  1.5  -0.656901  -0.00932226  -0.0305713  -0.0161303  -0.0554461  -0.036747  0.0227861  0.0395015  -0.0150441  -0.0161362  -0.259302  0.227052  -0.0464899 
1701778671.767885000  0  0  11.4114  -0.0599883  -0.0505716  0.0157342  nan  nan  nan  nan  nan  nan  -1.9222  -0.923462  1.43439  -0.247669  0.213755  -0.0393159  0.466597  0.46321  -0.323053  0  0  0  1.5  1.5  -0.647526  -0.0100044  -0.0311622  -0.0157781  -0.0569545  -0.0375234  0.0191108  0.0392802  -0.0153721  -0.0162264  -0.241401  0.242566  -0.0344133 
1701778671.773836000  0  0  11.4479  -0.0434166  -0.0849753  0.0164033  nan  nan  nan  nan  nan  nan  -1.91985  -0.921127  1.43277  -0.245182  0.211961  -0.0381035  0.474097  0.47071  -0.326266  0  0  0  1.5  1.5  -0.637401  -0.0100485  -0.031148  -0.0159913  -0.0551966  -0.0358006  0.0169046  0.0356737  -0.0116562  -0.0171033  -0.241365  0.277188  -0.0340089 
1701778671.778888000  0  0  11.4015  -0.0486529  -0.0656541  0.0170651  nan  nan  nan  nan  nan  nan  -1.91746  -0.918755  1.43113  -0.245607  0.211807  -0.0379457  0.481597  0.47821  -0.329426  0  0  0  1.5  1.5  -0.626526  -0.010397  -0.0314799  -0.0158433  -0.0530727  -0.0344149  0.0214161  0.0351206  -0.0107936  -0.0174289  -0.225804  0.230609  -0.0390248 
1701778671.783835000  0  0  11.484  -0.0437357  -0.0840343  0.0174485  nan  nan  nan  nan  nan  nan  -1.91503  -0.916345  1.42948  -0.243655  0.211154  -0.037139  0.489097  0.48571  -0.33253  0  0  0  1.5  1.5  -0.614901  -0.0107009  -0.0316811  -0.0157836  -0.0533255  -0.0339192  0.0154261  0.032403  -0.00865674  -0.018185  -0.210637  0.247711  -0.036256 
1701778671.788896000  0  0  11.4776  -0.0427876  -0.091897  0.0170873  nan  nan  nan  nan  nan  nan  -1.91257  -0.913898  1.42781  -0.24391  0.210933  -0.0369295  0.496597  0.49321  -0.335574  0  0  0  1.5  1.5  -0.602526  -0.011094  -0.0320225  -0.0157076  -0.0519582  -0.0333669  0.017017  0.031759  -0.00727175  -0.0183977  -0.206607  0.250694  -0.0296147 
1701778671.792895000  0  0  11.4315  -0.0485515  -0.0567404  0.0167282  nan  nan  nan  nan  nan  nan  -1.91007  -0.911413  1.42612  -0.245573  0.212247  -0.0374084  0.504097  0.50071  -0.338554  0  0  0  1.5  1.5  -0.589401  -0.01179  -0.0326445  -0.0152578  -0.0510281  -0.0326621  0.0215981  0.0325416  -0.00834291  -0.0183258  -0.202279  0.190236  -0.0258448 
1701778671.798889000  0  0  11.5151  -0.0264262  -0.0900309  0.0169479  nan  nan  nan  nan  nan  nan  -1.90753  -0.908891  1.42442  -0.242052  0.210863  -0.0360801  0.511597  0.50821  -0.341467  0  0  0  1.5  1.5  -0.575526  -0.0117934  -0.0325619  -0.0154947  -0.0509512  -0.0310293  0.0159018  0.0281134  -0.0053719  -0.0192995  -0.205791  0.229483  -0.018854 
1701778671.803884000  0  0  11.4485  -0.0309489  -0.0574352  0.0174158  nan  nan  nan  nan  nan  nan  -1.90495  -0.906331  1.42271  -0.243061  0.210902  -0.0361049  0.519097  0.51571  -0.344308  0  0  0  1.5  1.5  -0.560901  -0.0121925  -0.032921  -0.01533  -0.0485342  -0.0297546  0.0224721  0.0282497  -0.00518713  -0.0194096  -0.197999  0.162592  -0.0236018 
1701778671.808891000  0  0  11.4429  -0.0315545  -0.0433314  0.0183445  nan  nan  nan  nan  nan  nan  -1.90234  -0.903734  1.42098  -0.241391  0.210001  -0.035312  0.526597  0.52321  -0.347075  0  0  0  1.5  1.5  -0.545526  -0.0124222  -0.0330575  -0.015216  -0.046584  -0.0274717  0.0236845  0.0259993  -0.00387591  -0.0201367  -0.176085  0.122321  -0.02794 
1701778671.813842000  0  0  11.5316  -0.0267994  -0.0669272  0.0176787  nan  nan  nan  nan  nan  nan  -1.89969  -0.901099  1.41924  -0.240672  0.210452  -0.0350565  0.534097  0.53071  -0.349762  0  0  0  1.5  1.5  -0.529401  -0.012876  -0.0334358  -0.0151073  -0.0481288  -0.0280582  0.0179612  0.0245914  -0.00336164  -0.0204463  -0.172642  0.164782  -0.0165201 
1701778671.817840000  0  0  11.5123  -0.041325  -0.0461804  0.0174901  nan  nan  nan  nan  nan  nan  -1.897  -0.898427  1.41748  -0.242287  0.211662  -0.035502  0.541597  0.53821  -0.352367  0  0  0  1.5  1.5  -0.512526  -0.0135996  -0.0340804  -0.0146512  -0.0476468  -0.027978  0.0207388  0.0256763  -0.00432875  -0.0203469  -0.153572  0.132185  -0.0151577 
