ts fx fy fz tx ty tz exfx exfy exfz extx exty extz xd yd zd rolld pitchd yawd vxd vyd vzd wxd wyd wzd axd ayd azd e_x e_y e_z e_vx e_vy e_vz e_rx e_ry e_rz e_wx e_wy e_wz
1699966385.249430000  0  0  11.6337  0.114422  -0.136239  0.00652965  nan  nan  nan  nan  nan  nan  -1  0  1  0.0168615  -0.0352815  -0.000594833  0  0  0  0  0  0  0  0  0  0.0253297  0.00101017  -0.0174696  -0.0106517  0.0195387  -0.00436591  -0.0262953  0.0278307  -0.0071654  0.0130739  0.0164366  -0.00996654 
1699966385.253428000  0  0  11.6726  0.110075  -0.153012  0.00669941  nan  nan  nan  nan  nan  nan  -1  0  1  0.016295  -0.0352101  -0.00057368  0  0  0  0  0  0  0  0  0  0.0253608  0.000899806  -0.0175049  -0.0106615  0.0191226  -0.00754703  -0.0256411  0.0282206  -0.00723883  0.015747  0.0463933  -0.0113542 
1699966385.257460000  0  0  11.6719  0.107  -0.141585  0.00733632  nan  nan  nan  nan  nan  nan  -1  0  1  0.0166141  -0.0350231  -0.000581814  0  0  0  0  0  0  0  0  0  0.0253177  0.000975755  -0.0175312  -0.0108111  0.0193663  -0.0074272  -0.0258076  0.028  -0.00735763  0.0234293  0.0255704  -0.0181277 
1699966385.263449000  0  0  11.5958  0.120378  -0.122514  0.00698263  nan  nan  nan  nan  nan  nan  -1  0  1  0.0161997  -0.0357067  -0.000578367  0  0  0  0  0  0  0  0  0  0.0253536  0.000869845  -0.0174914  -0.010306  0.0189269  -0.00116118  -0.0255968  0.0283094  -0.00740491  -0.00526424  -0.0154193  -0.0132338 
1699966385.268381000  0  0  11.6438  0.115034  -0.144548  0.00617094  nan  nan  nan  nan  nan  nan  -1  0  1  0.0153825  -0.0354901  -0.000545855  0  0  0  0  0  0  0  0  0  0.0253937  0.000728466  -0.0175164  -0.0104861  0.0182708  -0.00511232  -0.0247707  0.0285887  -0.00737395  -0.00217816  0.0260792  -0.00339728 
1699966385.273446000  0  0  11.6376  0.101966  -0.123681  0.00592017  nan  nan  nan  nan  nan  nan  -1  0  1  0.0159068  -0.0353382  -0.000562048  0  0  0  0  0  0  0  0  0  0.0253419  0.000821452  -0.0175374  -0.0105918  0.0187312  -0.00454579  -0.0249499  0.0281484  -0.00735663  0.0256078  -0.0116037  -0.000435748 
1699966385.278433000  0  0  11.5799  0.125344  -0.114804  0.00498493  nan  nan  nan  nan  nan  nan  -1  0  1  0.0153943  -0.0357552  -0.000550354  0  0  0  0  0  0  0  0  0  0.0253896  0.000691463  -0.0175058  -0.0103884  0.0182586  0.000202751  -0.0248542  0.0283004  -0.00722546  -0.0220294  -0.030756  0.00994305 
1699966385.283448000  0  0  11.6205  0.124067  -0.125859  0.00497821  nan  nan  nan  nan  nan  nan  -1  0  1  0.0159433  -0.0350005  -0.000557958  0  0  0  0  0  0  0  0  0  0.0253336  0.000784184  -0.0175441  -0.0110769  0.0188313  -0.00311119  -0.0254349  0.0277315  -0.00716996  -0.0141326  -0.00341254  0.009472 
1699966385.288396000  0  0  11.644  0.0988606  -0.117217  0.00586675  nan  nan  nan  nan  nan  nan  -1  0  1  0.0151722  -0.035355  -0.000536342  0  0  0  0  0  0  0  0  0  0.0253777  0.000653821  -0.0175611  -0.0106264  0.0181647  -0.0050156  -0.0242447  0.0278952  -0.00725559  0.0253299  -0.0222017  -0.00077849 
1699966385.293446000  0  0  11.6061  0.125774  -0.116125  0.00539589  nan  nan  nan  nan  nan  nan  -1  0  1  0.0148043  -0.0356422  -0.000527586  0  0  0  0  0  0  0  0  0  0.0254021  0.000538487  -0.0175342  -0.010459  0.0178827  -0.0019129  -0.024339  0.0280228  -0.00719492  -0.0276301  -0.0255605  0.00450053 
1699966385.298441000  0  0  11.6286  0.13246  -0.117411  0.00536712  nan  nan  nan  nan  nan  nan  -1  0  1  0.0156603  -0.0349718  -0.000547601  0  0  0  0  0  0  0  0  0  0.0253462  0.000631726  -0.0175625  -0.0111111  0.0188189  -0.00374841  -0.0253937  0.0273383  -0.00715303  -0.0312974  -0.0166907  0.00444126 
1699966385.303451000  0  0  11.6287  0.118192  -0.100695  0.00556119  nan  nan  nan  nan  nan  nan  -1  0  1  0.0161682  -0.0348457  -0.000563329  0  0  0  0  0  0  0  0  0  0.0252926  0.000725146  -0.0175797  -0.0111544  0.0192674  -0.00371047  -0.0256976  0.0268222  -0.00714827  3.37258e-05  -0.045374  0.0019678 
1699966385.308396000  0  0  11.6295  0.125161  -0.0951566  0.00533347  nan  nan  nan  nan  nan  nan  -1  0  1  0.0155396  -0.0349633  -0.000543249  0  0  0  0  0  0  0  0  0  0.0253175  0.000613242  -0.0175837  -0.0110558  0.0187053  -0.00375961  -0.0252873  0.0266185  -0.00711626  -0.0176782  -0.0545766  0.00449426 
1699966385.313446000  0  0  11.6343  0.126885  -0.106968  0.00570194  nan  nan  nan  nan  nan  nan  -1  0  1  0.0154739  -0.0346792  -0.000536556  0  0  0  0  0  0  0  0  0  0.0253254  0.000517281  -0.0175844  -0.0114225  0.0188421  -0.00416053  -0.0253733  0.0263995  -0.00714642  -0.0203367  -0.0289402  0.000189993 
1699966385.318433000  0  0  11.6212  0.114341  -0.097911  0.00594191  nan  nan  nan  nan  nan  nan  -1  0  1  0.014787  -0.034699  -0.00051303  0  0  0  0  0  0  0  0  0  0.0253417  0.000409394  -0.0175781  -0.0114852  0.0181725  -0.00306456  -0.0245688  0.0261418  -0.00718166  -0.00264835  -0.0446829  -0.00245727 
1699966385.323432000  0  0  11.6309  0.125502  -0.0928891  0.00597986  nan  nan  nan  nan  nan  nan  -1  0  1  0.0152602  -0.0345851  -0.000527713  0  0  0  0  0  0  0  0  0  0.0252872  0.000499874  -0.0176016  -0.0114734  0.0185988  -0.0038282  -0.0252399  0.0257112  -0.00718687  -0.0187967  -0.0507645  -0.00287956 
1699966385.328449000  0  0  11.6385  0.121687  -0.110052  0.00597711  nan  nan  nan  nan  nan  nan  -1  0  1  0.0152292  -0.0344427  -0.000524474  0  0  0  0  0  0  0  0  0  0.0252919  0.000409648  -0.017612  -0.0116386  0.0187723  -0.00444677  -0.0252423  0.025733  -0.00719769  -0.0111456  -0.0166405  -0.00273693 
1699966385.332450000  0  0  11.6433  0.116141  -0.113536  0.00595783  nan  nan  nan  nan  nan  nan  -1  0  1  0.0158054  -0.0340075  -0.000537442  0  0  0  0  0  0  0  0  0  0.0252436  0.000485584  -0.0176307  -0.0120757  0.0193571  -0.0048119  -0.0256819  0.0253527  -0.00720071  0.00399129  -0.00617303  -0.00246574 
1699966385.338446000  0  0  11.6429  0.118922  -0.10669  0.00594069  nan  nan  nan  nan  nan  nan  -1  0  1  0.0145495  -0.0344716  -0.00050148  0  0  0  0  0  0  0  0  0  0.025245  0.000310766  -0.0176439  -0.0114814  0.0181204  -0.00474073  -0.0245641  0.0256611  -0.0072238  -0.0118546  -0.0227033  -0.00202058 
1699966385.343444000  0  0  11.648  0.109833  -0.126799  0.00566339  nan  nan  nan  nan  nan  nan  -1  0  1  0.0155708  -0.0340827  -0.000530634  0  0  0  0  0  0  0  0  0  0.0251859  0.000407365  -0.0176699  -0.0118328  0.0192356  -0.00511941  -0.0253768  0.0255698  -0.00718796  0.0138003  0.0183559  0.00108724 
1699966385.348447000  0  0  11.657  0.1047  -0.131022  0.00588112  nan  nan  nan  nan  nan  nan  -1  0  1  0.0148054  -0.0341526  -0.000505581  0  0  0  0  0  0  0  0  0  0.0251953  0.000313512  -0.0176912  -0.0117302  0.0184686  -0.00582053  -0.0245123  0.0258636  -0.00722403  0.0161128  0.0240999  -0.00127367 
1699966385.353443000  0  0  11.6381  0.102347  -0.118758  0.00618607  nan  nan  nan  nan  nan  nan  -1  0  1  0.0143588  -0.0345267  -0.000495698  0  0  0  0  0  0  0  0  0  0.0251911  0.00024825  -0.0176884  -0.0113095  0.0180049  -0.00423785  -0.0239796  0.0260795  -0.00726932  0.0159182  -0.00241532  -0.00463272 
1699966385.357424000  0  0  11.6294  0.100008  -0.127653  0.00589426  nan  nan  nan  nan  nan  nan  -1  0  1  0.0151881  -0.0343014  -0.000520911  0  0  0  0  0  0  0  0  0  0.025145  0.000324665  -0.0177004  -0.0115302  0.0188926  -0.00349864  -0.0246254  0.0260279  -0.00724212  0.0265377  0.0158488  -0.00125712 
1699966385.363444000  0  0  11.6587  0.0919808  -0.136546  0.00540175  nan  nan  nan  nan  nan  nan  -1  0  1  0.014432  -0.0342293  -0.000493936  0  0  0  0  0  0  0  0  0  0.0251466  0.000228979  -0.0177337  -0.0115167  0.0181756  -0.0058675  -0.0236112  0.0263424  -0.00719  0.0332615  0.0307418  0.00437812 
1699966385.368394000  0  0  11.6473  0.0924547  -0.122341  0.00573231  nan  nan  nan  nan  nan  nan  -1  0  1  0.0149489  -0.0341422  -0.000510327  0  0  0  0  0  0  0  0  0  0.0250908  0.000319546  -0.0177504  -0.0115482  0.0186248  -0.00488505  -0.0239341  0.026084  -0.00721062  0.0352844  0.00470946  0.000452364 
1699966385.373427000  0  0  11.633  0.10341  -0.1416  0.00574068  nan  nan  nan  nan  nan  nan  -1  0  1  0.0149538  -0.0342286  -0.000511786  0  0  0  0  0  0  0  0  0  0.0250907  0.00023701  -0.0177475  -0.0114899  0.018791  -0.00370997  -0.0240181  0.0266129  -0.0072162  0.0141468  0.0383605  0.000403457 
1699966385.378434000  0  0  11.6478  0.0939463  -0.143491  0.00654538  nan  nan  nan  nan  nan  nan  -1  0  1  0.0141808  -0.0342427  -0.000485526  0  0  0  0  0  0  0  0  0  0.025102  0.00013232  -0.0177677  -0.0114416  0.0180481  -0.00489771  -0.0230522  0.0269392  -0.00731701  0.0241872  0.0391417  -0.0086471 
1699966385.382438000  0  0  11.64  0.094342  -0.121617  0.00719741  nan  nan  nan  nan  nan  nan  -1  0  1  0.0145361  -0.0343148  -0.000498739  0  0  0  0  0  0  0  0  0  0.0250589  0.000203924  -0.0177809  -0.0112822  0.0183357  -0.0042084  -0.0232903  0.0266895  -0.00742792  0.0255868  -0.00230922  -0.0156884 
1699966385.388390000  0  0  11.6154  0.10974  -0.137571  0.00674783  nan  nan  nan  nan  nan  nan  -1  0  1  0.0142133  -0.0343102  -0.000487599  0  0  0  0  0  0  0  0  0  0.0250698  8.04925e-05  -0.0177691  -0.0114061  0.0181542  -0.00219679  -0.0232008  0.0270343  -0.00745781  -0.00603326  0.0264266  -0.0097697 
1699966385.393450000  0  0  11.6264  0.100083  -0.13559  0.00591406  nan  nan  nan  nan  nan  nan  -1  0  1  0.0135807  -0.034037  -0.000462186  0  0  0  0  0  0  0  0  0  0.025072  -1.90505e-05  -0.0177708  -0.0117232  0.0175761  -0.00311074  -0.022458  0.0269408  -0.00740011  0.00644663  0.0233243  7.52711e-05 
1699966385.398470000  0  0  11.6052  0.104626  -0.108977  0.0059428  nan  nan  nan  nan  nan  nan  -1  0  1  0.0142844  -0.0341316  -0.000487489  0  0  0  0  0  0  0  0  0  0.0250172  7.12034e-05  -0.0177732  -0.011559  0.0182504  -0.00133065  -0.0231301  0.0265359  -0.00738307  0.00354573  -0.0261755  -0.000454262 
1699966385.403443000  0  0  11.5908  0.134503  -0.130943  0.00570071  nan  nan  nan  nan  nan  nan  -1  -0  1  0.0151253  -0.0335776  -0.000507815  6e-07  -6e-07  6e-07  0  0  0  0  0  0  0.0249559  0.00016535  -0.0177739  -0.0121894  0.0191018  -0.000158096  -0.0245138  0.026364  -0.00733502  -0.0434793  0.0193379  0.00209129 
1699966385.407525000  0  0  11.6058  0.119439  -0.132442  0.00628402  nan  nan  nan  nan  nan  nan  -1  -0  1  0.0144135  -0.0334986  -0.000482777  5e-06  -5e-06  5e-06  0  0  0  0  0  0  0.0249841  2.99101e-06  -0.0177698  -0.0122991  0.0185703  -0.00141548  -0.0237277  0.0264563  -0.0074162  -0.0205824  0.0214852  -0.00438822 
1699966385.413439000  0  0  11.5906  0.122573  -0.100089  0.00647181  nan  nan  nan  nan  nan  nan  -1  -1e-07  1  0.0139094  -0.0341001  -0.000474248  1.69e-05  -1.69e-05  1.69e-05  0  0  0  0  0  0  0.0250046  -8.85968e-05  -0.0177622  -0.0116271  0.0180997  -0.000145061  -0.0233898  0.0264304  -0.00745596  -0.0299592  -0.042982  -0.00633796 
1699966385.418432000  0  0  11.5829  0.145582  -0.119176  0.00576882  nan  nan  nan  nan  nan  nan  -1  -2e-07  1  0.0137096  -0.0339506  -0.00046529  4e-05  -4e-05  4e-05  0  0  0  0  0  0  0.0250103  -0.000192459  -0.0177477  -0.011861  0.0180621  0.000447993  -0.023862  0.026495  -0.00738546  -0.0716349  -0.00540305  0.00174432 
1699966385.423431000  0  0  11.611  0.13249  -0.114263  0.00608168  nan  nan  nan  nan  nan  nan  -1  -5e-07  1  0.0144585  -0.0333077  -0.000481325  7.81e-05  -7.81e-05  7.81e-05  0  0  0  0  0  0  0.0249485  -0.000100552  -0.0177685  -0.0124466  0.0188671  -0.00186461  -0.0245992  0.0258248  -0.00739909  -0.0386668  -0.00906243  -0.00203006 
1699966385.428431000  0  0  11.5893  0.136915  -0.096489  0.00603832  nan  nan  nan  nan  nan  nan  -0.999999  -1e-06  1  0.0138199  -0.0338493  -0.000467335  0.000135  -0.000135  0.000135  0  0  0  0  0  0  0.0249677  -0.0002081  -0.0177523  -0.0118728  0.0182486  -7.1915e-05  -0.0242579  0.0259225  -0.00739049  -0.0506569  -0.0455087  -0.00157409 
1699966385.432441000  0  0  11.5914  0.154221  -0.111393  0.00551908  nan  nan  nan  nan  nan  nan  -0.999998  -1.9e-06  1  0.0145534  -0.0333701  -0.000484993  0.0002141  -0.0002144  0.0002134  0  0  0  0  0  0  0.0249172  -0.000132169  -0.0177548  -0.0123684  0.0190283  -0.000271181  -0.0254599  0.0256033  -0.00731639  -0.0742116  -0.012765  0.0041754 
1699966385.438441000  0  0  11.6339  0.129804  -0.108785  0.00573875  nan  nan  nan  nan  nan  nan  -0.999997  -3.2e-06  1  0.0142274  -0.0330705  -0.000469651  0.0003149  -0.00032  0.0003113  0  0  0  0  0  0  0.0249101  -0.000228308  -0.0177691  -0.0125832  0.0188895  -0.00378339  -0.025094  0.0252719  -0.0073224  -0.0287425  -0.0149304  0.00148966 
1699966385.443452000  0  0  11.6144  0.127842  -0.0982952  0.00567249  nan  nan  nan  nan  nan  nan  -0.999995  -5.1e-06  1.00001  0.0139393  -0.0334029  -0.000464556  0.0004338  -0.0004556  0.0004249  0  0  0  0  0  0  0.0248952  -0.000292553  -0.0177588  -0.0121935  0.0186292  -0.00216128  -0.0248793  0.0252935  -0.00729672  -0.0267947  -0.0361098  0.00206112 
1699966385.448453000  0  0  11.6235  0.148912  -0.120851  0.00529316  nan  nan  nan  nan  nan  nan  -0.999992  -7.8e-06  1.00001  0.0150514  -0.0328528  -0.000493228  0.0005669  -0.000625  0.0005504  0  0  0  0  0  0  0.0248308  -0.000193901  -0.017772  -0.0127247  0.019861  -0.00293397  -0.026467  0.0250829  -0.00722031  -0.0543273  0.0109392  0.0060386 
1699966385.453451000  0  0  11.6437  0.12861  -0.116928  0.0058769  nan  nan  nan  nan  nan  nan  -0.999989  -1.14e-05  1.00001  0.0146369  -0.0326106  -0.000475869  0.0007105  -0.0008319  0.0006841  0  0  0  0  0  0  0.0248384  -0.000320033  -0.0177874  -0.0129824  0.0196391  -0.00457636  -0.0259429  0.024866  -0.00727209  -0.0185452  0.00508911  -0.000740287 
1699966385.457455000  0  0  11.6448  0.125051  -0.107288  0.00663829  nan  nan  nan  nan  nan  nan  -0.999985  -1.62e-05  1.00001  0.0150945  -0.0326564  -0.000491281  0.000861  -0.00108  0.0008222  0  0  0  0  0  0  0.0247897  -0.000242754  -0.0177984  -0.0128105  0.0200609  -0.00464193  -0.0263396  0.024727  -0.00735917  -0.0077772  -0.0129129  -0.00938698 
1699966385.463453000  0  0  11.6547  0.133928  -0.130522  0.00646564  nan  nan  nan  nan  nan  nan  -0.999981  -2.23e-05  1.00002  0.015396  -0.032565  -0.000499622  0.0010145  -0.0013731  0.000961  0  0  0  0  0  0  0.0247702  -0.000280659  -0.0178355  -0.0128483  0.0205526  -0.00541498  -0.0268673  0.0250409  -0.00738345  -0.0206772  0.0306675  -0.00698605 
1699966385.468465000  0  0  11.6784  0.122137  -0.128062  0.00671218  nan  nan  nan  nan  nan  nan  -0.999975  -3e-05  1.00002  0.0163318  -0.0319858  -0.000520541  0.0011672  -0.001715  0.0010968  0  0  0  0  0  0  0.0247027  -0.000175774  -0.0178694  -0.0133635  0.0215745  -0.0073256  -0.0275648  0.024622  -0.00743837  0.0093219  0.0296029  -0.00951851 
1699966385.473444000  0  0  11.6631  0.114144  -0.114737  0.00684706  nan  nan  nan  nan  nan  nan  -0.999969  -3.96e-05  1.00003  0.0155515  -0.0325157  -0.000503918  0.0013155  -0.0021094  0.0012257  0  0  0  0  0  0  0.0247294  -0.000322742  -0.0178848  -0.0127914  0.0208617  -0.00599973  -0.0266313  0.0249607  -0.00749897  0.0167207  -0.000163985  -0.0105986 
1699966385.478424000  0  0  11.6775  0.116989  -0.135639  0.00655197  nan  nan  nan  nan  nan  nan  -0.999962  -5.12e-05  1.00004  0.015298  -0.0327367  -0.000499355  0.0014556  -0.0025587  0.0013441  0  0  0  0  0  0  0.0247468  -0.000428105  -0.0179303  -0.0124909  0.0207918  -0.00711013  -0.0263719  0.0255677  -0.00750351  0.00864323  0.0360555  -0.00686443 
1699966385.483447000  0  0  11.6892  0.107427  -0.136819  0.00654963  nan  nan  nan  nan  nan  nan  -0.999954  -6.52e-05  1.00004  0.016453  -0.0322002  -0.000528846  0.0015837  -0.0030604  0.0014482  0  0  0  0  0  0  0.0246803  -0.000319637  -0.0179635  -0.0129964  0.022071  -0.00802862  -0.0271858  0.0252793  -0.00752148  0.0352561  0.0410672  -0.0066555 
1699966385.488445000  0  0  11.6763  0.103911  -0.125905  0.00613715  nan  nan  nan  nan  nan  nan  -0.999946  -8.19e-05  1.00005  0.0160929  -0.0325538  -0.000523837  0.0016961  -0.0036108  0.0015342  0  0  0  0  0  0  0.024687  -0.000409897  -0.0179959  -0.0125989  0.0217805  -0.00687825  -0.0265972  0.025574  -0.0074927  0.0368717  0.0165293  -0.00178741 
1699966385.493446000  0  0  11.6742  0.110562  -0.136506  0.00552044  nan  nan  nan  nan  nan  nan  -0.999938  -0.0001014  1.00006  0.016056  -0.0328964  -0.000529436  0.001789  -0.0042061  0.0015988  0  0  0  0  0  0  0.0246953  -0.000497345  -0.0180306  -0.01218  0.021923  -0.00662926  -0.0265459  0.0261573  -0.00740988  0.0230989  0.0323663  0.00509327 
1699966385.498439000  0  0  11.6768  0.103235  -0.140662  0.00537986  nan  nan  nan  nan  nan  nan  -0.999928  -0.000124  1.00007  0.0173185  -0.032387  -0.000563953  0.0018593  -0.0048425  0.0016434  0  0  0  0  0  0  0.0246297  -0.000383421  -0.0180678  -0.0126838  0.0233127  -0.0067869  -0.0274352  0.0259399  -0.00735449  0.0459339  0.042677  0.00629661 
1699966385.503445000  0  0  11.6741  0.105365  -0.127051  0.00555927  nan  nan  nan  nan  nan  nan  -0.999919  -0.0001499  1.00007  0.0171538  -0.0326498  -0.000565522  0.0019086  -0.0055164  0.0016716  0  0  0  0  0  0  0.0246434  -0.000475999  -0.0180894  -0.0123836  0.023299  -0.00649978  -0.0271031  0.0261135  -0.0073402  0.0386183  0.0138575  0.00391123 
1699966385.507445000  0  0  11.6649  0.122589  -0.126593  0.00503115  nan  nan  nan  nan  nan  nan  -0.999909  -0.0001792  1.00008  0.0183599  -0.0326734  -0.000608542  0.0019405  -0.0062239  0.0016872  0  0  0  0  0  0  0.0245934  -0.000373452  -0.0181128  -0.0122724  0.0246168  -0.00570388  -0.0283962  0.0261545  -0.0072371  0.0160663  0.0125655  0.00948159 
1699966385.513444000  0  0  11.6479  0.118452  -0.134565  0.00536805  nan  nan  nan  nan  nan  nan  -0.9999  -0.0002122  1.00009  0.0186358  -0.0325747  -0.000619717  0.0019589  -0.0069612  0.0016939  0  0  0  0  0  0  0.0245795  -0.000428181  -0.018132  -0.0124309  0.0250607  -0.004246  -0.0284811  0.026327  -0.00720823  0.0251215  0.026922  0.00498163 
1699966385.518434000  0  0  11.6658  0.116566  -0.125907  0.00576705  nan  nan  nan  nan  nan  nan  -0.99989  -0.0002489  1.0001  0.0186844  -0.0327525  -0.000629722  0.0019674  -0.0077248  0.0016954  0  0  0  0  0  0  0.0245904  -0.000507385  -0.0181656  -0.0121593  0.0253362  -0.00566383  -0.0283494  0.026456  -0.00721992  0.0276833  0.00841907  0.000111142 
1699966385.523432000  0  0  11.6354  0.141618  -0.122601  0.00587642  nan  nan  nan  nan  nan  nan  -0.99988  -0.0002895  1.00011  0.0200006  -0.0328892  -0.000681773  0.0019699  -0.0085107  0.0016955  0  0  0  0  0  0  0.0245323  -0.000378099  -0.0181738  -0.011961  0.0266873  -0.00312848  -0.0299272  0.0265229  -0.00719749  -0.00790533  0.00119116  -0.00148034 
1699966385.528446000  0  0  11.6224  0.139641  -0.132769  0.00594942  nan  nan  nan  nan  nan  nan  -0.99987  -0.000334  1.00012  0.0203378  -0.0328051  -0.000698656  0.0019701  -0.0093153  0.0016955  0  0  0  0  0  0  0.0245363  -0.000452749  -0.0181804  -0.0121251  0.0272597  -0.00203937  -0.0302482  0.0266561  -0.00719256  -0.000999267  0.0203012  -0.00244209 
1699966385.532445000  0  0  11.6518  0.135818  -0.127106  0.00591476  nan  nan  nan  nan  nan  nan  -0.99986  -0.0003826  1.00013  0.0215728  -0.0324792  -0.000741152  0.0019701  -0.0101348  0.0016955  0  0  0  0  0  0  0.0244852  -0.00033148  -0.0182166  -0.012324  0.0286556  -0.00442298  -0.0312852  0.0263279  -0.00717398  0.0161879  0.0119947  -0.00219465 
1699966385.538439000  0  0  11.6065  0.15794  -0.120182  0.00542656  nan  nan  nan  nan  nan  nan  -0.99985  -0.0004354  1.00013  0.0216254  -0.0331144  -0.000767193  0.0019701  -0.0109655  0.0016955  0  0  0  0  0  0  0.0245001  -0.000403694  -0.0181991  -0.0116996  0.0287745  -0.000689716  -0.0317227  0.026801  -0.00708285  -0.0240307  -0.0062054  0.00299652 
1699966385.543446000  0  0  11.619  0.154751  -0.128116  0.00557974  nan  nan  nan  nan  nan  nan  -0.999841  -0.0004923  1.00014  0.0220157  -0.0328445  -0.000786581  0.0019701  -0.0118035  0.0016955  0  0  0  0  0  0  0.0245131  -0.000465429  -0.0182216  -0.0120299  0.0294457  -0.00169402  -0.0321447  0.0266663  -0.00706055  -0.0137704  0.0109029  0.000858681 
1699966385.548446000  0  0  11.6607  0.147478  -0.120153  0.00592741  nan  nan  nan  nan  nan  nan  -0.999831  -0.0005534  1.00015  0.0232904  -0.0325213  -0.000835436  0.0019701  -0.0126452  0.0016955  0  0  0  0  0  0  0.0244537  -0.000315966  -0.0182636  -0.012162  0.030867  -0.00508647  -0.033184  0.026276  -0.00707527  0.0103359  -0.00143231  -0.00333992 
1699966385.553446000  0  0  11.611  0.163021  -0.110824  0.00534328  nan  nan  nan  nan  nan  nan  -0.999821  -0.0006188  1.00016  0.0234049  -0.0330788  -0.000869007  0.0019701  -0.0134869  0.0016955  0  0  0  0  0  0  0.0244569  -0.000355334  -0.0182508  -0.0116275  0.0309725  -0.000974007  -0.0335626  0.0265688  -0.00697555  -0.0172655  -0.0227852  0.00296445 
1699966385.557441000  0  0  11.6347  0.166653  -0.119974  0.0054424  nan  nan  nan  nan  nan  nan  -0.999811  -0.0006883  1.00017  0.0251816  -0.0323893  -0.000929645  0.0019701  -0.0143246  0.0016955  0  0  0  0  0  0  0.0244033  -0.000209024  -0.0182787  -0.0123083  0.0330069  -0.00291694  -0.0353295  0.0260188  -0.00693785  -0.0082746  0.000575649  0.00134857 
1699966385.563447000  0  0  11.6852  0.150037  -0.115956  0.00627252  nan  nan  nan  nan  nan  nan  -0.999801  -0.000762  1.00018  0.0252099  -0.0323786  -0.000952092  0.0019701  -0.0151548  0.0016955  0  0  0  0  0  0  0.0243913  -0.000222403  -0.018322  -0.0121136  0.0332133  -0.00702078  -0.0350257  0.025952  -0.00701856  0.0221616  -0.00684645  -0.00822082 
1699966385.568464000  0  0  11.63  0.158643  -0.111876  0.00662755  nan  nan  nan  nan  nan  nan  -0.999791  -0.0008398  1.00018  0.0252729  -0.0328746  -0.000991465  0.0019701  -0.0159736  0.0016955  0  0  0  0  0  0  0.0243938  -0.000261788  -0.0183004  -0.0116751  0.0332258  -0.00245864  -0.0351686  0.0262495  -0.00705752  0.00626564  -0.017744  -0.0122691 
1699966385.573449000  0  0  11.6772  0.151928  -0.129119  0.00645823  nan  nan  nan  nan  nan  nan  -0.999781  -0.0009217  1.00019  0.0269523  -0.0321916  -0.0010563  0.0019701  -0.0167773  0.0016955  0  0  0  0  0  0  0.0243311  -8.74872e-05  -0.018352  -0.0122452  0.0351509  -0.00630617  -0.0365474  0.0258894  -0.00705435  0.03238  0.0200563  -0.0101843 
1699966385.578439000  0  0  11.7  0.14135  -0.121507  0.00649789  nan  nan  nan  nan  nan  nan  -0.999772  -0.0010076  1.0002  0.0267252  -0.0322448  -0.0010817  0.0019701  -0.0175622  0.0016955  0  0  0  0  0  0  0.024319  -0.000100161  -0.0183844  -0.0120674  0.03495  -0.00812316  -0.0359637  0.0258874  -0.00706556  0.0481671  0.0048493  -0.0105681 
1699966385.582439000  0  0  11.6732  0.143529  -0.115194  0.00648035  nan  nan  nan  nan  nan  nan  -0.999762  -0.0010973  1.00021  0.0276821  -0.0324836  -0.00115419  0.0019701  -0.0183245  0.0016955  0  0  0  0  0  0  0.0242724  5.68521e-05  -0.0183947  -0.011746  0.0357612  -0.00586535  -0.0366963  0.0259838  -0.0070524  0.0505473  -0.00866413  -0.0104803 
1699966385.588445000  0  0  11.7163  0.125198  -0.137871  0.00604904  nan  nan  nan  nan  nan  nan  -0.999752  -0.0011908  1.00022  0.0278231  -0.0322383  -0.00119085  0.0019701  -0.0190604  0.0016955  0  0  0  0  0  0  0.0242621  4.28991e-05  -0.0184711  -0.0118862  0.0361064  -0.00928251  -0.0361904  0.0261855  -0.00701492  0.0825552  0.0348349  -0.00546382 
1699966385.593440000  0  0  11.7309  0.109632  -0.129764  0.0058064  nan  nan  nan  nan  nan  nan  -0.999742  -0.0012879  1.00023  0.0274469  -0.0323567  -0.00122496  0.0019701  -0.0197662  0.0016955  0  0  0  0  0  0  0.0242604  1.93374e-05  -0.0185173  -0.0116761  0.0357104  -0.0103754  -0.0351388  0.026294  -0.0069768  0.104013  0.0176228  -0.00281198 
1699966385.598436000  0  0  11.7063  0.112929  -0.124925  0.00549063  nan  nan  nan  nan  nan  nan  -0.999732  -0.0013884  1.00024  0.0282961  -0.0324324  -0.00130179  0.0019701  -0.0204382  0.0016955  0  0  0  0  0  0  0.024204  0.000197168  -0.0185447  -0.0115371  0.0363427  -0.00825859  -0.0355019  0.0263157  -0.00689806  0.100761  0.00774608  0.000347762 
1699966385.603439000  0  0  11.7365  0.0988695  -0.144171  0.00593492  nan  nan  nan  nan  nan  nan  -0.999722  -0.0014922  1.00024  0.0281029  -0.0323363  -0.00134453  0.0019701  -0.0210726  0.0016955  0  0  0  0  0  0  0.0242072  0.000152778  -0.0185991  -0.0115601  0.0362816  -0.0106471  -0.03459  0.0266215  -0.00691179  0.120489  0.0434239  -0.00506861 
1699966385.608442000  0  0  11.7315  0.089274  -0.139661  0.00676052  nan  nan  nan  nan  nan  nan  -0.999712  -0.001599  1.00025  0.0289105  -0.0322226  -0.00142377  0.0019701  -0.0216656  0.0016955  0  0  0  0  0  0  0.0241498  0.000333787  -0.0186447  -0.0115952  0.036914  -0.0101193  -0.0345662  0.026633  -0.00698409  0.139461  0.0342979  -0.0146656 
1699966385.613439000  0  0  11.7043  0.0931007  -0.135903  0.00701171  nan  nan  nan  nan  nan  nan  -0.999703  -0.0017087  1.00026  0.028405  -0.0326565  -0.00148089  0.0019701  -0.0222136  0.0016955  0  0  0  0  0  0  0.0241615  0.000293859  -0.018666  -0.0111537  0.0362535  -0.00778394  -0.0335433  0.0270552  -0.00703526  0.122397  0.0228983  -0.0172938 
1699966385.618434000  0  0  11.7106  0.0847659  -0.150753  0.00687385  nan  nan  nan  nan  nan  nan  -0.999693  -0.0018211  1.00027  0.0275119  -0.0329005  -0.00152462  0.0019701  -0.0227126  0.0016955  0  0  0  0  0  0  0.0241892  0.000160725  -0.0186937  -0.0108753  0.0354029  -0.00823534  -0.0320404  0.0276558  -0.00706609  0.125239  0.0470728  -0.0152622 
1699966385.623444000  0  0  11.6923  0.0778442  -0.145117  0.00670134  nan  nan  nan  nan  nan  nan  -0.999683  -0.0019358  1.00028  0.0283432  -0.0324854  -0.00161163  0.0019701  -0.0231591  0.0016955  0  0  0  0  0  0  0.0241311  0.00033894  -0.0187237  -0.011349  0.0360284  -0.00662996  -0.0320645  0.0273868  -0.00705342  0.139305  0.0382754  -0.0132326 
1699966385.628445000  0  0  11.6755  0.0899183  -0.129243  0.00581796  nan  nan  nan  nan  nan  nan  -0.999673  -0.0020526  1.00029  0.0289807  -0.0326668  -0.0017142  0.0019701  -0.0235507  0.0016955  0  0  0  0  0  0  0.0240782  0.000518495  -0.0187508  -0.0110522  0.0363994  -0.00515437  -0.0322412  0.0273986  -0.0069254  0.116782  0.00641933  -0.00347044 
1699966385.632467000  0  0  11.6664  0.0933334  -0.132283  0.00521487  nan  nan  nan  nan  nan  nan  -0.999663  -0.0021712  1.0003  0.0281763  -0.0328744  -0.00177576  0.0019701  -0.0238899  0.0016955  0  0  0  0  0  0  0.0241091  0.000415447  -0.018758  -0.0108845  0.035552  -0.00437525  -0.0311638  0.0276626  -0.00680606  0.10004  0.0100706  0.00287475 
1699966385.638438000  0  0  11.6599  0.078323  -0.132928  0.00565491  nan  nan  nan  nan  nan  nan  -0.999653  -0.0022914  1.0003  0.0275613  -0.0327187  -0.00183883  0.0019701  -0.0241806  0.0016955  0  0  0  0  0  0  0.0241068  0.000352554  -0.0187258  -0.0111053  0.0348703  -0.0038779  -0.0296735  0.0276276  -0.00677131  0.11635  0.0116819  -0.00297325 
1699966385.643440000  0  0  11.6396  0.0889881  -0.117531  0.00537925  nan  nan  nan  nan  nan  nan  -0.999643  -0.0024129  1.00031  0.0265596  -0.0330272  -0.00190754  0.0019701  -0.0244265  0.0016955  0  0  0  0  0  0  0.0241179  0.000267557  -0.0187206  -0.0108056  0.0336959  -0.00217394  -0.0284261  0.0276459  -0.00667869  0.0835435  -0.0192796  -0.000453688 
1699966385.648440000  0  0  11.6171  0.102984  -0.112651  0.00501914  nan  nan  nan  nan  nan  nan  -0.999634  -0.0025356  1.00032  0.0274361  -0.0327711  -0.00202847  0.0019701  -0.0246313  0.0016955  0  0  0  0  0  0  0.0240635  0.000439345  -0.0187231  -0.011092  0.0343758  -0.000293174  -0.0291468  0.0272088  -0.00653341  0.0621826  -0.0250194  0.0025948 
1699966385.652443000  0  0  11.6351  0.103092  -0.116007  0.00525028  nan  nan  nan  nan  nan  nan  -0.999624  -0.0026592  1.00033  0.0281306  -0.0322936  -0.00214272  0.0019701  -0.0247989  0.0016955  0  0  0  0  0  0  0.0240146  0.000603819  -0.0187458  -0.0115297  0.0349596  -0.00173884  -0.0295516  0.0267463  -0.00645514  0.0656906  -0.0140525  -0.00107709 
1699966385.657441000  0  0  11.6375  0.103282  -0.10611  0.00532364  nan  nan  nan  nan  nan  nan  -0.999614  -0.0027835  1.00034  0.0266178  -0.0326519  -0.00221417  0.0019701  -0.0249328  0.0016955  0  0  0  0  0  0  0.0240501  0.000448809  -0.018729  -0.0111388  0.033349  -0.00195506  -0.0279073  0.0267606  -0.00640084  0.0501833  -0.033978  -0.00253713 
1699966385.663440000  0  0  11.5896  0.111723  -0.0987725  0.00581152  nan  nan  nan  nan  nan  nan  -0.999604  -0.0029085  1.00035  0.026301  -0.0327441  -0.00232315  0.0019701  -0.025037  0.0016955  0  0  0  0  0  0  0.0240389  0.000394856  -0.0186665  -0.0111669  0.0329139  0.00191726  -0.0275547  0.0264302  -0.0063548  0.030056  -0.0456126  -0.00909607 
1699966385.667441000  0  0  11.6089  0.114642  -0.107529  0.00542995  nan  nan  nan  nan  nan  nan  -0.999594  -0.0030339  1.00035  0.0270199  -0.0321467  -0.00245346  0.0019701  -0.0251151  0.0016955  0  0  0  0  0  0  0.0239886  0.000554109  -0.018672  -0.0117491  0.0335404  0.000316707  -0.0281475  0.0258945  -0.00622612  0.0296736  -0.0231714  -0.0056132 
1699966385.673438000  0  0  11.6081  0.112495  -0.0940113  0.00556403  nan  nan  nan  nan  nan  nan  -0.999584  -0.0031596  1.00036  0.0255094  -0.0325617  -0.00254456  0.0019701  -0.0251709  0.0016955  0  0  0  0  0  0  0.024008  0.000440727  -0.0186629  -0.0112621  0.0318343  0.000384534  -0.0266271  0.0257971  -0.00619279  0.0199796  -0.0493108  -0.00762242 
1699966385.678435000  0  0  11.5733  0.116353  -0.0954913  0.00583966  nan  nan  nan  nan  nan  nan  -0.999575  -0.0032855  1.00037  0.0253532  -0.0327082  -0.00267839  0.0019701  -0.0252082  0.0016955  0  0  0  0  0  0  0.0240025  0.000418493  -0.0186301  -0.0111839  0.031578  0.00322422  -0.0264916  0.0256705  -0.00612634  0.0110158  -0.045186  -0.0117323 
1699966385.682436000  0  0  11.6207  0.120935  -0.113551  0.00539451  nan  nan  nan  nan  nan  nan  -0.999565  -0.0034116  1.00038  0.0261519  -0.0320306  -0.00282821  0.0019701  -0.0252306  0.0016955  0  0  0  0  0  0  0.0239517  0.000574435  -0.0186591  -0.0117656  0.032393  -0.000682147  -0.0272555  0.0252445  -0.00598293  0.00888116  -0.00514757  -0.00760206 
1699966385.688439000  0  0  11.5985  0.124649  -0.098529  0.00574789  nan  nan  nan  nan  nan  nan  -0.999555  -0.0035378  1.00039  0.024874  -0.0324372  -0.00294507  0.0019701  -0.025242  0.0016955  0  0  0  0  0  0  0.0239458  0.000511212  -0.0186136  -0.0113086  0.0308143  0.00108447  -0.0261717  0.0252415  -0.00596316  -0.00851929  -0.0351634  -0.012217 
1699966385.693441000  0  0  11.5809  0.122392  -0.101038  0.00577657  nan  nan  nan  nan  nan  nan  -0.999545  -0.003664  1.0004  0.0249493  -0.0323801  -0.00309999  0.0019701  -0.0252461  0.0016955  0  0  0  0  0  0  0.0239244  0.000516406  -0.0185856  -0.0113932  0.0308449  0.00249489  -0.026298  0.0250047  -0.00589353  -0.00284314  -0.0279674  -0.0132717 
1699966385.698435000  0  0  11.6498  0.129939  -0.127945  0.00496174  nan  nan  nan  nan  nan  nan  -0.999535  -0.0037903  1.00041  0.0255336  -0.0316592  -0.00326071  0.0019701  -0.0252466  0.0016955  0  0  0  0  0  0  0.0238638  0.000672882  -0.018627  -0.0119354  0.0314407  -0.00317664  -0.0269768  0.0248064  -0.00570973  -0.0116901  0.0276712  -0.00492446 
1699966385.703442000  0  0  11.6123  0.132909  -0.106676  0.00484509  nan  nan  nan  nan  nan  nan  -0.999525  -0.0039165  1.00041  0.0245637  -0.0322297  -0.0034104  0.0019701  -0.0252462  0.0016955  0  0  0  0  0  0  0.0238574  0.000642045  -0.0185717  -0.0113164  0.0301423  -0.000161333  -0.0262522  0.0249953  -0.00558042  -0.0242969  -0.0166055  -0.00475947 
1699966385.708439000  0  0  11.5973  0.131359  -0.113302  0.00454539  nan  nan  nan  nan  nan  nan  -0.999515  -0.0040427  1.00042  0.0253377  -0.0319339  -0.00360057  0.0019701  -0.0252424  0.0016955  0  0  0  0  0  0  0.0237987  0.000796445  -0.0185625  -0.0116117  0.0307499  0.00106749  -0.0270252  0.0247331  -0.00540402  -0.014085  -0.00094089  -0.00277715 
1699966385.713440000  0  0  11.6702  0.129011  -0.135876  0.00402508  nan  nan  nan  nan  nan  nan  -0.999506  -0.0041689  1.00043  0.0247362  -0.0315306  -0.00375028  0.0019701  -0.0252316  0.0016955  0  0  0  0  0  0  0.0237892  0.000769466  -0.0185994  -0.0118516  0.0302296  -0.00494866  -0.0265514  0.0248073  -0.00521571  -0.0137486  0.0435254  0.00184358 
1699966385.718436000  0  0  11.6342  0.122314  -0.112551  0.00401878  nan  nan  nan  nan  nan  nan  -0.999496  -0.004295  1.00044  0.0235202  -0.0322769  -0.00391467  0.0019701  -0.02521  0.0016955  0  0  0  0  0  0  0.0238064  0.000687203  -0.0186276  -0.0110523  0.0287303  -0.00188033  -0.0253412  0.0252643  -0.00502936  -0.0114895  -0.00733006  5.88431e-05 
1699966385.723440000  0  0  11.6288  0.128352  -0.125593  0.00386158  nan  nan  nan  nan  nan  nan  -0.999486  -0.004421  1.00045  0.0241545  -0.0320274  -0.00412053  0.0019701  -0.0251737  0.0016955  0  0  0  0  0  0  0.0237496  0.00083351  -0.0186338  -0.0112584  0.0292042  -0.00142138  -0.0260895  0.0252323  -0.00483276  -0.0166798  0.0190486  5.78727e-05 
1699966385.728459000  0  0  11.6953  0.116932  -0.148679  0.00420697  nan  nan  nan  nan  nan  nan  -0.999476  -0.0045467  1.00046  0.0233556  -0.0317975  -0.00428726  0.0019701  -0.0251192  0.0016955  0  0  0  0  0  0  0.0237585  0.000811227  -0.0186765  -0.0113382  0.0283869  -0.00689359  -0.0252674  0.0255448  -0.00471179  -0.00140366  0.0623457  -0.00546926 
1699966385.732441000  0  0  11.6633  0.109333  -0.128584  0.00481385  nan  nan  nan  nan  nan  nan  -0.999466  -0.0046722  1.00046  0.023462  -0.0320574  -0.00450064  0.0019701  -0.0250426  0.0016955  0  0  0  0  0  0  0.0237152  0.000946527  -0.018665  -0.0110117  0.0281311  -0.00423806  -0.0252098  0.0256203  -0.00461441  0.0132649  0.0214608  -0.014029 
1699966385.738435000  0  0  11.6567  0.116985  -0.141395  0.00470962  nan  nan  nan  nan  nan  nan  -0.999456  -0.0047971  1.00047  0.0231886  -0.0322589  -0.00470664  0.0019701  -0.0249402  0.0016955  0  0  0  0  0  0  0.0237295  0.00093295  -0.0186817  -0.0108012  0.0277803  -0.00365812  -0.025096  0.0260598  -0.00448292  -0.00308637  0.0430393  -0.0140411 
1699966385.743442000  0  0  11.6903  0.108787  -0.158049  0.00545607  nan  nan  nan  nan  nan  nan  -0.999446  -0.0049215  1.00048  0.0228048  -0.0321625  -0.00490846  0.0019701  -0.0248082  0.0016955  0  0  0  0  0  0  0.0237134  0.000981834  -0.0187267  -0.0107657  0.0272512  -0.00637952  -0.0246196  0.0265172  -0.00445908  0.00892751  0.0721402  -0.02361 
1699966385.748423000  0  0  11.6641  0.0987521  -0.13812  0.0065328  nan  nan  nan  nan  nan  nan  -0.999437  -0.0050451  1.00049  0.0229733  -0.0323226  -0.00514026  0.0019701  -0.0246429  0.0016955  0  0  0  0  0  0  0.0236636  0.00111578  -0.0187348  -0.0105336  0.0270953  -0.00417022  -0.0245116  0.0265753  -0.00450143  0.0280029  0.0317462  -0.0366457 
1699966385.753439000  0  0  11.6602  0.108484  -0.152459  0.00589789  nan  nan  nan  nan  nan  nan  -0.999427  -0.0051679  1.0005  0.022336  -0.0326303  -0.00535542  0.0019701  -0.0244405  0.0016955  0  0  0  0  0  0  0.0236637  0.00109692  -0.0187301  -0.0101463  0.0262904  -0.00386952  -0.0240777  0.0272575  -0.00439376  0.004547  0.0541498  -0.0297859 
1699966385.758435000  0  0  11.6681  0.1107  -0.155194  0.00523067  nan  nan  nan  nan  nan  nan  -0.999417  -0.0052895  1.00051  0.0226218  -0.0321398  -0.00558886  0.0019701  -0.0241973  0.0016955  0  0  0  0  0  0  0.0236087  0.00122913  -0.0187575  -0.0106228  0.0263802  -0.00447529  -0.02437  0.0271384  -0.00423453  0.00280354  0.0607145  -0.023038 
1699966385.763442000  0  0  11.642  0.0998588  -0.13858  0.00552023  nan  nan  nan  nan  nan  nan  -0.999407  -0.0054098  1.00052  0.0218528  -0.0325736  -0.00581501  0.0019701  -0.0239095  0.0016955  0  0  0  0  0  0  0.0236192  0.00122413  -0.0187602  -0.0101778  0.0253181  -0.00228577  -0.0234687  0.0274078  -0.00417501  0.016194  0.025007  -0.0272528 
1699966385.768445000  0  0  11.643  0.114349  -0.14109  0.00474637  nan  nan  nan  nan  nan  nan  -0.999397  -0.0055285  1.00052  0.0219998  -0.0324546  -0.00606489  0.0019701  -0.0235734  0.0016955  0  0  0  0  0  0  0.0235684  0.00135067  -0.0187686  -0.0102065  0.0252203  -0.00236624  -0.0238159  0.0274463  -0.00397482  -0.00959063  0.0296736  -0.0195814 
1699966385.773441000  0  0  11.6503  0.112232  -0.145677  0.00451996  nan  nan  nan  nan  nan  nan  -0.999387  -0.0056454  1.00053  0.0217372  -0.0321775  -0.00630424  0.0019701  -0.0231852  0.0016955  0  0  0  0  0  0  0.0235395  0.00139762  -0.0187859  -0.01047  0.0247856  -0.00294719  -0.0236082  0.0274456  -0.00381444  -0.00726923  0.0388539  -0.0183551 
1699966385.778435000  0  0  11.6412  0.103575  -0.129803  0.00427176  nan  nan  nan  nan  nan  nan  -0.999378  -0.0057603  1.00054  0.0208498  -0.0322265  -0.0065369  0.0019701  -0.0227412  0.0016955  0  0  0  0  0  0  0.0235223  0.00138597  -0.0188  -0.0104024  0.0236306  -0.00215296  -0.0226447  0.0273866  -0.00365672  0.00118055  0.00764965  -0.0168298 
1699966385.783444000  0  0  11.6435  0.120281  -0.119264  0.0033271  nan  nan  nan  nan  nan  nan  -0.999368  -0.0058727  1.00055  0.0207489  -0.0321517  -0.00679849  0.0019701  -0.0222377  0.0016955  0  0  0  0  0  0  0.0234714  0.00150222  -0.018816  -0.0103715  0.0232366  -0.00231615  -0.022876  0.027126  -0.00336517  -0.0301026  -0.011031  -0.00793704 
1699966385.788440000  0  0  11.6493  0.11384  -0.123307  0.00340573  nan  nan  nan  nan  nan  nan  -0.999358  -0.0059825  1.00056  0.0203873  -0.0318082  -0.00705246  0.0019701  -0.0216708  0.0016955  0  0  0  0  0  0  0.0234456  0.00151789  -0.0188273  -0.0107347  0.022739  -0.00278006  -0.0225836  0.0268559  -0.00316675  -0.0199109  -0.00046003  -0.0109041 
1699966385.793440000  0  0  11.6596  0.105623  -0.113127  0.00420499  nan  nan  nan  nan  nan  nan  -0.999348  -0.0060893  1.00057  0.0195469  -0.031707  -0.00730275  0.0019701  -0.0210368  0.0016955  0  0  0  0  0  0  0.0234233  0.00152381  -0.0188406  -0.0107815  0.0216497  -0.00360423  -0.0217385  0.0265677  -0.00308428  -0.0112524  -0.0181685  -0.0217196 
1699966385.798435000  0  0  11.6318  0.120643  -0.100014  0.00384348  nan  nan  nan  nan  nan  nan  -0.999338  -0.0061928  1.00057  0.0194732  -0.0316767  -0.00758492  0.0019701  -0.0203326  0.0016955  0  0  0  0  0  0  0.0233708  0.00163077  -0.0188283  -0.0107962  0.0212455  -0.00131073  -0.0220228  0.0261823  -0.00287549  -0.0386766  -0.0408489  -0.0192886 
1699966385.803446000  0  0  11.6296  0.112115  -0.10587  0.00373118  nan  nan  nan  nan  nan  nan  -0.999328  -0.0062925  1.00058  0.0188708  -0.0312981  -0.00785009  0.0019701  -0.0195595  0.0016955  0  0  0  0  0  0  0.0233477  0.0016088  -0.0188396  -0.0112419  0.0205032  -0.00110089  -0.0214902  0.0257712  -0.00269739  -0.02652  -0.0253554  -0.0196658 
1699966385.808449000  0  0  11.6563  0.111492  -0.098058  0.0041064  nan  nan  nan  nan  nan  nan  -0.999318  -0.0063883  1.00059  0.0184538  -0.030828  -0.00812607  0.0019701  -0.0187213  0.0016955  0  0  0  0  0  0  0.0232902  0.00170707  -0.0188681  -0.0116279  0.0197931  -0.00326974  -0.0212049  0.0250953  -0.00257622  -0.0278995  -0.0347604  -0.0255677 
1699966385.813446000  0  0  11.6259  0.115337  -0.0810636  0.00411725  nan  nan  nan  nan  nan  nan  -0.999309  -0.0064796  1.0006  0.0172277  -0.0310857  -0.0083966  0.0019701  -0.0178216  0.0016955  0  0  0  0  0  0  0.0232879  0.00164722  -0.0188562  -0.0114016  0.018266  -0.000747266  -0.0203151  0.0247972  -0.00242326  -0.0437754  -0.0660072  -0.0272331 
1699966385.818440000  0  0  11.6118  0.112233  -0.0995359  0.0037468  nan  nan  nan  nan  nan  nan  -0.999299  -0.0065664  1.00061  0.0165751  -0.0307385  -0.00868076  0.0019701  -0.0168643  0.0016955  0  0  0  0  0  0  0.0232587  0.00161034  -0.0188435  -0.0118347  0.0174712  0.000393939  -0.0198819  0.0246121  -0.0022153  -0.0415516  -0.0273596  -0.024682 
1699966385.823394000  0  0  11.6402  0.110617  -0.0937768  0.00430876  nan  nan  nan  nan  nan  nan  -0.999289  -0.0066482  1.00062  0.0159462  -0.0305814  -0.00897532  0.0019701  -0.0158531  0.0016955  0  0  0  0  0  0  0.0232023  0.00169185  -0.0188684  -0.0118166  0.0165176  -0.00191814  -0.0194709  0.024263  -0.00211849  -0.0421019  -0.0356662  -0.0326746 
1699966385.828446000  0  0  11.6046  0.109289  -0.0831521  0.00427145  nan  nan  nan  nan  nan  nan  -0.999279  -0.0067248  1.00063  0.014802  -0.0308489  -0.00926699  0.0019701  -0.0147918  0.0016955  0  0  0  0  0  0  0.0231777  0.00163875  -0.0188508  -0.0115464  0.0150828  0.00101853  -0.0185956  0.0240788  -0.00199411  -0.0474978  -0.055221  -0.033452 
1699966385.833446000  0  0  11.6149  0.114406  -0.107701  0.00387506  nan  nan  nan  nan  nan  nan  -0.999269  -0.006796  1.00063  0.0146741  -0.0304683  -0.00958636  0.0019701  -0.0136841  0.0016955  0  0  0  0  0  0  0.023118  0.00171542  -0.0188489  -0.011865  0.0147558  0.000144449  -0.0188002  0.0240096  -0.00180385  -0.0558511  -0.00548502  -0.0303998 
1699966385.838389000  0  0  11.6273  0.10106  -0.0994667  0.00422658  nan  nan  nan  nan  nan  nan  -0.999259  -0.0068616  1.00064  0.0130539  -0.0305488  -0.00987324  0.0019701  -0.0125337  0.0016955  0  0  0  0  0  0  0.0230956  0.00163082  -0.0188573  -0.0116846  0.0128569  -0.000863356  -0.017311  0.0238968  -0.00171032  -0.0428582  -0.0209167  -0.035729 
1699966385.843442000  0  0  11.5831  0.0916912  -0.092248  0.00368343  nan  nan  nan  nan  nan  nan  -0.999249  -0.0069213  1.00065  0.0110061  -0.0311236  -0.0101584  0.0019701  -0.0113444  0.0016955  0  0  0  0  0  0  0.0230888  0.0014462  -0.0188451  -0.0111026  0.010549  0.00281348  -0.015432  0.0241659  -0.0015373  -0.0414081  -0.0378299  -0.0306699 
1699966385.848392000  0  0  11.6006  0.0953882  -0.124119  0.00297874  nan  nan  nan  nan  nan  nan  -0.99924  -0.006975  1.00066  0.0106892  -0.0304414  -0.0104889  0.0019701  -0.01012  0.0016955  0  0  0  0  0  0  0.023029  0.00149944  -0.0188511  -0.0117879  0.0100388  0.00134815  -0.0154104  0.0240734  -0.00127671  -0.0490011  0.0267626  -0.0244672 
1699966385.853439000  0  0  11.6171  0.0805  -0.104704  0.00331987  nan  nan  nan  nan  nan  nan  -0.99923  -0.0070225  1.00067  0.00908826  -0.0307657  -0.0107971  0.0019701  -0.0088642  0.0016955  0  0  0  0  0  0  0.0229994  0.00143272  -0.0188518  -0.0112661  0.00812201  -1.01942e-05  -0.01386  0.0241213  -0.00112093  -0.0334883  -0.0125072  -0.0302891 
1699966385.857441000  0  0  11.5708  0.0836366  -0.109831  0.00333237  nan  nan  nan  nan  nan  nan  -0.99922  -0.0070636  1.00068  0.00871959  -0.0310839  -0.0111486  0.0019701  -0.0075807  0.0016955  0  0  0  0  0  0  0.0229553  0.00147451  -0.0188211  -0.0109186  0.00749159  0.00377932  -0.0136964  0.0244505  -0.000913341  -0.0412666  -0.00528342  -0.0325212 
1699966385.863441000  0  0  11.6084  0.0885469  -0.151991  0.00285929  nan  nan  nan  nan  nan  nan  -0.99921  -0.0070982  1.00069  0.00717376  -0.0308095  -0.011353  0.0019701  -0.0062733  0.0016955  0  0  0  0  0  0  0.0229318  0.00134773  -0.0188304  -0.0111099  0.00580967  0.000645725  -0.0126602  0.0251277  -0.000804784  -0.0606199  0.0728068  -0.0276932 
1699966385.868439000  0  0  11.616  0.0700739  -0.125698  0.00374526  nan  nan  nan  nan  nan  nan  -0.9992  -0.0071263  1.00069  0.00549883  -0.0313244  -0.0113042  0.0019701  -0.0049458  0.0016954  0  0  0  0  0  0  0.0229425  0.00120421  -0.0188281  -0.0104681  0.00396624  2.59491e-05  -0.0110311  0.0254169  -0.00105049  -0.0386621  0.0175609  -0.0363109 
1699966385.873447000  0  0  11.578  0.0901031  -0.13829  0.00344334  nan  nan  nan  nan  nan  nan  -0.99919  -0.0071477  1.0007  0.00496209  -0.0316376  -0.011289  0.0019701  -0.0036019  0.0016932  0  0  0  0  0  0  0.0228931  0.00122244  -0.0187992  -0.0100952  0.00320946  0.00312323  -0.0111227  0.0259961  -0.00118094  -0.0778777  0.0374157  -0.0312324 
1699966385.878434000  0  0  11.6087  0.0846938  -0.166923  0.00359644  nan  nan  nan  nan  nan  nan  -0.999181  -0.0071623  1.00071  0.00303764  -0.0315876  -0.0112279  0.0019701  -0.0022454  0.0016853  0  0  0  0  0  0  0.0229118  0.00102643  -0.0188003  -0.0101209  0.00118091  0.000555058  -0.00965455  0.0267453  -0.00134876  -0.0805658  0.0877885  -0.0314679 
1699966385.883441000  0  0  11.6165  0.0646928  -0.133064  0.00488544  nan  nan  nan  nan  nan  nan  -0.999171  -0.0071701  1.00072  0.00252671  -0.0316235  -0.0112119  0.0019701  -0.0008799  0.001668  0  0  0  0  0  0  0.0228629  0.00103119  -0.0188026  -0.00994619  0.000513091  -8.36518e-05  -0.00913241  0.0264661  -0.00167154  -0.0453674  0.0226402  -0.0443525 
1699966385.888466000  0  0  11.5912  0.0905346  -0.145162  0.00456957  nan  nan  nan  nan  nan  nan  -0.999161  -0.0071711  1.00073  0.00102657  -0.0320894  -0.0111649  0.0019701  0.0004907  0.0016374  0  0  0  0  0  0  0.0228683  0.000880255  -0.0187804  -0.00946808  -0.00109506  0.001974  -0.00850048  0.0272281  -0.00183545  -0.102865  0.039825  -0.0387651 
1699966385.893447000  0  0  11.5915  0.0895579  -0.160623  0.00435057  nan  nan  nan  nan  nan  nan  -0.999151  -0.0071652  1.00074  -0.000631881  -0.0322569  -0.0111116  0.0019701  0.0018626  0.0015898  0  0  0  0  0  0  0.0228847  0.000680583  -0.0187692  -0.00931095  -0.00278827  0.00191974  -0.00750329  0.0279086  -0.00198822  -0.110086  0.0644872  -0.0345 
1699966385.898434000  0  0  11.6042  0.0783221  -0.134513  0.00515733  nan  nan  nan  nan  nan  nan  -0.999141  -0.0071525  1.00074  -0.00104687  -0.0321211  -0.0110984  0.0019701  0.0032323  0.0015215  0  0  0  0  0  0  0.0228379  0.000666185  -0.0187632  -0.00934343  -0.0032904  0.000863191  -0.00737777  0.027534  -0.00225099  -0.0887688  0.0157136  -0.0419567 
1699966385.903427000  0  0  11.5733  0.111732  -0.138677  0.00473972  nan  nan  nan  nan  nan  nan  -0.999131  -0.0071329  1.00075  -0.00255363  -0.0325999  -0.0110488  0.0019701  0.0045958  0.0014287  0  0  0  0  0  0  0.0228484  0.000489579  -0.01873  -0.00888201  -0.00483617  0.00336955  -0.0071086  0.0281261  -0.00238714  -0.158066  0.018594  -0.0353751 
1699966385.907428000  0  0  11.5622  0.119439  -0.143615  0.00468433  nan  nan  nan  nan  nan  nan  -0.999121  -0.0071065  1.00076  -0.00274797  -0.0322689  -0.0110433  0.0019701  0.0059495  0.0013081  0  0  0  0  0  0  0.0228075  0.000467927  -0.0187178  -0.00925934  -0.00502929  0.00426046  -0.0076802  0.0280026  -0.00249919  -0.168221  0.0296072  -0.0335622 
1699966385.913446000  0  0  11.5739  0.104146  -0.121252  0.00525453  nan  nan  nan  nan  nan  nan  -0.999112  -0.0070734  1.00076  -0.00401028  -0.0325183  -0.0110016  0.0019701  0.0072895  0.0011611  0  0  0  0  0  0  0.02282  0.000256907  -0.0186902  -0.00894256  -0.00619006  0.00324449  -0.00714521  0.0279142  -0.00276824  -0.142555  -0.0143071  -0.0379992 
1699966385.918438000  0  0  11.5494  0.131926  -0.120374  0.00455599  nan  nan  nan  nan  nan  nan  -0.999102  -0.0070336  1.00077  -0.00553121  -0.0328419  -0.0109504  0.0019701  0.0086123  0.0009912  0  0  0  0  0  0  0.0228485  2.77725e-05  -0.0186524  -0.00870017  -0.00762388  0.00521559  -0.00697673  0.0281349  -0.00285681  -0.199665  -0.0180921  -0.0283818 
1699966385.923449000  0  0  11.5494  0.1406  -0.118267  0.00416859  nan  nan  nan  nan  nan  nan  -0.999092  -0.0069873  1.00077  -0.00566959  -0.0324167  -0.0109482  0.0019701  0.0099139  0.0008024  0  0  0  0  0  0  0.0228019  -9.62431e-06  -0.018627  -0.00914452  -0.00771227  0.00515987  -0.00796406  0.0276501  -0.00292378  -0.20793  -0.017848  -0.0228696 
1699966385.928440000  0  0  11.5605  0.126576  -0.100072  0.00496896  nan  nan  nan  nan  nan  nan  -0.999082  -0.0069346  1.00078  -0.00659321  -0.0325535  -0.0109174  0.0019701  0.0111906  0.0005983  0  0  0  0  0  0  0.0228067  -0.000195364  -0.0186194  -0.00895327  -0.00849425  0.00424204  -0.0078062  0.0273088  -0.00312916  -0.181335  -0.0510963  -0.0308204 
1699966385.933442000  0  0  11.5546  0.154916  -0.100879  0.00387389  nan  nan  nan  nan  nan  nan  -0.999072  -0.0068755  1.00078  -0.00707518  -0.0324558  -0.0109024  0.0019701  0.0124388  0.0003827  0  0  0  0  0  0  0.0227627  -0.000242291  -0.0185923  -0.00900879  -0.00900238  0.00467761  -0.00875886  0.0269976  -0.00311566  -0.229251  -0.0466199  -0.017267 
1699966385.938434000  0  0  11.5354  0.140781  -0.102295  0.0036149  nan  nan  nan  nan  nan  nan  -0.999062  -0.0068102  1.00078  -0.00817098  -0.0325128  -0.0108664  0.0019701  0.0136546  0.0001593  0  0  0  0  0  0  0.0227919  -0.000491882  -0.0185504  -0.00908507  -0.00983614  0.0061971  -0.00854185  0.0269033  -0.00316355  -0.202977  -0.0429208  -0.0135507 
1699966385.942435000  0  0  11.5674  0.126787  -0.0951286  0.00429076  nan  nan  nan  nan  nan  nan  -0.999052  -0.006739  1.00078  -0.00845853  -0.0323398  -0.0108585  0.0019701  0.0148343  -6.81e-05  0  0  0  0  0  0  0.0227548  -0.000546831  -0.0185516  -0.00911418  -0.0101111  0.0035436  -0.00873714  0.0264434  -0.00329189  -0.173193  -0.0530217  -0.0207156 
1699966385.948438000  0  0  11.5741  0.144375  -0.101735  0.00518365  nan  nan  nan  nan  nan  nan  -0.999043  -0.0066619  1.00078  -0.00937828  -0.0326687  -0.0108257  0.0019701  0.0159741  -0.0002958  0  0  0  0  0  0  0.0227712  -0.000752814  -0.0185607  -0.00871606  -0.0108464  0.0030169  -0.00924856  0.0265634  -0.00349399  -0.203663  -0.0409135  -0.0298557 
1699966385.953447000  0  0  11.5624  0.132871  -0.110639  0.0062752  nan  nan  nan  nan  nan  nan  -0.999033  -0.0065793  1.00078  -0.0100618  -0.0326612  -0.0108034  0.0019701  0.0170704  -0.00052  0  0  0  0  0  0  0.0227728  -0.000943044  -0.0185634  -0.0087811  -0.0112884  0.00399957  -0.00936549  0.0265569  -0.00376884  -0.17958  -0.0230456  -0.0407516 
1699966385.957447000  0  0  11.5972  0.121173  -0.108209  0.00673215  nan  nan  nan  nan  nan  nan  -0.999023  -0.0064913  1.00077  -0.010205  -0.0323989  -0.0108014  0.0019701  0.0181193  -0.000737  0  0  0  0  0  0  0.0227356  -0.00100645  -0.0185653  -0.00891277  -0.0113685  0.00110563  -0.00965994  0.0261857  -0.00397277  -0.153474  -0.0244897  -0.0444242 
1699966385.963444000  0  0  11.6028  0.128106  -0.111113  0.00649597  nan  nan  nan  nan  nan  nan  -0.999013  -0.0063982  1.00077  -0.01155  -0.0328779  -0.0107523  0.0019701  0.019117  -0.000943  0  0  0  0  0  0  0.0227446  -0.00127723  -0.0185944  -0.00831381  -0.0125124  0.000724654  -0.00937366  0.0265834  -0.00419459  -0.169975  -0.0223407  -0.0392537 
1699966385.968445000  0  0  11.5772  0.126428  -0.124128  0.00624604  nan  nan  nan  nan  nan  nan  -0.999003  -0.0063002  1.00077  -0.0111662  -0.0326157  -0.0107679  0.0019701  0.02006  -0.0011342  0  0  0  0  0  0  0.0227003  -0.00133541  -0.018575  -0.00863991  -0.0118527  0.0027918  -0.010481  0.0265176  -0.00431996  -0.156432  0.00429433  -0.0348759 
1699966385.973452000  0  0  11.6331  0.112181  -0.119467  0.006134  nan  nan  nan  nan  nan  nan  -0.998993  -0.0061977  1.00076  -0.0111276  -0.0321986  -0.0107738  0.0019701  0.0209443  -0.001307  0  0  0  0  0  0  0.0226557  -0.00139626  -0.0185992  -0.00887766  -0.0117335  -0.00182167  -0.0109305  0.0260677  -0.00445325  -0.123801  -0.000888983  -0.0321425 
1699966385.978439000  0  0  11.6241  0.114513  -0.119575  0.00554229  nan  nan  nan  nan  nan  nan  -0.998984  -0.0060909  1.00075  -0.012188  -0.0327308  -0.0107331  0.0019701  0.0217663  -0.0014575  0  0  0  0  0  0  0.0226819  -0.00164004  -0.0186163  -0.00829498  -0.012556  -0.00101884  -0.0105839  0.0265238  -0.00452082  -0.131656  -0.00486853  -0.0240704 
1699966385.982443000  0  0  11.5914  0.114207  -0.133972  0.00480386  nan  nan  nan  nan  nan  nan  -0.998974  -0.0059802  1.00074  -0.0119914  -0.0326816  -0.0107402  0.0019703  0.0225221  -0.0015821  0  0  0  0  0  0  0.022646  -0.00170965  -0.0185911  -0.00839409  -0.0121023  0.00164164  -0.0112413  0.0267419  -0.00450844  -0.124994  0.0219187  -0.0149639 
1699966385.988445000  0  0  11.6552  0.0990795  -0.130474  0.0046058  nan  nan  nan  nan  nan  nan  -0.998964  -0.0058658  1.00074  -0.0133921  -0.0326849  -0.0106943  0.0019731  0.0232082  -0.0016769  0  0  0  0  0  0  0.0226739  -0.00203514  -0.018688  -0.00824065  -0.0132789  -0.00344696  -0.0102693  0.0268689  -0.00456539  -0.103681  0.0137543  -0.0119185 
1699966385.993445000  0  0  11.6705  0.101255  -0.128145  0.0043869  nan  nan  nan  nan  nan  nan  -0.998954  -0.0057482  1.00073  -0.0146476  -0.0334053  -0.0106427  0.0019823  0.0238206  -0.0017383  0  0  0  0  0  0  0.0227314  -0.00235352  -0.0187711  -0.00739574  -0.0142312  -0.00452498  -0.009658  0.0275044  -0.00461164  -0.113657  0.00324967  -0.00871981 
1699966385.998438000  0  0  11.6385  0.110133  -0.141342  0.004246  nan  nan  nan  nan  nan  nan  -0.998944  -0.0056277  1.00072  -0.0139551  -0.0332628  -0.0106679  0.0020015  0.0243556  -0.0017624  0  0  0  0  0  0  0.022693  -0.00241931  -0.0187626  -0.00760259  -0.0131353  -0.00190723  -0.010979  0.0276493  -0.00461498  -0.119259  0.0283107  -0.00692517 
1699966386.003433000  0  0  11.6893  0.0991348  -0.139577  0.00527596  nan  nan  nan  nan  nan  nan  -0.998934  -0.0055048  1.00071  -0.0151446  -0.0333886  -0.0106264  0.0020346  0.0248096  -0.0017455  0  0  0  0  0  0  0.0227574  -0.00276825  -0.0188732  -0.00741216  -0.0139859  -0.00587943  -0.0102311  0.0278175  -0.00480214  -0.104143  0.0232331  -0.017928 
1699966386.007450000  0  0  11.6915  0.106132  -0.124899  0.00633428  nan  nan  nan  nan  nan  nan  -0.998924  -0.0053798  1.0007  -0.0147275  -0.0335156  -0.0106385  0.0020853  0.0251787  -0.0016839  0  0  0  0  0  0  0.0227291  -0.00284773  -0.0188889  -0.00717002  -0.0132736  -0.00604361  -0.0111211  0.0277215  -0.00498782  -0.10995  -0.00523884  -0.0293003 
1699966386.013447000  0  0  11.6404  0.125433  -0.139959  0.00597708  nan  nan  nan  nan  nan  nan  -0.998913  -0.0052531  1.00069  -0.0145432  -0.0338112  -0.0106403  0.0021573  0.0254592  -0.0015738  0  0  0  0  0  0  0.0227442  -0.00303359  -0.0189189  -0.00700695  -0.0125412  -0.00174211  -0.0123214  0.028257  -0.00508998  -0.13751  0.0199545  -0.0238137 
1699966386.018438000  0  0  11.6876  0.113675  -0.134488  0.00614  nan  nan  nan  nan  nan  nan  -0.998902  -0.0051253  1.00069  -0.0147744  -0.0336717  -0.0106346  0.0022544  0.0256473  -0.0014115  0  0  0  0  0  0  0.0227803  -0.00329257  -0.0190102  -0.00709514  -0.0123419  -0.00548066  -0.0124925  0.0280647  -0.00522671  -0.112418  0.010781  -0.0244829 
1699966386.023443000  0  0  11.679  0.133296  -0.115411  0.00582433  nan  nan  nan  nan  nan  nan  -0.99889  -0.0049968  1.00068  -0.0138481  -0.0337923  -0.0106641  0.0023803  0.0257393  -0.0011932  0  0  0  0  0  0  0.0227481  -0.00335152  -0.0190242  -0.00688545  -0.0109974  -0.00476534  -0.0142145  0.0278111  -0.00526416  -0.13582  -0.0250414  -0.0201625 
1699966386.028444000  0  0  11.6439  0.152894  -0.128515  0.0055713  nan  nan  nan  nan  nan  nan  -0.998878  -0.0048681  1.00067  -0.0137062  -0.0337238  -0.0106698  0.0025388  0.0257315  -0.0009152  0  0  0  0  0  0  0.0227637  -0.00357127  -0.0190418  -0.00713709  -0.0102696  -0.00182542  -0.0153881  0.0278827  -0.00532781  -0.164217  0.000508632  -0.0163632 
1699966386.032441000  0  0  11.6859  0.146292  -0.123999  0.00616345  nan  nan  nan  nan  nan  nan  -0.998865  -0.0047397  1.00067  -0.0124002  -0.0330052  -0.0107228  0.0027337  0.0256201  -0.0005737  0  0  0  0  0  0  0.022729  -0.0036322  -0.0190854  -0.00781832  -0.00849584  -0.00527542  -0.017045  0.027146  -0.00543468  -0.13577  -0.00174619  -0.0226963 
1699966386.038419000  0  0  11.6782  0.166451  -0.108377  0.00574148  nan  nan  nan  nan  nan  nan  -0.998851  -0.0046121  1.00067  -0.0120188  -0.0334164  -0.0107304  0.0029687  0.0254013  -0.0001649  0  0  0  0  0  0  0.022764  -0.00383134  -0.0191389  -0.00738423  -0.00755377  -0.00453848  -0.0185172  0.0271114  -0.00551207  -0.162544  -0.0326709  -0.0166478 
1699966386.043439000  0  0  11.6571  0.185513  -0.120966  0.00431684  nan  nan  nan  nan  nan  nan  -0.998835  -0.0044858  1.00067  -0.0110441  -0.0330649  -0.0107669  0.0032475  0.0250714  0.0003148  0  0  0  0  0  0  0.0227552  -0.0039694  -0.0191579  -0.0078829  -0.00595207  -0.00279683  -0.0205681  0.0268816  -0.0053916  -0.1818  -0.00537736  -4.45474e-05 
1699966386.048463000  0  0  11.7111  0.167387  -0.11229  0.00392169  nan  nan  nan  nan  nan  nan  -0.998818  -0.0043615  1.00067  -0.00929346  -0.0323619  -0.0108313  0.0035738  0.0246267  0.0008692  0  0  0  0  0  0  0.0227137  -0.00399274  -0.0192107  -0.00848221  -0.00368281  -0.00725057  -0.0225927  0.0260576  -0.00530658  -0.12692  -0.0151497  0.00404466 
1699966386.053440000  0  0  11.6998  0.184586  -0.0986582  0.00421963  nan  nan  nan  nan  nan  nan  -0.998799  -0.0042398  1.00068  -0.00771767  -0.0323446  -0.0108824  0.0039516  0.0240634  0.0015022  0  0  0  0  0  0  0.0226756  -0.00400793  -0.0192343  -0.00843625  -0.00158977  -0.00631671  -0.0249169  0.0256658  -0.00528575  -0.139936  -0.0388087  0.000112145 
1699966386.058434000  0  0  11.7011  0.194389  -0.11318  0.00500415  nan  nan  nan  nan  nan  nan  -0.998779  -0.0041211  1.00069  -0.00643835  -0.0318075  -0.0109272  0.0043844  0.0233777  0.0022173  0  0  0  0  0  0  0.0226699  -0.00412619  -0.019281  -0.00909765  0.000341441  -0.00639285  -0.0269962  0.0252545  -0.00536326  -0.140413  -0.00598255  -0.00891928 
1699966386.063442000  0  0  11.7505  0.168837  -0.108894  0.00610529  nan  nan  nan  nan  nan  nan  -0.998755  -0.0040062  1.0007  -0.00527722  -0.0312278  -0.0109672  0.004876  0.0225659  0.0030185  0  0  0  0  0  0  0.0226569  -0.00423701  -0.0193482  -0.0096339  0.00207383  -0.0104146  -0.0281705  0.024602  -0.00553709  -0.0785049  -0.0085508  -0.0209452 
1699966386.068440000  0  0  11.7586  0.179192  -0.104315  0.00560631  nan  nan  nan  nan  nan  nan  -0.99873  -0.0038957  1.00072  -0.00471589  -0.031257  -0.0109846  0.0054303  0.0216242  0.0039094  0  0  0  0  0  0  0.0226652  -0.00438701  -0.0193953  -0.00957691  0.00313461  -0.0110222  -0.0292275  0.0244571  -0.00556513  -0.0894916  -0.016376  -0.0144277 
1699966386.073439000  0  0  11.7656  0.190595  -0.118218  0.00514041  nan  nan  nan  nan  nan  nan  -0.998701  -0.0037902  1.00074  -0.0025036  -0.0306274  -0.0110553  0.0060509  0.020549  0.0048937  0  0  0  0  0  0  0.0226154  -0.00436313  -0.0194434  -0.0102307  0.00597759  -0.0116006  -0.03189  0.024087  -0.00553882  -0.0878017  0.0148354  -0.00886698 
1699966386.078440000  0  0  11.8002  0.1749  -0.119977  0.00534327  nan  nan  nan  nan  nan  nan  -0.998669  -0.0036904  1.00077  -0.000358751  -0.0297243  -0.0111213  0.0067415  0.0193364  0.0059753  0  0  0  0  0  0  0.0225608  -0.00432713  -0.0195209  -0.0111428  0.00871138  -0.0144028  -0.0339235  0.0233625  -0.00558842  -0.037703  0.0250192  -0.0109066 
1699966386.083444000  0  0  11.8289  0.175948  -0.114714  0.00616499  nan  nan  nan  nan  nan  nan  -0.998633  -0.0035971  1.0008  0.000593052  -0.0296255  -0.0111496  0.0075047  0.0179827  0.0071579  0  0  0  0  0  0  0.0225563  -0.00441872  -0.0196077  -0.0111525  0.010165  -0.0166513  -0.0349581  0.0232264  -0.00574146  -0.0302815  0.0157449  -0.0196478 
1699966386.088441000  0  0  11.8359  0.176006  -0.126146  0.00613677  nan  nan  nan  nan  nan  nan  -0.998594  -0.0035108  1.00084  0.00212756  -0.0292599  -0.0111942  0.0083378  0.0164841  0.0084452  0  0  0  0  0  0  0.0225515  -0.00451184  -0.0196798  -0.0115755  0.0123956  -0.0171424  -0.0364823  0.0231761  -0.00582069  -0.0163748  0.0390729  -0.0185027 
