ts x y z roll pitch yaw vx vy vz wx wy wz ax ay az dwx dwy dwz jx jy jz ddwx ddwy ddwz
1703169832.814041000  -2.5  -0.3  1  0  0  -0.01  2e-07  2e-07  2e-07  0  0  0  0.000125  0.000125  0.000125  0  0  0  0  0  0  0  0  0 
1703169832.819016000  -2.5  -0.3  1  0  0  -0.01  1.7e-06  1.7e-06  1.7e-06  0  0  0  0.0005  0.0005  0.0005  0  0  0  0  0  0  0  0  0 
1703169832.824012000  -2.5  -0.3  1  0  0  -0.01  5.6e-06  5.6e-06  5.6e-06  0  0  0  0.001125  0.001125  0.001125  0  0  0  0  0  0  0  0  0 
1703169832.829010000  -2.5  -0.3  1  0  0  -0.0100001  1.33e-05  1.33e-05  1.33e-05  0  0  0  0.002  0.002  0.002  0  0  0  0  0  0  0  0  0 
1703169832.834014000  -2.5  -0.3  1  0  0  -0.0100003  2.6e-05  2.6e-05  2.6e-05  0  0  0  0.003125  0.003125  0.003125  0  0  0  0  0  0  0  0  0 
1703169832.839022000  -2.5  -0.3  1  0  0  -0.0100005  4.5e-05  4.5e-05  4.5e-05  0  0  0  0.0045  0.0045  0.0045  0  0  0  0  0  0  0  0  0 
1703169832.844015000  -2.5  -0.299999  1  0  0  -0.010001  7.15e-05  7.15e-05  7.15e-05  0  0  0  0.006125  0.006125  0.006125  0  0  0  0  0  0  0  0  0 
1703169832.849052000  -2.5  -0.299999  1  0  0  -0.0100017  0.0001067  0.0001067  0.0001067  0  0  0  0.008  0.008  0.008  0  0  0  0  0  0  0  0  0 
1703169832.854041000  -2.5  -0.299998  1  0  0  -0.0100027  0.0001519  0.0001519  0.0001519  0  0  0  0.010125  0.010125  0.010125  0  0  0  0  0  0  0  0  0 
1703169832.859031000  -2.5  -0.299997  1  0  0  -0.0100042  0.0002083  0.0002083  0.0002083  0  0  0  0.0125  0.0125  0.0125  0  0  0  0  0  0  0  0  0 
1703169832.864016000  -2.5  -0.299996  1  0  0  -0.0100061  0.0002773  0.0002773  0.0002773  0  0  0  0.015125  0.015125  0.015125  0  0  0  0  0  0  0  0  0 
1703169832.869014000  -2.49999  -0.299995  1.00001  0  0  -0.0100086  0.00036  0.00036  0.00036  0  0  0  0.018  0.018  0.018  0  0  0  0  0  0  0  0  0 
1703169832.874016000  -2.49999  -0.299993  1.00001  0  0  -0.0100119  0.0004577  0.0004577  0.0004577  0  0  0  0.021125  0.021125  0.021125  0  0  0  0  0  0  0  0  0 
1703169832.879031000  -2.49999  -0.29999  1.00001  0  0  -0.010016  0.0005717  0.0005717  0.0005717  0  0  0  0.0245  0.0245  0.0245  0  0  0  0  0  0  0  0  0 
1703169832.884043000  -2.49999  -0.299987  1.00001  0  0  -0.0100211  0.0007031  0.0007031  0.0007031  0  0  0  0.028125  0.028125  0.028125  0  0  0  0  0  0  0  0  0 
1703169832.889011000  -2.49998  -0.299983  1.00002  0  0  -0.0100273  0.0008533  0.0008533  0.0008533  0  0  0  0.032  0.032  0.032  0  0  0  0  0  0  0  0  0 
1703169832.894011000  -2.49998  -0.299978  1.00002  0  0  -0.0100348  0.0010235  0.0010235  0.0010235  0  0  0  0.036125  0.036125  0.036125  0  0  0  0  0  0  0  0  0 
1703169832.899029000  -2.49997  -0.299973  1.00003  0  0  -0.0100437  0.001215  0.001215  0.001215  0  0  0  0.0405  0.0405  0.0405  0  0  0  0  0  0  0  0  0 
1703169832.904012000  -2.49997  -0.299966  1.00003  0  0  -0.0100543  0.001429  0.001429  0.001429  0  0  0  0.045125  0.045125  0.045125  0  0  0  0  0  0  0  0  0 
1703169832.909022000  -2.49996  -0.299958  1.00004  0  0  -0.0100667  0.0016667  0.0016667  0.0016667  0  0  0  0.05  0.05  0.05  0  0  0  0  0  0  0  0  0 
1703169832.914056000  -2.49995  -0.299949  1.00005  0  0  -0.010081  0.0019294  0.0019294  0.0019294  0  0  0  0.055125  0.055125  0.055125  0  0  0  0  0  0  0  0  0 
1703169832.919036000  -2.49994  -0.299939  1.00006  0  0  -0.0100976  0.0022183  0.0022183  0.0022183  0  0  0  0.0605  0.0605  0.0605  0  0  0  0  0  0  0  0  0 
1703169832.924011000  -2.49993  -0.299927  1.00007  0  0  -0.0101166  0.0025348  0.0025348  0.0025348  0  0  0  0.066125  0.066125  0.066125  0  0  0  0  0  0  0  0  0 
1703169832.929016000  -2.49991  -0.299914  1.00009  0  0  -0.0101382  0.00288  0.00288  0.00288  0  0  0  0.072  0.072  0.072  0  0  0  0  0  0  0  0  0 
1703169832.934014000  -2.4999  -0.299898  1.0001  0  0  -0.0101628  0.0032552  0.0032552  0.003255  0  0  0  0.078125  0.078125  0.0779792  0  0  0  0  0  0  0  0  0 
1703169832.939045000  -2.49988  -0.299881  1.00012  0  0  -0.0101904  0.0036617  0.0036617  0.0036594  0  0  0  0.0845  0.0845  0.0837224  0  0  0  0  0  0  0  0  0 
1703169832.944015000  -2.49986  -0.299862  1.00014  0  0  -0.0102214  0.0041006  0.0041006  0.0040918  0  0  0  0.091125  0.091125  0.0892156  0  0  0  0  0  0  0  0  0 
1703169832.949014000  -2.49984  -0.29984  1.00016  0  0  -0.010256  0.0045733  0.0045733  0.0045511  0  0  0  0.098  0.098  0.0944588  0  0  0  0  0  0  0  0  0 
1703169832.954014000  -2.49982  -0.299816  1.00018  0  0  -0.0102945  0.005081  0.005081  0.005036  0  0  0  0.105125  0.105125  0.099452  0  0  0  0  0  0  0  0  0 
1703169832.959027000  -2.49979  -0.299789  1.00021  0  0  -0.010337  0.005625  0.005625  0.0055452  0  0  0  0.1125  0.1125  0.104195  0  0  0  0  0  0  0  0  0 
1703169832.964012000  -2.49976  -0.299759  1.00024  0  0  -0.0103837  0.0062065  0.0062065  0.0060775  0  0  0  0.120125  0.120125  0.108688  0  0  0  0  0  0  0  0  0 
1703169832.969015000  -2.49973  -0.299727  1.00027  0  0  -0.0104349  0.0068267  0.0068267  0.0066317  0  0  0  0.128  0.128  0.112932  0  0  0  0  0  0  0  0  0 
1703169832.974014000  -2.49969  -0.299691  1.00031  0  0  -0.0104907  0.0074869  0.0074869  0.0072064  0  0  0  0.136125  0.136125  0.116925  0  0  0  0  0  0  0  0  0 
1703169832.979024000  -2.49965  -0.299652  1.00034  0  0  -0.0105513  0.0081883  0.0081883  0.0078005  0  0  0  0.1445  0.1445  0.120668  0  0  0  0  0  0  0  0  0 
1703169832.984016000  -2.49961  -0.299609  1.00038  0  0  -0.0106169  0.0089323  0.0089323  0.0084127  0  0  0  0.153125  0.153125  0.124161  0  0  0  0  0  0  0  0  0 
1703169832.989014000  -2.49956  -0.299563  1.00043  0  0  -0.0106876  0.00972  0.00972  0.0090417  0  0  0  0.162  0.162  0.127404  0  0  0  0  0  0  0  0  0 
1703169832.994014000  -2.49951  -0.299512  1.00047  0  0  -0.0107636  0.0105527  0.0105527  0.0096863  0  0  0  0.171125  0.171125  0.130398  0  0  0  0  0  0  0  0  0 
1703169832.999025000  -2.49946  -0.299457  1.00052  0  0  -0.010845  0.0114317  0.0114317  0.0103453  0  0  0  0.1805  0.1805  0.133141  0  0  0  0  0  0  0  0  0 
1703169833.004015000  -2.4994  -0.299398  1.00058  0  0  -0.0109319  0.0123581  0.0123581  0.0110173  0  0  0  0.190125  0.190125  0.135634  0  0  0  0  0  0  0  0  0 
1703169833.009013000  -2.49933  -0.299333  1.00063  0  0  -0.0110245  0.0133333  0.0133333  0.0117012  0  0  0  0.2  0.2  0.137877  0  0  0  0  0  0  0  0  0 
1703169833.014013000  -2.49926  -0.299264  1.00069  0  0  -0.0111228  0.0143585  0.0143585  0.0123957  0  0  0  0.210125  0.210125  0.13987  0  0  0  0  0  0  0  0  0 
1703169833.019042000  -2.49919  -0.29919  1.00076  0  0  -0.0112269  0.015435  0.015435  0.0130995  0  0  0  0.2205  0.2205  0.141613  0  0  0  0  0  0  0  0  0 
1703169833.024026000  -2.49911  -0.29911  1.00083  0  0  -0.011337  0.016564  0.016564  0.0138114  0  0  0  0.231125  0.231125  0.143107  0  0  0  0  0  0  0  0  0 
1703169833.029023000  -2.49902  -0.299024  1.0009  0  0  -0.0114531  0.0177467  0.0177467  0.0145301  0  0  0  0.242  0.242  0.14435  0  0  0  0  0  0  0  0  0 
1703169833.034024000  -2.49893  -0.298932  1.00097  0  0  -0.0115753  0.0189844  0.0189844  0.0152545  0  0  0  0.253125  0.253125  0.145343  0  0  0  0  0  0  0  0  0 
1703169833.039041000  -2.49883  -0.298834  1.00105  0  0  -0.0117035  0.0202783  0.0202783  0.0159831  0  0  0  0.2645  0.2645  0.146086  0  0  0  0  0  0  0  0  0 
1703169833.044033000  -2.49873  -0.298729  1.00113  0  0  -0.011838  0.0216298  0.0216298  0.0167149  0  0  0  0.276125  0.276125  0.146579  0  0  0  0  0  0  0  0  0 
1703169833.049029000  -2.49862  -0.298618  1.00122  0  0  -0.0119786  0.02304  0.02304  0.0174485  0  0  0  0.288  0.288  0.146823  0  0  0  0  0  0  0  0  0 
1703169833.054031000  -2.4985  -0.298499  1.00131  0  0  -0.0121255  0.0245102  0.0245102  0.0181827  0  0  0  0.300125  0.300125  0.146816  0  0  0  0  0  0  0  0  0 
1703169833.059039000  -2.49837  -0.298372  1.0014  0  0  -0.0122787  0.0260417  0.0260417  0.0189163  0  0  0  0.3125  0.3125  0.146559  0  0  0  0  0  0  0  0  0 
1703169833.064015000  -2.49824  -0.298238  1.00149  0  0  -0.012438  0.0276356  0.0276356  0.0196479  0  0  0  0.325125  0.325125  0.146052  0  0  0  0  0  0  0  0  0 
1703169833.069014000  -2.4981  -0.298096  1.00159  0  0  -0.0126037  0.0292933  0.0292933  0.0203764  0  0  0  0.338  0.338  0.145295  0  0  0  0  0  0  0  0  0 
1703169833.074012000  -2.49795  -0.297945  1.0017  0  0  -0.0127755  0.031016  0.031016  0.0211004  0  0  0  0.351125  0.351125  0.144289  0  0  0  0  0  0  0  0  0 
1703169833.079020000  -2.49779  -0.297786  1.00181  0  0  -0.0129537  0.032805  0.032805  0.0218188  0  0  0  0.3645  0.3645  0.143032  0  0  0  0  0  0  0  0  0 
1703169833.084029000  -2.49762  -0.297617  1.00192  0  0  -0.013138  0.0346615  0.0346615  0.0225303  0  0  0  0.378125  0.378125  0.141525  0  0  0  0  0  0  0  0  0 
1703169833.089029000  -2.49744  -0.297439  1.00203  0  0  -0.0133287  0.0365867  0.0365867  0.0232337  0  0  0  0.392  0.392  0.139768  0  0  0  0  0  0  0  0  0 
1703169833.094030000  -2.49725  -0.297251  1.00215  0  0  -0.0135255  0.0385819  0.0385819  0.0239276  0  0  0  0.406125  0.406125  0.137761  0  0  0  0  0  0  0  0  0 
1703169833.099038000  -2.49705  -0.297053  1.00227  0  0  -0.0137287  0.0406483  0.0406483  0.0246109  0  0  0  0.4205  0.4205  0.135505  0  0  0  0  0  0  0  0  0 
1703169833.104032000  -2.49684  -0.296844  1.00239  0  0  -0.013938  0.0427873  0.0427873  0.0252822  0  0  0  0.435125  0.435125  0.132998  0  0  0  0  0  0  0  0  0 
1703169833.109027000  -2.49662  -0.296625  1.00252  0  0  -0.0141537  0.045  0.045  0.0259404  0  0  0  0.45  0.45  0.130241  0  0  0  0  0  0  0  0  0 
1703169833.114029000  -2.49639  -0.296394  1.00265  0  0  -0.0143755  0.0472877  0.0472877  0.0265842  0  0  0  0.465125  0.465125  0.127234  0  0  0  0  0  0  0  0  0 
1703169833.119040000  -2.49615  -0.296152  1.00279  0  0  -0.0146036  0.0496517  0.0496517  0.0272124  0  0  0  0.4805  0.4805  0.123977  0  0  0  0  0  0  0  0  0 
1703169833.124033000  -2.4959  -0.295898  1.00293  0  0  -0.014838  0.0520931  0.0520931  0.0278236  0  0  0  0.496125  0.496125  0.120471  0  0  0  0  0  0  0  0  0 
1703169833.129012000  -2.49563  -0.295631  1.00307  0  0  -0.0150786  0.0546133  0.0546133  0.0284166  0  0  0  0.512  0.512  0.116714  0  0  0  0  0  0  0  0  0 
1703169833.134020000  -2.49535  -0.295351  1.00321  0  0  -0.0153255  0.0572135  0.0572135  0.0289903  0  0  0  0.528125  0.528125  0.112707  0  0  0  0  0  0  0  0  0 
1703169833.139018000  -2.49506  -0.295059  1.00336  0  0  -0.0155786  0.059895  0.059895  0.0295433  0  0  0  0.5445  0.5445  0.10845  0  0  0  0  0  0  0  0  0 
1703169833.144012000  -2.49475  -0.294752  1.00351  0  0  -0.015838  0.062659  0.062659  0.0300744  0  0  0  0.561125  0.561125  0.103943  0  0  0  0  0  0  0  0  0 
1703169833.149011000  -2.49443  -0.294432  1.00366  0  0  -0.0161037  0.0655067  0.0655067  0.0305823  0  0  0  0.578  0.578  0.0991865  0  0  0  0  0  0  0  0  0 
1703169833.154011000  -2.4941  -0.294097  1.00381  0  0  -0.0163755  0.0684394  0.068439  0.0310658  0  0  0  0.595125  0.594911  0.0941797  0  0  0  0  0  0  0  0  0 
1703169833.159032000  -2.49375  -0.293747  1.00397  0  0  -0.0166536  0.0714583  0.0714554  0.0315237  0  0  0  0.6125  0.611572  0.0889229  0  0  0  0  0  0  0  0  0 
1703169833.164011000  -2.49338  -0.293382  1.00413  0  0  -0.016938  0.0745648  0.0745544  0.0319546  0  0  0  0.630125  0.627984  0.0834161  0  0  0  0  0  0  0  0  0 
1703169833.169010000  -2.493  -0.293002  1.00429  0  0  -0.0172286  0.07776  0.0777348  0.0323574  0  0  0  0.647955  0.644146  0.0776593  0  0  0  0  0  0  0  0  0 
1703169833.174011000  -2.4926  -0.292605  1.00445  0  0  -0.0175255  0.081044  0.0809954  0.0327308  0  0  0  0.665619  0.660058  0.0716736  0  0  0  0  0  0  0  0  0 
1703169833.179035000  -2.49219  -0.292192  1.00461  0  0  -0.0178287  0.0844157  0.0843349  0.0330744  0  0  0  0.683032  0.67572  0.0658122  0  0  0  0  0  0  0  0  0 
1703169833.184026000  -2.49176  -0.291761  1.00478  0  0  -0.018138  0.0878739  0.0877522  0.0333894  0  0  0  0.700196  0.691132  0.0602008  0  0  0  0  0  0  0  0  0 
1703169833.189030000  -2.49131  -0.291314  1.00495  0  0  -0.0184537  0.0914173  0.0912458  0.0336769  0  0  0  0.71711  0.706294  0.0548394  0  0  0  0  0  0  0  0  0 
1703169833.194027000  -2.49085  -0.290849  1.00512  0  0  -0.0187755  0.0950446  0.0948147  0.0339382  0  0  0  0.733773  0.721205  0.0497281  0  0  0  0  0  0  0  0  0 
1703169833.199040000  -2.49036  -0.290366  1.00529  0  0  -0.0191036  0.0987546  0.0984575  0.0341746  0  0  0  0.750187  0.735867  0.0448667  0  0  0  0  0  0  0  0  0 
1703169833.204030000  -2.48986  -0.289864  1.00546  0  0  -0.019438  0.102546  0.102173  0.0343873  0  0  0  0.76635  0.750279  0.0402553  0  0  0  0  0  0  0  0  0 
1703169833.209029000  -2.48934  -0.289344  1.00563  0  0  -0.0197787  0.106418  0.10596  0.0345775  0  0  0  0.782264  0.764441  0.0358939  0  0  0  0  0  0  0  0  0 
1703169833.214028000  -2.48879  -0.288804  1.00581  0  0  -0.0201255  0.110368  0.109817  0.0347466  0  0  0  0.797928  0.778353  0.0317825  0  0  0  0  0  0  0  0  0 
1703169833.219041000  -2.48823  -0.288246  1.00598  0  0  -0.0204786  0.114397  0.113743  0.0348958  0  0  0  0.813341  0.792015  0.0279211  0  0  0  0  0  0  0  0  0 
1703169833.224026000  -2.48765  -0.287667  1.00615  0  0  -0.020838  0.118501  0.117737  0.0350263  0  0  0  0.828505  0.805427  0.0243098  0  0  0  0  0  0  0  0  0 
1703169833.229026000  -2.48705  -0.287068  1.00633  0  0  -0.0212036  0.122681  0.121797  0.0351393  0  0  0  0.843418  0.818589  0.0209484  0  0  0  0  0  0  0  0  0 
1703169833.234024000  -2.48642  -0.286449  1.00651  0  0  -0.0215755  0.126935  0.125922  0.0352362  0  0  0  0.858082  0.8315  0.017837  0  0  0  0  0  0  0  0  0 
1703169833.239042000  -2.48578  -0.285809  1.00668  0  0  -0.0219536  0.131262  0.130111  0.0353181  0  0  0  0.872495  0.844162  0.0149756  0  0  0  0  0  0  0  0  0 
1703169833.244026000  -2.48511  -0.285148  1.00686  0  0  -0.022338  0.13566  0.134363  0.0353863  0  0  0  0.886659  0.856574  0.0123642  0  0  0  0  0  0  0  0  0 
1703169833.249024000  -2.48442  -0.284465  1.00704  0  0  -0.0227286  0.140128  0.138677  0.0354421  0  0  0  0.900573  0.868736  0.0100028  0  0  0  0  0  0  0  0  0 
1703169833.254024000  -2.48371  -0.283761  1.00721  0  0  -0.0231255  0.144665  0.14305  0.0354868  0  0  0  0.914236  0.880648  0.0078914  0  0  0  0  0  0  0  0  0 
1703169833.259041000  -2.48297  -0.283034  1.00739  0  0  -0.0235286  0.14927  0.147483  0.0355215  0  0  0  0.92765  0.89231  0.0060301  0  0  0  0  0  0  0  0  0 
1703169833.264026000  -2.48222  -0.282286  1.00757  0  0  -0.023938  0.153941  0.151973  0.0355475  0  0  0  0.940813  0.903722  0.0044187  0  0  0  0  0  0  0  0  0 
1703169833.269025000  -2.48143  -0.281515  1.00775  0  0  -0.0243536  0.158677  0.15652  0.0355661  0  0  0  0.953727  0.914883  0.0030573  0  0  0  0  0  0  0  0  0 
1703169833.274025000  -2.48063  -0.280721  1.00792  0  0  -0.0247755  0.163478  0.161121  0.0355785  0  0  0  0.966391  0.925795  0.0019459  0  0  0  0  0  0  0  0  0 
1703169833.279040000  -2.4798  -0.279903  1.0081  0  0  -0.0252036  0.168341  0.165777  0.0355859  0  0  0  0.978804  0.936457  0.0010845  0  0  0  0  0  0  0  0  0 
1703169833.284031000  -2.47895  -0.279063  1.00828  0  0  -0.025638  0.173265  0.170486  0.0355897  0  0  0  0.990968  0.946869  0.0004731  0  0  0  0  0  0  0  0  0 
1703169833.289024000  -2.47807  -0.278198  1.00846  0  0  -0.0260786  0.17825  0.175245  0.0355911  0  0  0  1.00288  0.957031  0.0001118  0  0  0  0  0  0  0  0  0 
1703169833.294025000  -2.47716  -0.27731  1.00864  0  0  -0.0265255  0.183294  0.180055  0.0355913  0  0  0  1.01454  0.966943  -0  0  0  0  0  0  0  0  0  0 
1703169833.299040000  -2.47623  -0.276398  1.00881  0  0  -0.0269786  0.188395  0.184914  0.0355913  0  0  0  1.02596  0.976605  -0  0  0  0  0  0  0  0  0  0 
1703169833.304026000  -2.47528  -0.275461  1.00899  0  0  -0.027438  0.193553  0.189821  0.0355913  0  0  0  1.03712  0.986017  -0  0  0  0  0  0  0  0  0  0 
1703169833.309024000  -2.4743  -0.274499  1.00917  0  0  -0.0279036  0.198766  0.194774  0.0355913  0  0  0  1.04804  0.995178  -0  0  0  0  0  0  0  0  0  0 
1703169833.314025000  -2.47329  -0.273513  1.00935  0  0  -0.0283755  0.204033  0.199772  0.0355913  0  0  0  1.0587  1.00409  -0  0  0  0  0  0  0  0  0  0 
1703169833.319038000  -2.47226  -0.272502  1.00953  0  0  -0.0288536  0.209353  0.204815  0.0355913  0  0  0  1.06911  1.01275  -0  0  0  0  0  0  0  0  0  0 
1703169833.324027000  -2.4712  -0.271465  1.0097  0  0  -0.029338  0.214724  0.2099  0.0355913  0  0  0  1.07928  1.02116  -0  0  0  0  0  0  0  0  0  0 
1703169833.329025000  -2.47011  -0.270403  1.00988  0  0  -0.0298286  0.220145  0.215026  0.0355913  0  0  0  1.08919  1.02933  -0  0  0  0  0  0  0  0  0  0 
1703169833.334032000  -2.469  -0.269315  1.01006  0  0  -0.0303255  0.225615  0.220192  0.0355913  0  0  0  1.09885  1.03724  -0  0  0  0  0  0  0  0  0  0 
1703169833.339039000  -2.46785  -0.268201  1.01024  0  0  -0.0308286  0.231133  0.225398  0.0355913  0  0  0  1.10827  1.0449  -0  0  0  0  0  0  0  0  0  0 
1703169833.344027000  -2.46668  -0.267061  1.01042  0  0  -0.031338  0.236697  0.230641  0.0355913  0  0  0  1.11743  1.05231  -0  0  0  0  0  0  0  0  0  0 
1703169833.349025000  -2.46549  -0.265894  1.01059  0  0  -0.0318536  0.242307  0.235921  0.0355913  0  0  0  1.12634  1.05947  -0  0  0  0  0  0  0  0  0  0 
1703169833.354024000  -2.46426  -0.264701  1.01077  0  0  -0.0323754  0.24796  0.241235  0.0355913  0  0  0  1.13501  1.06639  -0  0  0  0  0  0  0  0  0  0 
1703169833.359039000  -2.46301  -0.263482  1.01095  0  0  -0.0329034  0.253657  0.246584  0.0355913  0  0  0  1.14342  1.07305  -0  0  0  0  0  0  0  0  0  0 
1703169833.364026000  -2.46172  -0.262235  1.01113  0  0  -0.0334375  0.259394  0.251965  0.0355913  0  0  0  1.15159  1.07946  -0  0  0  0  0  0  0  0  0  0 
1703169833.369025000  -2.46041  -0.260962  1.01131  0  0  -0.0339776  0.265172  0.257378  0.0355913  0  0  0  1.1595  1.08562  -0  0  0  0  0  0  0  0  0  0 
1703169833.374025000  -2.45907  -0.259662  1.01148  0  0  -0.0345238  0.270989  0.262821  0.0355913  0  0  0  1.16716  1.09153  -0  0  0  0  0  0  0  0  0  0 
1703169833.379040000  -2.4577  -0.258334  1.01166  0  0  -0.0350759  0.276843  0.268293  0.0355913  0  0  0  1.17458  1.09719  -0  0  0  0  0  0  0  0  0  0 
1703169833.384033000  -2.4563  -0.256979  1.01184  0  0  -0.0356338  0.282734  0.273793  0.0355913  0  0  0  1.18174  1.10261  -0  0  0  0  0  0  0  0  0  0 
1703169833.389026000  -2.45488  -0.255596  1.01202  0  0  -0.0361975  0.28866  0.279319  0.0355913  0  0  0  1.18865  1.10777  -0  0  0  0  0  0  0  0  0  0 
1703169833.394025000  -2.45342  -0.254185  1.01219  0  0  -0.0367668  0.29462  0.28487  0.0355913  0  0  0  1.19532  1.11268  -0  0  0  0  0  0  0  0  0  0 
1703169833.399041000  -2.45193  -0.252747  1.01237  0  0  -0.0373417  0.300613  0.290445  0.0355913  0  0  0  1.20173  1.11734  -0  0  0  0  0  0  0  0  0  0 
1703169833.404026000  -2.45041  -0.251281  1.01255  0  0  -0.0379219  0.306637  0.296043  0.0355913  0  0  0  1.20789  1.12175  -0  0  0  0  0  0  0  0  0  0 
1703169833.409025000  -2.44886  -0.249787  1.01273  0  0  -0.0385074  0.312691  0.301662  0.0355913  0  0  0  1.21381  1.12592  -0  0  0  0  0  0  0  0  0  0 
1703169833.414024000  -2.44728  -0.248264  1.01291  0  0  -0.039098  0.318775  0.307302  0.0355913  0  0  0  1.21947  1.12983  -0  0  0  0  0  0  0  0  0  0 
1703169833.419039000  -2.44568  -0.246714  1.01308  0  0  -0.0396936  0.324886  0.31296  0.0355913  0  0  0  1.22488  1.13349  -0  0  0  0  0  0  0  0  0  0 
1703169833.424026000  -2.44404  -0.245135  1.01326  0  0  -0.040294  0.331023  0.318636  0.0355913  0  0  0  1.23005  1.1369  -0  0  0  0  0  0  0  0  0  0 
1703169833.429025000  -2.44237  -0.243527  1.01344  0  0  -0.0408991  0.337186  0.324329  0.0355913  0  0  0  1.23496  1.14006  -0  0  0  0  0  0  0  0  0  0 
1703169833.434024000  -2.44066  -0.241891  1.01362  0  0  -0.0415085  0.343372  0.330036  0.0355913  0  0  0  1.23963  1.14298  -0  0  0  0  0  0  0  0  0  0 
1703169833.439040000  -2.43893  -0.240227  1.0138  0  0  -0.0421222  0.349582  0.335758  0.0355913  0  0  0  1.24404  1.14564  -0  0  0  0  0  0  0  0  0  0 
1703169833.444027000  -2.43717  -0.238534  1.01397  0  0  -0.04274  0.355812  0.341492  0.0355913  0  0  0  1.2482  1.14805  -0  0  0  0  0  0  0  0  0  0 
1703169833.449025000  -2.43537  -0.236812  1.01415  0  0  -0.0433616  0.362063  0.347238  0.0355913  0  0  0  1.25212  1.15021  -0  0  0  0  0  0  0  0  0  0 
1703169833.454024000  -2.43355  -0.235061  1.01433  0  0  -0.0439867  0.368333  0.352994  0.0355913  0  0  0  1.25578  1.15212  -0  0  0  0  0  0  0  0  0  0 
1703169833.459041000  -2.43169  -0.233282  1.01451  0  0  -0.0446153  0.374621  0.358759  0.0355913  0  0  0  1.25919  1.15378  -0  0  0  0  0  0  0  0  0  0 
1703169833.464027000  -2.4298  -0.231474  1.01469  0  0  -0.0452469  0.380925  0.364531  0.0355913  0  0  0  1.26236  1.1552  -0  0  0  0  0  0  0  0  0  0 
1703169833.469024000  -2.42788  -0.229637  1.01486  0  0  -0.0458814  0.387244  0.37031  0.0355913  0  0  0  1.26527  1.15636  -0  0  0  0  0  0  0  0  0  0 
1703169833.474025000  -2.42593  -0.227771  1.01504  0  0  -0.0465186  0.393577  0.376095  0.0355913  0  0  0  1.26793  1.15727  -0  0  0  0  0  0  0  0  0  0 
1703169833.479040000  -2.42395  -0.225876  1.01522  0  0  -0.0471582  0.399923  0.381883  0.0355913  0  0  0  1.27035  1.15793  -0  0  0  0  0  0  0  0  0  0 
1703169833.484024000  -2.42193  -0.223952  1.0154  0  0  -0.0478  0.40628  0.387673  0.0355913  0  0  0  1.27251  1.15834  -0  0  0  0  0  0  0  0  0  0 
1703169833.489025000  -2.41988  -0.221999  1.01558  0  0  -0.0484437  0.412647  0.393466  0.0355913  0  0  0  1.27442  1.15851  -0  0  0  0  0  0  0  0  0  0 
1703169833.494024000  -2.4178  -0.220017  1.01575  0  0  -0.0490893  0.419024  0.399258  0.0355913  0  0  0  1.27609  1.15842  -0  0  0  0  0  0  0  0  0  0 
1703169833.499041000  -2.41569  -0.218006  1.01593  0  0  -0.0497365  0.425408  0.405049  0.0355913  0  0  0  1.2775  1.15808  -0  0  0  0  0  0  0  0  0  0 
1703169833.504025000  -2.41355  -0.215967  1.01611  0  0  -0.0503852  0.431798  0.410839  0.0355913  0  0  0  1.27867  1.15749  -0  0  0  0  0  0  0  0  0  0 
1703169833.509025000  -2.41137  -0.213898  1.01629  0  0  -0.0510351  0.438194  0.416624  0.0355913  0  0  0  1.27958  1.15665  -0  0  0  0  0  0  0  0  0  0 
1703169833.514023000  -2.40917  -0.2118  1.01647  0  0  -0.0516861  0.444594  0.422405  0.0355913  0  0  0  1.28024  1.15556  -0  0  0  0  0  0  0  0  0  0 
1703169833.519064000  -2.40693  -0.209674  1.01664  0  0  -0.0523381  0.450996  0.428179  0.0355913  0  0  0  1.28066  1.15423  -0  0  0  0  0  0  0  0  0  0 
1703169833.524028000  -2.40466  -0.207519  1.01682  0  0  -0.052991  0.4574  0.433946  0.0355913  0  0  0  1.28082  1.15264  -0  0  0  0  0  0  0  0  0  0 
1703169833.529026000  -2.40235  -0.205334  1.017  0  0  -0.0536446  0.463804  0.439705  0.0355913  0  0  0  1.28073  1.1508  -0  0  0  0  0  0  0  0  0  0 
1703169833.534027000  -2.40002  -0.203121  1.01718  0  0  -0.0542987  0.470207  0.445454  0.0355913  0  0  0  1.2804  1.14871  -0  0  0  0  0  0  0  0  0  0 
1703169833.539028000  -2.39765  -0.20088  1.01736  0  0  -0.0549534  0.476607  0.451192  0.0355913  0  0  0  1.27981  1.14637  -0  0  0  0  0  0  0  0  0  0 
1703169833.544025000  -2.39525  -0.19861  1.01753  0  0  -0.0556085  0.483005  0.456917  0.0355913  0  0  0  1.27897  1.14379  -0  0  0  0  0  0  0  0  0  0 
1703169833.549026000  -2.39282  -0.196311  1.01771  0  0  -0.0562639  0.489397  0.462629  0.0355913  0  0  0  1.27789  1.14095  -0  0  0  0  0  0  0  0  0  0 
1703169833.554025000  -2.39036  -0.193983  1.01789  0  0  -0.0569195  0.495783  0.468326  0.0355913  0  0  0  1.27655  1.13786  -0  0  0  0  0  0  0  0  0  0 
1703169833.559028000  -2.38786  -0.191627  1.01807  0  0  -0.0575754  0.502162  0.474008  0.0355913  0  0  0  1.27496  1.13452  -0  0  0  0  0  0  0  0  0  0 
1703169833.564027000  -2.38534  -0.189243  1.01825  0  0  -0.0582313  0.508532  0.479671  0.0355913  0  0  0  1.27313  1.13093  -0  0  0  0  0  0  0  0  0  0 
1703169833.569045000  -2.38278  -0.186831  1.01842  0  0  -0.0588873  0.514893  0.485316  0.0355913  0  0  0  1.27104  1.1271  -0  0  0  0  0  0  0  0  0  0 
1703169833.574013000  -2.38019  -0.18439  1.0186  0  0  -0.0595434  0.521242  0.490942  0.0355913  0  0  0  1.26871  1.12301  -0  0  0  0  0  0  0  0  0  0 
1703169833.579044000  -2.37757  -0.181921  1.01878  0  0  -0.0601995  0.527579  0.496546  0.0355913  0  0  0  1.26612  1.11867  -0  0  0  0  0  0  0  0  0  0 
1703169833.584012000  -2.37491  -0.179425  1.01896  0  0  -0.0608556  0.533903  0.502128  0.0355913  0  0  0  1.26328  1.11408  -0  0  0  0  0  0  0  0  0  0 
1703169833.589013000  -2.37223  -0.1769  1.01914  0  0  -0.0615117  0.540212  0.507686  0.0355913  0  0  0  1.2602  1.10924  -0  0  0  0  0  0  0  0  0  0 
1703169833.594017000  -2.36951  -0.174348  1.01931  0  0  -0.0621678  0.546505  0.51322  0.0355913  0  0  0  1.25686  1.10415  -0  0  0  0  0  0  0  0  0  0 
1703169833.599025000  -2.36676  -0.171768  1.01949  0  0  -0.0628239  0.55278  0.518728  0.0355913  0  0  0  1.25327  1.09882  -0  0  0  0  0  0  0  0  0  0 
1703169833.604016000  -2.36398  -0.169161  1.01967  0  0  -0.06348  0.559037  0.524208  0.0355913  0  0  0  1.24944  1.09323  -0  0  0  0  0  0  0  0  0  0 
1703169833.609013000  -2.36117  -0.166526  1.01985  0  0  -0.0641361  0.565274  0.529659  0.0355913  0  0  0  1.24535  1.08739  -0  0  0  0  0  0  0  0  0  0 
1703169833.614016000  -2.35833  -0.163864  1.02002  0  0  -0.0647922  0.57149  0.535081  0.0355913  0  0  0  1.24101  1.0813  -0  0  0  0  0  0  0  0  0  0 
1703169833.619021000  -2.35546  -0.161175  1.0202  0  0  -0.0654483  0.577684  0.540472  0.0355913  0  0  0  1.23643  1.07496  -0  0  0  0  0  0  0  0  0  0 
1703169833.624017000  -2.35255  -0.158459  1.02038  0  0  -0.0661044  0.583854  0.545831  0.0355913  0  0  0  1.23159  1.06838  -0  0  0  0  0  0  0  0  0  0 
1703169833.629016000  -2.34962  -0.155717  1.02056  0  0  -0.0667605  0.589999  0.551155  0.0355913  0  0  0  1.22651  1.06154  -0  0  0  0  0  0  0  0  0  0 
1703169833.634014000  -2.34665  -0.152948  1.02074  0  0  -0.0674166  0.596118  0.556445  0.0355913  0  0  0  1.22117  1.05445  -0  0  0  0  0  0  0  0  0  0 
1703169833.639025000  -2.34366  -0.150153  1.02091  0  0  -0.0680727  0.60221  0.5617  0.0355913  0  0  0  1.21558  1.04711  -0  0  0  0  0  0  0  0  0  0 
1703169833.644013000  -2.34063  -0.147331  1.02109  0  0  -0.0687288  0.608274  0.566916  0.0355913  0  0  0  1.20975  1.03952  -0  0  0  0  0  0  0  0  0  0 
1703169833.649016000  -2.33757  -0.144483  1.02127  0  0  -0.0693849  0.614307  0.572094  0.0355913  0  0  0  1.20366  1.03169  -0  0  0  0  0  0  0  0  0  0 
1703169833.654014000  -2.33449  -0.14161  1.02145  0  0  -0.070041  0.62031  0.577233  0.0355913  0  0  0  1.19732  1.0236  -0  0  0  0  0  0  0  0  0  0 
1703169833.659026000  -2.33137  -0.138711  1.02163  0  0  -0.0706971  0.62628  0.58233  0.0355913  0  0  0  1.19074  1.01526  -0  0  0  0  0  0  0  0  0  0 
1703169833.664019000  -2.32823  -0.135787  1.0218  0  0  -0.0713532  0.632217  0.587385  0.0355913  0  0  0  1.1839  1.00667  -0  0  0  0  0  0  0  0  0  0 
1703169833.669016000  -2.32505  -0.132837  1.02198  0  0  -0.0720093  0.638119  0.592396  0.0355913  0  0  0  1.17681  0.997833  -0  0  0  0  0  0  0  0  0  0 
1703169833.674014000  -2.32184  -0.129863  1.02216  0  0  -0.0726654  0.643985  0.597363  0.0355913  0  0  0  1.16948  0.988745  -0  0  0  0  0  0  0  0  0  0 
1703169833.679022000  -2.31861  -0.126864  1.02234  0  0  -0.0733215  0.649813  0.602283  0.0355913  0  0  0  1.16189  0.979407  -0  0  0  0  0  0  0  0  0  0 
1703169833.684024000  -2.31535  -0.12384  1.02252  0  0  -0.0739776  0.655603  0.607156  0.0355913  0  0  0  1.15405  0.969818  -0  0  0  0  0  0  0  0  0  0 
1703169833.689030000  -2.31205  -0.120792  1.02269  0  0  -0.0746337  0.661353  0.611981  0.0355913  0  0  0  1.14597  0.95998  -0  0  0  0  0  0  0  0  0  0 
1703169833.694028000  -2.30873  -0.117721  1.02287  0  0  -0.0752898  0.667062  0.616756  0.0355913  0  0  0  1.13763  0.949892  -0  0  0  0  0  0  0  0  0  0 
1703169833.699039000  -2.30538  -0.114625  1.02305  0  0  -0.0759459  0.672729  0.621479  0.0355913  0  0  0  1.12905  0.939554  -0  0  0  0  0  0  0  0  0  0 
1703169833.704033000  -2.30201  -0.111506  1.02323  0  0  -0.076602  0.678353  0.626151  0.0355913  0  0  0  1.12021  0.928966  -0  0  0  0  0  0  0  0  0  0 
1703169833.709028000  -2.2986  -0.108364  1.02341  0  0  -0.0772581  0.683931  0.630769  0.0355913  0  0  0  1.11112  0.918128  -0  0  0  0  0  0  0  0  0  0 
1703169833.714028000  -2.29517  -0.105198  1.02358  0  0  -0.0779142  0.689463  0.635332  0.0355913  0  0  0  1.10179  0.90704  -0  0  0  0  0  0  0  0  0  0 
1703169833.719040000  -2.29171  -0.10201  1.02376  0  0  -0.0785703  0.694948  0.639839  0.0355913  0  0  0  1.0922  0.895701  -0  0  0  0  0  0  0  0  0  0 
1703169833.724030000  -2.28822  -0.0988  1.02394  0  0  -0.0792264  0.700385  0.644288  0.0355913  0  0  0  1.08236  0.884113  -0  0  0  0  0  0  0  0  0  0 
1703169833.729028000  -2.2847  -0.0955675  1.02412  0  0  -0.0798825  0.705772  0.648679  0.0355913  0  0  0  1.07228  0.872275  -0  0  0  0  0  0  0  0  0  0 
1703169833.734039000  -2.28116  -0.0923133  1.0243  0  0  -0.0805386  0.711107  0.653011  0.0355913  0  0  0  1.06194  0.860187  -0  0  0  0  0  0  0  0  0  0 
1703169833.739027000  -2.27759  -0.0890375  1.02447  0  0  -0.0811947  0.716391  0.657281  0.0355913  0  0  0  1.05135  0.847849  -0  0  0  0  0  0  0  0  0  0 
1703169833.744025000  -2.274  -0.0857406  1.02465  0  0  -0.0818508  0.72162  0.661489  0.0355913  0  0  0  1.04052  0.835261  -0  0  0  0  0  0  0  0  0  0 
1703169833.749025000  -2.27037  -0.0824227  1.02483  0  0  -0.0825069  0.726795  0.665633  0.0355913  0  0  0  1.02943  0.822423  -0  0  0  0  0  0  0  0  0  0 
1703169833.754026000  -2.26673  -0.0790843  1.02501  0  0  -0.083163  0.731914  0.669713  0.0355913  0  0  0  1.01809  0.809335  -0  0  0  0  0  0  0  0  0  0 
1703169833.759043000  -2.26306  -0.0757257  1.02519  0  0  -0.0838191  0.736976  0.673726  0.0355913  0  0  0  1.00651  0.795996  -0  0  0  0  0  0  0  0  0  0 
1703169833.764027000  -2.25936  -0.0723472  1.02536  0  0  -0.0844752  0.741979  0.677672  0.0355913  0  0  0  0.994672  0.782408  -0  0  0  0  0  0  0  0  0  0 
1703169833.769024000  -2.25564  -0.0689491  1.02554  0  0  -0.0851313  0.746922  0.68155  0.0355913  0  0  0  0.982585  0.76857  -0  0  0  0  0  0  0  0  0  0 
1703169833.774024000  -2.25189  -0.0655318  1.02572  0  0  -0.0857874  0.751804  0.685357  0.0355913  0  0  0  0.970249  0.754482  -0  0  0  0  0  0  0  0  0  0 
1703169833.779041000  -2.24812  -0.0620957  1.0259  0  0  -0.0864435  0.756624  0.689094  0.0355913  0  0  0  0.957663  0.740144  -0  0  0  0  0  0  0  0  0  0 
1703169833.784026000  -2.24432  -0.058641  1.02608  0  0  -0.0870996  0.761381  0.692758  0.0355913  0  0  0  0.944826  0.725556  -0  0  0  0  0  0  0  0  0  0 
1703169833.789026000  -2.2405  -0.0551682  1.02625  0  0  -0.0877557  0.766072  0.696349  0.0355913  0  0  0  0.93174  0.710718  -0  0  0  0  0  0  0  0  0  0 
1703169833.794027000  -2.23666  -0.0516776  1.02643  0  0  -0.0884118  0.770698  0.699865  0.0355913  0  0  0  0.918403  0.695629  -0  0  0  0  0  0  0  0  0  0 
1703169833.799040000  -2.2328  -0.0481697  1.02661  0  0  -0.0890679  0.775256  0.703305  0.0355913  0  0  0  0.904817  0.680291  -0  0  0  0  0  0  0  0  0  0 
1703169833.804027000  -2.22891  -0.0446447  1.02679  0  0  -0.089724  0.779745  0.706668  0.0355913  0  0  0  0.89098  0.664703  -0  0  0  0  0  0  0  0  0  0 
1703169833.809026000  -2.225  -0.0411031  1.02697  0  0  -0.0903801  0.784165  0.709952  0.0355913  0  0  0  0.876894  0.648865  -0  0  0  0  0  0  0  0  0  0 
1703169833.814023000  -2.22107  -0.0375453  1.02714  0  0  -0.0910362  0.788514  0.713156  0.0355913  0  0  0  0.862558  0.632777  -0  0  0  0  0  0  0  0  0  0 
1703169833.819040000  -2.21712  -0.0339717  1.02732  0  0  -0.0916923  0.79279  0.716279  0.0355913  0  0  0  0.847971  0.616439  -0  0  0  0  0  0  0  0  0  0 
1703169833.824025000  -2.21314  -0.0303827  1.0275  0  0  -0.0923484  0.796993  0.71932  0.0355913  0  0  0  0.833135  0.599851  -0  0  0  0  0  0  0  0  0  0 
1703169833.829016000  -2.20915  -0.0267786  1.02768  0  0  -0.0930044  0.801121  0.722277  0.0355913  0  0  0  0.818048  0.583013  -0  0  0  0  0  0  0  0  0  0 
1703169833.834015000  -2.20513  -0.02316  1.02786  0  0  -0.0936605  0.805173  0.72515  0.0355913  0  0  0  0.802712  0.566076  -0  0  0  0  0  0  0  0  0  0 
1703169833.839035000  -2.20109  -0.0195273  1.02803  0  0  -0.0943166  0.809148  0.727938  0.0355913  0  0  0  0.787126  0.549377  -0  0  0  0  0  0  0  0  0  0 
1703169833.844015000  -2.19704  -0.0158808  1.02821  0  0  -0.0949727  0.813044  0.730644  0.0355913  0  0  0  0.771289  0.532929  -0  0  0  0  0  0  0  0  0  0 
1703169833.849013000  -2.19296  -0.012221  1.02839  0  0  -0.0956288  0.81686  0.733268  0.0355913  0  0  0  0.755203  0.51673  -0  0  0  0  0  0  0  0  0  0 
1703169833.854016000  -2.18887  -0.0085483  1.02857  0  0  -0.0962849  0.820596  0.735812  0.0355913  0  0  0  0.738866  0.500781  -0  0  0  0  0  0  0  0  0  0 
1703169833.859033000  -2.18476  -0.004863  1.02874  0  0  -0.096941  0.824249  0.738276  0.0355913  0  0  0  0.72228  0.485082  -0  0  0  0  0  0  0  0  0  0 
1703169833.864015000  -2.18063  -0.0011656  1.02892  0  0  -0.0975971  0.827818  0.740663  0.0355913  0  0  0  0.705443  0.469634  -0  0  0  0  0  0  0  0  0  0 
1703169833.869014000  -2.17648  0.0025435  1.0291  0  0  -0.0982532  0.831303  0.742973  0.0355913  0  0  0  0.688357  0.454435  -0  0  0  0  0  0  0  0  0  0 
1703169833.874015000  -2.17231  0.006264  1.02928  0  0  -0.0989093  0.834701  0.745208  0.0355913  0  0  0  0.671021  0.439486  -0  0  0  0  0  0  0  0  0  0 
1703169833.879035000  -2.16813  0.0099955  1.02946  0  0  -0.0995654  0.838012  0.747368  0.0355913  0  0  0  0.653434  0.424787  -0  0  0  0  0  0  0  0  0  0 
1703169833.884016000  -2.16393  0.0137375  1.02963  0  0  -0.100222  0.841235  0.749456  0.0355913  0  0  0  0.635616  0.410339  -0  0  0  0  0  0  0  0  0  0 
1703169833.889015000  -2.15972  0.0174899  1.02981  0  0  -0.100878  0.844369  0.751472  0.0355913  0  0  0  0.617914  0.39614  -0  0  0  0  0  0  0  0  0  0 
1703169833.894016000  -2.15549  0.0212522  1.02999  0  0  -0.101534  0.847415  0.753418  0.0355913  0  0  0  0.600462  0.382191  -0  0  0  0  0  0  0  0  0  0 
1703169833.899038000  -2.15125  0.025024  1.03017  0  0  -0.10219  0.850374  0.755294  0.0355913  0  0  0  0.583259  0.368492  -0  0  0  0  0  0  0  0  0  0 
1703169833.904016000  -2.14699  0.028805  1.03035  0  0  -0.102846  0.853248  0.757103  0.0355913  0  0  0  0.566307  0.355044  -0  0  0  0  0  0  0  0  0  0 
1703169833.909026000  -2.14271  0.0325949  1.03052  0  0  -0.103502  0.856037  0.758845  0.0355913  0  0  0  0.549605  0.341845  -0  0  0  0  0  0  0  0  0  0 
1703169833.914027000  -2.13843  0.0363933  1.0307  0  0  -0.104158  0.858744  0.760522  0.0355913  0  0  0  0.533153  0.328896  -0  0  0  0  0  0  0  0  0  0 
1703169833.919043000  -2.13413  0.0402  1.03088  0  0  -0.104814  0.861369  0.762135  0.0355913  0  0  0  0.516951  0.316198  -0  0  0  0  0  0  0  0  0  0 
1703169833.924027000  -2.12981  0.0440146  1.03106  0  0  -0.10547  0.863914  0.763684  0.0355913  0  0  0  0.500999  0.303749  -0  0  0  0  0  0  0  0  0  0 
1703169833.929014000  -2.12549  0.0478367  1.03124  0  0  -0.106126  0.86638  0.765173  0.0355913  0  0  0  0.485296  0.29155  -0  0  0  0  0  0  0  0  0  0 
1703169833.934015000  -2.12115  0.0516662  1.03141  0  0  -0.106782  0.868767  0.7666  0.0355913  0  0  0  0.469844  0.279601  -0  0  0  0  0  0  0  0  0  0 
1703169833.939033000  -2.1168  0.0555026  1.03159  0  0  -0.107439  0.871079  0.767969  0.0355913  0  0  0  0.454642  0.267903  -0  0  0  0  0  0  0  0  0  0 
1703169833.944015000  -2.11244  0.0593458  1.03177  0  0  -0.108095  0.873314  0.76928  0.0355913  0  0  0  0.43969  0.256454  -0  0  0  0  0  0  0  0  0  0 
1703169833.949015000  -2.10807  0.0631953  1.03195  0  0  -0.108751  0.875476  0.770534  0.0355913  0  0  0  0.424988  0.245255  -0  0  0  0  0  0  0  0  0  0 
1703169833.954014000  -2.10368  0.067051  1.03213  0  0  -0.109407  0.877565  0.771733  0.0355913  0  0  0  0.410536  0.234306  -0  0  0  0  0  0  0  0  0  0 
1703169833.959024000  -2.09929  0.0709126  1.0323  0  0  -0.110063  0.879582  0.772877  0.0355913  0  0  0  0.396333  0.223608  -0  0  0  0  0  0  0  0  0  0 
1703169833.964016000  -2.09489  0.0747797  1.03248  0  0  -0.110719  0.881528  0.773969  0.0355913  0  0  0  0.382381  0.213159  -0  0  0  0  0  0  0  0  0  0 
1703169833.969015000  -2.09048  0.0786522  1.03266  0  0  -0.111375  0.883406  0.775009  0.0355913  0  0  0  0.368679  0.20296  -0  0  0  0  0  0  0  0  0  0 
1703169833.974015000  -2.08605  0.0825297  1.03284  0  0  -0.112031  0.885216  0.775999  0.0355913  0  0  0  0.355227  0.193011  -0  0  0  0  0  0  0  0  0  0 
1703169833.979037000  -2.08162  0.0864121  1.03302  0  0  -0.112687  0.886959  0.77694  0.0355913  0  0  0  0.342025  0.183313  -0  0  0  0  0  0  0  0  0  0 
1703169833.984014000  -2.07719  0.090299  1.03319  0  0  -0.113344  0.888636  0.777833  0.0355913  0  0  0  0.329072  0.173864  -0  0  0  0  0  0  0  0  0  0 
1703169833.989015000  -2.07274  0.0941903  1.03337  0  0  -0.114  0.89025  0.778679  0.0355913  0  0  0  0.31637  0.164665  -0  0  0  0  0  0  0  0  0  0 
1703169833.994014000  -2.06828  0.0980858  1.03355  0  0  -0.114656  0.8918  0.77948  0.0355913  0  0  0  0.303918  0.155717  -0  0  0  0  0  0  0  0  0  0 
1703169833.999032000  -2.06382  0.101985  1.03373  0  0  -0.115312  0.893289  0.780237  0.0355913  0  0  0  0.291716  0.147018  -0  0  0  0  0  0  0  0  0  0 
1703169834.004017000  -2.05935  0.105888  1.03391  0  0  -0.115968  0.894718  0.78095  0.0355913  0  0  0  0.279764  0.138569  -0  0  0  0  0  0  0  0  0  0 
1703169834.009017000  -2.05487  0.109795  1.03408  0  0  -0.116624  0.896087  0.781623  0.0355913  0  0  0  0.268062  0.13037  -0  0  0  0  0  0  0  0  0  0 
1703169834.014018000  -2.05039  0.113704  1.03426  0  0  -0.11728  0.897399  0.782255  0.0355913  0  0  0  0.256609  0.122422  -0  0  0  0  0  0  0  0  0  0 
1703169834.019035000  -2.0459  0.117617  1.03444  0  0  -0.117936  0.898654  0.782847  0.0355913  0  0  0  0.245407  0.114723  -0  0  0  0  0  0  0  0  0  0 
1703169834.024018000  -2.0414  0.121533  1.03462  0  0  -0.118592  0.899853  0.783402  0.0355913  0  0  0  0.234455  0.107274  -0  0  0  0  0  0  0  0  0  0 
1703169834.029015000  -2.0369  0.125451  1.0348  0  0  -0.119248  0.900999  0.78392  0.0355913  0  0  0  0.223753  0.100075  -0  0  0  0  0  0  0  0  0  0 
1703169834.034026000  -2.03239  0.129372  1.03497  0  0  -0.119905  0.902091  0.784403  0.0355913  0  0  0  0.213301  0.0931267  -0  0  0  0  0  0  0  0  0  0 
1703169834.039035000  -2.02788  0.133295  1.03515  0  0  -0.120561  0.903132  0.784852  0.0355913  0  0  0  0.203099  0.0864279  -0  0  0  0  0  0  0  0  0  0 
1703169834.044016000  -2.02336  0.13722  1.03533  0  0  -0.121217  0.904123  0.785268  0.0355913  0  0  0  0.193146  0.0799792  -0  0  0  0  0  0  0  0  0  0 
1703169834.049014000  -2.01884  0.141148  1.03551  0  0  -0.121873  0.905064  0.785652  0.0355913  0  0  0  0.183444  0.0737805  -0  0  0  0  0  0  0  0  0  0 
1703169834.054016000  -2.01431  0.145077  1.03569  0  0  -0.122529  0.905958  0.786006  0.0355913  0  0  0  0.173992  0.0678317  -0  0  0  0  0  0  0  0  0  0 
1703169834.059033000  -2.00978  0.149008  1.03586  0  0  -0.123185  0.906804  0.786331  0.0355913  0  0  0  0.16479  0.062133  -0  0  0  0  0  0  0  0  0  0 
1703169834.064015000  -2.00524  0.15294  1.03604  0  0  -0.123841  0.907606  0.786628  0.0355913  0  0  0  0.155838  0.0566843  -0  0  0  0  0  0  0  0  0  0 
1703169834.069015000  -2.0007  0.156874  1.03622  0  0  -0.124497  0.908363  0.786898  0.0355913  0  0  0  0.147136  0.0514855  -0  0  0  0  0  0  0  0  0  0 
1703169834.074012000  -1.99616  0.160809  1.0364  0  0  -0.125153  0.909078  0.787143  0.0355913  0  0  0  0.138683  0.0465368  -0  0  0  0  0  0  0  0  0  0 
1703169834.079033000  -1.99161  0.164745  1.03657  0  0  -0.125809  0.909751  0.787364  0.0355913  0  0  0  0.130481  0.0418381  -0  0  0  0  0  0  0  0  0  0 
1703169834.084016000  -1.98706  0.168683  1.03675  0  0  -0.126465  0.910383  0.787562  0.0355913  0  0  0  0.122529  0.0373893  -0  0  0  0  0  0  0  0  0  0 
1703169834.089015000  -1.98251  0.172621  1.03693  0  0  -0.127122  0.910976  0.787738  0.0355913  0  0  0  0.114827  0.0331906  -0  0  0  0  0  0  0  0  0  0 
1703169834.094015000  -1.97795  0.17656  1.03711  0  0  -0.127778  0.911532  0.787894  0.0355913  0  0  0  0.107375  0.0292419  -0  0  0  0  0  0  0  0  0  0 
1703169834.099040000  -1.97339  0.1805  1.03729  0  0  -0.128434  0.91205  0.788031  0.0355913  0  0  0  0.100173  0.0255431  -0  0  0  0  0  0  0  0  0  0 
1703169834.104027000  -1.96883  0.18444  1.03746  0  0  -0.12909  0.912534  0.78815  0.0355913  0  0  0  0.0932205  0.0220944  -0  0  0  0  0  0  0  0  0  0 
1703169834.109022000  -1.96427  0.188381  1.03764  0  0  -0.129746  0.912983  0.788253  0.0355913  0  0  0  0.0865183  0.0188957  -0  0  0  0  0  0  0  0  0  0 
1703169834.114015000  -1.9597  0.192323  1.03782  0  0  -0.130402  0.913399  0.78834  0.0355913  0  0  0  0.0800661  0.0159469  -0  0  0  0  0  0  0  0  0  0 
1703169834.119041000  -1.95513  0.196265  1.038  0  0  -0.131058  0.913784  0.788413  0.0355913  0  0  0  0.0738639  0.0132482  -0  0  0  0  0  0  0  0  0  0 
1703169834.124013000  -1.95056  0.200207  1.03818  0  0  -0.131714  0.914138  0.788473  0.0355913  0  0  0  0.0679118  0.0107995  -0  0  0  0  0  0  0  0  0  0 
1703169834.129011000  -1.94599  0.204149  1.03835  0  0  -0.13237  0.914464  0.788521  0.0355913  0  0  0  0.0622096  0.0086007  -0  0  0  0  0  0  0  0  0  0 
1703169834.134012000  -1.94142  0.208092  1.03853  0  0  -0.133026  0.914761  0.788559  0.0355913  0  0  0  0.0567574  0.006652  -0  0  0  0  0  0  0  0  0  0 
1703169834.139042000  -1.93685  0.212035  1.03871  0  0  -0.133683  0.915032  0.788588  0.0355913  0  0  0  0.0515553  0.0049533  -0  0  0  0  0  0  0  0  0  0 
1703169834.144014000  -1.93227  0.215978  1.03889  0  0  -0.134339  0.915277  0.788609  0.0355913  0  0  0  0.0466031  0.0035045  -0  0  0  0  0  0  0  0  0  0 
1703169834.149011000  -1.92769  0.219921  1.03907  0  0  -0.134995  0.915498  0.788623  0.0355913  0  0  0  0.0419009  0.0023058  -0  0  0  0  0  0  0  0  0  0 
1703169834.154012000  -1.92311  0.223864  1.03924  0  0  -0.135651  0.915696  0.788632  0.0355913  0  0  0  0.0374488  0.0013571  -0  0  0  0  0  0  0  0  0  0 
1703169834.159043000  -1.91854  0.227807  1.03942  0  0  -0.136307  0.915873  0.788637  0.0355913  0  0  0  0.0332466  0.0006583  -0  0  0  0  0  0  0  0  0  0 
1703169834.164014000  -1.91396  0.23175  1.0396  0  0  -0.136963  0.916029  0.788639  0.0355913  0  0  0  0.0292944  0.0002096  -0  0  0  0  0  0  0  0  0  0 
1703169834.169011000  -1.90938  0.235694  1.03978  0  0  -0.137619  0.916166  0.78864  0.0355913  0  0  0  0.0255923  1.09e-05  -0  0  0  0  0  0  0  0  0  0 
1703169834.174012000  -1.90479  0.239637  1.03996  0  0  -0.138275  0.916286  0.78864  0.0355913  0  0  0  0.0221401  -6.18e-05  -0  0  0  0  0  0  0  0  0  0 
1703169834.179042000  -1.90021  0.24358  1.04013  0  0  -0.138931  0.916388  0.788639  0.0355913  0  0  0  0.0189379  -0.0003625  -0  0  0  0  0  0  0  0  0  0 
1703169834.184011000  -1.89563  0.247523  1.04031  0  0  -0.139587  0.916475  0.788636  0.0355913  0  0  0  0.0159858  -0.0009133  -0  0  0  0  0  0  0  0  0  0 
1703169834.189012000  -1.89105  0.251466  1.04049  0  0  -0.140244  0.916548  0.788629  0.0355913  0  0  0  0.0132836  -0.001714  -0  0  0  0  0  0  0  0  0  0 
1703169834.194011000  -1.88647  0.255409  1.04067  0  0  -0.1409  0.916609  0.788618  0.0355913  0  0  0  0.0108314  -0.0027647  -0  0  0  0  0  0  0  0  0  0 
1703169834.199024000  -1.88188  0.259353  1.04085  0  0  -0.141556  0.916657  0.788601  0.0355913  0  0  0  0.0086293  -0.0040655  -0  0  0  0  0  0  0  0  0  0 
1703169834.204016000  -1.8773  0.263295  1.04102  0  0  -0.142212  0.916695  0.788577  0.0355913  0  0  0  0.0066771  -0.0056162  -0  0  0  0  0  0  0  0  0  0 
1703169834.209006000  -1.87272  0.267238  1.0412  0  0  -0.142868  0.916724  0.788545  0.0355913  0  0  0  0.0049749  -0.007417  -0  0  0  0  0  0  0  0  0  0 
1703169834.214008000  -1.86813  0.271181  1.04138  0  0  -0.143524  0.916745  0.788503  0.0355913  0  0  0  0.0035227  -0.0094677  -0  0  0  0  0  0  0  0  0  0 
1703169834.219013000  -1.86355  0.275123  1.04156  0  0  -0.14418  0.91676  0.78845  0.0355913  0  0  0  0.0023206  -0.0117685  -0  0  0  0  0  0  0  0  0  0 
1703169834.224011000  -1.85896  0.279065  1.04174  0  0  -0.144836  0.916769  0.788384  0.0355913  0  0  0  0.0013684  -0.0143192  -0  0  0  0  0  0  0  0  0  0 
1703169834.229006000  -1.85438  0.283007  1.04191  0  0  -0.145492  0.916774  0.788306  0.0355913  0  0  0  0.0006662  -0.0171199  -0  0  0  0  0  0  0  0  0  0 
1703169834.234012000  -1.8498  0.286948  1.04209  0  0  -0.146148  0.916776  0.788213  0.0355913  0  0  0  0.0002141  -0.0201707  -0  0  0  0  0  0  0  0  0  0 
1703169834.239012000  -1.84521  0.290889  1.04227  0  0  -0.146805  0.916777  0.788104  0.0355913  0  0  0  1.19e-05  -0.0234714  -0  0  0  0  0  0  0  0  0  0 
1703169834.244011000  -1.84063  0.294829  1.04245  0  0  -0.147461  0.916777  0.787978  0.0355913  0  0  0  -0  -0.0270222  -0  0  0  0  0  0  0  0  0  0 
1703169834.249007000  -1.83604  0.298769  1.04263  0  0  -0.148117  0.916777  0.787833  0.0355913  0  0  0  -0  -0.0308229  -0  0  0  0  0  0  0  0  0  0 
1703169834.254010000  -1.83146  0.302708  1.0428  0  0  -0.148773  0.916777  0.787669  0.0355913  0  0  0  -0  -0.0348737  -0  0  0  0  0  0  0  0  0  0 
1703169834.259013000  -1.82688  0.306646  1.04298  0  0  -0.149429  0.916777  0.787484  0.0355913  0  0  0  -0  -0.0391744  -0  0  0  0  0  0  0  0  0  0 
1703169834.264013000  -1.82229  0.310583  1.04316  0  0  -0.150085  0.916777  0.787277  0.0355913  0  0  0  -0  -0.0437252  -0  0  0  0  0  0  0  0  0  0 
1703169834.269028000  -1.81771  0.314518  1.04334  0  0  -0.150741  0.916777  0.787046  0.0355913  0  0  0  -0  -0.0485259  -0  0  0  0  0  0  0  0  0  0 
1703169834.274032000  -1.81312  0.318453  1.04352  0  0  -0.151397  0.916777  0.786791  0.0355913  0  0  0  -0  -0.0535766  -0  0  0  0  0  0  0  0  0  0 
1703169834.279041000  -1.80854  0.322386  1.04369  0  0  -0.152053  0.916777  0.78651  0.0355913  0  0  0  -0  -0.0588774  -0  0  0  0  0  0  0  0  0  0 
1703169834.284034000  -1.80396  0.326318  1.04387  0  0  -0.152709  0.916777  0.786202  0.0355913  0  0  0  -0  -0.0644281  -0  0  0  0  0  0  0  0  0  0 
1703169834.289032000  -1.79937  0.330248  1.04405  0  0  -0.153366  0.916777  0.785865  0.0355913  0  0  0  -0  -0.0702289  -0  0  0  0  0  0  0  0  0  0 
1703169834.294033000  -1.79479  0.334177  1.04423  0  0  -0.154022  0.916777  0.785499  0.0355913  0  0  0  -0  -0.0762796  -0  0  0  0  0  0  0  0  0  0 
1703169834.299042000  -1.79021  0.338103  1.0444  0  0  -0.154678  0.916777  0.785102  0.0355913  0  0  0  -0  -0.0825804  -0  0  0  0  0  0  0  0  0  0 
1703169834.304033000  -1.78562  0.342028  1.04458  0  0  -0.155334  0.916777  0.784673  0.0355913  0  0  0  -0  -0.0891311  -0  0  0  0  0  0  0  0  0  0 
1703169834.309035000  -1.78104  0.34595  1.04476  0  0  -0.15599  0.916777  0.784211  0.0355913  0  0  0  -0  -0.0959318  -0  0  0  0  0  0  0  0  0  0 
1703169834.314032000  -1.77645  0.34987  1.04494  0  0  -0.156646  0.916777  0.783713  0.0355913  0  0  0  -0  -0.102983  -0  0  0  0  0  0  0  0  0  0 
1703169834.319050000  -1.77187  0.353787  1.04512  0  0  -0.157302  0.916777  0.78318  0.0355913  0  0  0  -0  -0.110283  -0  0  0  0  0  0  0  0  0  0 
1703169834.324025000  -1.76729  0.357701  1.04529  0  0  -0.157958  0.916777  0.78261  0.0355913  0  0  0  -0  -0.117834  -0  0  0  0  0  0  0  0  0  0 
1703169834.329015000  -1.7627  0.361613  1.04547  0  0  -0.158614  0.916777  0.782002  0.0355913  0  0  0  -0  -0.125635  -0  0  0  0  0  0  0  0  0  0 
1703169834.334015000  -1.75812  0.365521  1.04565  0  0  -0.15927  0.916777  0.781353  0.0355913  0  0  0  -0  -0.133686  -0  0  0  0  0  0  0  0  0  0 
1703169834.339042000  -1.75353  0.369426  1.04583  0  0  -0.159927  0.916777  0.780664  0.0355913  0  0  0  -0  -0.141986  -0  0  0  0  0  0  0  0  0  0 
1703169834.344028000  -1.74895  0.373328  1.04601  0  0  -0.160583  0.916777  0.779933  0.0355913  0  0  0  -0  -0.150537  -0  0  0  0  0  0  0  0  0  0 
1703169834.349026000  -1.74437  0.377226  1.04618  0  0  -0.161239  0.916777  0.779158  0.0355913  0  0  0  -0  -0.159338  -0  0  0  0  0  0  0  0  0  0 
1703169834.354036000  -1.73978  0.381119  1.04636  0  0  -0.161895  0.916777  0.778339  0.0355913  0  0  0  -0  -0.168389  -0  0  0  0  0  0  0  0  0  0 
1703169834.359030000  -1.7352  0.385009  1.04654  0  0  -0.162551  0.916777  0.777474  0.0355913  0  0  0  -0  -0.177689  -0  0  0  0  0  0  0  0  0  0 
1703169834.364029000  -1.73062  0.388894  1.04672  0  0  -0.163207  0.916777  0.776562  0.0355913  0  0  0  -0  -0.18724  -0  0  0  0  0  0  0  0  0  0 
1703169834.369028000  -1.72603  0.392774  1.0469  0  0  -0.163863  0.916777  0.775601  0.0355913  0  0  0  -0  -0.197041  -0  0  0  0  0  0  0  0  0  0 
1703169834.374027000  -1.72145  0.39665  1.04707  0  0  -0.164519  0.916777  0.774591  0.0355913  0  0  0  -0  -0.207092  -0  0  0  0  0  0  0  0  0  0 
1703169834.379028000  -1.71686  0.40052  1.04725  0  0  -0.165175  0.916777  0.77353  0.0355913  0  0  0  -0  -0.217392  -0  0  0  0  0  0  0  0  0  0 
1703169834.384009000  -1.71228  0.404385  1.04743  0  0  -0.165831  0.916777  0.772417  0.0355913  0  0  0  -0  -0.227943  -0  0  0  0  0  0  0  0  0  0 
1703169834.389013000  -1.7077  0.408244  1.04761  0  0  -0.166488  0.916777  0.77125  0.0355913  0  0  0  -0  -0.238744  -0  0  0  0  0  0  0  0  0  0 
1703169834.394024000  -1.70311  0.412098  1.04779  0  0  -0.167144  0.916777  0.770029  0.0355913  0  0  0  -0  -0.249794  -0  0  0  0  0  0  0  0  0  0 
1703169834.399027000  -1.69853  0.415945  1.04796  0  0  -0.1678  0.916777  0.768752  0.0355913  0  0  0  -0  -0.261095  -0  0  0  0  0  0  0  0  0  0 
1703169834.404029000  -1.69394  0.419785  1.04814  0  0  -0.168456  0.916777  0.767418  0.0355913  0  0  0  -0  -0.272646  -0  0  0  0  0  0  0  0  0  0 
1703169834.409023000  -1.68936  0.423619  1.04832  0  0  -0.169112  0.916777  0.766025  0.0355913  0  0  0  -0  -0.284447  -0  0  0  0  0  0  0  0  0  0 
1703169834.414013000  -1.68478  0.427445  1.0485  0  0  -0.169768  0.916777  0.764573  0.0355913  0  0  0  -0  -0.296497  -0  0  0  0  0  0  0  0  0  0 
1703169834.419031000  -1.68019  0.431264  1.04868  0  0  -0.170424  0.916777  0.76306  0.0355913  0  0  0  -0  -0.308798  -0  0  0  0  0  0  0  0  0  0 
1703169834.424009000  -1.67561  0.435076  1.04885  0  0  -0.17108  0.916777  0.761484  0.0355913  0  0  0  -0  -0.321349  -0  0  0  0  0  0  0  0  0  0 
1703169834.429024000  -1.67102  0.438879  1.04903  0  0  -0.171736  0.916777  0.759846  0.0355913  0  0  0  -0  -0.33415  -0  0  0  0  0  0  0  0  0  0 
1703169834.434017000  -1.66644  0.442674  1.04921  0  0  -0.172392  0.916777  0.758142  0.0355913  0  0  0  -0  -0.3472  -0  0  0  0  0  0  0  0  0  0 
1703169834.439033000  -1.66186  0.44646  1.04939  0  0  -0.173049  0.916777  0.756373  0.0355913  0  0  0  -0  -0.360501  -0  0  0  0  0  0  0  0  0  0 
1703169834.444008000  -1.65727  0.450238  1.04957  0  0  -0.173705  0.916777  0.754537  0.0355913  0  0  0  -0  -0.374052  -0  0  0  0  0  0  0  0  0  0 
1703169834.449023000  -1.65269  0.454006  1.04974  0  0  -0.174361  0.916777  0.752632  0.0355913  0  0  0  -0  -0.387853  -0  0  0  0  0  0  0  0  0  0 
1703169834.454013000  -1.64811  0.457764  1.04992  0  0  -0.175017  0.916777  0.750658  0.0355913  0  0  0  -0  -0.401903  -0  0  0  0  0  0  0  0  0  0 
1703169834.459032000  -1.64352  0.461512  1.0501  0  0  -0.175673  0.916777  0.748613  0.0355913  0  0  0  -0  -0.416204  -0  0  0  0  0  0  0  0  0  0 
1703169834.464011000  -1.63894  0.46525  1.05028  0  0  -0.176329  0.916777  0.746496  0.0355913  0  0  0  -0  -0.430755  -0  0  0  0  0  0  0  0  0  0 
1703169834.469010000  -1.63435  0.468977  1.05046  0  0  -0.176985  0.916777  0.744305  0.0355913  0  0  0  -0  -0.445556  -0  0  0  0  0  0  0  0  0  0 
1703169834.474015000  -1.62977  0.472693  1.05063  0  0  -0.177641  0.916777  0.74204  0.0355913  0  0  0  -0  -0.460606  -0  0  0  0  0  0  0  0  0  0 
1703169834.479034000  -1.62519  0.476397  1.05081  0  0  -0.178297  0.916777  0.739698  0.0355913  0  0  0  -0  -0.475907  -0  0  0  0  0  0  0  0  0  0 
1703169834.484014000  -1.6206  0.48009  1.05099  0  0  -0.178953  0.916777  0.73728  0.0355913  0  0  0  -0  -0.491458  -0  0  0  0  0  0  0  0  0  0 
1703169834.489011000  -1.61602  0.48377  1.05117  0  0  -0.17961  0.916777  0.734783  0.0355913  0  0  0  -0  -0.507259  -0  0  0  0  0  0  0  0  0  0 
1703169834.494009000  -1.61143  0.487437  1.05135  0  0  -0.180266  0.916777  0.732207  0.0355913  0  0  0  -0  -0.523309  -0  0  0  0  0  0  0  0  0  0 
1703169834.499043000  -1.60685  0.491092  1.05152  0  0  -0.180922  0.916777  0.72955  0.0355913  0  0  0  -0  -0.53961  -0  0  0  0  0  0  0  0  0  0 
1703169834.504012000  -1.60227  0.494733  1.0517  0  0  -0.181578  0.916777  0.726811  0.0355913  0  0  0  -0  -0.556161  -0  0  0  0  0  0  0  0  0  0 
1703169834.509011000  -1.59768  0.49836  1.05188  0  0  -0.182234  0.916777  0.723988  0.0355913  0  0  0  -0  -0.572962  -0  0  0  0  0  0  0  0  0  0 
1703169834.514012000  -1.5931  0.501972  1.05206  0  0  -0.18289  0.916777  0.721081  0.0355913  0  0  0  -0  -0.590012  -0  0  0  0  0  0  0  0  0  0 
1703169834.519042000  -1.58851  0.50557  1.05224  0  0  -0.183546  0.916777  0.718087  0.0355913  0  0  0  -0  -0.607313  -0  0  0  0  0  0  0  0  0  0 
1703169834.524012000  -1.58393  0.509153  1.05241  0  0  -0.184202  0.916777  0.715007  0.0355913  0  0  0  -0  -0.624864  -0  0  0  0  0  0  0  0  0  0 
1703169834.529011000  -1.57935  0.51272  1.05259  0  0  -0.184858  0.916777  0.711838  0.0355913  0  0  0  -0  -0.642665  -0  0  0  0  0  0  0  0  0  0 
1703169834.534012000  -1.57476  0.516271  1.05277  0  0  -0.185514  0.916777  0.70858  0.0355913  0  0  0  -6.22e-05  -0.660715  -0  0  0  0  0  0  0  0  0  0 
1703169834.539041000  -1.57018  0.519806  1.05295  0  0  -0.186171  0.916776  0.705231  0.0355913  0  0  0  -0.0003636  -0.679016  -0  0  0  0  0  0  0  0  0  0 
1703169834.544011000  -1.5656  0.523324  1.05312  0  0  -0.186827  0.916773  0.701789  0.0355913  0  0  0  -0.000915  -0.697567  -0  0  0  0  0  0  0  0  0  0 
1703169834.549011000  -1.56101  0.526824  1.0533  0  0  -0.187483  0.916766  0.698255  0.0355913  0  0  0  -0.0017164  -0.716368  -0  0  0  0  0  0  0  0  0  0 
1703169834.554010000  -1.55643  0.530306  1.05348  0  0  -0.188139  0.916755  0.694625  0.0355913  0  0  0  -0.0027678  -0.735418  -0  0  0  0  0  0  0  0  0  0 
1703169834.559042000  -1.55184  0.53377  1.05366  0  0  -0.188795  0.916738  0.6909  0.0355913  0  0  0  -0.0040692  -0.754704  -0  0  0  0  0  0  0  0  0  0 
1703169834.564011000  -1.54726  0.537215  1.05384  0  0  -0.189451  0.916714  0.687078  0.0355913  0  0  0  -0.0056206  -0.773883  -0  0  0  0  0  0  0  0  0  0 
1703169834.569034000  -1.54268  0.54064  1.05401  0  0  -0.190107  0.916681  0.683162  0.0355913  0  0  0  -0.007422  -0.792812  -0  0  0  0  0  0  0  0  0  0 
1703169834.574030000  -1.53809  0.544046  1.05419  0  0  -0.190763  0.916639  0.679151  0.0355913  0  0  0  -0.0094733  -0.811491  -0  0  0  0  0  0  0  0  0  0 
1703169834.579042000  -1.53351  0.547432  1.05437  0  0  -0.191419  0.916586  0.675047  0.0355913  0  0  0  -0.0117747  -0.829921  -0  0  0  0  0  0  0  0  0  0 
1703169834.584040000  -1.52893  0.550797  1.05455  0  0  -0.192075  0.916521  0.670852  0.0355913  0  0  0  -0.0143261  -0.8481  -0  0  0  0  0  0  0  0  0  0 
1703169834.589037000  -1.52435  0.55414  1.05473  0  0  -0.192731  0.916443  0.666567  0.0355913  0  0  0  -0.0171275  -0.866029  -0  0  0  0  0  0  0  0  0  0 
1703169834.594010000  -1.51976  0.557462  1.0549  0  0  -0.193388  0.916349  0.662192  0.0355913  0  0  0  -0.0201789  -0.883708  -0  0  0  0  0  0  0  0  0  0 
1703169834.599019000  -1.51518  0.560762  1.05508  0  0  -0.194044  0.91624  0.65773  0.0355913  0  0  0  -0.0234803  -0.901137  -0  0  0  0  0  0  0  0  0  0 
1703169834.604044000  -1.5106  0.564039  1.05526  0  0  -0.1947  0.916114  0.653181  0.0355913  0  0  0  -0.0270317  -0.918316  -0  0  0  0  0  0  0  0  0  0 
1703169834.609040000  -1.50602  0.567294  1.05544  0  0  -0.195356  0.91597  0.648547  0.0355913  0  0  0  -0.0308331  -0.935245  -0  0  0  0  0  0  0  0  0  0 
1703169834.614034000  -1.50144  0.570525  1.05562  0  0  -0.196012  0.915805  0.643829  0.0355913  0  0  0  -0.0348845  -0.951924  -0  0  0  0  0  0  0  0  0  0 
1703169834.619043000  -1.49686  0.573732  1.05579  0  0  -0.196668  0.91562  0.639028  0.0355913  0  0  0  -0.0391858  -0.968353  -0  0  0  0  0  0  0  0  0  0 
1703169834.624024000  -1.49229  0.576915  1.05597  0  0  -0.197324  0.915413  0.634146  0.0355913  0  0  0  -0.0437372  -0.984532  -0  0  0  0  0  0  0  0  0  0 
1703169834.629046000  -1.48771  0.580073  1.05615  0  0  -0.19798  0.915183  0.629183  0.0355913  0  0  0  -0.0485386  -1.00046  -0  0  0  0  0  0  0  0  0  0 
1703169834.634010000  -1.48313  0.583206  1.05633  0  0  -0.198636  0.914927  0.624142  0.0355913  0  0  0  -0.05359  -1.01614  -0  0  0  0  0  0  0  0  0  0 
1703169834.639050000  -1.47856  0.586314  1.05651  0  0  -0.199292  0.914646  0.619022  0.0355913  0  0  0  -0.0588914  -1.03157  -0  0  0  0  0  0  0  0  0  0 
1703169834.644009000  -1.47399  0.589397  1.05668  0  0  -0.199949  0.914338  0.613826  0.0355913  0  0  0  -0.0644428  -1.04675  -0  0  0  0  0  0  0  0  0  0 
1703169834.649024000  -1.46942  0.592453  1.05686  0  0  -0.200605  0.914001  0.608555  0.0355913  0  0  0  -0.0702442  -1.06168  -0  0  0  0  0  0  0  0  0  0 
1703169834.654008000  -1.46485  0.595482  1.05704  0  0  -0.201261  0.913635  0.60321  0.0355913  0  0  0  -0.0762956  -1.07636  -0  0  0  0  0  0  0  0  0  0 
1703169834.659033000  -1.46028  0.598484  1.05722  0  0  -0.201917  0.913238  0.597792  0.0355913  0  0  0  -0.082597  -1.09079  -0  0  0  0  0  0  0  0  0  0 
1703169834.664008000  -1.45571  0.60146  1.0574  0  0  -0.202573  0.912809  0.592303  0.0355913  0  0  0  -0.0891483  -1.10497  -0  0  0  0  0  0  0  0  0  0 
1703169834.669024000  -1.45115  0.604407  1.05757  0  0  -0.203229  0.912346  0.586743  0.0355913  0  0  0  -0.0959497  -1.11889  -0  0  0  0  0  0  0  0  0  0 
1703169834.674007000  -1.44659  0.607327  1.05775  0  0  -0.203885  0.911849  0.581114  0.0355913  0  0  0  -0.103001  -1.13257  -0  0  0  0  0  0  0  0  0  0 
1703169834.679033000  -1.44203  0.610218  1.05793  0  0  -0.204541  0.911316  0.575418  0.0355913  0  0  0  -0.110303  -1.146  -0  0  0  0  0  0  0  0  0  0 
1703169834.684011000  -1.43748  0.613081  1.05811  0  0  -0.205197  0.910745  0.569655  0.0355913  0  0  0  -0.117854  -1.15918  -0  0  0  0  0  0  0  0  0  0 
