ts fx fy fz tx ty tz exfx exfy exfz extx exty extz xd yd zd rolld pitchd yawd vxd vyd vzd wxd wyd wzd axd ayd azd e_x e_y e_z e_vx e_vy e_vz e_rx e_ry e_rz e_wx e_wy e_wz
1703169832.692145000  0  0  11.7231  0.149259  -0.138521  0.0244834  nan  nan  nan  nan  nan  nan  -2.5  -0.3  1  0.0324083  -0.014456  -0.000468641  0  0  0  0  0  0  0  0  0  0.0096489  0.0144934  -0.0183882  -0.00770887  0.00288602  0.000418363  -0.0307726  0.0240369  -0.0251996  0.03397  0.0204952  -0.00430295 
1703169832.696168000  0  0  11.7641  0.136586  -0.144807  0.0265253  nan  nan  nan  nan  nan  nan  -2.5  -0.3  1  0.0326689  -0.0145966  -0.000477007  0  0  0  0  0  0  0  0  0  0.00964741  0.0144857  -0.0184487  -0.0074445  0.00341554  -0.00236483  -0.0306479  0.0242942  -0.0254831  0.0597096  0.0310124  -0.0265776 
1703169832.701171000  0  0  11.7263  0.154366  -0.142641  0.0250228  nan  nan  nan  nan  nan  nan  -2.5  -0.3  1  0.0334904  -0.0141418  -0.000473775  0  0  0  0  0  0  0  0  0  0.00960195  0.0145142  -0.0184376  -0.00799587  0.00430651  0.000305008  -0.0314824  0.023975  -0.0254162  0.0311849  0.030042  -0.00847809 
1703169832.706165000  0  0  11.7439  0.130687  -0.158763  0.0258495  nan  nan  nan  nan  nan  nan  -2.5  -0.3  1  0.0315341  -0.015848  -0.000499899  0  0  0  0  0  0  0  0  0  0.00960418  0.0144783  -0.018487  -0.00565699  0.00181863  -0.000859805  -0.0292231  0.0259345  -0.0255261  0.055967  0.0420678  -0.0175558 
1703169832.711663000  0  0  11.7877  0.127303  -0.162045  0.0261262  nan  nan  nan  nan  nan  nan  -2.5  -0.3  1  0.03161  -0.0152189  -0.000481211  0  0  0  0  0  0  0  0  0  0.00962665  0.0143681  -0.018568  -0.0064983  0.00239392  -0.00380281  -0.0290259  0.0255744  -0.0256752  0.0609545  0.0532494  -0.0192406 
1703169832.716165000  0  0  11.66  0.148636  -0.136867  0.0240878  nan  nan  nan  nan  nan  nan  -2.5  -0.3  1  0.0320051  -0.0156084  -0.000499698  0  0  0  0  0  0  0  0  0  0.00959631  0.0143836  -0.0185062  -0.00611134  0.00241609  0.00514546  -0.0296111  0.0255852  -0.0254737  0.0219426  -0.000862693  0.00397911 
1703169832.721170000  0  0  11.7511  0.125443  -0.16152  0.0257384  nan  nan  nan  nan  nan  nan  -2.5  -0.3  1  0.0299894  -0.017654  -0.000529563  0  0  0  0  0  0  0  0  0  0.00962255  0.0143431  -0.0185784  -0.00324229  0.000127508  -0.00119269  -0.0273014  0.0278744  -0.0256598  0.0451023  0.0256616  -0.0145468 
1703169832.726167000  0  0  11.7581  0.137312  -0.158473  0.0240382  nan  nan  nan  nan  nan  nan  -2.5  -0.3  1  0.0310712  -0.0160679  -0.000499389  0  0  0  0  0  0  0  0  0  0.00957639  0.0143655  -0.0185862  -0.00525384  0.00156006  -0.00166197  -0.0282844  0.0265059  -0.025541  0.0309606  0.0348738  0.0054143 
1703169832.731167000  0  0  11.6289  0.152172  -0.132633  0.0234157  nan  nan  nan  nan  nan  nan  -2.5  -0.3  1  0.0311162  -0.0165853  -0.000516215  0  0  0  0  0  0  0  0  0  0.00958737  0.0143354  -0.0185427  -0.00482893  0.00124141  0.00743128  -0.0285511  0.026495  -0.0254253  0.00216696  -0.0204092  0.0118514 
1703169832.736168000  0  0  11.7495  0.139513  -0.162955  0.0252341  nan  nan  nan  nan  nan  nan  -2.5  -0.3  1  0.0290104  -0.018565  -0.000538699  0  0  0  0  0  0  0  0  0  0.00965982  0.0141707  -0.018627  -0.00211351  -0.000720286  -0.00099265  -0.0265434  0.0287433  -0.0255902  0.00621407  0.0187425  -0.0090392 
1703169832.741169000  0  0  11.7627  0.154958  -0.148993  0.0233736  nan  nan  nan  nan  nan  nan  -2.5  -0.3  1  0.0302483  -0.0170788  -0.000516736  0  0  0  0  0  0  0  0  0  0.00962269  0.0141883  -0.0186327  -0.00400144  0.000958438  -0.0019048  -0.027916  0.0271895  -0.0254111  -0.0111139  0.006682  0.0122095 
1703169832.746158000  0  0  11.6542  0.16143  -0.130482  0.0234827  nan  nan  nan  nan  nan  nan  -2.5  -0.3  1  0.0299365  -0.0175617  -0.000525864  0  0  0  0  0  0  0  0  0  0.00964136  0.0141484  -0.0185928  -0.00361783  0.000271727  0.00571782  -0.0278816  0.0271908  -0.025344  -0.0253865  -0.0330254  0.0100287 
1703169832.751341000  0  0  11.7332  0.161635  -0.145888  0.0252782  nan  nan  nan  nan  nan  nan  -2.5  -0.3  1  0.0294588  -0.0184877  -0.000544753  0  0  0  0  0  0  0  0  0  0.00963234  0.0141486  -0.0186213  -0.00217485  -0.000103371  0.000147005  -0.0275966  0.0281773  -0.0255372  -0.0291046  -0.0113397  -0.0102336 
1703169832.756168000  0  0  11.7406  0.180845  -0.133047  0.0235079  nan  nan  nan  nan  nan  nan  -2.5  -0.3  1  0.0304959  -0.0173461  -0.000529121  0  0  0  0  0  0  0  0  0  0.00962784  0.014124  -0.0186357  -0.00369595  0.00139979  -0.000336947  -0.0290338  0.0268079  -0.0253885  -0.0537619  -0.0231219  0.0102487 
1703169832.761206000  0  0  11.6599  0.191677  -0.126704  0.0237268  nan  nan  nan  nan  nan  nan  -2.5  -0.3  1  0.030399  -0.0173408  -0.000527279  0  0  0  0  0  0  0  0  0  0.0096498  0.0140809  -0.0186016  -0.00392701  0.00110733  0.00531596  -0.0294654  0.0265164  -0.0253658  -0.0720233  -0.0333687  0.00721984 
1703169832.766169000  0  0  11.6852  0.17989  -0.125288  0.0259579  nan  nan  nan  nan  nan  nan  -2.5  -0.3  1  0.029824  -0.0184468  -0.000550287  0  0  0  0  0  0  0  0  0  0.00964432  0.0140797  -0.0185996  -0.00236608  0.000421918  0.00350753  -0.029055  0.0273131  -0.0256021  -0.0514703  -0.0455691  -0.0180036 
1703169832.770129000  0  0  11.7556  0.189828  -0.128852  0.0248298  nan  nan  nan  nan  nan  nan  -2.5  -0.3  1  0.0307924  -0.0180581  -0.000556196  0  0  0  0  0  0  0  0  0  0.00962931  0.0140945  -0.0186269  -0.00270063  0.00193951  -0.00143761  -0.0302843  0.0268535  -0.025532  -0.058637  -0.03264  -0.00465415 
1703169832.776119000  0  0  11.67  0.206656  -0.119642  0.0233065  nan  nan  nan  nan  nan  nan  -2.5  -0.3  1  0.0307081  -0.0171216  -0.000525909  0  0  0  0  0  0  0  0  0  0.00963543  0.0140593  -0.0185871  -0.00416137  0.00162183  0.00455693  -0.030954  0.0256401  -0.0253435  -0.0870162  -0.0384305  0.0122396 
1703169832.781166000  0  0  11.6959  0.17861  -0.110347  0.0275541  nan  nan  nan  nan  nan  nan  -2.5  -0.3  1  0.0296888  -0.0186181  -0.000552881  0  0  0  0  0  0  0  0  0  0.00968124  0.0139929  -0.018613  -0.0022161  0.00052166  0.00277672  -0.0298913  0.026507  -0.025835  -0.039104  -0.0683326  -0.035281 
1703169832.785594000  0  0  11.7636  0.187983  -0.129532  0.0256993  nan  nan  nan  nan  nan  nan  -2.5  -0.3  1  0.0303105  -0.0185502  -0.000562407  0  0  0  0  0  0  0  0  0  0.0097109  0.0139424  -0.0186589  -0.00224532  0.00174307  -0.00195187  -0.0307864  0.0265096  -0.0257675  -0.0489069  -0.0272254  -0.0127563 
1703169832.791103000  0  0  11.7238  0.197858  -0.125228  0.0226952  nan  nan  nan  nan  nan  nan  -2.5  -0.3  1  0.0301094  -0.0173419  -0.000522286  0  0  0  0  0  0  0  0  0  0.00968088  0.0139464  -0.0186349  -0.00388514  0.00132074  0.000824292  -0.0310897  0.0252588  -0.0254115  -0.0665901  -0.0220658  0.0207505 
1703169832.796157000  0  0  11.7811  0.156827  -0.1229  0.0280076  nan  nan  nan  nan  nan  nan  -2.5  -0.3  1  0.0298228  -0.0186706  -0.000556944  0  0  0  0  0  0  0  0  0  0.00971718  0.0138906  -0.0186899  -0.00206255  0.00128608  -0.00311775  -0.0302924  0.026155  -0.0260165  0.0122172  -0.037369  -0.0387982 
1703169832.801191000  0  0  11.8127  0.181935  -0.140627  0.0238909  nan  nan  nan  nan  nan  nan  -2.5  -0.3  1  0.0306886  -0.0181664  -0.000557646  0  0  0  0  0  0  0  0  0  0.00969973  0.0139074  -0.0187147  -0.00263241  0.00253142  -0.00532672  -0.0315393  0.025942  -0.0256599  -0.0272755  0.00309344  0.00869992 
1703169832.806187000  0  0  11.7727  0.158772  -0.130747  0.0247364  nan  nan  nan  nan  nan  nan  -2.5  -0.3  1  0.0287631  -0.0187248  -0.000538702  0  0  0  0  0  0  0  0  0  0.00972479  0.0138224  -0.0187299  -0.00202974  7.71316e-06  -0.0024465  -0.0295214  0.02621  -0.0257091  -0.000822776  -0.021174  -0.00134584 
1703169832.811175000  0  0  11.8165  0.148308  -0.140092  0.0267184  nan  nan  nan  nan  nan  nan  -2.5  -0.3  1  0.0290203  -0.0188526  -0.000547229  0  0  0  0  0  0  0  0  0  0.00975552  0.0137664  -0.0187846  -0.001847  0.000662825  -0.00543869  -0.0295314  0.0263428  -0.0259876  0.0217289  -0.00266458  -0.0229258 
1703169832.816148000  0  0  11.7561  0.16887  -0.147948  0.0134654  nan  nan  nan  nan  nan  nan  -2.5  -0.3  1  0.0295962  -0.0181402  -0.010537  2e-07  2e-07  2e-07  0  0  0  0.000125  0.000125  0.000125  0.00973861  0.0137746  -0.0187707  -0.00248125  0.000988957  -0.00117801  -0.0302425  0.0261461  -0.0156303  -0.0141793  0.016444  0.0189809 
1703169832.821145000  0  0  11.7652  0.134058  -0.149157  0.0155188  nan  nan  nan  nan  nan  nan  -2.5  -0.3  1  0.02743  -0.019591  -0.0105375  1.7e-06  1.7e-06  1.7e-06  0  0  0  0.0005  0.0005  0.0005  0.00978671  0.0136761  -0.0187983  -0.000606537  -0.0016197  -0.00173425  -0.0276797  0.0274656  -0.0158196  0.0309833  0.00385723  -0.00457425 
1703169832.826149000  0  0  11.7795  0.142843  -0.154835  0.014999  nan  nan  nan  nan  nan  nan  -2.5  -0.3  1  0.0288788  -0.0186679  -0.0105392  5.6e-06  5.6e-06  5.6e-06  0  0  0  0.001125  0.001125  0.001125  0.00977029  0.013692  -0.0188185  -0.00168099  0.00044906  -0.0026537  -0.02898  0.026769  -0.0158076  0.0271054  0.0240454  0.00182199 
1703169832.831152000  0  0  11.6765  0.158862  -0.142759  0.0137609  nan  nan  nan  nan  nan  nan  -2.5  -0.3  1  0.0279856  -0.0190614  -0.0105337  1.33e-05  1.33e-05  1.33e-05  0  0  0  0.002  0.002  0.002  0.00980812  0.0136072  -0.0187805  -0.00138024  -0.000748232  0.00465154  -0.0284595  0.02692  -0.0156287  -0.0132325  -0.00358647  0.0152437 
1703169832.836149000  0  0  11.7981  0.114584  -0.162222  0.0196897  nan  nan  nan  nan  nan  nan  -2.5  -0.3  1  0.0255251  -0.0207731  -0.0105306  2.6e-05  2.6e-05  2.6e-05  0  0  0  0.003125  0.003125  0.003125  0.00977012  0.0135037  -0.0188602  0.0014468  -0.00329739  -0.00373265  -0.0251364  0.0289428  -0.016334  0.0434792  0.014878  -0.0508521 
1703169832.841156000  0  0  11.7964  0.144591  -0.159817  0.0191268  nan  nan  nan  nan  nan  nan  -2.5  -0.3  1  0.0273177  -0.0189326  -0.0105178  4.5e-05  4.5e-05  4.5e-05  0  0  0  0.0045  0.0045  0.0045  0.00974588  0.0135202  -0.0188682  -0.000792182  -0.000696867  -0.00347908  -0.0271729  0.0273052  -0.0165202  0.00256593  0.02856  -0.0415252 
1703169832.846155000  0  0  11.6841  0.143048  -0.134076  0.021609  nan  nan  nan  nan  nan  nan  -2.5  -0.299999  1  0.0259834  -0.0200516  -0.0105221  7.15e-05  7.15e-05  7.15e-05  0  0  0  0.006125  0.006125  0.006125  0.00980335  0.0134218  -0.018809  0.000502554  -0.00237461  0.00451109  -0.0260733  0.0278226  -0.0169495  -0.00677559  -0.0325877  -0.0675832 
1703169832.851166000  0  0  11.824  0.124365  -0.159065  0.0256977  nan  nan  nan  nan  nan  nan  -2.5  -0.299999  1  0.0248818  -0.0213382  -0.0105327  0.0001067  0.0001067  0.0001067  0  0  0  0.008  0.008  0.008  0.00981842  0.0134112  -0.0188801  0.00277925  -0.00320443  -0.00513971  -0.0247717  0.0293047  -0.0177919  0.0183121  0.00394359  -0.108872 
1703169832.856182000  0  0  11.7445  0.164109  -0.136382  0.0208152  nan  nan  nan  nan  nan  nan  -2.5  -0.299998  1  0.0269746  -0.0182546  -0.0104952  0.0001519  0.0001519  0.0001519  0  0  0  0.010125  0.010125  0.010125  0.00982891  0.0133646  -0.0188353  -0.00132732  -0.000134008  0.000602104  -0.0273653  0.026057  -0.0177145  -0.0370709  -0.00733232  -0.0483739 
1703169832.861170000  0  0  11.6941  0.151306  -0.119598  0.0217832  nan  nan  nan  nan  nan  nan  -2.5  -0.299997  1  0.0256473  -0.0192447  -0.0104979  0.0002083  0.0002083  0.0002083  0  0  0  0.0125  0.0125  0.0125  0.00983596  0.01335  -0.0188055  0.000177348  -0.00174458  0.00432106  -0.0261519  0.0265164  -0.0180208  -0.0235774  -0.0486063  -0.0568604 
1703169832.866184000  0  0  11.8723  0.145352  -0.147268  0.0228661  nan  nan  nan  nan  nan  nan  -2.5  -0.299996  1  0.0242674  -0.0197885  -0.0104864  0.0002773  0.0002773  0.0002773  0  0  0  0.015125  0.015125  0.015125  0.00989095  0.0131855  -0.0188712  0.00149597  -0.00231009  -0.00799996  -0.0245591  0.0275191  -0.018513  -0.0291347  -0.000808963  -0.0645523 
1703169832.871179000  0  0  11.7472  0.178573  -0.114534  0.0183433  nan  nan  nan  nan  nan  nan  -2.49999  -0.299995  1.00001  0.0251408  -0.0172932  -0.0104434  0.00036  0.00036  0.00036  0  0  0  0.018  0.018  0.018  0.00984583  0.0131035  -0.0187875  -0.00166491  -0.000825644  0.000956755  -0.0258211  0.0247993  -0.0182893  -0.0858497  -0.0397087  -0.0103432 
1703169832.876135000  0  0  11.6916  0.155053  -0.103373  0.0204668  nan  nan  nan  nan  nan  nan  -2.49999  -0.299993  1.00001  0.0229605  -0.0181242  -0.0104281  0.0004577  0.0004577  0.0004577  0  0  0  0.021125  0.021125  0.021125  0.0098529  0.0130779  -0.0187505  -0.000294091  -0.00346046  0.00508979  -0.0238481  0.0250929  -0.0185681  -0.058116  -0.0670201  -0.0337005 
1703169832.881132000  0  0  11.8014  0.138766  -0.118109  0.0221819  nan  nan  nan  nan  nan  nan  -2.49999  -0.29999  1.00001  0.0221895  -0.0180714  -0.010417  0.0005717  0.0005717  0.0005717  0  0  0  0.0245  0.0245  0.0245  0.00988971  0.0129831  -0.0187642  0.0001963  -0.00350958  -0.00240829  -0.0227614  0.0252685  -0.0189958  -0.0356946  -0.0374423  -0.0501251 
1703169832.886177000  0  0  11.7222  0.160541  -0.1062  0.0203463  nan  nan  nan  nan  nan  nan  -2.49999  -0.299987  1.00001  0.0213941  -0.0174758  -0.010395  0.0007031  0.0007031  0.0007031  0  0  0  0.028125  0.028125  0.028125  0.0100093  0.0127919  -0.0184693  -0.000650855  -0.00376131  0.00290563  -0.022436  0.0243029  -0.0190718  -0.0861294  -0.0518679  -0.0261128 
1703169832.891167000  0  0  11.6566  0.141032  -0.102797  0.0239739  nan  nan  nan  nan  nan  nan  -2.49998  -0.299983  1.00002  0.0198311  -0.0176228  -0.0103768  0.0008533  0.0008533  0.0008533  0  0  0  0.032  0.032  0.032  0.0100071  0.0127592  -0.0184245  -9.22877e-05  -0.00542691  0.00778707  -0.021059  0.0241411  -0.0196229  -0.0601382  -0.0573053  -0.0651133 
1703169832.896175000  0  0  11.7126  0.128353  -0.100996  0.0260936  nan  nan  nan  nan  nan  nan  -2.49998  -0.299978  1.00002  0.0194981  -0.0171643  -0.0103695  0.0010235  0.0010235  0.0010235  0  0  0  0.036125  0.036125  0.036125  0.0100329  0.0126866  -0.0183825  -0.000132088  -0.0049953  0.00406707  -0.0204461  0.0236036  -0.0202319  -0.0400033  -0.0549823  -0.0844426 
1703169832.901179000  0  0  11.7194  0.149059  -0.10549  0.0232249  nan  nan  nan  nan  nan  nan  -2.49997  -0.299973  1.00003  0.0192956  -0.0167232  -0.0103664  0.001215  0.001215  0.001215  0  0  0  0.0405  0.0405  0.0405  0.0100294  0.0126654  -0.0183678  -0.000131708  -0.00461131  0.00389735  -0.0208931  0.0230721  -0.0202113  -0.0792589  -0.0392323  -0.0485969 
1703169832.906174000  0  0  11.659  0.128404  -0.0994713  0.0248385  nan  nan  nan  nan  nan  nan  -2.49997  -0.299966  1.00003  0.0167678  -0.0165563  -0.0103319  0.001429  0.001429  0.001429  0  0  0  0.045125  0.045125  0.045125  0.0101447  0.0124695  -0.0180856  -0.00022784  -0.00698497  0.00799071  -0.0183626  0.0226309  -0.0206925  -0.0640811  -0.0470625  -0.063099 
1703169832.910111000  0  0  11.6442  0.120137  -0.0885835  0.0267593  nan  nan  nan  nan  nan  nan  -2.49996  -0.299958  1.00004  0.016636  -0.0158968  -0.0103312  0.0016667  0.0016667  0.0016667  0  0  0  0.05  0.05  0.05  0.0101396  0.0124466  -0.0180518  -0.000489055  -0.00647444  0.00937455  -0.0182933  0.0216474  -0.021137  -0.0471507  -0.0590936  -0.081908 
1703169832.916152000  0  0  11.718  0.153925  -0.114407  0.0228392  nan  nan  nan  nan  nan  nan  -2.49995  -0.299949  1.00005  0.0153425  -0.0159345  -0.0103255  0.0019294  0.0019294  0.0019294  0  0  0  0.055125  0.055125  0.055125  0.0102444  0.0122924  -0.0178579  5.99702e-05  -0.00697397  0.00412734  -0.0179302  0.021945  -0.0211278  -0.123778  -0.00714509  -0.032696 
1703169832.921169000  0  0  11.6628  0.134294  -0.105891  0.0244211  nan  nan  nan  nan  nan  nan  -2.49994  -0.299939  1.00006  0.0132479  -0.0155765  -0.010304  0.0022183  0.0022183  0.0022183  0  0  0  0.0605  0.0605  0.0605  0.0103241  0.012137  -0.0176322  -7.17836e-05  -0.00874076  0.00802149  -0.0159949  0.021433  -0.0215365  -0.103948  -0.0195162  -0.0476741 
1703169832.926169000  0  0  11.6572  0.140929  -0.10447  0.0249662  nan  nan  nan  nan  nan  nan  -2.49993  -0.299927  1.00007  0.0134081  -0.0148374  -0.0103155  0.0025348  0.0025348  0.0025348  0  0  0  0.066125  0.066125  0.066125  0.0103251  0.0121039  -0.0175845  -0.000336819  -0.00768833  0.00877843  -0.0166814  0.0206219  -0.0218241  -0.110278  -0.0132308  -0.0510656 
1703169832.931123000  0  0  11.7067  0.144452  -0.113095  0.0234459  nan  nan  nan  nan  nan  nan  -2.49991  -0.299914  1.00009  0.0119032  -0.014557  -0.0103115  0.00288  0.00288  0.00288  0  0  0  0.072  0.072  0.072  0.0103483  0.0120094  -0.01756  5.75448e-05  -0.00860281  0.00568056  -0.015641  0.0206881  -0.0218796  -0.129801  0.00450148  -0.0312679 
1703169832.936239000  0  0  11.708  0.1237  -0.107737  0.0258901  nan  nan  nan  nan  nan  nan  -2.4999  -0.299898  1.0001  0.0103885  -0.014225  -0.0103106  0.0032552  0.0032552  0.003255  0  0  0  0.078125  0.078125  0.0779792  0.0103935  0.0119077  -0.0174879  0.00026895  -0.00955096  0.00592595  -0.0141914  0.0204688  -0.0223423  -0.101981  -0.00446371  -0.0564429 
1703169832.941159000  0  0  11.7003  0.14079  -0.103272  0.0246286  nan  nan  nan  nan  nan  nan  -2.49988  -0.299881  1.00012  0.0104827  -0.0128596  -0.0103252  0.0036617  0.0036617  0.0036594  0  0  0  0.0845  0.0845  0.0837224  0.0103847  0.0118712  -0.0174502  -0.000723342  -0.00847014  0.00685276  -0.0150558  0.0191405  -0.0224129  -0.128682  0.0012414  -0.03972 
1703169832.946168000  0  0  11.6955  0.140474  -0.103533  0.0234438  nan  nan  nan  nan  nan  nan  -2.49986  -0.299862  1.00014  0.00836195  -0.0128455  -0.0103288  0.0041006  0.0041006  0.0040918  0  0  0  0.091125  0.091125  0.0892156  0.0104313  0.0117585  -0.0173795  -3.76921e-05  -0.01015  0.00749163  -0.0135245  0.0193397  -0.0224246  -0.14562  -0.00048899  -0.0246716 
1703169832.951111000  0  0  11.7896  0.120219  -0.109785  0.0262905  nan  nan  nan  nan  nan  nan  -2.49984  -0.29984  1.00016  0.00668495  -0.0127436  -0.0103412  0.0045733  0.0045733  0.0045511  0  0  0  0.098  0.098  0.0944588  0.0104791  0.0116635  -0.0173515  0.00071184  -0.011169  0.00117141  -0.0120484  0.0195389  -0.0228981  -0.119171  0.0106237  -0.054782 
1703169832.956162000  0  0  11.7163  0.157201  -0.10308  0.0225455  nan  nan  nan  nan  nan  nan  -2.49982  -0.299816  1.00018  0.0078443  -0.0097951  -0.0103713  0.005081  0.005081  0.005036  0  0  0  0.105125  0.105125  0.099452  0.0104608  0.0116334  -0.0172834  -0.00238144  -0.00858967  0.00663959  -0.0143298  0.016824  -0.0226661  -0.172222  0.0274804  -0.0104584 
1703169832.961173000  0  0  11.6657  0.139764  -0.0911738  0.0243604  nan  nan  nan  nan  nan  nan  -2.49979  -0.299789  1.00021  0.00520052  -0.0102193  -0.0103901  0.005625  0.005625  0.0055452  0  0  0  0.1125  0.1125  0.104195  0.0105117  0.011517  -0.0171948  -0.0010762  -0.0109035  0.0104458  -0.0122343  0.0172288  -0.0229122  -0.158941  -0.00270607  -0.0303279 
1703169832.966172000  0  0  11.8079  0.135262  -0.115366  0.0267639  nan  nan  nan  nan  nan  nan  -2.49976  -0.299759  1.00024  0.00455446  -0.00966136  -0.0104277  0.0062065  0.0062065  0.0060775  0  0  0  0.120125  0.120125  0.108688  0.0105111  0.011468  -0.0172349  -0.000670567  -0.0105501  0.000784348  -0.0122236  0.0171818  -0.0233358  -0.14941  0.0497078  -0.0554619 
1703169832.971166000  0  0  11.7199  0.16871  -0.107884  0.0234919  nan  nan  nan  nan  nan  nan  -2.49973  -0.299727  1.00027  0.00472308  -0.00646784  -0.0104654  0.0068267  0.0068267  0.0066317  0  0  0  0.128  0.128  0.112932  0.0105231  0.0113933  -0.017129  -0.00408769  -0.00907276  0.00715711  -0.0135083  0.0145822  -0.0231497  -0.206352  0.063573  -0.0165373 
1703169832.976168000  0  0  11.6727  0.127167  -0.0875952  0.0286414  nan  nan  nan  nan  nan  nan  -2.49969  -0.299691  1.00031  0.00151388  -0.00774506  -0.0105024  0.0074869  0.0074869  0.0072064  0  0  0  0.136125  0.136125  0.116925  0.0105257  0.0113222  -0.0170706  -0.00138204  -0.012173  0.0107283  -0.0108095  0.0155506  -0.0237847  -0.148322  0.00892699  -0.0736751 
1703169832.981171000  0  0  11.7967  0.131313  -0.12436  0.0292192  nan  nan  nan  nan  nan  nan  -2.49965  -0.299652  1.00034  0.000772053  -0.00807092  -0.0105575  0.0081883  0.0081883  0.0078005  0  0  0  0.1445  0.1445  0.120668  0.0105882  0.0112465  -0.017077  9.02305e-05  -0.0118506  0.0022224  -0.010702  0.0168503  -0.0241828  -0.158448  0.0728071  -0.0761457 
1703169832.986172000  0  0  11.6789  0.166126  -0.111143  0.0240819  nan  nan  nan  nan  nan  nan  -2.49961  -0.299609  1.00038  0.000265572  -0.0044011  -0.0106181  0.0089323  0.0089323  0.0084127  0  0  0  0.153125  0.153125  0.124161  0.0106125  0.0111466  -0.0169562  -0.00391177  -0.0110717  0.010632  -0.0114371  0.0138181  -0.02386  -0.224638  0.0793494  -0.0153979 
1703169832.991165000  0  0  11.6755  0.110801  -0.0945403  0.0303881  nan  nan  nan  nan  nan  nan  -2.49956  -0.299563  1.00043  -0.00272384  -0.0060569  -0.0106711  0.00972  0.00972  0.0090417  0  0  0  0.162  0.162  0.127404  0.0106217  0.0110712  -0.0169122  -0.000578618  -0.0137456  0.0110664  -0.00869897  0.0152117  -0.0246224  -0.13751  0.0277178  -0.0855545 
1703169832.996168000  0  0  11.7988  0.146955  -0.148541  0.0273017  nan  nan  nan  nan  nan  nan  -2.49951  -0.299512  1.00047  -0.00255505  -0.00605143  -0.0107481  0.0105527  0.0105527  0.0096863  0  0  0  0.171125  0.171125  0.130398  0.0107407  0.0109747  -0.016764  0.000368507  -0.0120796  0.00220782  -0.0101562  0.016654  -0.0245982  -0.198269  0.126916  -0.047013 
1703169833.001173000  0  0  11.6925  0.171507  -0.121396  0.0240935  nan  nan  nan  nan  nan  nan  -2.49946  -0.299457  1.00052  -0.00319387  -0.00327749  -0.0108345  0.0114317  0.0114317  0.0103453  0  0  0  0.1805  0.1805  0.133141  0.0107215  0.0109229  -0.0166686  -0.00217305  -0.0114879  0.00979862  -0.0110049  0.0142135  -0.0243085  -0.24115  0.0967857  -0.0101382 
1703169833.006172000  0  0  11.6927  0.134433  -0.118479  0.0289306  nan  nan  nan  nan  nan  nan  -2.4994  -0.299398  1.00058  -0.00610261  -0.00493518  -0.0109018  0.0123581  0.0123581  0.0110173  0  0  0  0.190125  0.190125  0.135634  0.0109064  0.010722  -0.0164457  0.000769011  -0.0136052  0.00953817  -0.00879473  0.0161506  -0.024827  -0.18708  0.0682457  -0.0647505 
1703169833.011166000  0  0  11.7781  0.179407  -0.154773  0.0250862  nan  nan  nan  nan  nan  nan  -2.49933  -0.299333  1.00063  -0.00558252  -0.00386762  -0.0110029  0.0133333  0.0133333  0.0117012  0  0  0  0.2  0.2  0.137877  0.0109669  0.0106524  -0.0163593  0.000502002  -0.0114443  0.00344049  -0.0109223  0.0164305  -0.0245866  -0.259039  0.142849  -0.0192767 
1703169833.016166000  0  0  11.6921  0.175747  -0.122756  0.0232616  nan  nan  nan  nan  nan  nan  -2.49926  -0.299264  1.00069  -0.00725989  -0.00192781  -0.0111088  0.0143585  0.0143585  0.0123957  0  0  0  0.210125  0.210125  0.13987  0.0109572  0.0105888  -0.016275  -0.00082049  -0.012111  0.00956803  -0.0105206  0.0147132  -0.0243262  -0.255813  0.093954  0.000542115 
1703169833.021172000  0  0  11.7127  0.152812  -0.126974  0.0269879  nan  nan  nan  nan  nan  nan  -2.49919  -0.29919  1.00076  -0.00906624  -0.00192245  -0.0112095  0.015435  0.015435  0.0130995  0  0  0  0.2205  0.2205  0.141613  0.0110706  0.0104842  -0.0161678  0.00019494  -0.0129092  0.00803435  -0.00951766  0.0153536  -0.0246953  -0.218173  0.0956315  -0.0418933 
1703169833.026169000  0  0  11.7098  0.176076  -0.133957  0.0259242  nan  nan  nan  nan  nan  nan  -2.49911  -0.29911  1.00083  -0.00901288  -0.000499712  -0.0113325  0.016564  0.016564  0.0138114  0  0  0  0.231125  0.231125  0.143107  0.0110693  0.0104349  -0.0161274  -0.000327073  -0.0112722  0.00827627  -0.0109982  0.0146663  -0.0246653  -0.251023  0.118512  -0.0288727 
1703169833.031159000  0  0  11.7315  0.168116  -0.122699  0.0256473  nan  nan  nan  nan  nan  nan  -2.49902  -0.299024  1.0009  -0.0115979  0.000381837  -0.0114575  0.0177467  0.0177467  0.0145301  0  0  0  0.242  0.242  0.14435  0.0111474  0.0103205  -0.016024  -0.000350003  -0.0130276  0.00665485  -0.0095682  0.0143494  -0.0245767  -0.250407  0.098017  -0.0264552 
1703169833.036174000  0  0  11.7063  0.146295  -0.120161  0.02774  nan  nan  nan  nan  nan  nan  -2.49893  -0.298932  1.00097  -0.0131737  0.00123545  -0.0115916  0.0189844  0.0189844  0.0152545  0  0  0  0.253125  0.253125  0.145343  0.011272  0.0101967  -0.0158531  -0.000415969  -0.0132942  0.00819822  -0.00884194  0.0141031  -0.0247837  -0.211972  0.09541  -0.0502922 
1703169833.041173000  0  0  11.6731  0.154194  -0.111908  0.0266739  nan  nan  nan  nan  nan  nan  -2.49883  -0.298834  1.00105  -0.0138906  0.00272786  -0.0117414  0.0202783  0.0202783  0.0159831  0  0  0  0.2645  0.2645  0.146086  0.011268  0.0101386  -0.0157926  -0.000926652  -0.0125226  0.0105133  -0.00928354  0.0130308  -0.0247636  -0.22383  0.0900471  -0.037119 
1703169833.046174000  0  0  11.7481  0.154737  -0.107862  0.025621  nan  nan  nan  nan  nan  nan  -2.49873  -0.298729  1.00113  -0.016013  0.00417085  -0.0119048  0.0216298  0.0216298  0.0167149  0  0  0  0.276125  0.276125  0.146579  0.0112968  0.0100457  -0.0157576  -0.00149628  -0.0137036  0.00519951  -0.00840455  0.0121241  -0.0246434  -0.235105  0.0918022  -0.0253211 
1703169833.051171000  0  0  11.695  0.140864  -0.0859296  0.0271753  nan  nan  nan  nan  nan  nan  -2.49862  -0.298618  1.00122  -0.017335  0.00595588  -0.0120819  0.02304  0.02304  0.0174485  0  0  0  0.288  0.288  0.146823  0.0112883  0.00998057  -0.0156989  -0.00231682  -0.0136113  0.00891169  -0.00792997  0.0105309  -0.024797  -0.210818  0.0631034  -0.0430254 
1703169833.056173000  0  0  11.6675  0.152447  -0.0896147  0.0251766  nan  nan  nan  nan  nan  nan  -2.4985  -0.298499  1.00131  -0.0183605  0.00767332  -0.0122664  0.0245102  0.0245102  0.0181827  0  0  0  0.300125  0.300125  0.146816  0.0113079  0.00990004  -0.015615  -0.00308996  -0.013082  0.0107242  -0.00816654  0.0093966  -0.0245931  -0.232934  0.0840547  -0.0203356 
1703169833.060176000  0  0  11.7301  0.142422  -0.0789712  0.0247241  nan  nan  nan  nan  nan  nan  -2.49837  -0.298372  1.0014  -0.0205996  0.00973136  -0.0124792  0.0260417  0.0260417  0.0189163  0  0  0  0.3125  0.3125  0.146559  0.0112641  0.00981319  -0.0156284  -0.00422257  -0.0143332  0.00635604  -0.00678275  0.00770031  -0.0244438  -0.227357  0.080747  -0.0164415 
1703169833.066177000  0  0  11.7404  0.133615  -0.0758686  0.0264978  nan  nan  nan  nan  nan  nan  -2.49824  -0.298238  1.00149  -0.022054  0.0108027  -0.0126763  0.0276356  0.0276356  0.0196479  0  0  0  0.325125  0.325125  0.146052  0.0113171  0.00972981  -0.0155338  -0.00420307  -0.0144083  0.00542289  -0.0064335  0.00712605  -0.024618  -0.21249  0.0807008  -0.0366583 
1703169833.071170000  0  0  11.7043  0.148722  -0.0749313  0.0242759  nan  nan  nan  nan  nan  nan  -2.4981  -0.298096  1.00159  -0.0234191  0.0134349  -0.0129184  0.0292933  0.0292933  0.0203764  0  0  0  0.338  0.338  0.145295  0.0113317  0.00963815  -0.0154457  -0.00608941  -0.0141556  0.00780965  -0.00641387  0.00518391  -0.024361  -0.245111  0.101034  -0.0118013 
1703169833.076174000  0  0  11.7211  0.12043  -0.0607274  0.0276523  nan  nan  nan  nan  nan  nan  -2.49795  -0.297945  1.0017  -0.0259088  0.0145937  -0.0131537  0.031016  0.031016  0.0211004  0  0  0  0.351125  0.351125  0.144289  0.0113113  0.00955659  -0.015425  -0.00594698  -0.0155848  0.00656339  -0.00469967  0.0043292  -0.0246233  -0.204165  0.0804102  -0.0511213 
1703169833.081175000  0  0  11.7913  0.129084  -0.079846  0.0287125  nan  nan  nan  nan  nan  nan  -2.49779  -0.297786  1.00181  -0.0270552  0.0157023  -0.0133786  0.032805  0.032805  0.0218188  0  0  0  0.3645  0.3645  0.143032  0.0112782  0.00951803  -0.0155568  -0.00574862  -0.0154571  0.00179377  -0.0046875  0.00424347  -0.0248172  -0.222861  0.122391  -0.062124 
1703169833.086177000  0  0  11.729  0.151299  -0.066972  0.026674  nan  nan  nan  nan  nan  nan  -2.49762  -0.297617  1.00192  -0.02827  0.0191165  -0.0136785  0.0346615  0.0346615  0.0225303  0  0  0  0.378125  0.378125  0.141525  0.0112457  0.00945604  -0.015634  -0.00840137  -0.0148676  0.00633919  -0.00501864  0.00157466  -0.0246434  -0.266686  0.125489  -0.0385697 
1703169833.091171000  0  0  11.7456  0.114876  -0.0612631  0.0298384  nan  nan  nan  nan  nan  nan  -2.49744  -0.297439  1.00203  -0.0312676  0.0193405  -0.0139336  0.0365867  0.0365867  0.0232337  0  0  0  0.392  0.392  0.139768  0.0112205  0.00936776  -0.0156144  -0.00690583  -0.0168972  0.00505764  -0.00279599  0.0018044  -0.0249896  -0.214157  0.110605  -0.0742124 
1703169833.096175000  0  0  11.8595  0.144965  -0.112361  0.0279836  nan  nan  nan  nan  nan  nan  -2.49725  -0.297251  1.00215  -0.0316018  0.0199596  -0.0141564  0.0385819  0.0385819  0.0239276  0  0  0  0.406125  0.406125  0.137761  0.0112231  0.00932275  -0.015785  -0.0061746  -0.0157551  -0.00281849  -0.00413206  0.00283539  -0.0249409  -0.263304  0.20831  -0.0514611 
1703169833.101127000  0  0  11.7675  0.162856  -0.0982332  0.0238015  nan  nan  nan  nan  nan  nan  -2.49705  -0.297053  1.00227  -0.0328416  0.0243983  -0.0145302  0.0406483  0.0406483  0.0246109  0  0  0  0.4205  0.4205  0.135505  0.0111538  0.00925693  -0.0157273  -0.0099356  -0.0149275  0.00352843  -0.00453007  -0.000430512  -0.0244373  -0.297089  0.215589  -0.00491196 
1703169833.106176000  0  0  11.7833  0.127679  -0.0942065  0.029421  nan  nan  nan  nan  nan  nan  -2.49684  -0.296844  1.00239  -0.035762  0.0238952  -0.0147928  0.0427873  0.0427873  0.0252822  0  0  0  0.435125  0.435125  0.132998  0.0111745  0.00915525  -0.0157677  -0.00749423  -0.0167455  0.0023601  -0.00264139  0.00081745  -0.0248882  -0.243388  0.192598  -0.0701815 
1703169833.111118000  0  0  11.8847  0.154687  -0.139402  0.0275973  nan  nan  nan  nan  nan  nan  -2.49662  -0.296625  1.00252  -0.0365778  0.0249951  -0.0150683  0.045  0.045  0.0259404  0  0  0  0.45  0.45  0.130241  0.0111343  0.00908314  -0.0158196  -0.00724338  -0.0160825  -0.00490819  -0.00353531  0.00163637  -0.0248045  -0.291015  0.280088  -0.0482442 
1703169833.116175000  0  0  11.7445  0.163334  -0.0966867  0.0258264  nan  nan  nan  nan  nan  nan  -2.49639  -0.296394  1.00265  -0.0383434  0.0291004  -0.0154917  0.0472877  0.0472877  0.0265842  0  0  0  0.465125  0.465125  0.127234  0.0111082  0.00901325  -0.0158049  -0.0103815  -0.0155973  0.00492233  -0.00351942  -0.0015425  -0.0244821  -0.30974  0.225066  -0.0298492 
1703169833.121175000  0  0  11.763  0.136288  -0.126971  0.0300848  nan  nan  nan  nan  nan  nan  -2.49615  -0.296152  1.00279  -0.0420044  0.0259275  -0.0156932  0.0496517  0.0496517  0.0272124  0  0  0  0.4805  0.4805  0.123977  0.0115704  0.0087639  -0.0157067  -0.0055027  -0.0179762  0.00319045  -0.001101  0.00266637  -0.0248556  -0.279569  0.241583  -0.0789269 
1703169833.126177000  0  0  11.8493  0.163824  -0.166803  0.0255523  nan  nan  nan  nan  nan  nan  -2.4959  -0.295898  1.00293  -0.0426031  0.0279396  -0.0160289  0.0520931  0.0520931  0.0278236  0  0  0  0.496125  0.496125  0.120471  0.0115361  0.00869091  -0.0157495  -0.0063927  -0.0168869  -0.00306338  -0.00239348  0.0028541  -0.0244217  -0.323744  0.324832  -0.0271285 
1703169833.131159000  0  0  11.7539  0.158096  -0.126868  0.0245202  nan  nan  nan  nan  nan  nan  -2.49563  -0.295631  1.00307  -0.0446781  0.0313661  -0.0164807  0.0546133  0.0546133  0.0284166  0  0  0  0.512  0.512  0.116714  0.0115025  0.00860936  -0.0157542  -0.00860455  -0.0168193  0.00357575  -0.00193235  0.000465453  -0.0241112  -0.316768  0.266682  -0.0178851 
1703169833.135124000  0  0  11.7559  0.134801  -0.130163  0.0285359  nan  nan  nan  nan  nan  nan  -2.49535  -0.295351  1.00321  -0.0477578  0.0324546  -0.0168764  0.0572135  0.0572135  0.0289903  0  0  0  0.528125  0.528125  0.112707  0.0114236  0.00847655  -0.0157755  -0.00782649  -0.0184636  0.0033025  0.000190488  0.000521979  -0.0243596  -0.291239  0.273096  -0.0654176 
1703169833.141172000  0  0  11.815  0.162684  -0.160206  0.0259122  nan  nan  nan  nan  nan  nan  -2.49506  -0.295059  1.00336  -0.0478604  0.033766  -0.0171956  0.059895  0.059895  0.0295433  0  0  0  0.5445  0.5445  0.10845  0.0114757  0.00845073  -0.015844  -0.00785193  -0.0166491  -0.00105614  -0.00197384  0.00150471  -0.0241617  -0.326126  0.32621  -0.0347909 
1703169833.146174000  0  0  11.8207  0.160259  -0.143012  0.0255395  nan  nan  nan  nan  nan  nan  -2.49475  -0.294752  1.00351  -0.0495402  0.0362755  -0.0176362  0.062659  0.062659  0.0300744  0  0  0  0.561125  0.561125  0.103943  0.0114515  0.00841508  -0.0160739  -0.00909994  -0.0165971  -0.00120043  -0.00181927  0.000542236  -0.0239151  -0.322706  0.300416  -0.0330734 
1703169833.151169000  0  0  11.807  0.147821  -0.144243  0.0270413  nan  nan  nan  nan  nan  nan  -2.49443  -0.294432  1.00366  -0.0519271  0.0383411  -0.0180959  0.0655067  0.0655067  0.0305823  0  0  0  0.578  0.578  0.0991865  0.0114079  0.00832796  -0.0160724  -0.00958845  -0.0172261  -0.000453737  -0.000840923  8.92068e-05  -0.0239474  -0.307291  0.308266  -0.0515811 
1703169833.156175000  0  0  11.8113  0.149994  -0.129416  0.0259051  nan  nan  nan  nan  nan  nan  -2.4941  -0.294097  1.00381  -0.052853  0.0403762  -0.0185109  0.0684394  0.068439  0.0310658  0  0  0  0.595125  0.594911  0.0941797  0.0113762  0.00832497  -0.0162438  -0.0100811  -0.0162017  -0.000698914  -0.00130407  -0.000415567  -0.0237119  -0.306621  0.282281  -0.0401238 
1703169833.161172000  0  0  11.8588  0.153297  -0.127987  0.0249335  nan  nan  nan  nan  nan  nan  -2.49375  -0.293747  1.00397  -0.0549054  0.0422807  -0.0189767  0.0714583  0.0714554  0.0315237  0  0  0  0.6125  0.611572  0.0889229  0.0113921  0.00825522  -0.0163192  -0.0107452  -0.0168254  -0.00417617  -0.000675359  -0.000736631  -0.0234353  -0.320937  0.28291  -0.0312326 
1703169833.166173000  0  0  11.8147  0.145368  -0.118761  0.0257446  nan  nan  nan  nan  nan  nan  -2.49338  -0.293382  1.00413  -0.0573381  0.0451403  -0.0195282  0.0745648  0.0745544  0.0319546  0  0  0  0.630125  0.627984  0.0834161  0.0113291  0.00816848  -0.0163114  -0.0120137  -0.017348  -0.00130068  0.000261365  -0.00217492  -0.023328  -0.314711  0.279674  -0.0427315 
1703169833.171164000  0  0  11.7948  0.135316  -0.101367  0.0261901  nan  nan  nan  nan  nan  nan  -2.493  -0.293002  1.00429  -0.0586557  0.0472308  -0.0200011  0.07776  0.0777348  0.0323574  0  0  0  0.647955  0.644146  0.0776593  0.0113278  0.00813618  -0.0163484  -0.0124615  -0.016702  -0.000137975  0.000521664  -0.00297066  -0.0232776  -0.296153  0.251531  -0.048945 
1703169833.176174000  0  0  11.8542  0.146884  -0.103642  0.0238461  nan  nan  nan  nan  nan  nan  -2.4926  -0.292605  1.00445  -0.0604249  0.0496248  -0.0205265  0.081044  0.0809954  0.0327308  0  0  0  0.665619  0.660058  0.0716736  0.0112604  0.00805012  -0.0163875  -0.0136259  -0.0170729  -0.00456134  0.000558853  -0.00390453  -0.0228679  -0.321386  0.267153  -0.0243904 
1703169833.181171000  0  0  11.8039  0.127309  -0.0876771  0.0241794  nan  nan  nan  nan  nan  nan  -2.49219  -0.292192  1.00461  -0.0630799  0.0521481  -0.0211211  0.0844157  0.0843349  0.0330744  0  0  0  0.683032  0.67572  0.0658122  0.0112396  0.00798725  -0.016403  -0.0145203  -0.017986  -0.00120586  0.00217671  -0.00504512  -0.0226242  -0.298024  0.246042  -0.0315214 
1703169833.186181000  0  0  11.7801  0.128026  -0.074994  0.0252578  nan  nan  nan  nan  nan  nan  -2.49176  -0.291761  1.00478  -0.0643412  0.0549552  -0.021677  0.0878739  0.0877522  0.0333894  0  0  0  0.700196  0.691132  0.0602008  0.0112223  0.00790828  -0.0163973  -0.0159473  -0.0171514  0.000196752  0.00226973  -0.00660773  -0.0226191  -0.300631  0.236823  -0.0451512 
1703169833.191121000  0  0  11.7899  0.136358  -0.0711735  0.0253112  nan  nan  nan  nan  nan  nan  -2.49131  -0.291314  1.00495  -0.0665514  0.0571809  -0.0222627  0.0914173  0.0912458  0.0336769  0  0  0  0.71711  0.706294  0.0548394  0.0111396  0.00781329  -0.0164135  -0.016674  -0.0178478  -0.000680863  0.00274027  -0.00761123  -0.0224356  -0.32391  0.240176  -0.0480351 
1703169833.196180000  0  0  11.8061  0.125111  -0.066983  0.0265949  nan  nan  nan  nan  nan  nan  -2.49085  -0.290849  1.00512  -0.0687393  0.0593715  -0.0228607  0.0950446  0.0948147  0.0339382  0  0  0  0.733773  0.721205  0.0497281  0.0110805  0.0077521  -0.0164701  -0.0175053  -0.0186933  -0.00190251  0.00376483  -0.00837519  -0.0224397  -0.311581  0.239979  -0.0641382 
1703169833.201182000  0  0  11.7509  0.136688  -0.0443627  0.0252005  nan  nan  nan  nan  nan  nan  -2.49036  -0.290366  1.00529  -0.0693773  0.0640536  -0.0235515  0.0987546  0.0984575  0.0341746  0  0  0  0.750187  0.735867  0.0448667  0.0109658  0.00767799  -0.016449  -0.0210398  -0.0167817  0.0018199  0.00276569  -0.0119571  -0.0222526  -0.32491  0.232682  -0.0488488 
1703169833.206180000  0  0  11.7234  0.133049  -0.0469411  0.0267995  nan  nan  nan  nan  nan  nan  -2.48986  -0.289864  1.00546  -0.0725403  0.0649271  -0.0241528  0.102546  0.102173  0.0343873  0  0  0  0.76635  0.750279  0.0402553  0.0109106  0.00759812  -0.0164781  -0.0198616  -0.018632  0.00368106  0.00448756  -0.0114404  -0.0222273  -0.336917  0.232267  -0.0692722 
1703169833.211585000  0  0  11.8124  0.127573  -0.0726871  0.0266823  nan  nan  nan  nan  nan  nan  -2.48934  -0.289344  1.00563  -0.0742015  0.0658919  -0.0246734  0.106418  0.10596  0.0345775  0  0  0  0.782264  0.764441  0.0358939  0.0108079  0.00759793  -0.0166558  -0.0195605  -0.0196739  -0.00243397  0.00463385  -0.0103268  -0.0221097  -0.326857  0.274662  -0.0692148 
1703169833.216177000  0  0  11.7087  0.142178  -0.0510674  0.0242032  nan  nan  nan  nan  nan  nan  -2.48879  -0.288804  1.00581  -0.0749714  0.0718322  -0.0255163  0.110368  0.109817  0.0347466  0  0  0  0.797928  0.778353  0.0317825  0.0106299  0.00749141  -0.0166243  -0.0242848  -0.0174319  0.00484682  0.00374413  -0.0149122  -0.0217225  -0.347939  0.281056  -0.0426897 
1703169833.221172000  0  0  11.7126  0.12378  -0.0639317  0.026583  nan  nan  nan  nan  nan  nan  -2.48823  -0.288246  1.00598  -0.0782143  0.0719322  -0.0261113  0.114397  0.113743  0.0348958  0  0  0  0.813341  0.792015  0.0279211  0.0105222  0.00741644  -0.0167141  -0.0222631  -0.0197628  0.00466802  0.00550573  -0.0133028  -0.0216509  -0.328754  0.290125  -0.0734962 
1703169833.226175000  0  0  11.8485  0.129705  -0.094243  0.0270608  nan  nan  nan  nan  nan  nan  -2.48765  -0.287667  1.00615  -0.0794498  0.0732557  -0.0266651  0.118501  0.117737  0.0350263  0  0  0  0.828505  0.805427  0.0243098  0.0104082  0.0073185  -0.016778  -0.0229914  -0.0204958  -0.00492551  0.00500378  -0.0125569  -0.0216718  -0.335686  0.346539  -0.0792564 
1703169833.231165000  0  0  11.7381  0.149545  -0.0744225  0.0241476  nan  nan  nan  nan  nan  nan  -2.48705  -0.287068  1.00633  -0.0803252  0.0784514  -0.0275123  0.122681  0.121797  0.0351393  0  0  0  0.843418  0.818589  0.0209484  0.0102261  0.00728587  -0.0168109  -0.026673  -0.0185893  0.00302336  0.00398971  -0.0157924  -0.0211785  -0.366561  0.341261  -0.0485474 
1703169833.236174000  0  0  11.7483  0.125078  -0.0938578  0.0279146  nan  nan  nan  nan  nan  nan  -2.48642  -0.286449  1.00651  -0.0834766  0.0777553  -0.0280747  0.126935  0.125922  0.0352362  0  0  0  0.858082  0.8315  0.017837  0.0101017  0.00720788  -0.016914  -0.0236923  -0.0209833  0.00245867  0.00572786  -0.0130784  -0.0212735  -0.334094  0.351713  -0.0948 
1703169833.241113000  0  0  11.8701  0.140732  -0.132639  0.0272933  nan  nan  nan  nan  nan  nan  -2.48578  -0.285809  1.00668  -0.0842947  0.0791143  -0.0286313  0.131262  0.130111  0.0353181  0  0  0  0.872495  0.844162  0.0149756  0.00997318  0.00710343  -0.0169763  -0.0244855  -0.0211625  -0.00607669  0.00464932  -0.0119626  -0.0212604  -0.355253  0.422032  -0.0871403 
1703169833.246173000  0  0  11.7314  0.162788  -0.104571  0.0234987  nan  nan  nan  nan  nan  nan  -2.48511  -0.285148  1.00686  -0.0857036  0.0836283  -0.0295144  0.13566  0.134363  0.0353863  0  0  0  0.886659  0.856574  0.0123642  0.00980077  0.00705131  -0.0170007  -0.027049  -0.0196957  0.00392871  0.00393111  -0.0144522  -0.0206812  -0.394283  0.39049  -0.0463774 
1703169833.251167000  0  0  11.7673  0.141263  -0.129669  0.0268765  nan  nan  nan  nan  nan  nan  -2.48442  -0.284465  1.00704  -0.0883466  0.0831261  -0.0300831  0.140128  0.138677  0.0354421  0  0  0  0.900573  0.868736  0.0100028  0.00968772  0.0069376  -0.0170153  -0.024715  -0.0216453  0.00141551  0.00493509  -0.0118321  -0.0207901  -0.359677  0.414163  -0.0875654 
1703169833.256174000  0  0  11.8869  0.158394  -0.169155  0.0250855  nan  nan  nan  nan  nan  nan  -2.48371  -0.283761  1.00721  -0.0886864  0.0842288  -0.0306061  0.144665  0.14305  0.0354868  0  0  0  0.914236  0.880648  0.0078914  0.00958383  0.00683247  -0.0170467  -0.0253705  -0.0213157  -0.00699848  0.00349532  -0.00994227  -0.0205834  -0.379847  0.477089  -0.067522 
1703169833.261123000  0  0  11.7751  0.165425  -0.144765  0.0227473  nan  nan  nan  nan  nan  nan  -2.48297  -0.283034  1.00739  -0.0910896  0.0874597  -0.031507  0.14927  0.147483  0.0355215  0  0  0  0.92765  0.89231  0.0060301  0.0095402  0.0066532  -0.0168161  -0.0269063  -0.0211747  0.000652362  0.00390337  -0.0112868  -0.0200374  -0.399618  0.440259  -0.044683 
1703169833.266172000  0  0  11.7841  0.150905  -0.150389  0.0253043  nan  nan  nan  nan  nan  nan  -2.48222  -0.282286  1.00757  -0.0934893  0.0881413  -0.0321915  0.153941  0.151973  0.0355475  0  0  0  0.940813  0.903722  0.0044187  0.00943133  0.0065435  -0.0168209  -0.0260351  -0.0225892  0.000142237  0.00452705  -0.00983225  -0.0200356  -0.375658  0.435584  -0.0768783 
1703169833.271164000  0  0  11.8488  0.170293  -0.164248  0.0233932  nan  nan  nan  nan  nan  nan  -2.48143  -0.281515  1.00775  -0.0934537  0.0900613  -0.0327831  0.158677  0.15652  0.0355661  0  0  0  0.953727  0.914883  0.0030573  0.00927782  0.006454  -0.0168635  -0.0272512  -0.0213318  -0.00428725  0.00263942  -0.00922561  -0.0198068  -0.395514  0.458322  -0.0555904 
1703169833.276175000  0  0  11.8318  0.183503  -0.157312  0.0225299  nan  nan  nan  nan  nan  nan  -2.48063  -0.280721  1.00792  -0.0952263  0.0924545  -0.0335935  0.163478  0.161121  0.0355785  0  0  0  0.966391  0.925795  0.0019459  0.00914321  0.00634654  -0.0168566  -0.0284209  -0.0216119  -0.00287091  0.0021277  -0.00949585  -0.0194306  -0.417954  0.44656  -0.0492624 
1703169833.281121000  0  0  11.7965  0.16312  -0.152871  0.0250801  nan  nan  nan  nan  nan  nan  -2.4798  -0.279903  1.0081  -0.0981551  0.0938418  -0.0344305  0.168341  0.165777  0.0355859  0  0  0  0.978804  0.936457  0.0010845  0.00905465  0.00617875  -0.0167494  -0.0282245  -0.0231554  -0.000331272  0.00351354  -0.00884777  -0.0193938  -0.39019  0.429582  -0.0817933 
1703169833.286173000  0  0  11.8499  0.170276  -0.14901  0.0250992  nan  nan  nan  nan  nan  nan  -2.47895  -0.279063  1.00828  -0.0976747  0.0952168  -0.0349536  0.173265  0.170486  0.0355897  0  0  0  0.990968  0.946869  0.0004731  0.00889207  0.00613554  -0.0168819  -0.0286701  -0.0214546  -0.00378658  0.00130048  -0.00809594  -0.0193945  -0.380075  0.412652  -0.0820254 
1703169833.291166000  0  0  11.8901  0.192211  -0.150985  0.0225053  nan  nan  nan  nan  nan  nan  -2.47807  -0.278198  1.00846  -0.0989741  0.0972118  -0.0357161  0.17825  0.175245  0.0355911  0  0  0  1.00288  0.957031  0.0001118  0.00873949  0.00602237  -0.0169193  -0.029981  -0.0218081  -0.0062978  0.000243492  -0.00803535  -0.0189394  -0.414948  0.416189  -0.0548733 
1703169833.296171000  0  0  11.8574  0.164837  -0.123585  0.0260488  nan  nan  nan  nan  nan  nan  -2.47716  -0.27731  1.00864  -0.10063  0.0992164  -0.0365267  0.183294  0.180055  0.0355913  0  0  0  1.01454  0.966943  -0  0.00854568  0.00594731  -0.0170283  -0.030402  -0.0219759  -0.00348179  0.000501174  -0.00833906  -0.0189986  -0.359217  0.360932  -0.0987453 
1703169833.301173000  0  0  11.8752  0.178993  -0.12593  0.0245196  nan  nan  nan  nan  nan  nan  -2.47623  -0.276398  1.00881  -0.100813  0.100888  -0.0371663  0.188395  0.184914  0.0355913  0  0  0  1.02596  0.976605  -0  0.00839259  0.00584913  -0.0170489  -0.0310343  -0.0206989  -0.00453814  -0.0011751  -0.00824121  -0.0188785  -0.370286  0.364836  -0.0809517 
1703169833.306172000  0  0  11.8957  0.17629  -0.134702  0.0220297  nan  nan  nan  nan  nan  nan  -2.47528  -0.275461  1.00899  -0.103352  0.102522  -0.0380527  0.193553  0.189821  0.0355913  0  0  0  1.03712  0.986017  -0  0.00828439  0.00567561  -0.016863  -0.0319358  -0.022455  -0.00600031  -0.000282744  -0.00800119  -0.0183073  -0.374756  0.380883  -0.0565088 
1703169833.311165000  0  0  11.8961  0.147329  -0.116699  0.0242022  nan  nan  nan  nan  nan  nan  -2.4743  -0.274499  1.00917  -0.105541  0.104308  -0.0389329  0.198766  0.194774  0.0355913  0  0  0  1.04804  0.995178  -0  0.00808245  0.00558143  -0.0169656  -0.0325613  -0.0237548  -0.00547523  0.000666892  -0.00818759  -0.0181974  -0.323582  0.344424  -0.0851692 
1703169833.316172000  0  0  11.8866  0.164537  -0.114015  0.0223797  nan  nan  nan  nan  nan  nan  -2.47329  -0.273513  1.00935  -0.105347  0.106943  -0.0396615  0.204033  0.199772  0.0355913  0  0  0  1.0587  1.00409  -0  0.00790899  0.00548574  -0.0169851  -0.0342189  -0.0216858  -0.00455862  -0.00126645  -0.00911227  -0.0179991  -0.338239  0.349306  -0.0646279 
1703169833.321113000  0  0  11.8775  0.145674  -0.107374  0.0220621  nan  nan  nan  nan  nan  nan  -2.47226  -0.272502  1.00953  -0.108054  0.108395  -0.0405883  0.209353  0.204815  0.0355913  0  0  0  1.06911  1.01275  -0  0.00770411  0.00534105  -0.0170166  -0.034353  -0.0234994  -0.00347622  0.000137564  -0.00898473  -0.0175735  -0.313944  0.333599  -0.0657608 
1703169833.326176000  0  0  11.9714  0.125916  -0.11181  0.0247544  nan  nan  nan  nan  nan  nan  -2.4712  -0.271465  1.0097  -0.108884  0.109187  -0.0412497  0.214724  0.2099  0.0355913  0  0  0  1.07928  1.02116  -0  0.00754239  0.00523145  -0.0170802  -0.0349774  -0.0241953  -0.0097834  -0.0001303  -0.00818199  -0.0177331  -0.268496  0.333877  -0.0977128 
1703169833.331164000  0  0  11.875  0.154176  -0.0963792  0.0214187  nan  nan  nan  nan  nan  nan  -2.47011  -0.270403  1.00988  -0.109717  0.113055  -0.0422556  0.220145  0.215026  0.0355913  0  0  0  1.08919  1.02933  -0  0.00727462  0.00513978  -0.0170978  -0.0370771  -0.0224611  -0.00256045  -0.000982817  -0.0103853  -0.0172397  -0.319285  0.326136  -0.0616901 
1703169833.336173000  0  0  11.8492  0.111183  -0.091697  0.024536  nan  nan  nan  nan  nan  nan  -2.469  -0.269315  1.01006  -0.113682  0.112862  -0.0431834  0.225615  0.220192  0.0355913  0  0  0  1.09885  1.03724  -0  0.00712667  0.00497564  -0.0169284  -0.0350718  -0.0258959  -0.000741209  0.00212697  -0.00909645  -0.0169732  -0.262874  0.30127  -0.104125 
1703169833.341121000  0  0  11.9341  0.109647  -0.110191  0.0254227  nan  nan  nan  nan  nan  nan  -2.46785  -0.268201  1.01024  -0.114278  0.113712  -0.0438514  0.231133  0.225398  0.0355913  0  0  0  1.10827  1.0449  -0  0.00692647  0.00484128  -0.016994  -0.0356878  -0.026227  -0.00641584  0.00149277  -0.00818562  -0.0170722  -0.252284  0.330447  -0.114088 
1703169833.346172000  0  0  11.8063  0.140202  -0.089942  0.0212756  nan  nan  nan  nan  nan  nan  -2.46668  -0.267061  1.01042  -0.114394  0.118873  -0.044963  0.236697  0.230641  0.0355913  0  0  0  1.11743  1.05231  -0  0.00665505  0.00474632  -0.0169844  -0.0390912  -0.0230428  0.00300899  -6.73663e-05  -0.0116652  -0.0165742  -0.299852  0.327058  -0.0679115 
1703169833.351158000  0  0  11.8286  0.10501  -0.0998417  0.0257154  nan  nan  nan  nan  nan  nan  -2.46549  -0.265894  1.01059  -0.117272  0.117399  -0.0456519  0.242307  0.235921  0.0355913  0  0  0  1.12634  1.05947  -0  0.00649497  0.00460232  -0.0169863  -0.0360165  -0.0258472  0.00160635  0.00178492  -0.00883491  -0.0166649  -0.245701  0.315725  -0.122681 
1703169833.356174000  0  0  11.9632  0.121439  -0.137106  0.024733  nan  nan  nan  nan  nan  nan  -2.46426  -0.264701  1.01077  -0.116692  0.118771  -0.0462646  0.24796  0.241235  0.0355913  0  0  0  1.13501  1.06639  -0  0.00622553  0.00449411  -0.0171026  -0.0379364  -0.0253774  -0.00749525  -1.45138e-05  -0.00784587  -0.01672  -0.260228  0.384251  -0.109655 
1703169833.361172000  0  0  11.7343  0.147655  -0.0898501  0.0208584  nan  nan  nan  nan  nan  nan  -2.46301  -0.263482  1.01095  -0.118845  0.123228  -0.0475795  0.253657  0.246584  0.0355913  0  0  0  1.14342  1.07305  -0  0.00605623  0.00432592  -0.0168883  -0.0393481  -0.0234916  0.00872335  0.000129729  -0.0114675  -0.0160628  -0.3181  0.324587  -0.0688261 
1703169833.366172000  0  0  11.7953  0.113754  -0.109064  0.024966  nan  nan  nan  nan  nan  nan  -2.46172  -0.262235  1.01113  -0.121205  0.12087  -0.0481228  0.259394  0.251965  0.0355913  0  0  0  1.15159  1.07946  -0  0.00588479  0.00418237  -0.016905  -0.0357063  -0.0262784  0.00450952  0.00148181  -0.00766963  -0.0161861  -0.260965  0.322093  -0.119023 
1703169833.371114000  0  0  11.9724  0.140723  -0.147869  0.0231104  nan  nan  nan  nan  nan  nan  -2.46041  -0.260962  1.01131  -0.120077  0.122169  -0.0486805  0.265172  0.257378  0.0355913  0  0  0  1.1595  1.08562  -0  0.00554946  0.004071  -0.017064  -0.0380828  -0.0257728  -0.00753488  -0.00107276  -0.0065002  -0.0161121  -0.289404  0.391848  -0.0965669 
1703169833.376175000  0  0  11.7991  0.157721  -0.110057  0.0196171  nan  nan  nan  nan  nan  nan  -2.45907  -0.259662  1.01148  -0.121503  0.125846  -0.0498485  0.270989  0.262821  0.0355913  0  0  0  1.16716  1.09153  -0  0.00536162  0.00397627  -0.0169682  -0.0391891  -0.0239319  0.00490466  -0.00162699  -0.00891242  -0.0154678  -0.319475  0.33852  -0.0603805 
1703169833.381121000  0  0  11.8651  0.136175  -0.126929  0.0233236  nan  nan  nan  nan  nan  nan  -2.4577  -0.258334  1.01166  -0.123145  0.12515  -0.0505242  0.276843  0.268293  0.0355913  0  0  0  1.17458  1.09719  -0  0.00509625  0.00381018  -0.0170627  -0.0376956  -0.0257467  0.000599708  -0.000964426  -0.00645177  -0.0155635  -0.280899  0.346391  -0.105863 
1703169833.386122000  0  0  11.9517  0.174435  -0.162006  0.0202789  nan  nan  nan  nan  nan  nan  -2.4563  -0.256979  1.01184  -0.121946  0.126765  -0.0511265  0.282734  0.273793  0.0355913  0  0  0  1.18174  1.10261  -0  0.00482698  0.00368245  -0.0170906  -0.0395223  -0.0239733  -0.00535937  -0.00391216  -0.00567323  -0.0153563  -0.329024  0.412649  -0.0700504 
1703169833.391114000  0  0  11.8834  0.177536  -0.144675  0.0195001  nan  nan  nan  nan  nan  nan  -2.45488  -0.255596  1.01202  -0.12348  0.128242  -0.0520689  0.28866  0.279319  0.0355913  0  0  0  1.18865  1.10777  -0  0.00463979  0.0035588  -0.0170651  -0.0392612  -0.0238499  -0.000316001  -0.00419912  -0.00564527  -0.0149023  -0.332374  0.375165  -0.0657248 
1703169833.396123000  0  0  11.9047  0.154902  -0.150958  0.0236939  nan  nan  nan  nan  nan  nan  -2.45342  -0.254185  1.01219  -0.124969  0.128705  -0.0528891  0.29462  0.28487  0.0355913  0  0  0  1.19532  1.11268  -0  0.00436342  0.00342983  -0.0171301  -0.0387582  -0.0249709  -0.00146342  -0.00372917  -0.0043017  -0.0151178  -0.289247  0.373179  -0.115893 
1703169833.401182000  0  0  11.935  0.188787  -0.161692  0.0222151  nan  nan  nan  nan  nan  nan  -2.45193  -0.252747  1.01237  -0.124198  0.129191  -0.0534238  0.300613  0.290445  0.0355913  0  0  0  1.20173  1.11734  -0  0.0041824  0.00333568  -0.017156  -0.0385771  -0.023315  -0.00356011  -0.00644757  -0.00288225  -0.0150736  -0.330632  0.379866  -0.0978206 
1703169833.406171000  0  0  11.938  0.184247  -0.164876  0.0230499  nan  nan  nan  nan  nan  nan  -2.45041  -0.251281  1.01255  -0.126028  0.13025  -0.0543763  0.306637  0.296043  0.0355913  0  0  0  1.20789  1.12175  -0  0.00396165  0.00316815  -0.0170796  -0.0388694  -0.0245479  -0.00362108  -0.00617614  -0.00236852  -0.0149477  -0.324019  0.380784  -0.109842 
1703169833.411658000  0  0  11.9119  0.178588  -0.157197  0.0256297  nan  nan  nan  nan  nan  nan  -2.44886  -0.249787  1.01273  -0.125574  0.131501  -0.0550586  0.312691  0.301662  0.0355913  0  0  0  1.21381  1.12592  -0  0.0037741  0.00321497  -0.0171422  -0.0389301  -0.0229347  -0.00158263  -0.00788449  -0.00182524  -0.0153587  -0.292231  0.358068  -0.137346 
1703169833.416175000  0  0  11.9253  0.194894  -0.1652  0.0234223  nan  nan  nan  nan  nan  nan  -2.44728  -0.248264  1.01291  -0.126252  0.131885  -0.0557877  0.318775  0.307302  0.0355913  0  0  0  1.21947  1.12983  -0  0.00345425  0.00296793  -0.0171767  -0.0381649  -0.0226628  -0.00234039  -0.0088483  -0.000655153  -0.0150719  -0.316107  0.361766  -0.11303 
1703169833.421121000  0  0  11.9983  0.191941  -0.172307  0.0221854  nan  nan  nan  nan  nan  nan  -2.44568  -0.246714  1.01308  -0.12707  0.132724  -0.0565988  0.324886  0.31296  0.0355913  0  0  0  1.22488  1.13349  -0  0.00315037  0.00284441  -0.017249  -0.0390698  -0.0237355  -0.00711281  -0.00934015  0.00024242  -0.0148192  -0.304116  0.36668  -0.100513 
1703169833.426175000  0  0  11.9693  0.182241  -0.150089  0.0232638  nan  nan  nan  nan  nan  nan  -2.44404  -0.245135  1.01326  -0.127099  0.13422  -0.0573926  0.331023  0.318636  0.0355913  0  0  0  1.23005  1.1369  -0  0.00296415  0.00275266  -0.0172561  -0.0395645  -0.022401  -0.00491242  -0.0105135  -3.20662e-05  -0.0149072  -0.269819  0.322197  -0.113021 
1703169833.431114000  0  0  11.9646  0.197694  -0.150731  0.0219842  nan  nan  nan  nan  nan  nan  -2.44237  -0.243527  1.01344  -0.126987  0.135184  -0.0581043  0.337186  0.324329  0.0355913  0  0  0  1.23496  1.14006  -0  0.00265033  0.00266002  -0.0173522  -0.0393751  -0.0212938  -0.00430688  -0.0120777  0.000495234  -0.0147156  -0.284959  0.317508  -0.0992303 
1703169833.436122000  0  0  12.0448  0.186622  -0.156073  0.0219501  nan  nan  nan  nan  nan  nan  -2.44066  -0.241891  1.01362  -0.128038  0.135248  -0.058866  0.343372  0.330036  0.0355913  0  0  0  1.23963  1.14298  -0  0.00232987  0.00256918  -0.0174955  -0.039431  -0.0230473  -0.00948755  -0.0121474  0.00196383  -0.0144688  -0.260416  0.312067  -0.101777 
1703169833.441121000  0  0  12.0548  0.183825  -0.149924  0.0219434  nan  nan  nan  nan  nan  nan  -2.43893  -0.240227  1.0138  -0.127752  0.136176  -0.0595585  0.349582  0.335758  0.0355913  0  0  0  1.24404  1.14564  -0  0.0021293  0.00246556  -0.0175403  -0.0398156  -0.0219385  -0.0100354  -0.0135305  0.00228079  -0.0144386  -0.238506  0.295236  -0.102056 
1703169833.446172000  0  0  12.0066  0.19753  -0.137507  0.0203083  nan  nan  nan  nan  nan  nan  -2.43717  -0.238534  1.01397  -0.127849  0.137793  -0.0603956  0.355812  0.341492  0.0355913  0  0  0  1.2482  1.14805  -0  0.00184761  0.00238688  -0.0175756  -0.0400265  -0.0205724  -0.00641197  -0.0147982  0.00179804  -0.0141737  -0.25331  0.274165  -0.0846766 
1703169833.451167000  0  0  12.0641  0.167214  -0.136635  0.0227931  nan  nan  nan  nan  nan  nan  -2.43537  -0.236812  1.01415  -0.129108  0.136299  -0.0610008  0.362063  0.347238  0.0355913  0  0  0  1.25212  1.15021  -0  0.00165601  0.00226319  -0.0176451  -0.038056  -0.0224711  -0.0103198  -0.0142282  0.00420603  -0.0141798  -0.194862  0.244593  -0.115866 
1703169833.456181000  0  0  12.1242  0.179707  -0.142026  0.0210384  nan  nan  nan  nan  nan  nan  -2.43355  -0.235061  1.01433  -0.127823  0.138257  -0.0616976  0.368333  0.352994  0.0355913  0  0  0  1.25578  1.15212  -0  0.00129971  0.00218736  -0.0177806  -0.0402863  -0.0207553  -0.0141671  -0.016377  0.00359392  -0.0141539  -0.196929  0.263194  -0.0941015 
1703169833.461172000  0  0  11.9961  0.188706  -0.110267  0.0190217  nan  nan  nan  nan  nan  nan  -2.43169  -0.233282  1.01451  -0.128118  0.140909  -0.0627056  0.374621  0.358759  0.0355913  0  0  0  1.25919  1.15378  -0  0.00097808  0.00212089  -0.0178185  -0.0405809  -0.0185685  -0.00481555  -0.0172375  0.0016483  -0.0136975  -0.206327  0.217478  -0.0742283 
1703169833.466171000  0  0  12.0715  0.154503  -0.116032  0.0229132  nan  nan  nan  nan  nan  nan  -2.4298  -0.231474  1.01469  -0.129477  0.138129  -0.063173  0.380925  0.364531  0.0355913  0  0  0  1.26236  1.1552  -0  0.000800327  0.00200064  -0.0179039  -0.0373012  -0.0210976  -0.0100722  -0.0162605  0.0050223  -0.0138238  -0.144227  0.191024  -0.12167 
1703169833.470177000  0  0  12.1289  0.172879  -0.123346  0.019448  nan  nan  nan  nan  nan  nan  -2.42788  -0.229637  1.01486  -0.129785  0.141236  -0.0642521  0.387244  0.37031  0.0355913  0  0  0  1.26527  1.15636  -0  0.000241175  0.00156592  -0.0180002  -0.0407611  -0.0204473  -0.0134749  -0.0169428  0.00298992  -0.0133353  -0.17578  0.230087  -0.0839569 
1703169833.476163000  0  0  11.9834  0.182386  -0.0853719  0.0192881  nan  nan  nan  nan  nan  nan  -2.42593  -0.227771  1.01504  -0.128409  0.143333  -0.0649603  0.393577  0.376095  0.0355913  0  0  0  1.26793  1.15727  -0  0.000225271  0.00188096  -0.0180046  -0.0407667  -0.0169873  -0.00325012  -0.0192587  0.00137702  -0.0133949  -0.169522  0.167217  -0.0812267 
1703169833.481173000  0  0  12.1348  0.149756  -0.113574  0.0230078  nan  nan  nan  nan  nan  nan  -2.42395  -0.225876  1.01522  -0.128518  0.140662  -0.0652742  0.399923  0.381883  0.0355913  0  0  0  1.27035  1.15793  -0  -6.45232e-05  0.00179314  -0.0181605  -0.038639  -0.0190537  -0.0138064  -0.0190904  0.00483178  -0.0137474  -0.101492  0.187945  -0.123779 
1703169833.486171000  0  0  12.1281  0.184334  -0.107681  0.0193185  nan  nan  nan  nan  nan  nan  -2.42193  -0.223952  1.0154  -0.12746  0.14317  -0.0660832  0.40628  0.387673  0.0355913  0  0  0  1.27251  1.15834  -0  -0.000293215  0.00167453  -0.0182453  -0.0411088  -0.0167136  -0.0130101  -0.0214907  0.00290418  -0.013498  -0.148021  0.197485  -0.0803658 
1703169833.491166000  0  0  11.9621  0.148758  -0.0674837  0.0215589  nan  nan  nan  nan  nan  nan  -2.41988  -0.221999  1.01558  -0.129371  0.1438  -0.0670852  0.412647  0.393466  0.0355913  0  0  0  1.27442  1.15851  -0  -0.000482565  0.00158771  -0.0182072  -0.0385848  -0.0165381  -0.00118964  -0.0198369  0.00220917  -0.0133408  -0.0907634  0.119287  -0.110451 
1703169833.496173000  0  0  12.1215  0.137717  -0.10785  0.0238555  nan  nan  nan  nan  nan  nan  -2.4178  -0.220017  1.01575  -0.128503  0.142455  -0.0674323  0.419024  0.399258  0.0355913  0  0  0  1.27609  1.15842  -0  -0.000823012  0.00156294  -0.0184018  -0.0383328  -0.0175273  -0.0121898  -0.0207027  0.00471101  -0.0137293  -0.0571285  0.177061  -0.134664 
1703169833.501173000  0  0  12.0957  0.161067  -0.112672  0.0203349  nan  nan  nan  nan  nan  nan  -2.41569  -0.218006  1.01593  -0.127494  0.143654  -0.0680861  0.425408  0.405049  0.0355913  0  0  0  1.2775  1.15808  -0  -0.00102438  0.00149561  -0.0184478  -0.0388198  -0.0153887  -0.0102851  -0.0224635  0.00457597  -0.0134573  -0.0869396  0.188953  -0.0936462 
1703169833.506172000  0  0  12.0466  0.135322  -0.115483  0.023424  nan  nan  nan  nan  nan  nan  -2.41355  -0.215967  1.01611  -0.128647  0.143374  -0.0688667  0.431798  0.410839  0.0355913  0  0  0  1.27867  1.15749  -0  -0.0013079  0.00144329  -0.0185292  -0.0368325  -0.0161029  -0.00658633  -0.0213619  0.00558585  -0.0135019  -0.0444085  0.183363  -0.131976 
1703169833.511157000  0  0  12.1697  0.140079  -0.147835  0.0239946  nan  nan  nan  nan  nan  nan  -2.41137  -0.213898  1.01629  -0.126747  0.143809  -0.0692956  0.438194  0.416624  0.0355913  0  0  0  1.27958  1.15665  -0  -0.00166627  0.00143433  -0.0187214  -0.0383811  -0.0151  -0.0149709  -0.0233154  0.00668584  -0.0138422  -0.0321363  0.240078  -0.135054 
