ts fx fy fz tx ty tz exfx exfy exfz extx exty extz xd yd zd rolld pitchd yawd vxd vyd vzd wxd wyd wzd axd ayd azd e_x e_y e_z e_vx e_vy e_vz e_rx e_ry e_rz e_wx e_wy e_wz
1701447058.444552000  0  0  11.7612  -0.0713509  -0.0332771  0.00688955  nan  nan  nan  nan  nan  nan  -2  -1  1.5  -0.0122097  -0.0123758  0.000151108  0  0  0  0  0  0  0  0  0  0.0074929  -0.0116989  -0.0151948  -0.000475757  0.0100432  0.00235706  0.0102065  0.00979661  -0.00997647  0.0488024  -0.0235746  0.0136453 
1701447058.447552000  0  0  11.7135  -0.0696977  -0.029086  0.00698307  nan  nan  nan  nan  nan  nan  -2  -1  1.5  -0.0122101  -0.0123681  0.000151019  0  0  0  0  0  0  0  0  0  0.00749109  -0.0116697  -0.0151486  -0.000547322  0.0100424  0.00623712  0.0103116  0.00964241  -0.0099553  0.0445285  -0.0305382  0.0122647 
1701447058.453505000  0  0  11.7215  -0.0726137  -0.0421851  0.00698859  nan  nan  nan  nan  nan  nan  -2  -1  1.5  -0.0124563  -0.0124718  0.000155356  0  0  0  0  0  0  0  0  0  0.00747259  -0.011709  -0.0151565  -0.000360129  0.00979823  0.00558649  0.0108316  0.00985047  -0.00989501  0.0455766  -0.00625408  0.0115928 
1701447058.458504000  0  0  11.776  -0.0729828  -0.0485781  0.0074403  nan  nan  nan  nan  nan  nan  -2  -1  1.5  -0.0127569  -0.0123959  0.000158137  0  0  0  0  0  0  0  0  0  0.00746252  -0.0117698  -0.0152076  -0.000361257  0.00946462  0.00114546  0.0113222  0.00990726  -0.00991996  0.0418014  0.00600932  0.00619579 
1701447058.463508000  0  0  11.6973  -0.0613286  -0.0527765  0.00812612  nan  nan  nan  nan  nan  nan  -2  -1  1.5  -0.0125837  -0.0127187  0.000160052  0  0  0  0  0  0  0  0  0  0.00746286  -0.0117213  -0.0151378  -5.09042e-05  0.00969341  0.00755753  0.0111068  0.010319  -0.00997938  0.0204749  0.0106181  -0.0017827 
1701447058.468535000  0  0  11.7358  -0.0622458  -0.0680434  0.00829683  nan  nan  nan  nan  nan  nan  -2  -1  1.5  -0.0127258  -0.0126907  0.000161504  0  0  0  0  0  0  0  0  0  0.00744662  -0.0117718  -0.0151763  3.23227e-06  0.00956649  0.00442966  0.0113529  0.0106557  -0.0100225  0.0200447  0.038054  -0.00348538 
1701447058.472536000  0  0  11.7921  -0.0553669  -0.0757446  0.00791996  nan  nan  nan  nan  nan  nan  -2  -1  1.5  -0.0123458  -0.012634  0.000155981  0  0  0  0  0  0  0  0  0  0.0074459  -0.011732  -0.0151968  9.88623e-06  0.00989622  -0.000228018  0.0109404  0.0109062  -0.00998351  0.010082  0.051152  0.000835689 
1701447058.478536000  0  0  11.7003  -0.0400608  -0.0739694  0.00751108  nan  nan  nan  nan  nan  nan  -2  -1  1.5  -0.0127098  -0.0128587  0.000163436  0  0  0  0  0  0  0  0  0  0.00743167  -0.0117773  -0.0151661  0.000204943  0.00964975  0.00736193  0.0109779  0.0113575  -0.00993416  -0.0208752  0.0434495  0.00545306 
1701447058.483500000  0  0  11.7272  -0.0447148  -0.0767193  0.00773508  nan  nan  nan  nan  nan  nan  -2  -1  1.5  -0.0125872  -0.0127296  0.000160234  0  0  0  0  0  0  0  0  0  0.00741061  -0.0118118  -0.0152054  0.000121859  0.00984806  0.00519733  0.010866  0.0114998  -0.00992968  -0.0105378  0.0476402  0.0026083 
1701447058.488526000  0  0  11.758  -0.0286818  -0.0795666  0.00825358  nan  nan  nan  nan  nan  nan  -2  -1  1.5  -0.0119909  -0.0128236  0.00015377  0  0  0  0  0  0  0  0  0  0.00741215  -0.0117595  -0.0152072  0.000284728  0.0104677  0.00263197  0.00995272  0.011868  -0.00998155  -0.0342015  0.0499478  -0.00335428 
1701447058.493536000  0  0  11.6748  -0.0198702  -0.0761354  0.00833465  nan  nan  nan  nan  nan  nan  -2  -1  1.5  -0.0118174  -0.0130897  0.000154689  0  0  0  0  0  0  0  0  0  0.00741487  -0.011708  -0.0151311  0.000505216  0.0106893  0.00940849  0.00942763  0.0122625  -0.0100035  -0.0469937  0.0394559  -0.00414795 
1701447058.498538000  0  0  11.6899  -0.02002  -0.0782915  0.00824117  nan  nan  nan  nan  nan  nan  -2  -1  1.5  -0.0112258  -0.0131721  0.000147869  0  0  0  0  0  0  0  0  0  0.00741758  -0.0116515  -0.0151083  0.000627943  0.0113125  0.00810464  0.00869561  0.0125527  -0.0100015  -0.0399595  0.0410983  -0.00300014 
1701447058.503549000  0  0  11.7309  -0.00789866  -0.0757543  0.00851628  nan  nan  nan  nan  nan  nan  -2  -1  1.5  -0.0112468  -0.0130426  0.000146689  0  0  0  0  0  0  0  0  0  0.00739949  -0.0116988  -0.0151583  0.000559447  0.0113391  0.00478821  0.00826541  0.0125716  -0.0100471  -0.0602444  0.0358503  -0.00598289 
1701447058.508532000  0  0  11.6965  -0.0133667  -0.0703733  0.0086357  nan  nan  nan  nan  nan  nan  -2  -1  1.5  -0.0114095  -0.0131829  0.000150412  0  0  0  0  0  0  0  0  0  0.00738632  -0.011744  -0.0151598  0.000721105  0.0112712  0.00766461  0.00819781  0.0127397  -0.0100958  -0.0486865  0.0235411  -0.00698862 
1701447058.513540000  0  0  11.7476  -0.0168936  -0.074043  0.0088901  nan  nan  nan  nan  nan  nan  -2  -1  1.5  -0.0106849  -0.0129113  0.000137958  0  0  0  0  0  0  0  0  0  0.00738697  -0.0116843  -0.0151592  0.000439766  0.0120193  0.0034024  0.00741387  0.0126728  -0.0101583  -0.0344203  0.0314964  -0.00954362 
1701447058.518547000  0  0  11.7133  0.00112704  -0.0628222  0.00841452  nan  nan  nan  nan  nan  nan  -2  -1  1.5  -0.0111241  -0.0128986  0.000143487  0  0  0  0  0  0  0  0  0  0.00737326  -0.0117338  -0.0151676  0.000404579  0.0115986  0.00628315  0.00724267  0.0125976  -0.0101278  -0.0688867  0.00974622  -0.00390345 
1701447058.522506000  0  0  11.6841  -0.00642399  -0.0518518  0.00836707  nan  nan  nan  nan  nan  nan  -2  -1  1.5  -0.0108294  -0.0129554  0.0001403  0  0  0  0  0  0  0  0  0  0.00737495  -0.0116874  -0.0151257  0.000432446  0.0119141  0.00863296  0.0068727  0.0124627  -0.0101369  -0.0503809  -0.0109531  -0.00321915 
1701447058.528556000  0  0  11.7441  -0.016051  -0.0584968  0.00763134  nan  nan  nan  nan  nan  nan  -2  -1  1.5  -0.0108046  -0.0127511  0.000137772  0  0  0  0  0  0  0  0  0  0.00735994  -0.0117183  -0.0151845  0.000285558  0.011943  0.00375336  0.00686839  0.0123567  -0.0100513  -0.0310872  0.00331215  0.00512134 
1701447058.533550000  0  0  11.7094  -0.013394  -0.0490439  0.00771837  nan  nan  nan  nan  nan  nan  -2  -1  1.5  -0.0113406  -0.0127331  0.000144403  0  0  0  0  0  0  0  0  0  0.00734699  -0.0117699  -0.015184  0.000242006  0.0114019  0.00664365  0.00713109  0.0121774  -0.0100357  -0.038818  -0.0139446  0.0038777 
1701447058.538550000  0  0  11.712  -0.036697  -0.041032  0.00788427  nan  nan  nan  nan  nan  nan  -2  -1  1.5  -0.0108959  -0.0127059  0.000138443  0  0  0  0  0  0  0  0  0  0.00734783  -0.0117106  -0.0151555  0.000208126  0.0118457  0.00637254  0.00701158  0.0119068  -0.010043  0.00888752  -0.0274786  0.00187672 
1701447058.543551000  0  0  11.7558  -0.0327901  -0.0491149  0.00801401  nan  nan  nan  nan  nan  nan  -2  -1  1.5  -0.0111273  -0.0125568  0.000139725  0  0  0  0  0  0  0  0  0  0.00732976  -0.0117567  -0.0152173  0.000115518  0.0115927  0.00284792  0.00719994  0.0118213  -0.0100528  -0.000659188  -0.0105263  0.000352735 
1701447058.547500000  0  0  11.7381  -0.0263596  -0.0454342  0.0081302  nan  nan  nan  nan  nan  nan  -2  -1  1.5  -0.0110805  -0.0125884  0.000139489  0  0  0  0  0  0  0  0  0  0.0073304  -0.0117127  -0.0151883  0.000130555  0.011578  0.00426778  0.00700857  0.0117496  -0.0100676  -0.0117595  -0.0172276  -0.000951069 
1701447058.553503000  0  0  11.7437  -0.0553066  -0.0280733  0.00830356  nan  nan  nan  nan  nan  nan  -2  -1  1.5  -0.011298  -0.0124108  0.00014022  0  0  0  0  0  0  0  0  0  0.00731872  -0.0117596  -0.0152189  -6.74703e-05  0.0113913  0.00386698  0.00778681  0.0111048  -0.0101077  0.0389745  -0.0460178  -0.00271791 
1701447058.558553000  0  0  11.7806  -0.0457504  -0.0445402  0.00763971  nan  nan  nan  nan  nan  nan  -2  -1  1.5  -0.0116074  -0.0121671  0.000141232  0  0  0  0  0  0  0  0  0  0.00729795  -0.01181  -0.0152869  -0.000289278  0.0110519  0.000930294  0.00809599  0.0110338  -0.0100334  0.0170177  -0.0124302  0.00483761 
1701447058.563552000  0  0  11.7533  -0.0588404  -0.0320175  0.0081488  nan  nan  nan  nan  nan  nan  -2  -1  1.5  -0.0114305  -0.0123152  0.000140771  0  0  0  0  0  0  0  0  0  0.00729828  -0.0117548  -0.015259  -0.000133595  0.0111958  0.00314874  0.00825235  0.0108646  -0.0100733  0.0417592  -0.0359188  -0.00112681 
1701447058.568555000  0  0  11.7866  -0.0726549  -0.033711  0.00780679  nan  nan  nan  nan  nan  nan  -2  -1  1.5  -0.0116064  -0.0122272  0.000141916  0  0  0  0  0  0  0  0  0  0.007285  -0.0118144  -0.0153221  -0.000173697  0.0110554  0.000503342  0.00894213  0.0106155  -0.0100574  0.0630421  -0.0302409  0.00298932 
1701447058.573882000  0  0  11.8106  -0.0587578  -0.0471944  0.00711639  nan  nan  nan  nan  nan  nan  -2  -1  1.5  -0.0121408  -0.0119728  0.000145363  0  0  0  0  0  0  0  0  0  0.00726873  -0.0118785  -0.0153824  -0.000438633  0.0104656  -0.00137075  0.0094306  0.0105537  -0.00995083  0.0307541  -0.00270534  0.0105534 
1701447058.578554000  0  0  11.778  -0.0708969  -0.035333  0.00791085  nan  nan  nan  nan  nan  nan  -2  -1  1.5  -0.0120322  -0.0121537  0.00014624  0  0  0  0  0  0  0  0  0  0.0072688  -0.0118302  -0.0153598  -0.000245358  0.0105443  0.00129799  0.00970597  0.0104459  -0.0100191  0.0524988  -0.0254359  0.00130515 
1701447058.583498000  0  0  11.8011  -0.0786099  -0.0365092  0.00848738  nan  nan  nan  nan  nan  nan  -2  -1  1.5  -0.0122665  -0.0120679  0.000148036  0  0  0  0  0  0  0  0  0  0.00725642  -0.0119002  -0.0154224  -0.000299068  0.0103618  -0.000497546  0.0103423  0.0102822  -0.0100974  0.0620704  -0.0215777  -0.00511794 
1701447058.588567000  0  0  11.7936  -0.0488792  -0.06106  0.00845607  nan  nan  nan  nan  nan  nan  -2  -1  1.5  -0.0121702  -0.0123021  0.000149723  0  0  0  0  0  0  0  0  0  0.00725722  -0.0118489  -0.0154208  -3.86384e-06  0.010384  0.000114775  0.00990319  0.0109683  -0.0101155  0.00664912  0.021212  -0.00454572 
1701447058.593554000  0  0  11.7577  -0.0686983  -0.0506213  0.00822605  nan  nan  nan  nan  nan  nan  -2  -1  1.5  -0.012439  -0.0122791  0.000152744  0  0  0  0  0  0  0  0  0  0.00724412  -0.01192  -0.015447  -5.37715e-05  0.0102394  0.00316242  0.010585  0.0108353  -0.0101185  0.0400148  0.00155806  -0.00164029 
1701447058.598505000  0  0  11.7716  -0.0621821  -0.0576576  0.00787375  nan  nan  nan  nan  nan  nan  -2  -1  1.5  -0.0126657  -0.012221  0.000154793  0  0  0  0  0  0  0  0  0  0.00723236  -0.0119892  -0.0154984  -8.46042e-05  0.0100774  0.00211313  0.010836  0.0109491  -0.0100804  0.024673  0.0145837  0.00238234 
1701447058.603499000  0  0  11.7587  -0.0409218  -0.0757711  0.00750741  nan  nan  nan  nan  nan  nan  -2  -1  1.5  -0.0124924  -0.0124695  0.000155778  0  0  0  0  0  0  0  0  0  0.00723433  -0.0119397  -0.0154831  0.000218286  0.010212  0.00314838  0.0103247  0.011639  -0.0100118  -0.0131432  0.0444632  0.00627544 
1701447058.608552000  0  0  11.7471  -0.049692  -0.0686959  0.00795393  nan  nan  nan  nan  nan  nan  -2  -1  1.5  -0.0126843  -0.0126226  0.000160113  0  0  0  0  0  0  0  0  0  0.00722833  -0.0120052  -0.0155111  0.000415431  0.0101233  0.00417432  0.0106303  0.0118377  -0.010051  0.00158496  0.0284847  0.00108577 
1701447058.613503000  0  0  11.7621  -0.0317216  -0.0817866  0.00770061  nan  nan  nan  nan  nan  nan  -2  -1  1.5  -0.0122077  -0.0126611  0.000154566  0  0  0  0  0  0  0  0  0  0.00722995  -0.0119531  -0.0155072  0.000483105  0.0106091  0.00291092  0.00982774  0.0122668  -0.0100127  -0.026972  0.0507188  0.00386968 
1701447058.618504000  0  0  11.7621  -0.0100144  -0.0891363  0.00794212  nan  nan  nan  nan  nan  nan  -2  -1  1.5  -0.0124875  -0.0128743  0.000160772  0  0  0  0  0  0  0  0  0  0.00722669  -0.0120182  -0.0155371  0.000769058  0.0103884  0.00298019  0.00945018  0.0128879  -0.0100311  -0.0669129  0.059704  0.00103496 
1701447058.623552000  0  0  11.7382  -0.0161842  -0.0760263  0.00879374  nan  nan  nan  nan  nan  nan  -2  -1  1.5  -0.0118456  -0.0130244  0.000154285  0  0  0  0  0  0  0  0  0  0.00723107  -0.0119617  -0.0155064  0.000920649  0.0111331  0.00491036  0.00871173  0.0129771  -0.010148  -0.0477795  0.0326631  -0.00844206 
1701447058.628554000  0  0  11.7493  -0.00639989  -0.0895583  0.00889371  nan  nan  nan  nan  nan  nan  -2  -1  1.5  -0.0119988  -0.0129939  0.000155915  0  0  0  0  0  0  0  0  0  0.00722832  -0.0120233  -0.0155413  0.000903304  0.0110554  0.00404815  0.00840907  0.0134209  -0.0101991  -0.0645636  0.0556446  -0.00918058 
1701447058.633495000  0  0  11.7393  -0.00621117  -0.0733956  0.00942629  nan  nan  nan  nan  nan  nan  -2  -1  1.5  -0.0123285  -0.0132404  0.000163238  0  0  0  0  0  0  0  0  0  0.00722737  -0.0120825  -0.0155613  0.0012126  0.0107701  0.00492853  0.00839728  0.0135778  -0.0103146  -0.0648326  0.0218757  -0.0146828 
1701447058.638555000  0  0  11.7205  -0.0125432  -0.0609142  0.00920014  nan  nan  nan  nan  nan  nan  -2  -1  1.5  -0.0117666  -0.0131846  0.00015514  0  0  0  0  0  0  0  0  0  0.00723143  -0.0120252  -0.0155272  0.00110285  0.0114004  0.00642908  0.00776054  0.013309  -0.0103488  -0.0463106  -0.000614452  -0.0115137 
1701447058.643554000  0  0  11.7654  -0.00828942  -0.0799209  0.00847656  nan  nan  nan  nan  nan  nan  -2  -1  1.5  -0.0121236  -0.0131381  0.000159285  0  0  0  0  0  0  0  0  0  0.00722975  -0.0120838  -0.0155784  0.00111179  0.0110052  0.00279291  0.00776474  0.0137078  -0.0102974  -0.0548568  0.0337301  -0.00298264 
1701447058.648555000  0  0  11.7403  -0.0188453  -0.0554918  0.00837236  nan  nan  nan  nan  nan  nan  -2  -1  1.5  -0.0117762  -0.0130682  0.000153897  0  0  0  0  0  0  0  0  0  0.00723362  -0.012028  -0.0155416  0.000975144  0.0113682  0.00481215  0.00741683  0.0132912  -0.0102979  -0.0305443  -0.0112954  -0.00167541 
1701447058.653504000  0  0  11.7464  -0.0216336  -0.0518102  0.0075612  nan  nan  nan  nan  nan  nan  -2  -1  1.5  -0.0119171  -0.0130222  0.000155189  0  0  0  0  0  0  0  0  0  0.00723153  -0.0120818  -0.015567  0.000928493  0.011296  0.00436114  0.00747073  0.0131216  -0.0101996  -0.0254635  -0.0170983  0.00748109 
1701447058.658555000  0  0  11.7597  -0.0252264  -0.055184  0.00770392  nan  nan  nan  nan  nan  nan  -2  -1  1.5  -0.0123176  -0.0130696  0.00016099  0  0  0  0  0  0  0  0  0  0.00722746  -0.0121362  -0.015598  0.00101893  0.010876  0.00332006  0.0077656  0.0131995  -0.0101911  -0.0209908  -0.0110672  0.00561196 
1701447058.663554000  0  0  11.7441  -0.0383246  -0.0361503  0.00828557  nan  nan  nan  nan  nan  nan  -2  -1  1.5  -0.0120535  -0.012997  0.000156663  0  0  0  0  0  0  0  0  0  0.00723103  -0.0120817  -0.0155689  0.000893436  0.0111208  0.00455722  0.00774056  0.012654  -0.0102547  0.00543607  -0.0441165  -0.00102225 
1701447058.668555000  0  0  11.7638  -0.0398301  -0.0386848  0.00801654  nan  nan  nan  nan  nan  nan  -2  -1  1.5  -0.0123333  -0.012933  0.000159511  0  0  0  0  0  0  0  0  0  0.0072237  -0.0121354  -0.0156042  0.000854611  0.0108482  0.00299332  0.00805208  0.0124527  -0.0102276  0.00558113  -0.0371954  0.00206925 
1701447058.673504000  0  0  11.7779  -0.0486167  -0.0362027  0.00799133  nan  nan  nan  nan  nan  nan  -2  -1  1.5  -0.0120866  -0.01282  0.000154953  0  0  0  0  0  0  0  0  0  0.00722673  -0.0120819  -0.0155977  0.000720158  0.0110328  0.00180473  0.00804243  0.0121332  -0.0102158  0.023243  -0.0392197  0.00226595 
1701447058.678550000  0  0  11.7537  -0.0574701  -0.0234357  0.00819865  nan  nan  nan  nan  nan  nan  -2  -1  1.5  -0.0125256  -0.0127596  0.000159826  0  0  0  0  0  0  0  0  0  0.00721651  -0.0121396  -0.0156083  0.000629488  0.0106203  0.00385118  0.00876831  0.0116069  -0.0102441  0.0342717  -0.0599118  -4.17489e-05 
1701447058.683544000  0  0  11.7705  -0.057941  -0.0313973  0.00834427  nan  nan  nan  nan  nan  nan  -2  -1  1.5  -0.0129165  -0.0126898  0.000163913  0  0  0  0  0  0  0  0  0  0.00720336  -0.0122029  -0.0156426  0.000591426  0.0102264  0.00252197  0.00927642  0.0114528  -0.0102653  0.030539  -0.0425708  -0.00165027 
1701447058.688550000  0  0  11.7812  -0.0733292  -0.0219448  0.00914294  nan  nan  nan  nan  nan  nan  -2  -1  1.5  -0.0127069  -0.0125885  0.000159966  0  0  0  0  0  0  0  0  0  0.00720507  -0.0121518  -0.015638  0.000470042  0.0103716  0.00161862  0.00954538  0.0110049  -0.0103699  0.0588408  -0.0573557  -0.0105875 
1701447058.693495000  0  0  11.7416  -0.0716613  -0.0186629  0.00945958  nan  nan  nan  nan  nan  nan  -2  -1  1.5  -0.0130865  -0.0125718  0.000164526  0  0  0  0  0  0  0  0  0  0.00719095  -0.0122151  -0.0156405  0.000424327  0.0100731  0.00492853  0.0101186  0.0106616  -0.0104696  0.0502314  -0.0607612  -0.0135483 
1701447058.700551000  0  0  11.7813  -0.0788568  -0.0385715  0.00856217  nan  nan  nan  nan  nan  nan  -2  -1  1.5  -0.013378  -0.0124219  0.000166186  0  0  0  0  0  0  0  0  0  0.00717434  -0.0122613  -0.0156773  0.00032059  0.00973624  0.00168718  0.0108216  0.0106305  -0.0104356  0.0581548  -0.0206573  -0.00267146 
1701447058.705540000  0  0  11.76  -0.0760763  -0.0314485  0.0087687  nan  nan  nan  nan  nan  nan  -2  -1  1.5  -0.0129274  -0.0124251  0.000160629  0  0  0  0  0  0  0  0  0  0.00717581  -0.0122095  -0.0156515  0.000291878  0.0102417  0.00341218  0.0106333  0.0103857  -0.0104756  0.0543258  -0.0326512  -0.00485247 
1701447058.710543000  0  0  11.7425  -0.0620882  -0.048463  0.00766325  nan  nan  nan  nan  nan  nan  -2  -1  1.5  -0.013437  -0.0124435  0.000167209  0  0  0  0  0  0  0  0  0  0.00715983  -0.0122766  -0.0156501  0.000327547  0.009751  0.00486432  0.0110596  0.0106035  -0.0103543  0.0224283  -0.000626512  0.00775266 
1701447058.715577000  0  0  11.7858  -0.0704148  -0.054622  0.00733817  nan  nan  nan  nan  nan  nan  -2  -1  1.5  -0.0137318  -0.0123513  0.000169612  0  0  0  0  0  0  0  0  0  0.00714142  -0.0123407  -0.0156872  0.000307803  0.00944267  0.00132909  0.0115929  0.0106679  -0.0102783  0.0341746  0.011099  0.0110556 
1701447058.720558000  0  0  11.7459  -0.0565869  -0.054356  0.00776388  nan  nan  nan  nan  nan  nan  -2  -1  1.5  -0.0133733  -0.0126387  0.000169027  0  0  0  0  0  0  0  0  0  0.00714536  -0.0122914  -0.0156491  0.00061921  0.00986192  0.00457626  0.0111776  0.0109606  -0.0102815  0.0103398  0.00787409  0.00576608 
1701447058.725545000  0  0  11.7487  -0.0484382  -0.0684517  0.00764683  nan  nan  nan  nan  nan  nan  -2  -1  1.5  -0.0135509  -0.0127028  0.000172139  6e-07  6e-07  -6e-07  0  0  0  0.000375  0.000375  -0.000375  0.00713145  -0.0123545  -0.0156596  0.000786281  0.00981454  0.00432705  0.0112073  0.0113478  -0.0102388  -0.00623032  0.0325038  0.00680242 
1701447058.730548000  0  0  11.7558  -0.0510367  -0.0710323  0.00810786  nan  nan  nan  nan  nan  nan  -2  -1  1.5  -0.0134543  -0.0126412  0.000170084  5e-06  5e-06  -5e-06  0  0  0  0.0015  0.0015  -0.0015  0.00713486  -0.0123064  -0.0156461  0.000853716  0.00996844  0.00359374  0.0111447  0.0115012  -0.0102639  -0.000457535  0.0362533  0.0012912 
1701447058.735538000  0  0  11.7162  -0.0408918  -0.0698724  0.00896423  nan  nan  nan  nan  nan  nan  -2  -1  1.5  -0.0137031  -0.0129306  0.000177196  1.69e-05  1.69e-05  -1.69e-05  0  0  0  0.003375  0.003375  -0.003375  0.007133  -0.0123704  -0.0156363  0.00142136  0.0100884  0.00669808  0.0111612  0.0119061  -0.0103799  -0.0208998  0.0302083  -0.00825401 
1701447058.740644000  0  0  11.7284  -0.0321801  -0.0894743  0.00919828  nan  nan  nan  nan  nan  nan  -2  -1  1.5  -0.0140996  -0.0127359  0.000179679  4e-05  4e-05  -4e-05  0  0  0  0.006  0.006  -0.006  0.00712639  -0.0124298  -0.0156391  0.00153934  0.0100241  0.00542374  0.011186  0.0123062  -0.010441  -0.0385511  0.0657318  -0.010568 
1701447058.745508000  0  0  11.714  -0.0388993  -0.078614  0.00952197  nan  nan  nan  nan  nan  nan  -2  -1  1.5  -0.0140576  -0.0124183  0.000174879  7.81e-05  7.81e-05  -7.81e-05  0  0  0  0.009375  0.009375  -0.009375  0.00713276  -0.01238  -0.0156073  0.00152733  0.0104267  0.00623431  0.0111138  0.0120945  -0.0105248  -0.024448  0.0459582  -0.0137769 
1701447058.750633000  0  0  11.6524  -0.0212464  -0.0704924  0.00937458  nan  nan  nan  nan  nan  nan  -2  -0.999999  1.5  -0.01478  -0.0122625  0.000181748  0.000135  0.000135  -0.000135  0  0  0  0.0135  0.0135  -0.0135  0.00713163  -0.0124341  -0.0155693  0.00177629  0.0102409  0.010895  0.011334  0.0120115  -0.0105776  -0.0617804  0.0304793  -0.011406 
1701447058.754559000  0  0  11.6825  -0.0226769  -0.0750015  0.00911621  nan  nan  nan  nan  nan  nan  -2  -0.999998  1.5  -0.0147949  -0.0118511  0.000176344  0.0002144  0.0002144  -0.0002144  0  0  0  0.018375  0.018375  -0.018375  0.00713941  -0.012392  -0.0155625  0.00189578  0.0107086  0.00790171  0.0111486  0.0118277  -0.0105814  -0.0572132  0.0411879  -0.00813866 
1701447058.760690000  0  0  11.6727  -0.025384  -0.0630624  0.00865378  nan  nan  nan  nan  nan  nan  -2  -0.999997  1.5  -0.0154292  -0.0110862  0.000172762  0.00032  0.00032  -0.00032  0  0  0  0.024  0.024  -0.024  0.00713878  -0.0124327  -0.0155563  0.00161912  0.0107191  0.00816201  0.0114903  0.011177  -0.0105753  -0.0549424  0.0232965  -0.00241952 
1701447058.765557000  0  0  11.6161  -0.0170632  -0.0513871  0.00831721  nan  nan  nan  nan  nan  nan  -1.99999  -0.999995  1.49999  -0.0164284  -0.0104068  0.00017368  0.0004556  0.0004556  -0.0004556  0  0  0  0.030375  0.030375  -0.030375  0.00713102  -0.0124878  -0.015514  0.0015136  0.0104725  0.0121803  0.0119914  0.0104589  -0.0105492  -0.0761946  0.00655213  0.00152672 
1701447058.770557000  0  0  11.6979  -0.0271749  -0.0473935  0.00827207  nan  nan  nan  nan  nan  nan  -1.99999  -0.999992  1.49999  -0.0164615  -0.0094467  0.000159719  0.000625  0.000625  -0.000625  0  0  0  0.0375  0.0375  -0.0375  0.00713979  -0.0124326  -0.0155287  0.00126117  0.0110781  0.00470412  0.0118696  0.00953187  -0.0105279  -0.0548501  0.00709378  0.00187768 
1701447058.775556000  0  0  11.6838  -0.0292112  -0.0351481  0.0083946  nan  nan  nan  nan  nan  nan  -1.99999  -0.999989  1.49999  -0.0174938  -0.00852465  0.000155242  0.0008319  0.0008319  -0.0008319  0  0  0  0.045375  0.045375  -0.045375  0.0071369  -0.0124738  -0.0155355  0.0010734  0.0108727  0.00514028  0.0125874  0.00848549  -0.0105455  -0.0573818  -0.00777025  0.000522975 
1701447058.780552000  0  0  11.6562  -0.028294  -0.0250219  0.00854449  nan  nan  nan  nan  nan  nan  -1.99998  -0.999984  1.49998  -0.018332  -0.00752035  0.000146477  0.00108  0.00108  -0.00108  0  0  0  0.054  0.054  -0.054  0.00713668  -0.0124216  -0.0154873  0.000861447  0.0108391  0.00651374  0.0130816  0.00734852  -0.0105539  -0.0637631  -0.0175626  -0.00126697 
1701447058.785545000  0  0  11.7311  -0.0480674  -0.0240489  0.00862169  nan  nan  nan  nan  nan  nan  -1.99998  -0.999978  1.49998  -0.0193404  -0.0061396  0.000130657  0.0013731  0.0013731  -0.0013731  0  0  0  0.063375  0.063375  -0.063375  0.00713332  -0.0124698  -0.0155582  0.000343029  0.0106903  -0.000481816  0.0141207  0.00602328  -0.0105738  -0.0337758  -0.00731642  -0.00203338 
1701447058.790546000  0  0  11.6859  -0.0489244  -0.0120986  0.00861156  nan  nan  nan  nan  nan  nan  -1.99997  -0.99997  1.49997  -0.0208122  -0.00498074  0.000119675  0.001715  0.001715  -0.001715  0  0  0  0.0735  0.0735  -0.0735  0.00712305  -0.0125183  -0.0155603  0.000138612  0.0102922  0.0023218  0.0153309  0.00471801  -0.0105824  -0.0431951  -0.0192086  -0.00182007 
1701447058.795550000  0  0  11.6596  -0.0540961  -0.00857045  0.00855523  nan  nan  nan  nan  nan  nan  -1.99996  -0.99996  1.49996  -0.0219559  -0.00369465  0.000102232  0.0021094  0.0021094  -0.0021094  0  0  0  0.084375  0.084375  -0.084375  0.00712313  -0.0124687  -0.0155345  -0.000137207  0.0101662  0.00341513  0.0162889  0.00339621  -0.0105786  -0.0416654  -0.0141042  -0.0011539 
1701447058.800545000  0  0  11.7113  -0.0774148  -0.00876912  0.0082005  nan  nan  nan  nan  nan  nan  -1.99995  -0.999949  1.49995  -0.0233852  -0.0019425  7.27341e-05  0.00256  0.00256  -0.00256  0  0  0  0.096  0.096  -0.096  0.00710865  -0.0125198  -0.0155999  -0.000862048  0.00979492  -0.00188336  0.0178701  0.00177034  -0.0105369  -0.00957553  0.00125107  0.00286287 
1701447058.805560000  0  0  11.6552  -0.0734194  4.77159e-05  0.00838744  nan  nan  nan  nan  nan  nan  -1.99993  -0.999935  1.49993  -0.0247496  -0.000535766  4.80627e-05  0.0030706  0.0030706  -0.0030706  0  0  0  0.108375  0.108375  -0.108375  0.00710001  -0.0124714  -0.0155631  -0.00107806  0.00966478  0.00152602  0.0189805  0.000326982  -0.0105445  -0.0277819  -0.00310367  0.000601989 
1701447058.810504000  0  0  11.6156  -0.0832122  -2.68795e-06  0.00859976  nan  nan  nan  nan  nan  nan  -1.99992  -0.999918  1.49992  -0.026885  0.00104517  1.55937e-05  0.003645  0.003645  -0.003645  0  0  0  0.1215  0.1215  -0.1215  0.00708933  -0.0125304  -0.0155799  -0.00140177  0.00884396  0.00360405  0.0209983  -0.00109036  -0.0105663  -0.0267597  0.0100366  -0.00183399 
1701447058.815556000  0  0  11.668  -0.0992583  -0.018176  0.00856384  nan  nan  nan  nan  nan  nan  -1.9999  -0.999898  1.4999  -0.0285523  0.0027019  -2.28661e-05  0.0042869  0.0042869  -0.0042869  0  0  0  0.135375  0.135375  -0.135375  0.00707021  -0.0125847  -0.0156526  -0.00172131  0.00843852  -0.00194586  0.0227439  -0.00214602  -0.0105628  -0.0107276  0.0560953  -0.00142036 
1701447058.820548000  0  0  11.5935  -0.0930139  -0.0129333  0.00839918  nan  nan  nan  nan  nan  nan  -1.99988  -0.999875  1.49988  -0.03032  0.00448469  -6.93167e-05  0.005  0.005  -0.005  0  0  0  0.15  0.15  -0.15  0.0070646  -0.0125431  -0.0156197  -0.00209457  0.00819437  0.00279406  0.0241804  -0.00359801  -0.0105335  -0.0364318  0.0589683  0.000344969 
1701447058.825554000  0  0  11.5756  -0.105166  -0.0131083  0.0087084  nan  nan  nan  nan  nan  nan  -1.99985  -0.999848  1.49985  -0.0325548  0.00625603  -0.000122734  0.0057881  0.0057881  -0.0057881  0  0  0  0.165375  0.165375  -0.165375  0.00704286  -0.0126105  -0.0156421  -0.00233075  0.00751556  0.00286147  0.0263015  -0.00489676  -0.0105576  -0.031641  0.0712668  -0.00327923 
1701447058.830548000  0  0  11.587  -0.0997988  -0.0231899  0.00881027  nan  nan  nan  nan  nan  nan  -1.99982  -0.999817  1.49982  -0.0341842  0.00819577  -0.000182672  0.006655  0.006655  -0.006655  0  0  0  0.1815  0.1815  -0.1815  0.00703168  -0.012572  -0.0156584  -0.00272968  0.00737444  0.000414057  0.0275949  -0.00612151  -0.0105695  -0.0542758  0.102698  -0.00443319 
1701447058.835539000  0  0  11.511  -0.094902  -0.0252093  0.00889685  nan  nan  nan  nan  nan  nan  -1.99978  -0.999781  1.49978  -0.0369368  0.0102246  -0.000261229  0.0076044  0.0076044  -0.0076044  0  0  0  0.198375  0.198375  -0.198375  0.00700859  -0.0126446  -0.0156378  -0.00302673  0.00648354  0.00511272  0.0297396  -0.00740541  -0.0105717  -0.0838007  0.118548  -0.00549333 
1701447058.840497000  0  0  11.5008  -0.105905  -0.0207968  0.0091343  nan  nan  nan  nan  nan  nan  -1.99974  -0.999741  1.49974  -0.0394954  0.0123572  -0.000350095  0.00864  0.00864  -0.00864  0  0  0  0.216  0.216  -0.216  0.00698975  -0.012713  -0.0156519  -0.00342525  0.00568439  0.00432409  0.0319166  -0.00886371  -0.0105969  -0.0818216  0.12314  -0.00821025 
1701447058.845562000  0  0  11.5122  -0.0891195  -0.0380599  0.0092713  nan  nan  nan  nan  nan  nan  -1.99969  -0.999695  1.49969  -0.0411113  0.0146507  -0.000439825  0.0097656  0.0097656  -0.0097656  0  0  0  0.234375  0.234375  -0.234375  0.00696766  -0.0126793  -0.0156546  -0.00395503  0.00586808  0.00165094  0.0326784  -0.00999008  -0.0106209  -0.122402  0.168029  -0.00968267 
1701447058.850552000  0  0  11.4252  -0.0896439  -0.0344504  0.0100108  nan  nan  nan  nan  nan  nan  -1.99964  -0.999643  1.49964  -0.0441858  0.0169027  -0.000556911  0.010985  0.010985  -0.0109839  0  0  0  0.2535  0.2535  -0.252793  0.00694965  -0.0127497  -0.0156275  -0.004167  0.00499043  0.00713429  0.0349342  -0.0113131  -0.0107113  -0.142107  0.172982  -0.0180217 
1701447058.855552000  0  0  11.4222  -0.0918292  -0.0337378  0.0106504  nan  nan  nan  nan  nan  nan  -1.99958  -0.999585  1.49958  -0.046252  0.0193738  -0.000675258  0.0123019  0.0123019  -0.0122923  0  0  0  0.273375  0.273375  -0.270462  0.00692597  -0.0127229  -0.0156144  -0.00468272  0.00489349  0.00571569  0.0362457  -0.0127721  -0.0108346  -0.149802  0.184979  -0.0247845 
1701447058.860552000  0  0  11.4078  -0.0740883  -0.0413405  0.0100895  nan  nan  nan  nan  nan  nan  -1.99952  -0.99952  1.49952  -0.049079  0.0219967  -0.000824357  0.01372  0.01372  -0.0136872  0  0  0  0.294  0.294  -0.287381  0.00691018  -0.0127932  -0.01562  -0.00528431  0.0042089  0.00539488  0.0378218  -0.0141318  -0.010821  -0.199785  0.212694  -0.0179086 
1701447058.865544000  0  0  11.3291  -0.0734178  -0.0282021  0.00980988  nan  nan  nan  nan  nan  nan  -1.99945  -0.999447  1.49945  -0.0523682  0.0247573  -0.00100305  0.0152431  0.0152431  -0.0151649  0  0  0  0.315375  0.315375  -0.30355  0.0068944  -0.0128632  -0.0155728  -0.00578059  0.00341862  0.0104001  0.0398722  -0.0158939  -0.0108043  -0.219988  0.202628  -0.0145808 
1701447058.870498000  0  0  11.327  -0.0749605  -0.0282007  0.0103824  nan  nan  nan  nan  nan  nan  -1.99937  -0.999367  1.49937  -0.0546599  0.0275629  -0.0011709  0.016875  0.016875  -0.0167215  0  0  0  0.3375  0.3375  -0.318969  0.00686479  -0.0128443  -0.0155443  -0.00639109  0.00336885  0.00913183  0.0410282  -0.0175127  -0.0108794  -0.227538  0.217518  -0.0209854 
1701447058.875547000  0  0  11.3232  -0.0517528  -0.0400384  0.00968051  nan  nan  nan  nan  nan  nan  -1.99928  -0.999278  1.49928  -0.0577158  0.0305251  -0.00137976  0.0186194  0.0186194  -0.0183533  0  0  0  0.360375  0.360375  -0.333638  0.00683947  -0.0129125  -0.0155283  -0.00710653  0.00266398  0.00816613  0.0422714  -0.0189031  -0.0108042  -0.285392  0.253985  -0.012964 
1701447058.880555000  0  0  11.2643  -0.0610206  -0.0166038  0.00905291  nan  nan  nan  nan  nan  nan  -1.99918  -0.999181  1.49918  -0.0607312  0.0338139  -0.00162079  0.02048  0.02048  -0.0200566  0  0  0  0.384  0.384  -0.347557  0.00680051  -0.0128983  -0.0154565  -0.00789922  0.00229892  0.0117329  0.0438905  -0.0211675  -0.0107085  -0.281751  0.227949  -0.00607663 
1701447058.885544000  0  0  11.2852  -0.0600069  -0.0187589  0.0085235  nan  nan  nan  nan  nan  nan  -1.99907  -0.999073  1.49908  -0.0637249  0.0367834  -0.00185596  0.0224606  0.0224606  -0.0218276  0  0  0  0.408375  0.408375  -0.360726  0.00677952  -0.0129814  -0.0154519  -0.00852104  0.00175052  0.0088881  0.0453387  -0.0227522  -0.01058  -0.297102  0.246838  -0.000743423 
1701447058.889553000  0  0  11.2784  -0.0413282  -0.0235284  0.00792709  nan  nan  nan  nan  nan  nan  -1.99896  -0.998956  1.49897  -0.0669757  0.0403775  -0.00215632  0.024565  0.024565  -0.0236626  0  0  0  0.4335  0.4335  -0.373145  0.00672799  -0.012998  -0.0154045  -0.00965778  0.00102467  0.00836112  0.0468851  -0.0250196  -0.0104038  -0.348687  0.277237  0.00494975 
1701447058.895549000  0  0  11.2235  -0.0536457  -0.00767324  0.00878756  nan  nan  nan  nan  nan  nan  -1.99883  -0.998828  1.49884  -0.0704984  0.0435924  -0.00246041  0.0267969  0.0267969  -0.0255578  0  0  0  0.459375  0.459375  -0.384814  0.00672027  -0.0130601  -0.0153539  -0.0100816  0.000540735  0.0119374  0.0484024  -0.0267082  -0.0103699  -0.338011  0.261062  -0.00614549 
1701447058.900545000  0  0  11.2458  -0.0531538  -0.0123424  0.00903699  nan  nan  nan  nan  nan  nan  -1.99869  -0.998688  1.49871  -0.073816  0.0470791  -0.00279262  0.02916  0.02916  -0.0275095  0  0  0  0.486  0.486  -0.395732  0.00668802  -0.0131181  -0.0153379  -0.01106  -0.000186623  0.00924518  0.0498819  -0.0285769  -0.0103177  -0.352606  0.287592  -0.00978552 
1701447058.905549000  0  0  11.2576  -0.0414793  -0.0156938  0.00957587  nan  nan  nan  nan  nan  nan  -1.99854  -0.998536  1.49857  -0.0770386  0.0507443  -0.00315172  0.0316581  0.0316581  -0.0295139  0  0  0  0.513375  0.513375  -0.405901  0.00663381  -0.0131194  -0.0153093  -0.0120756  -0.000744346  0.00751053  0.0509381  -0.0304704  -0.0103131  -0.385672  0.311715  -0.0165676 
1701447058.910551000  0  0  11.2167  -0.0577407  -0.00226884  0.0105088  nan  nan  nan  nan  nan  nan  -1.99837  -0.998371  1.49842  -0.0812598  0.0546587  -0.00360412  0.034295  0.034295  -0.0315673  0  0  0  0.5415  0.5415  -0.41532  0.00658535  -0.0131816  -0.0152594  -0.0130211  -0.00184947  0.0102135  0.0533256  -0.0328303  -0.0103479  -0.375114  0.306577  -0.0278809 
1701447058.915549000  0  0  11.2521  -0.0543191  -0.0107283  0.0102477  nan  nan  nan  nan  nan  nan  -1.99819  -0.998193  1.49825  -0.0845845  0.058529  -0.00402771  0.0370744  0.0370744  -0.0336659  0  0  0  0.570375  0.570375  -0.423989  0.00651636  -0.0131905  -0.0152333  -0.0142264  -0.00253417  0.00671187  0.0546491  -0.0347787  -0.0103121  -0.394134  0.341421  -0.0249753 
1701447058.920548000  0  0  11.2459  -0.0568243  -0.00575416  0.0101741  nan  nan  nan  nan  nan  nan  -1.998  -0.998  1.49808  -0.0887853  0.0624765  -0.00453344  0.04  0.04  -0.0358059  0  0  0  0.6  0.6  -0.431908  0.00647203  -0.01327  -0.0152092  -0.015239  -0.00367321  0.00679597  0.0566892  -0.0368695  -0.0102229  -0.407892  0.350708  -0.0249472 
1701447058.925548000  0  0  11.2066  -0.0829474  0.00438742  0.0101381  nan  nan  nan  nan  nan  nan  -1.99779  -0.997792  1.49789  -0.0931482  0.0666724  -0.00510094  0.0430756  0.0430756  -0.0379837  0  0  0  0.630375  0.630306  -0.439077  0.00642432  -0.0133475  -0.0151431  -0.016216  -0.00457717  0.00962794  0.0593183  -0.0392625  -0.0101118  -0.379833  0.35244  -0.0256087 
1701447058.930549000  0  0  11.2272  -0.0747709  -0.00789221  0.00943784  nan  nan  nan  nan  nan  nan  -1.99757  -0.997569  1.4977  -0.0970621  0.0708238  -0.0056632  0.0463048  0.0463022  -0.0401954  0  0  0  0.661272  0.660227  -0.445496  0.00634532  -0.0133729  -0.0151206  -0.0174345  -0.00568602  0.00769099  0.0610063  -0.0411826  -0.0099306  -0.411716  0.394664  -0.0186671 
1701447058.935548000  0  0  11.2289  -0.0806448  -0.00530344  0.00949177  nan  nan  nan  nan  nan  nan  -1.99733  -0.997329  1.49749  -0.101483  0.0748365  -0.00627657  0.0496872  0.0496766  -0.0424374  0  0  0  0.691571  0.689397  -0.451165  0.00628121  -0.0134696  -0.0150896  -0.0184607  -0.00716468  0.00742261  0.0632074  -0.0430358  -0.00977525  -0.420219  0.406536  -0.0208946 
1701447058.939546000  0  0  11.2017  -0.102861  0.0104911  0.00906809  nan  nan  nan  nan  nan  nan  -1.99707  -0.997072  1.49727  -0.106089  0.0797154  -0.00702648  0.0532192  0.053195  -0.0447058  0  0  0  0.721119  0.717818  -0.456084  0.00615036  -0.0135506  -0.0149983  -0.020287  -0.00865783  0.00948212  0.0662976  -0.046311  -0.00951556  -0.404215  0.405079  -0.0181956 
1701447058.945548000  0  0  11.2365  -0.0935171  -0.00838208  0.00733051  nan  nan  nan  nan  nan  nan  -1.9968  -0.996797  1.49704  -0.109271  0.0831711  -0.00753846  0.0568972  0.0568535  -0.046997  0  0  0  0.749918  0.745488  -0.460253  0.00610989  -0.013597  -0.0150241  -0.0211428  -0.00927426  0.00678224  0.0667328  -0.046824  -0.0091737  -0.426908  0.447545  0.000105634 
1701447058.950554000  0  0  11.2385  -0.0922608  -0.00935871  0.00758647  nan  nan  nan  nan  nan  nan  -1.9965  -0.996503  1.4968  -0.11356  0.0869092  -0.00819572  0.0607172  0.0606486  -0.0493071  0  0  0  0.777966  0.772409  -0.463672  0.0060322  -0.0137038  -0.0149836  -0.0221049  -0.0108427  0.00676572  0.0685851  -0.0481612  -0.00895058  -0.446461  0.4618  -0.00532509 
1701447058.955558000  0  0  11.2465  -0.102751  -0.0143438  0.00821486  nan  nan  nan  nan  nan  nan  -1.99619  -0.99619  1.49655  -0.117037  0.091052  -0.00885222  0.0646756  0.0645764  -0.0516324  0  0  0  0.805265  0.79858  -0.466341  0.00592219  -0.0137565  -0.014952  -0.023656  -0.0116836  0.00634301  0.0699085  -0.0497734  -0.00880878  -0.437657  0.486603  -0.014598 
1701447058.960551000  0  0  11.2713  -0.0897973  -0.030262  0.00856331  nan  nan  nan  nan  nan  nan  -1.99586  -0.995857  1.49629  -0.120939  0.0945689  -0.00949695  0.0687686  0.0686331  -0.0539693  0  0  0  0.831813  0.824  -0.46826  0.0058539  -0.0138802  -0.0149391  -0.0247976  -0.0132179  0.00470349  0.0711678  -0.0504406  -0.00865102  -0.475149  0.524577  -0.0205312 
1701447058.964510000  0  0  11.2564  -0.0923811  -0.0154994  0.00889995  nan  nan  nan  nan  nan  nan  -1.9955  -0.995504  1.49601  -0.12548  0.0991011  -0.0103543  0.0729924  0.0728151  -0.0563138  0  0  0  0.857612  0.848671  -0.469428  0.00567494  -0.0140084  -0.0148446  -0.0266876  -0.0150927  0.00626508  0.0735811  -0.0529896  -0.00844934  -0.492184  0.518503  -0.026756 
1701447058.970554000  0  0  11.2509  -0.087874  -0.0259725  0.00998505  nan  nan  nan  nan  nan  nan  -1.99513  -0.995129  1.49572  -0.128291  0.102031  -0.0108596  0.0773434  0.0771186  -0.0586623  0  0  0  0.88266  0.872591  -0.469847  0.00564339  -0.0140672  -0.0148662  -0.027016  -0.0151858  0.00736856  0.0733285  -0.0526462  -0.0085741  -0.498874  0.53629  -0.0390722 
1701447058.975554000  0  0  11.2739  -0.0652971  -0.0490151  0.00977376  nan  nan  nan  nan  nan  nan  -1.99473  -0.994732  1.49543  -0.13169  0.105173  -0.0114663  0.0818178  0.0815398  -0.061011  0  0  0  0.906958  0.895762  -0.469516  0.00554439  -0.014183  -0.0148782  -0.0279066  -0.0163789  0.00623224  0.0736132  -0.0525539  -0.00847114  -0.546648  0.581526  -0.0374605 
1701447058.980499000  0  0  11.2669  -0.0657383  -0.0374252  0.0100533  nan  nan  nan  nan  nan  nan  -1.99431  -0.994313  1.49511  -0.135226  0.108874  -0.012179  0.0864118  0.086075  -0.0633562  0  0  0  0.930507  0.918183  -0.468435  0.00540127  -0.0142698  -0.014823  -0.029169  -0.0174615  0.00750469  0.0743363  -0.053551  -0.00842268  -0.552417  0.56752  -0.0414397 
1701447058.985563000  0  0  11.2913  -0.0547466  -0.046442  0.00990974  nan  nan  nan  nan  nan  nan  -1.99386  -0.993871  1.49479  -0.137957  0.112001  -0.0127408  0.0911216  0.0907204  -0.0656941  0  0  0  0.953305  0.939853  -0.466604  0.00528996  -0.0143775  -0.0148368  -0.0302347  -0.0180628  0.00639744  0.0739747  -0.0535887  -0.00839538  -0.571074  0.5859  -0.0399179 
1701447058.990548000  0  0  11.3119  -0.0347804  -0.0652677  0.00893555  nan  nan  nan  nan  nan  nan  -1.9934  -0.993406  1.49446  -0.141042  0.114992  -0.0133362  0.0959436  0.0954722  -0.068021  0  0  0  0.975354  0.960774  -0.464023  0.0051891  -0.0145147  -0.0148227  -0.0312208  -0.0190833  0.00567803  0.0737217  -0.0532409  -0.00821235  -0.608679  0.620352  -0.0295709 
1701447058.995488000  0  0  11.2931  -0.0332369  -0.0543635  0.0089375  nan  nan  nan  nan  nan  nan  -1.9929  -0.992916  1.49411  -0.144338  0.118429  -0.0140336  0.100874  0.100327  -0.0703331  0  0  0  0.996652  0.980944  -0.460692  0.00502185  -0.0146154  -0.0147643  -0.0322298  -0.0199195  0.00819669  0.0739082  -0.0538263  -0.00810672  -0.613482  0.603929  -0.0306516 
1701447059.000559000  0  0  11.3401  -0.0133249  -0.0677065  0.0091754  nan  nan  nan  nan  nan  nan  -1.99239  -0.992402  1.49375  -0.146715  0.121193  -0.0145352  0.105909  0.10528  -0.0726267  0  0  0  1.0172  1.00036  -0.456611  0.00492007  -0.0147676  -0.014762  -0.0334712  -0.0206493  0.00545924  0.0727887  -0.0533255  -0.00811797  -0.643007  0.626008  -0.0335127 
1701447059.005494000  0  0  11.3669  -0.00218712  -0.0768783  0.00932259  nan  nan  nan  nan  nan  nan  -1.99184  -0.991864  1.49339  -0.149299  0.124386  -0.0151341  0.111045  0.110329  -0.074898  0  0  0  1.037  1.01904  -0.45178  0.00473759  -0.0148765  -0.0147443  -0.0349344  -0.0215014  0.00448113  0.0719735  -0.0532291  -0.00810934  -0.657782  0.643465  -0.035439 
1701447059.010556000  0  0  11.3209  -0.00138414  -0.0563154  0.0100791  nan  nan  nan  nan  nan  nan  -1.99128  -0.991299  1.49301  -0.152644  0.12714  -0.0157755  0.116278  0.11547  -0.0771432  0  0  0  1.05605  1.03696  -0.446199  0.00463008  -0.015027  -0.014691  -0.0351084  -0.0221185  0.00948814  0.0718845  -0.0532196  -0.00813756  -0.658569  0.602251  -0.0446136 
1701447059.015556000  0  0  11.3979  0.00664542  -0.0786946  0.00925732  nan  nan  nan  nan  nan  nan  -1.99068  -0.990709  1.49261  -0.154492  0.129402  -0.0161553  0.121604  0.120698  -0.0793587  0  0  0  1.07435  1.05413  -0.439868  0.00449373  -0.0151866  -0.0146992  -0.036391  -0.0230164  0.0045048  0.0703479  -0.0520772  -0.0081248  -0.660491  0.636499  -0.0344685 
1701447059.020554000  0  0  11.3936  0.00196146  -0.0732164  0.00935736  nan  nan  nan  nan  nan  nan  -1.99006  -0.990092  1.49221  -0.157292  0.132271  -0.0167606  0.12702  0.12601  -0.0815406  0  0  0  1.09189  1.07055  -0.432787  0.00431387  -0.0153043  -0.01466  -0.0373302  -0.0239089  0.00625889  0.0699141  -0.0518803  -0.00810531  -0.647133  0.623732  -0.0359139 
1701447059.025554000  0  0  11.349  -0.00419459  -0.0578245  0.00996239  nan  nan  nan  nan  nan  nan  -1.98941  -0.989448  1.4918  -0.160497  0.134958  -0.0174031  0.132522  0.131402  -0.0836853  0  0  0  1.10869  1.08622  -0.424955  0.00419806  -0.0154815  -0.0145917  -0.0376778  -0.0245617  0.0113454  0.0699344  -0.0518408  -0.00812295  -0.635008  0.592585  -0.0433004 
1701447059.029554000  0  0  11.408  -0.00879065  -0.0664647  0.00962267  nan  nan  nan  nan  nan  nan  -1.98873  -0.988778  1.49138  -0.163231  0.138202  -0.0180815  0.138105  0.13687  -0.0857889  0  0  0  1.12474  1.10114  -0.416374  0.00390197  -0.0157176  -0.0145077  -0.0400043  -0.0263992  0.00795871  0.0701551  -0.0524887  -0.00803829  -0.627846  0.615825  -0.0399004 
1701447059.035555000  0  0  11.4457  -0.00124071  -0.0823059  0.00988373  nan  nan  nan  nan  nan  nan  -1.98803  -0.98808  1.49094  -0.164413  0.139509  -0.0182288  0.143768  0.142412  -0.0878478  0  0  0  1.14004  1.11531  -0.407043  0.00385038  -0.0157644  -0.014563  -0.040095  -0.0265081  0.0065324  0.0675734  -0.0499761  -0.00827612  -0.619194  0.624392  -0.0407855 
1701447059.040560000  0  0  11.4304  -0.0112835  -0.0735913  0.00984508  nan  nan  nan  nan  nan  nan  -1.9873  -0.987354  1.4905  -0.166768  0.142144  -0.0187638  0.149505  0.148022  -0.0898581  0  0  0  1.15459  1.12873  -0.396962  0.00365541  -0.0158942  -0.0145049  -0.0409105  -0.0270059  0.00939623  0.067072  -0.04976  -0.00833148  -0.594495  0.604975  -0.0397487 
1701447059.045541000  0  0  11.4996  -0.00669689  -0.0835983  0.00964195  nan  nan  nan  nan  nan  nan  -1.98653  -0.986599  1.49004  -0.168353  0.144032  -0.019065  0.155312  0.153698  -0.0918162  0  0  0  1.16839  1.1414  -0.386131  0.00346853  -0.0160645  -0.0145016  -0.042199  -0.0281213  0.00544449  0.065666  -0.0485278  -0.00840899  -0.590734  0.613653  -0.0364345 
1701447059.050503000  0  0  11.5161  -0.0142903  -0.0719345  0.00974793  nan  nan  nan  nan  nan  nan  -1.98574  -0.985816  1.48958  -0.170476  0.146194  -0.0194933  0.161187  0.159435  -0.0937182  0  0  0  1.18144  1.15332  -0.37455  0.00327739  -0.0162465  -0.0144745  -0.0431241  -0.0290194  0.00586759  0.0650343  -0.0480018  -0.00846211  -0.569735  0.585485  -0.0372281 
1701447059.055555000  0  0  11.5029  -0.0207951  -0.0691225  0.00954909  nan  nan  nan  nan  nan  nan  -1.98492  -0.985005  1.48911  -0.172325  0.148399  -0.0198906  0.167125  0.16523  -0.0955604  0  0  0  1.19373  1.16449  -0.362219  0.00307178  -0.0163804  -0.0144236  -0.0436758  -0.0292238  0.00871036  0.064214  -0.047414  -0.00855691  -0.549179  0.574454  -0.0337946 
1701447059.060555000  0  0  11.5654  -0.0223238  -0.0741003  0.00949343  nan  nan  nan  nan  nan  nan  -1.98407  -0.984164  1.48862  -0.173855  0.150077  -0.0201492  0.173123  0.171079  -0.0973391  0  0  0  1.20528  1.17491  -0.349138  0.00288427  -0.0165774  -0.0144139  -0.0449318  -0.0304379  0.00547737  0.0630782  -0.0462499  -0.00864981  -0.535672  0.5737  -0.0321698 
1701447059.065554000  0  0  11.5695  -0.0343347  -0.0525461  0.00938382  nan  nan  nan  nan  nan  nan  -1.98319  -0.983294  1.48813  -0.175697  0.151991  -0.0204969  0.179177  0.176978  -0.0990506  0  0  0  1.21608  1.18458  -0.335307  0.00268976  -0.0167997  -0.0143661  -0.0456271  -0.0309825  0.00701453  0.062518  -0.0459451  -0.00869439  -0.506497  0.527787  -0.0303538 
1701447059.070493000  0  0  11.5501  -0.0279251  -0.0546313  0.00956307  nan  nan  nan  nan  nan  nan  -1.98228  -0.982394  1.48763  -0.177585  0.15399  -0.0208678  0.185283  0.182923  -0.100691  0  0  0  1.22613  1.1935  -0.320726  0.00245818  -0.0169624  -0.0142946  -0.0460389  -0.0313507  0.0105273  0.0618029  -0.0453664  -0.0088065  -0.512737  0.526634  -0.0314733 
1701447059.075554000  0  0  11.6338  -0.0255242  -0.073579  0.0094325  nan  nan  nan  nan  nan  nan  -1.98134  -0.981465  1.48713  -0.178535  0.155078  -0.0209276  0.191437  0.188912  -0.102257  0  0  0  1.23543  1.20167  -0.305395  0.0022478  -0.0171878  -0.0142906  -0.0471531  -0.0325432  0.0056918  0.0602358  -0.043557  -0.00898402  -0.503121  0.547883  -0.0280661 
1701447059.080556000  0  0  11.6267  -0.0340288  -0.0576434  0.00956566  nan  nan  nan  nan  nan  nan  -1.98037  -0.980505  1.48661  -0.179726  0.156847  -0.0211441  0.197636  0.194939  -0.103744  0  0  0  1.24398  1.20909  -0.289314  0.00201698  -0.017346  -0.0142299  -0.0476607  -0.0325045  0.00824424  0.0592116  -0.0430174  -0.00917171  -0.476689  0.511047  -0.0278536 
1701447059.085555000  0  0  11.6191  -0.0185297  -0.0699075  0.00907656  nan  nan  nan  nan  nan  nan  -1.97936  -0.979515  1.48609  -0.181319  0.158419  -0.0213884  0.203876  0.201001  -0.105148  0  0  0  1.25177  1.21576  -0.272482  0.00177183  -0.0175783  -0.0141557  -0.0479703  -0.032889  0.0109522  0.0581313  -0.041913  -0.00920538  -0.497749  0.525415  -0.0214032 
1701447059.090556000  0  0  11.7006  -0.0174408  -0.0827169  0.0093499  nan  nan  nan  nan  nan  nan  -1.97833  -0.978495  1.48556  -0.182103  0.159256  -0.0213653  0.210152  0.207095  -0.106467  0  0  0  1.25882  1.22169  -0.254901  0.00152704  -0.0178315  -0.0141373  -0.0489701  -0.0341156  0.00643009  0.0565592  -0.0400418  -0.00942163  -0.485463  0.533818  -0.0226574 
1701447059.095556000  0  0  11.691  -0.0113725  -0.0728512  0.00967308  nan  nan  nan  nan  nan  nan  -1.97726  -0.977444  1.48502  -0.182683  0.160663  -0.0214073  0.216463  0.213217  -0.107696  0  0  0  1.26512  1.22686  -0.23657  0.00128198  -0.0179936  -0.0140676  -0.049194  -0.0335614  0.00928672  0.0547812  -0.0391115  -0.00971814  -0.481242  0.505528  -0.0237321 
1701447059.100704000  0  0  11.6913  0.0100502  -0.0873246  0.00969083  nan  nan  nan  nan  nan  nan  -1.97616  -0.976363  1.48448  -0.183131  0.161461  -0.0213112  0.222802  0.219362  -0.108833  0  0  0  1.27067  1.23128  -0.218113  0.00106479  -0.0181307  -0.0140178  -0.0489375  -0.0332176  0.0113378  0.0524936  -0.0371421  -0.0100119  -0.503042  0.516356  -0.0210167 
1701447059.105544000  0  0  11.7472  0.00388333  -0.0890869  0.00995417  nan  nan  nan  nan  nan  nan  -1.97503  -0.975251  1.48394  -0.183859  0.16247  -0.0212954  0.229168  0.225528  -0.109879  0  0  0  1.27547  1.23495  -0.2004  0.000781222  -0.0184238  -0.01397  -0.0499375  -0.0340873  0.00882755  0.051062  -0.0357771  -0.0102516  -0.477537  0.507323  -0.0219109 
1701447059.110554000  0  0  11.7284  0.00964016  -0.0828754  0.0109406  nan  nan  nan  nan  nan  nan  -1.97387  -0.974107  1.48338  -0.184711  0.163598  -0.0213177  0.235556  0.231711  -0.110838  0  0  0  1.27952  1.23787  -0.183438  0.000512814  -0.0186931  -0.0138572  -0.0498782  -0.0337706  0.0121881  0.0495699  -0.034718  -0.0105805  -0.475324  0.485157  -0.030952 
1701447059.115557000  0  0  11.7425  0.0239214  -0.0949777  0.0115594  nan  nan  nan  nan  nan  nan  -1.97268  -0.972933  1.48283  -0.185509  0.164329  -0.0212529  0.241962  0.237906  -0.111714  0  0  0  1.28282  1.24004  -0.167225  0.000244053  -0.0189645  -0.0137767  -0.0499825  -0.0341558  0.0128425  0.0478732  -0.0329751  -0.0109093  -0.488277  0.493327  -0.0353991 
1701447059.120556000  0  0  11.8136  0.017689  -0.101214  0.0123713  nan  nan  nan  nan  nan  nan  -1.97145  -0.971728  1.48227  -0.1848  0.164568  -0.0208364  0.248383  0.24411  -0.112511  0  0  0  1.28536  1.24146  -0.151762  -1.42472e-05  -0.0191366  -0.0137519  -0.0505562  -0.034143  0.00863231  0.0452324  -0.0307321  -0.0115404  -0.451516  0.485164  -0.0392371 
1701447059.125555000  0  0  11.7759  0.0274288  -0.099385  0.0123462  nan  nan  nan  nan  nan  nan  -1.97019  -0.970492  1.4817  -0.185574  0.165461  -0.0207857  0.254814  0.250319  -0.113233  0  0  0  1.28716  1.24213  -0.137049  -0.00030227  -0.0194323  -0.0136343  -0.0500801  -0.0336012  0.0132474  0.0437158  -0.0294586  -0.0118484  -0.457043  0.469789  -0.0358433 
1701447059.129555000  0  0  11.7682  0.028384  -0.0954812  0.0116586  nan  nan  nan  nan  nan  nan  -1.9689  -0.969225  1.48113  -0.187076  0.167042  -0.0209834  0.261253  0.25653  -0.113883  0  0  0  1.28821  1.24205  -0.123086  -0.000759041  -0.0198217  -0.0134528  -0.0508152  -0.0344346  0.0153884  0.0433855  -0.0292532  -0.0119639  -0.455914  0.460092  -0.0260938 
1701447059.135556000  0  0  11.842  0.0201583  -0.0969209  0.0107162  nan  nan  nan  nan  nan  nan  -1.96758  -0.967927  1.48056  -0.18533  0.166086  -0.0201471  0.267695  0.262738  -0.114465  0  0  0  1.28851  1.24122  -0.109873  -0.000855565  -0.0198962  -0.0135029  -0.0504837  -0.0337622  0.0105779  0.0396525  -0.0258339  -0.0124625  -0.405119  0.431514  -0.00932767 
1701447059.140556000  0  0  11.7952  0.0278471  -0.093169  0.00998903  nan  nan  nan  nan  nan  nan  -1.96623  -0.966598  1.47999  -0.18598  0.166727  -0.0200115  0.274137  0.268941  -0.114983  0  0  0  1.28806  1.23964  -0.0974106  -0.00113046  -0.0201905  -0.0133704  -0.0498226  -0.0332038  0.0155881  0.038288  -0.0246026  -0.012572  -0.407944  0.412681  0.000856991 
1701447059.145554000  0  0  11.8289  0.0214683  -0.0905848  0.010409  nan  nan  nan  nan  nan  nan  -1.96484  -0.965238  1.47941  -0.185191  0.166525  -0.0194668  0.280575  0.275134  -0.115441  0  0  0  1.28686  1.23731  -0.0856977  -0.00138365  -0.0203581  -0.0133086  -0.0496331  -0.0328828  0.0138311  0.035928  -0.022526  -0.0130408  -0.373475  0.388409  0.000294834 
1701447059.150557000  0  0  11.8772  0.0148769  -0.0932646  0.0108635  nan  nan  nan  nan  nan  nan  -1.96342  -0.963847  1.47884  -0.184848  0.166635  -0.0190502  0.287004  0.281313  -0.115841  0  0  0  1.2849  1.23423  -0.0747349  -0.00168096  -0.0206435  -0.0132481  -0.0501444  -0.0332377  0.0109156  0.0341499  -0.0208324  -0.0134219  -0.343933  0.378187  -0.00157451 
1701447059.155555000  0  0  11.8111  0.0164798  -0.0849412  0.0108133  nan  nan  nan  nan  nan  nan  -1.96197  -0.962425  1.47826  -0.184537  0.16663  -0.0186116  0.293422  0.287475  -0.116189  0  0  0  1.2822  1.2304  -0.0645221  -0.00191889  -0.0208006  -0.0131353  -0.0486155  -0.0317291  0.0170436  0.0323301  -0.0192307  -0.0137927  -0.330397  0.346805  0.00276136 
1701447059.160558000  0  0  11.8702  0.00435196  -0.0835657  0.0110606  nan  nan  nan  nan  nan  nan  -1.96049  -0.960972  1.47767  -0.183823  0.166507  -0.0180762  0.299825  0.293615  -0.116488  0  0  0  1.27875  1.22582  -0.0550592  -0.00221154  -0.0210866  -0.0130588  -0.0492136  -0.0320448  0.0129575  0.0305211  -0.0176127  -0.0141938  -0.289498  0.329169  0.00368009 
1701447059.165926000  0  0  11.8935  0.0056361  -0.0889794  0.0110408  nan  nan  nan  nan  nan  nan  -1.95897  -0.959488  1.47709  -0.183075  0.166115  -0.0174796  0.306209  0.299732  -0.116741  0  0  0  1.27455  1.22049  -0.0463464  -0.00245076  -0.0212879  -0.0130086  -0.0490023  -0.0318966  0.011709  0.0285356  -0.0155804  -0.014553  -0.2738  0.321298  0.00752021 
1701447059.170549000  0  0  11.841  -0.00152975  -0.0798917  0.0115182  nan  nan  nan  nan  nan  nan  -1.95742  -0.957975  1.47651  -0.182795  0.166163  -0.0170373  0.312569  0.305819  -0.116953  0  0  0  1.2696  1.21441  -0.0383835  -0.00278637  -0.0215402  -0.0128696  -0.0478796  -0.0307964  0.0164416  0.0273316  -0.0144009  -0.0149657  -0.248392  0.292271  0.00567933 
1701447059.175549000  0  0  11.902  -0.0172537  -0.0776046  0.0119792  nan  nan  nan  nan  nan  nan  -1.95585  -0.95643  1.47592  -0.18198  0.165969  -0.0164535  0.318903  0.311874  -0.117126  0  0  0  1.2639  1.20759  -0.0311707  -0.00310925  -0.0218685  -0.0127832  -0.0486379  -0.0312203  0.011906  0.0259712  -0.013036  -0.0154224  -0.204428  0.27514  0.00448336 
1701447059.180554000  0  0  11.9173  -0.0109663  -0.0814186  0.012056  nan  nan  nan  nan  nan  nan  -1.95424  -0.954856  1.47534  -0.180781  0.165179  -0.0156911  0.325207  0.317894  -0.117265  0  0  0  1.25745  1.20001  -0.0247079  -0.0033491  -0.0220248  -0.012735  -0.0480304  -0.0307577  0.0109309  0.0239622  -0.0108833  -0.015948  -0.198519  0.262963  0.00877902 
1701447059.185547000  0  0  11.8657  -0.0289729  -0.068614  0.0124809  nan  nan  nan  nan  nan  nan  -1.95259  -0.953251  1.47475  -0.180546  0.165016  -0.0152  0.331477  0.323873  -0.117374  0  0  0  1.25024  1.19168  -0.018995  -0.00368368  -0.0223346  -0.0125954  -0.0469506  -0.0299275  0.0153249  0.0233234  -0.00989164  -0.0163071  -0.156629  0.228231  0.00705963 
1701447059.190550000  0  0  11.9402  -0.0334029  -0.0782304  0.0125564  nan  nan  nan  nan  nan  nan  -1.95092  -0.951617  1.47416  -0.179383  0.164391  -0.014463  0.337708  0.329809  -0.117457  0  0  0  1.24229  1.1826  -0.0140322  -0.00401963  -0.0226559  -0.0125258  -0.0476263  -0.0304943  0.0093776  0.0217937  -0.00816309  -0.0167733  -0.133696  0.231561  0.0107781 
1701447059.195550000  0  0  11.9128  -0.0181611  -0.0897475  0.0125163  nan  nan  nan  nan  nan  nan  -1.94922  -0.949953  1.47357  -0.178038  0.163189  -0.0135881  0.343898  0.335698  -0.117516  0  0  0  1.23359  1.17277  -0.0098193  -0.00424385  -0.0228043  -0.0124475  -0.0460204  -0.029343  0.011467  0.0197612  -0.00565659  -0.0172853  -0.145481  0.231536  0.0163998 
1701447059.200549000  0  0  11.8568  -0.0344317  -0.076079  0.0129593  nan  nan  nan  nan  nan  nan  -1.94748  -0.94826  1.47299  -0.177324  0.162752  -0.0129508  0.350043  0.341536  -0.117556  0  0  0  1.22414  1.16219  -0.0063565  -0.00457094  -0.0231093  -0.0123083  -0.0448095  -0.0281571  0.0158732  0.0189089  -0.00455332  -0.0177025  -0.105099  0.194048  0.0150341 
1701447059.205552000  0  0  11.9156  -0.0212121  -0.0990474  0.0130808  nan  nan  nan  nan  nan  nan  -1.94572  -0.946538  1.4724  -0.174795  0.161127  -0.0117985  0.356138  0.347319  -0.117581  0  0  0  1.21394  1.15086  -0.0036437  -0.00479326  -0.0232518  -0.0122788  -0.0443756  -0.0274029  0.0106855  0.016019  -0.00161685  -0.0184083  -0.104951  0.21297  0.0205731 
1701447059.210550000  0  0  11.8751  -0.0078611  -0.0970529  0.0125453  nan  nan  nan  nan  nan  nan  -1.94392  -0.944787  1.47181  -0.173966  0.160153  -0.0110396  0.362181  0.353043  -0.117594  0  0  0  1.20299  1.13878  -0.0016808  -0.00509627  -0.0235449  -0.0121545  -0.04299  -0.0266288  0.0136266  0.0146514  0.000165626  -0.0187155  -0.119071  0.192582  0.0303387 
1701447059.214549000  0  0  11.8295  -0.0243846  -0.0782892  0.0120361  nan  nan  nan  nan  nan  nan  -1.94209  -0.943008  1.47122  -0.173405  0.160331  -0.0105188  0.368167  0.358705  -0.117599  0  0  0  1.19128  1.12595  -0.000468  -0.00563468  -0.0240006  -0.0119539  -0.0426213  -0.0257839  0.0169655  0.014107  0.000391523  -0.0190379  -0.0810149  0.152976  0.0399274 
1701447059.220548000  0  0  11.8715  -0.000996059  -0.106657  0.011845  nan  nan  nan  nan  nan  nan  -1.94024  -0.9412  1.47063  -0.169852  0.157659  -0.00901729  0.374093  0.364301  -0.1176  0  0  0  1.17883  1.11237  -5.1e-06  -0.0056482  -0.0239776  -0.0119662  -0.0412523  -0.0241052  0.0126635  0.0101765  0.00419414  -0.0196645  -0.091632  0.174729  0.0485826 
1701447059.225548000  0  0  11.8383  0.0048094  -0.0992344  0.0121981  nan  nan  nan  nan  nan  nan  -1.93835  -0.939365  1.47005  -0.16849  0.15665  -0.00815604  0.379954  0.369828  -0.1176  0  0  0  1.16563  1.09804  -0  -0.00597478  -0.0242678  -0.0118277  -0.0402038  -0.0231134  0.0147001  0.00855025  0.0057253  -0.0200426  -0.0882811  0.145796  0.0479503 
1701447059.230499000  0  0  11.7763  0.00987849  -0.0930923  0.0128462  nan  nan  nan  nan  nan  nan  -1.93644  -0.937502  1.46946  -0.165823  0.154789  -0.00694274  0.385748  0.37528  -0.1176  0  0  0  1.15168  1.08296  -0  -0.00617799  -0.0243887  -0.0117128  -0.0379152  -0.0204661  0.0187853  0.00579178  0.00801932  -0.0207073  -0.0730414  0.112407  0.0464951 
1701447059.235550000  0  0  11.8285  0.0316629  -0.114157  0.0129706  nan  nan  nan  nan  nan  nan  -1.9345  -0.935612  1.46887  -0.163443  0.153113  -0.00580863  0.39147  0.380656  -0.1176  0  0  0  1.13698  1.06713  -0  -0.00649091  -0.0246563  -0.0116291  -0.0376795  -0.0200257  0.0137297  0.00301159  0.0104285  -0.0212101  -0.0910325  0.132372  0.0499675 
1701447059.239549000  0  0  11.8115  0.0312085  -0.107212  0.0136492  nan  nan  nan  nan  nan  nan  -1.93252  -0.933696  1.46828  -0.162072  0.152549  -0.0050124  0.397116  0.385951  -0.1176  0  0  0  1.12153  1.05055  -0  -0.00704329  -0.0251162  -0.0114445  -0.037309  -0.0192283  0.0144187  0.0015335  0.0113866  -0.0217312  -0.0765251  0.109668  0.0466969 
1701447059.245547000  0  0  11.747  0.0400966  -0.102151  0.0149571  nan  nan  nan  nan  nan  nan  -1.93053  -0.931753  1.46769  -0.158042  0.149134  -0.00334978  0.402684  0.39116  -0.1176  0  0  0  1.10533  1.03322  -0  -0.00694764  -0.024982  -0.0113855  -0.0339514  -0.0157723  0.0183793  -0.00248177  0.0149264  -0.0226093  -0.0573609  0.0669795  0.0391303 
1701447059.250550000  0  0  11.7852  0.0513781  -0.116045  0.01488  nan  nan  nan  nan  nan  nan  -1.9285  -0.929784  1.46711  -0.155857  0.147619  -0.00227869  0.408168  0.396282  -0.1176  0  0  0  1.08837  1.01514  -0  -0.007319  -0.0252976  -0.0112563  -0.0338518  -0.0154656  0.0144126  -0.00477965  0.0167854  -0.0230884  -0.0587834  0.0776636  0.0448842 
1701447059.255550000  0  0  11.7533  0.0490509  -0.110958  0.0151459  nan  nan  nan  nan  nan  nan  -1.92644  -0.92779  1.46652  -0.152295  0.144951  -0.000828107  0.413566  0.40131  -0.1176  0  0  0  1.07067  0.996314  -0  -0.0074869  -0.0253665  -0.0111645  -0.0316634  -0.0128915  0.0158434  -0.00806559  0.0195368  -0.0238444  -0.0238984  0.0421771  0.0491196 
1701447059.260551000  0  0  11.7149  0.0525824  -0.105243  0.0146861  nan  nan  nan  nan  nan  nan  -1.92436  -0.925771  1.46593  -0.149771  0.14288  0.00036936  0.418874  0.406243  -0.1176  0  0  0  1.05222  0.976735  -0  -0.00775317  -0.0255881  -0.0110203  -0.0300553  -0.0112676  0.0179614  -0.0103663  0.021433  -0.0243173  -0.0097944  0.0133031  0.0595976 
1701447059.265549000  0  0  11.7565  0.0478431  -0.104456  0.0139159  nan  nan  nan  nan  nan  nan  -1.92225  -0.923728  1.46534  -0.146955  0.140904  0.00159046  0.424087  0.411077  -0.1176  0  0  0  1.03302  0.956405  -0  -0.00807739  -0.0258292  -0.0109288  -0.029795  -0.0106431  0.0136381  -0.0126731  0.0231749  -0.0247143  0.0209062  -0.00429778  0.0731937 
1701447059.270549000  0  0  11.7378  0.044316  -0.100911  0.0139172  nan  nan  nan  nan  nan  nan  -1.92012  -0.921661  1.46475  -0.143067  0.137775  0.00312222  0.429203  0.415806  -0.1176  0  0  0  1.01307  0.935326  -0  -0.00821693  -0.0258756  -0.0108496  -0.0276187  -0.00822551  0.013926  -0.015872  0.0259996  -0.0253481  0.0573905  -0.0373742  0.0795166 
1701447059.275556000  0  0  11.6656  0.0403294  -0.0983058  0.0129937  nan  nan  nan  nan  nan  nan  -1.91796  -0.91957  1.46417  -0.140521  0.13537  0.00435027  0.434217  0.420429  -0.1176  0  0  0  0.992366  0.913497  -0  -0.00845133  -0.0260943  -0.0106751  -0.0254898  -0.00636048  0.018728  -0.0176502  0.02787  -0.0256186  0.0817235  -0.0597926  0.0937654 
1701447059.280559000  0  0  11.7551  0.028078  -0.0950293  0.0130467  nan  nan  nan  nan  nan  nan  -1.91578  -0.917457  1.46358  -0.136076  0.131992  0.00596029  0.439125  0.42494  -0.1176  0  0  0  0.970915  0.890917  -0  -0.00858436  -0.0261305  -0.0106632  -0.0248262  -0.00512437  0.0102114  -0.0209007  0.0306571  -0.026234  0.136131  -0.0919865  0.0992563 
