ts x y z roll pitch yaw vx vy vz wx wy wz ax ay az dwx dwy dwz jx jy jz ddwx ddwy ddwz
1704729485.730292000  -2.5  -0.3  1  0  0  0  -2e-07  2e-07  2e-07  0  0  0  -0.000125  0.000125  0.000125  0  0  0  0  0  0  0  0  0 
1704729485.734623000  -2.5  -0.3  1  0  0  0  -1.7e-06  1.7e-06  1.7e-06  0  0  0  -0.0005  0.0005  0.0005  0  0  0  0  0  0  0  0  0 
1704729485.739616000  -2.5  -0.3  1  0  0  0  -5.6e-06  5.6e-06  5.6e-06  0  0  0  -0.001125  0.001125  0.001125  0  0  0  0  0  0  0  0  0 
1704729485.744616000  -2.5  -0.3  1  0  0  1e-07  -1.33e-05  1.33e-05  1.33e-05  0  0  0  -0.002  0.002  0.002  0  0  0  0  0  0  0  0  0 
1704729485.749613000  -2.5  -0.3  1  0  0  3e-07  -2.6e-05  2.6e-05  2.6e-05  0  0  0  -0.003125  0.003125  0.003125  0  0  0  0  0  0  0  0  0 
1704729485.754614000  -2.5  -0.3  1  0  0  5e-07  -4.5e-05  4.5e-05  4.5e-05  0  0  0  -0.0045  0.0045  0.0045  0  0  0  0  0  0  0  0  0 
1704729485.759615000  -2.5  -0.299999  1  0  0  1e-06  -7.15e-05  7.15e-05  7.15e-05  0  0  0  -0.006125  0.006125  0.006125  0  0  0  0  0  0  0  0  0 
1704729485.764632000  -2.5  -0.299999  1  0  0  1.7e-06  -0.0001067  0.0001067  0.0001067  0  0  0  -0.008  0.008  0.008  0  0  0  0  0  0  0  0  0 
1704729485.769634000  -2.5  -0.299998  1  0  0  2.7e-06  -0.0001519  0.0001519  0.0001519  0  0  0  -0.010125  0.010125  0.010125  0  0  0  0  0  0  0  0  0 
1704729485.774639000  -2.5  -0.299997  1  0  0  4.2e-06  -0.0002083  0.0002083  0.0002083  0  0  0  -0.0125  0.0125  0.0125  0  0  0  0  0  0  0  0  0 
1704729485.779647000  -2.5  -0.299996  1  0  0  6.1e-06  -0.0002773  0.0002773  0.0002773  0  0  0  -0.015125  0.015125  0.015125  0  0  0  0  0  0  0  0  0 
1704729485.784640000  -2.50001  -0.299995  1.00001  0  0  8.6e-06  -0.00036  0.00036  0.00036  0  0  0  -0.018  0.018  0.018  0  0  0  0  0  0  0  0  0 
1704729485.789636000  -2.50001  -0.299993  1.00001  0  0  1.19e-05  -0.0004577  0.0004577  0.0004577  0  0  0  -0.021125  0.021125  0.021125  0  0  0  0  0  0  0  0  0 
1704729485.794640000  -2.50001  -0.29999  1.00001  0  0  1.6e-05  -0.0005717  0.0005717  0.0005717  0  0  0  -0.0245  0.0245  0.0245  0  0  0  0  0  0  0  0  0 
1704729485.799629000  -2.50001  -0.299987  1.00001  0  0  2.11e-05  -0.0007031  0.0007031  0.0007031  0  0  0  -0.028125  0.028125  0.028125  0  0  0  0  0  0  0  0  0 
1704729485.804631000  -2.50002  -0.299983  1.00002  0  0  2.73e-05  -0.0008533  0.0008533  0.0008533  0  0  0  -0.032  0.032  0.032  0  0  0  0  0  0  0  0  0 
1704729485.809629000  -2.50002  -0.299978  1.00002  0  0  3.48e-05  -0.0010235  0.0010235  0.0010235  0  0  0  -0.036125  0.036125  0.036125  0  0  0  0  0  0  0  0  0 
1704729485.814629000  -2.50003  -0.299973  1.00003  0  0  4.37e-05  -0.001215  0.001215  0.001215  0  0  0  -0.0405  0.0405  0.0405  0  0  0  0  0  0  0  0  0 
1704729485.819634000  -2.50003  -0.299966  1.00003  0  0  5.43e-05  -0.001429  0.001429  0.001429  0  0  0  -0.045125  0.045125  0.045125  0  0  0  0  0  0  0  0  0 
1704729485.824631000  -2.50004  -0.299958  1.00004  0  0  6.67e-05  -0.0016667  0.0016667  0.0016667  0  0  0  -0.05  0.05  0.05  0  0  0  0  0  0  0  0  0 
1704729485.829634000  -2.50005  -0.299949  1.00005  0  0  8.1e-05  -0.0019294  0.0019294  0.0019294  0  0  0  -0.055125  0.055125  0.055125  0  0  0  0  0  0  0  0  0 
1704729485.834632000  -2.50006  -0.299939  1.00006  0  0  9.76e-05  -0.0022183  0.0022183  0.0022183  0  0  0  -0.0605  0.0605  0.0605  0  0  0  0  0  0  0  0  0 
1704729485.839651000  -2.50007  -0.299927  1.00007  0  0  0.0001166  -0.0025348  0.0025348  0.0025348  0  0  0  -0.066125  0.066125  0.066125  0  0  0  0  0  0  0  0  0 
1704729485.844649000  -2.50009  -0.299914  1.00009  0  0  0.0001382  -0.0028798  0.00288  0.00288  0  0  0  -0.0718707  0.072  0.072  0  0  0  0  0  0  0  0  0 
1704729485.849647000  -2.5001  -0.299898  1.0001  0  0  0.0001628  -0.0032531  0.0032552  0.0032552  0  0  0  -0.077386  0.078125  0.078125  0  0  0  0  0  0  0  0  0 
1704729485.854650000  -2.50012  -0.299881  1.00012  0  0  0.0001904  -0.0036533  0.0036617  0.0036617  0  0  0  -0.0826514  0.0845  0.0845  0  0  0  0  0  0  0  0  0 
1704729485.859649000  -2.50014  -0.299862  1.00014  0  0  0.0002214  -0.0040792  0.0041006  0.0041006  0  0  0  -0.0876667  0.091125  0.091125  0  0  0  0  0  0  0  0  0 
1704729485.864629000  -2.50016  -0.29984  1.00016  0  0  0.000256  -0.0045295  0.0045733  0.0045733  0  0  0  -0.0924321  0.098  0.0979288  0  0  0  0  0  0  0  0  0 
1704729485.869648000  -2.50018  -0.299816  1.00018  0  0  0.0002945  -0.0050031  0.005081  0.0050795  0  0  0  -0.0969475  0.105125  0.104537  0  0  0  0  0  0  0  0  0 
1704729485.874640000  -2.50021  -0.299789  1.00021  0  0  0.000337  -0.0054986  0.005625  0.0056182  0  0  0  -0.101213  0.1125  0.110895  0  0  0  0  0  0  0  0  0 
1704729485.879636000  -2.50024  -0.299759  1.00024  0  0  0.0003837  -0.0060148  0.0062065  0.0061881  0  0  0  -0.105228  0.120125  0.117003  0  0  0  0  0  0  0  0  0 
1704729485.884630000  -2.50027  -0.299727  1.00027  0  0  0.0004349  -0.0065505  0.0068267  0.0067878  0  0  0  -0.108994  0.128  0.122861  0  0  0  0  0  0  0  0  0 
1704729485.889638000  -2.5003  -0.299691  1.00031  0  0  0.0004907  -0.0071043  0.0074869  0.0074163  0  0  0  -0.112509  0.136125  0.128469  0  0  0  0  0  0  0  0  0 
1704729485.894631000  -2.50034  -0.299652  1.00035  0  0  0.0005513  -0.0076751  0.0081883  0.0080721  0  0  0  -0.115774  0.1445  0.133828  0  0  0  0  0  0  0  0  0 
1704729485.899629000  -2.50038  -0.299609  1.00039  0  0  0.0006169  -0.0082617  0.0089323  0.0087541  0  0  0  -0.11879  0.153125  0.138936  0  0  0  0  0  0  0  0  0 
1704729485.904629000  -2.50042  -0.299563  1.00043  0  0  0.0006876  -0.0088626  0.00972  0.0094611  0  0  0  -0.121555  0.162  0.143794  0  0  0  0  0  0  0  0  0 
1704729485.909633000  -2.50047  -0.299512  1.00048  0  0  0.0007636  -0.0094768  0.0105527  0.0101916  0  0  0  -0.12407  0.171125  0.148402  0  0  0  0  0  0  0  0  0 
1704729485.914630000  -2.50052  -0.299457  1.00054  0  0  0.000845  -0.0101029  0.0114317  0.0109447  0  0  0  -0.126336  0.1805  0.15276  0  0  0  0  0  0  0  0  0 
1704729485.919634000  -2.50057  -0.299398  1.00059  0  0  0.0009319  -0.0107397  0.0123581  0.0117188  0  0  0  -0.128351  0.190125  0.156868  0  0  0  0  0  0  0  0  0 
1704729485.924631000  -2.50063  -0.299333  1.00065  0  0  0.0010245  -0.011386  0.0133333  0.0125129  0  0  0  -0.130116  0.2  0.160726  0  0  0  0  0  0  0  0  0 
1704729485.929633000  -2.50068  -0.299264  1.00072  0  0  0.0011228  -0.0120405  0.0143585  0.0133257  0  0  0  -0.131632  0.210125  0.164334  0  0  0  0  0  0  0  0  0 
1704729485.934635000  -2.50075  -0.29919  1.00079  0  0  0.0012269  -0.0127019  0.015435  0.0141558  0  0  0  -0.132897  0.2205  0.167692  0  0  0  0  0  0  0  0  0 
1704729485.939633000  -2.50081  -0.29911  1.00086  0  0  0.001337  -0.013369  0.016564  0.0150022  0  0  0  -0.133913  0.231125  0.170801  0  0  0  0  0  0  0  0  0 
1704729485.944632000  -2.50088  -0.299024  1.00094  0  0  0.0014531  -0.0140406  0.0177467  0.0158634  0  0  0  -0.134678  0.242  0.173659  0  0  0  0  0  0  0  0  0 
1704729485.949631000  -2.50095  -0.298932  1.00102  0  0  0.0015753  -0.0147154  0.0189844  0.0167384  0  0  0  -0.135193  0.253125  0.176267  0  0  0  0  0  0  0  0  0 
1704729485.954635000  -2.50103  -0.298834  1.0011  0  0  0.0017035  -0.0153921  0.0202783  0.0176257  0  0  0  -0.135459  0.2645  0.178625  0  0  0  0  0  0  0  0  0 
1704729485.959633000  -2.50111  -0.298729  1.00119  0  0  0.001838  -0.0160696  0.0216298  0.0185242  0  0  0  -0.135474  0.276125  0.180733  0  0  0  0  0  0  0  0  0 
1704729485.964629000  -2.50119  -0.298618  1.00129  0  0  0.0019786  -0.0167464  0.02304  0.0194326  0  0  0  -0.135239  0.288  0.182591  0  0  0  0  0  0  0  0  0 
1704729485.969630000  -2.50127  -0.298499  1.00139  0  0  0.0021255  -0.0174215  0.0245102  0.0203497  0  0  0  -0.134755  0.300125  0.184199  0  0  0  0  0  0  0  0  0 
1704729485.974635000  -2.50136  -0.298372  1.00149  0  0  0.0022787  -0.0180936  0.0260417  0.0212742  0  0  0  -0.13402  0.3125  0.185557  0  0  0  0  0  0  0  0  0 
1704729485.979637000  -2.50145  -0.298238  1.0016  0  0  0.002438  -0.0187613  0.0276356  0.0222048  0  0  0  -0.133035  0.325125  0.186666  0  0  0  0  0  0  0  0  0 
1704729485.984633000  -2.50155  -0.298096  1.00172  0  0  0.0026036  -0.0194235  0.0292933  0.0231404  0  0  0  -0.131801  0.338  0.187524  0  0  0  0  0  0  0  0  0 
1704729485.989633000  -2.50165  -0.297945  1.00183  0  0  0.0027755  -0.0200789  0.031016  0.0240797  0  0  0  -0.130316  0.351125  0.188132  0  0  0  0  0  0  0  0  0 
1704729485.994637000  -2.50175  -0.297786  1.00196  0  0  0.0029536  -0.0207263  0.032805  0.0250213  0  0  0  -0.128582  0.3645  0.18849  0  0  0  0  0  0  0  0  0 
1704729485.999633000  -2.50186  -0.297617  1.00208  0  0  0.003138  -0.0213643  0.0346615  0.0259641  0  0  0  -0.126597  0.378125  0.188598  0  0  0  0  0  0  0  0  0 
1704729486.004631000  -2.50196  -0.297439  1.00222  0  0  0.0033286  -0.0219918  0.0365867  0.0269069  0  0  0  -0.124362  0.392  0.188456  0  0  0  0  0  0  0  0  0 
1704729486.009631000  -2.50208  -0.297251  1.00235  0  0  0.0035255  -0.0226075  0.0385819  0.0278483  0  0  0  -0.121878  0.406125  0.188064  0  0  0  0  0  0  0  0  0 
1704729486.014632000  -2.50219  -0.297053  1.00249  0  0  0.0037287  -0.0232102  0.0406483  0.0287871  0  0  0  -0.119143  0.4205  0.187422  0  0  0  0  0  0  0  0  0 
1704729486.019632000  -2.50231  -0.296844  1.00264  0  0  0.003938  -0.0237985  0.0427873  0.0297221  0  0  0  -0.116158  0.435125  0.186531  0  0  0  0  0  0  0  0  0 
1704729486.024629000  -2.50243  -0.296625  1.00279  0  0  0.0041537  -0.0243713  0.045  0.030652  0  0  0  -0.112924  0.45  0.185389  0  0  0  0  0  0  0  0  0 
1704729486.029639000  -2.50255  -0.296394  1.00295  0  0  0.0043755  -0.0249274  0.0472877  0.0315756  0  0  0  -0.109439  0.465125  0.183997  0  0  0  0  0  0  0  0  0 
1704729486.034632000  -2.50268  -0.296152  1.00311  0  0  0.0046036  -0.0254653  0.0496517  0.0324916  0  0  0  -0.105704  0.4805  0.182355  0  0  0  0  0  0  0  0  0 
1704729486.039632000  -2.50281  -0.295898  1.00327  0  0  0.004838  -0.025984  0.0520931  0.0333987  0  0  0  -0.10172  0.496125  0.180463  0  0  0  0  0  0  0  0  0 
1704729486.044631000  -2.50294  -0.295631  1.00344  0  0  0.0050786  -0.0264821  0.0546133  0.0342958  0  0  0  -0.0974852  0.512  0.178321  0  0  0  0  0  0  0  0  0 
1704729486.049636000  -2.50307  -0.295351  1.00361  0  0  0.0053255  -0.0269584  0.0572135  0.0351815  0  0  0  -0.0930005  0.528125  0.175929  0  0  0  0  0  0  0  0  0 
1704729486.054642000  -2.50321  -0.295059  1.00379  0  0  0.0055787  -0.0274117  0.059895  0.0360546  0  0  0  -0.0882659  0.5445  0.173287  0  0  0  0  0  0  0  0  0 
1704729486.059632000  -2.50334  -0.294752  1.00398  0  0  0.005838  -0.0278407  0.062659  0.036914  0  0  0  -0.0832813  0.561125  0.170396  0  0  0  0  0  0  0  0  0 
1704729486.064633000  -2.50349  -0.294432  1.00416  0  0  0.0061037  -0.0282441  0.0655067  0.0377582  0  0  0  -0.0780466  0.578  0.167254  0  0  0  0  0  0  0  0  0 
1704729486.069640000  -2.50363  -0.294097  1.00435  0  0  0.0063755  -0.0286207  0.0684394  0.0385861  0  0  0  -0.072562  0.595125  0.163862  0  0  0  0  0  0  0  0  0 
1704729486.074631000  -2.50377  -0.293747  1.00455  0  0  0.0066536  -0.0289693  0.0714583  0.0393964  0  0  0  -0.0668336  0.6125  0.16022  0  0  0  0  0  0  0  0  0 
1704729486.079642000  -2.50392  -0.293382  1.00475  0  0  0.006938  -0.0292892  0.0745648  0.0401879  0  0  0  -0.0611779  0.630125  0.156328  0  0  0  0  0  0  0  0  0 
1704729486.084630000  -2.50406  -0.293002  1.00495  0  0  0.0072286  -0.0295815  0.07776  0.0409592  0  0  0  -0.0557721  0.647946  0.152186  0  0  0  0  0  0  0  0  0 
1704729486.089630000  -2.50421  -0.292605  1.00516  0  0  0.0075255  -0.0298473  0.0810439  0.0417093  0  0  0  -0.0506164  0.665589  0.147794  0  0  0  0  0  0  0  0  0 
1704729486.094630000  -2.50436  -0.292191  1.00537  0  0  0.0078286  -0.0300881  0.0844154  0.0424368  0  0  0  -0.0457107  0.682982  0.143152  0  0  0  0  0  0  0  0  0 
1704729486.099633000  -2.50451  -0.29176  1.00558  0  0  0.008138  -0.0303049  0.0878733  0.0431404  0  0  0  -0.041055  0.700126  0.13826  0  0  0  0  0  0  0  0  0 
1704729486.104636000  -2.50467  -0.291312  1.0058  0  0  0.0084537  -0.030499  0.0914163  0.043819  0  0  0  -0.0366492  0.717019  0.133119  0  0  0  0  0  0  0  0  0 
1704729486.109634000  -2.50482  -0.290846  1.00602  0  0  0.0087755  -0.0306718  0.0950431  0.0444712  0  0  0  -0.0324935  0.733662  0.127727  0  0  0  0  0  0  0  0  0 
1704729486.114631000  -2.50497  -0.290362  1.00624  0  0  0.0091036  -0.0308244  0.0987525  0.0450958  0  0  0  -0.0285878  0.750055  0.122085  0  0  0  0  0  0  0  0  0 
1704729486.119640000  -2.50513  -0.289858  1.00647  0  0  0.009438  -0.0309581  0.102543  0.0456916  0  0  0  -0.024932  0.766198  0.116193  0  0  0  0  0  0  0  0  0 
1704729486.124629000  -2.50528  -0.289336  1.0067  0  0  0.0097786  -0.0310741  0.106414  0.0462573  0  0  0  -0.0215263  0.782091  0.110051  0  0  0  0  0  0  0  0  0 
1704729486.129635000  -2.50544  -0.288794  1.00693  0  0  0.0101255  -0.0311738  0.110364  0.0467917  0  0  0  -0.0183706  0.797734  0.103659  0  0  0  0  0  0  0  0  0 
1704729486.134630000  -2.50559  -0.288232  1.00717  0  0  0.0104786  -0.0312582  0.114391  0.0472935  0  0  0  -0.0154649  0.813127  0.0970174  0  0  0  0  0  0  0  0  0 
1704729486.139634000  -2.50575  -0.28765  1.00741  0  0  0.010838  -0.0313288  0.118495  0.0477615  0  0  0  -0.0128091  0.82827  0.0902159  0  0  0  0  0  0  0  0  0 
1704729486.144631000  -2.50591  -0.287047  1.00765  0  0  0.0112036  -0.0313867  0.122673  0.048196  0  0  0  -0.0104034  0.843164  0.0836246  0  0  0  0  0  0  0  0  0 
1704729486.149632000  -2.50606  -0.286423  1.00789  0  0  0.0115755  -0.0314333  0.126926  0.0485982  0  0  0  -0.0082477  0.857807  0.0772834  0  0  0  0  0  0  0  0  0 
1704729486.154645000  -2.50622  -0.285778  1.00813  0  0  0.0119536  -0.0314696  0.131251  0.0489693  0  0  0  -0.006342  0.8722  0.0711921  0  0  0  0  0  0  0  0  0 
1704729486.159644000  -2.50638  -0.285111  1.00838  0  0  0.012338  -0.0314971  0.135647  0.0493105  0  0  0  -0.0046862  0.886343  0.0653509  0  0  0  0  0  0  0  0  0 
1704729486.164639000  -2.50654  -0.284421  1.00862  0  0  0.0127286  -0.0315169  0.140114  0.0496232  0  0  0  -0.0032805  0.900236  0.0597596  0  0  0  0  0  0  0  0  0 
1704729486.169642000  -2.50669  -0.283709  1.00887  0  0  0.0131255  -0.0315303  0.144649  0.0499086  0  0  0  -0.0021248  0.913879  0.0544184  0  0  0  0  0  0  0  0  0 
1704729486.174635000  -2.50685  -0.282975  1.00912  0  0  0.0135286  -0.0315386  0.149252  0.0501678  0  0  0  -0.0012191  0.927272  0.0493271  0  0  0  0  0  0  0  0  0 
1704729486.179635000  -2.50701  -0.282217  1.00937  0  0  0.013938  -0.0315429  0.153922  0.0504023  0  0  0  -0.0005633  0.940415  0.0444859  0  0  0  0  0  0  0  0  0 
1704729486.184632000  -2.50717  -0.281435  1.00963  0  0  0.0143536  -0.0315446  0.158656  0.0506131  0  0  0  -0.0001576  0.953308  0.0398947  0  0  0  0  0  0  0  0  0 
1704729486.189633000  -2.50732  -0.28063  1.00988  0  0  0.0147755  -0.0315449  0.163454  0.0508016  0  0  0  -1.9e-06  0.965952  0.0355534  0  0  0  0  0  0  0  0  0 
1704729486.194635000  -2.50748  -0.279801  1.01014  0  0  0.0152036  -0.0315449  0.168315  0.050969  0  0  0  0  0.978345  0.0314622  0  0  0  0  0  0  0  0  0 
1704729486.199635000  -2.50764  -0.278947  1.01039  0  0  0.015638  -0.0315449  0.173237  0.0511167  0  0  0  0  0.990488  0.0276209  0  0  0  0  0  0  0  0  0 
1704729486.204635000  -2.5078  -0.278068  1.01065  0  0  0.0160786  -0.0315449  0.17822  0.0512457  0  0  0  0  1.00238  0.0240297  0  0  0  0  0  0  0  0  0 
1704729486.209630000  -2.50796  -0.277164  1.0109  0  0  0.0165255  -0.0315449  0.183261  0.0513574  0  0  0  0  1.01402  0.0206884  0  0  0  0  0  0  0  0  0 
1704729486.214636000  -2.50811  -0.276235  1.01116  0  0  0.0169786  -0.0315449  0.188359  0.051453  0  0  0  0  1.02542  0.0175972  0  0  0  0  0  0  0  0  0 
1704729486.219631000  -2.50827  -0.275281  1.01142  0  0  0.017438  -0.0315449  0.193514  0.0515338  0  0  0  0  1.03656  0.014756  0  0  0  0  0  0  0  0  0 
1704729486.224637000  -2.50843  -0.2743  1.01168  0  0  0.0179036  -0.0315449  0.198725  0.051601  0  0  0  0  1.04745  0.0121647  0  0  0  0  0  0  0  0  0 
1704729486.229637000  -2.50859  -0.273293  1.01193  0  0  0.0183755  -0.0315449  0.203989  0.0516558  0  0  0  0  1.0581  0.0098235  0  0  0  0  0  0  0  0  0 
1704729486.234643000  -2.50874  -0.27226  1.01219  0  0  0.0188536  -0.0315449  0.209305  0.0516996  0  0  0  0  1.06849  0.0077322  0  0  0  0  0  0  0  0  0 
1704729486.239630000  -2.5089  -0.2712  1.01245  0  0  0.019338  -0.0315449  0.214673  0.0517336  0  0  0  0  1.07863  0.005891  0  0  0  0  0  0  0  0  0 
1704729486.244628000  -2.50906  -0.270113  1.01271  0  0  0.0198286  -0.0315449  0.220091  0.0517589  0  0  0  0  1.08853  0.0042997  0  0  0  0  0  0  0  0  0 
1704729486.249630000  -2.50922  -0.268999  1.01297  0  0  0.0203255  -0.0315449  0.225558  0.051777  0  0  0  0  1.09817  0.0029585  0  0  0  0  0  0  0  0  0 
1704729486.254632000  -2.50937  -0.267858  1.01323  0  0  0.0208286  -0.0315449  0.231072  0.0517889  0  0  0  0  1.10756  0.0018672  0  0  0  0  0  0  0  0  0 
1704729486.259636000  -2.50953  -0.266689  1.01349  0  0  0.021338  -0.0315449  0.236633  0.0517961  0  0  0  0  1.11671  0.001026  0  0  0  0  0  0  0  0  0 
1704729486.264627000  -2.50969  -0.265491  1.01374  0  0  0.0218536  -0.0315449  0.242239  0.0517996  0  0  0  0  1.1256  0.0004348  0  0  0  0  0  0  0  0  0 
1704729486.269629000  -2.50985  -0.264266  1.014  0  0  0.0223755  -0.0315449  0.247889  0.0518008  0  0  0  0  1.13424  9.35e-05  0  0  0  0  0  0  0  0  0 
1704729486.274634000  -2.51001  -0.263012  1.01426  0  0  0.0229036  -0.0315449  0.253581  0.051801  0  0  0  0  1.14263  0  0  0  0  0  0  0  0  0  0 
1704729486.279634000  -2.51016  -0.26173  1.01452  0  0  0.023438  -0.0315449  0.259315  0.051801  0  0  0  0  1.15078  0  0  0  0  0  0  0  0  0  0 
1704729486.284631000  -2.51032  -0.260419  1.01478  0  0  0.0239786  -0.0315449  0.265088  0.051801  0  0  0  0  1.15867  0  0  0  0  0  0  0  0  0  0 
1704729486.289634000  -2.51048  -0.259079  1.01504  0  0  0.0245255  -0.0315449  0.270901  0.051801  0  0  0  0  1.16631  0  0  0  0  0  0  0  0  0  0 
1704729486.294633000  -2.51064  -0.25771  1.0153  0  0  0.0250785  -0.0315449  0.276751  0.051801  0  0  0  0  1.17371  0  0  0  0  0  0  0  0  0  0 
1704729486.299632000  -2.51079  -0.256312  1.01556  0  0  0.0256377  -0.0315449  0.282638  0.051801  0  0  0  0  1.18085  0  0  0  0  0  0  0  0  0  0 
1704729486.304631000  -2.51095  -0.254884  1.01582  0  0  0.026203  -0.0315449  0.288559  0.051801  0  0  0  0  1.18774  0  0  0  0  0  0  0  0  0  0 
1704729486.309634000  -2.51111  -0.253426  1.01608  0  0  0.0267744  -0.0315449  0.294515  0.051801  0  0  0  0  1.19439  0  0  0  0  0  0  0  0  0  0 
1704729486.314632000  -2.51127  -0.251938  1.01633  0  0  0.0273518  -0.0315449  0.300503  0.051801  0  0  0  0  1.20078  0  0  0  0  0  0  0  0  0  0 
1704729486.319632000  -2.51143  -0.250421  1.01659  0  0  0.027935  -0.0315449  0.306522  0.051801  0  0  0  0  1.20692  0  0  0  0  0  0  0  0  0  0 
1704729486.324632000  -2.51158  -0.248873  1.01685  0  0  0.0285241  -0.0315449  0.312571  0.051801  0  0  0  0  1.21282  0  0  0  0  0  0  0  0  0  0 
1704729486.329634000  -2.51174  -0.247295  1.01711  0  0  0.029119  -0.0315449  0.31865  0.051801  0  0  0  0  1.21846  0  0  0  0  0  0  0  0  0  0 
1704729486.334633000  -2.5119  -0.245687  1.01737  0  0  0.0297194  -0.0315449  0.324756  0.051801  0  0  0  0  1.22385  0  0  0  0  0  0  0  0  0  0 
1704729486.339627000  -2.51206  -0.244048  1.01763  0  0  0.0303254  -0.0315449  0.330888  0.051801  0  0  0  0  1.22899  0  0  0  0  0  0  0  0  0  0 
1704729486.344632000  -2.51221  -0.242378  1.01789  0  0  0.0309367  -0.0315449  0.337045  0.051801  0  0  0  0  1.23389  0  0  0  0  0  0  0  0  0  0 
1704729486.349630000  -2.51237  -0.240677  1.01815  0  0  0.0315533  -0.0315449  0.343226  0.051801  0  0  0  0  1.23853  0  0  0  0  0  0  0  0  0  0 
1704729486.354631000  -2.51253  -0.238945  1.01841  0  0  0.0321749  -0.0315449  0.34943  0.051801  0  0  0  0  1.24292  0  0  0  0  0  0  0  0  0  0 
1704729486.359635000  -2.51269  -0.237183  1.01867  0  0  0.0328015  -0.0315449  0.355655  0.051801  0  0  0  0  1.24707  0  0  0  0  0  0  0  0  0  0 
1704729486.364632000  -2.51284  -0.235389  1.01892  0  0  0.0334329  -0.0315449  0.3619  0.051801  0  0  0  0  1.25096  0  0  0  0  0  0  0  0  0  0 
1704729486.369631000  -2.513  -0.233564  1.01918  0  0  0.0340689  -0.0315449  0.368164  0.051801  0  0  0  0  1.2546  0  0  0  0  0  0  0  0  0  0 
1704729486.374634000  -2.51316  -0.231707  1.01944  0  0  0.0347093  -0.0315449  0.374446  0.051801  0  0  0  0  1.258  0  0  0  0  0  0  0  0  0  0 
1704729486.379633000  -2.51332  -0.229819  1.0197  0  0  0.0353538  -0.0315449  0.380744  0.051801  0  0  0  0  1.26114  0  0  0  0  0  0  0  0  0  0 
1704729486.384630000  -2.51348  -0.2279  1.01996  0  0  0.0360024  -0.0315449  0.387057  0.051801  0  0  0  0  1.26403  0  0  0  0  0  0  0  0  0  0 
1704729486.389631000  -2.51363  -0.225949  1.02022  0  0  0.0366548  -0.0315449  0.393384  0.051801  0  0  0  0  1.26668  0  0  0  0  0  0  0  0  0  0 
1704729486.394634000  -2.51379  -0.223966  1.02048  0  0  0.0373107  -0.0315449  0.399723  0.051801  0  0  0  0  1.26907  0  0  0  0  0  0  0  0  0  0 
1704729486.399631000  -2.51395  -0.221951  1.02074  0  0  0.0379699  -0.0315449  0.406074  0.051801  0  0  0  0  1.27121  0  0  0  0  0  0  0  0  0  0 
1704729486.404633000  -2.51411  -0.219905  1.021  0  0  0.0386323  -0.0315449  0.412435  0.051801  0  0  0  0  1.27311  0  0  0  0  0  0  0  0  0  0 
1704729486.409635000  -2.51426  -0.217827  1.02126  0  0  0.0392974  -0.0315449  0.418805  0.051801  0  0  0  0  1.27475  0  0  0  0  0  0  0  0  0  0 
1704729486.414636000  -2.51442  -0.215717  1.02151  0  0  0.0399652  -0.0315449  0.425182  0.051801  0  0  0  0  1.27614  0  0  0  0  0  0  0  0  0  0 
1704729486.419633000  -2.51458  -0.213575  1.02177  0  0  0.0406353  -0.0315449  0.431566  0.051801  0  0  0  0  1.27728  0  0  0  0  0  0  0  0  0  0 
1704729486.424633000  -2.51474  -0.211401  1.02203  0  0  0.0413076  -0.0315449  0.437954  0.051801  0  0  0  0  1.27818  0  0  0  0  0  0  0  0  0  0 
1704729486.429633000  -2.5149  -0.209196  1.02229  0  0  0.0419818  -0.0315449  0.444347  0.051801  0  0  0  0  1.27882  0  0  0  0  0  0  0  0  0  0 
1704729486.434641000  -2.51505  -0.206958  1.02255  0  0  0.0426579  -0.0315449  0.450742  0.051801  0  0  0  0  1.27921  0  0  0  0  0  0  0  0  0  0 
1704729486.439631000  -2.51521  -0.204688  1.02281  0  0  0.0433355  -0.0315449  0.457139  0.051801  0  0  0  0  1.27936  0  0  0  0  0  0  0  0  0  0 
1704729486.444631000  -2.51537  -0.202387  1.02307  0  0  0.0440145  -0.0315449  0.463535  0.051801  0  0  0  0  1.27925  0  0  0  0  0  0  0  0  0  0 
1704729486.449632000  -2.51553  -0.200053  1.02333  0  0  0.0446948  -0.0315449  0.469931  0.051801  0  0  0  0  1.27889  0  0  0  0  0  0  0  0  0  0 
1704729486.454639000  -2.51568  -0.197687  1.02359  0  0  0.0453761  -0.0315449  0.476324  0.051801  0  0  0  0  1.27829  0  0  0  0  0  0  0  0  0  0 
1704729486.459630000  -2.51584  -0.19529  1.02385  0  0  0.0460584  -0.0315449  0.482713  0.051801  0  0  0  0  1.27743  0  0  0  0  0  0  0  0  0  0 
1704729486.464630000  -2.516  -0.19286  1.0241  0  0  0.0467416  -0.0315449  0.489098  0.051801  0  0  0  0  1.27632  0  0  0  0  0  0  0  0  0  0 
1704729486.469631000  -2.51616  -0.190399  1.02436  0  0  0.0474254  -0.0315449  0.495476  0.051801  0  0  0  0  1.27497  0  0  0  0  0  0  0  0  0  0 
1704729486.474646000  -2.51631  -0.187905  1.02462  0  0  0.0481098  -0.0315449  0.501847  0.051801  0  0  0  0  1.27336  0  0  0  0  0  0  0  0  0  0 
1704729486.479636000  -2.51647  -0.18538  1.02488  0  0  0.0487947  -0.0315449  0.508209  0.051801  0  0  0  0  1.2715  0  0  0  0  0  0  0  0  0  0 
1704729486.484632000  -2.51663  -0.182823  1.02514  0  0  0.04948  -0.0315449  0.514562  0.051801  0  0  0  0  1.2694  0  0  0  0  0  0  0  0  0  0 
1704729486.489632000  -2.51679  -0.180235  1.0254  0  0  0.0501656  -0.0315449  0.520903  0.051801  0  0  0  0  1.26704  0  0  0  0  0  0  0  0  0  0 
1704729486.494642000  -2.51695  -0.177614  1.02566  0  0  0.0508514  -0.0315449  0.527232  0.051801  0  0  0  0  1.26443  0  0  0  0  0  0  0  0  0  0 
1704729486.499631000  -2.5171  -0.174962  1.02592  0  0  0.0515374  -0.0315449  0.533547  0.051801  0  0  0  0  1.26157  0  0  0  0  0  0  0  0  0  0 
1704729486.504649000  -2.51726  -0.172279  1.02618  0  0  0.0522235  -0.0315449  0.539847  0.051801  0  0  0  0  1.25847  0  0  0  0  0  0  0  0  0  0 
1704729486.509635000  -2.51742  -0.169564  1.02644  0  0  0.0529097  -0.0315449  0.546131  0.051801  0  0  0  0  1.25511  0  0  0  0  0  0  0  0  0  0 
1704729486.514635000  -2.51758  -0.166818  1.02669  0  0  0.0535959  -0.0315449  0.552398  0.051801  0  0  0  0  1.2515  0  0  0  0  0  0  0  0  0  0 
1704729486.519640000  -2.51773  -0.16404  1.02695  0  0  0.0542821  -0.0315449  0.558646  0.051801  0  0  0  0  1.24765  0  0  0  0  0  0  0  0  0  0 
1704729486.524643000  -2.51789  -0.161231  1.02721  0  0  0.0549684  -0.0315449  0.564874  0.051801  0  0  0  0  1.24354  0  0  0  0  0  0  0  0  0  0 
1704729486.529640000  -2.51805  -0.158391  1.02747  0  0  0.0556546  -0.0315449  0.571081  0.051801  0  0  0  0  1.23918  0  0  0  0  0  0  0  0  0  0 
1704729486.534642000  -2.51821  -0.15552  1.02773  0  0  0.0563409  -0.0315449  0.577265  0.051801  0  0  0  0  1.23458  0  0  0  0  0  0  0  0  0  0 
1704729486.539641000  -2.51837  -0.152619  1.02799  0  0  0.0570271  -0.0315449  0.583426  0.051801  0  0  0  0  1.22972  0  0  0  0  0  0  0  0  0  0 
1704729486.544638000  -2.51852  -0.149686  1.02825  0  0  0.0577132  -0.0315449  0.589562  0.051801  0  0  0  0  1.22461  0  0  0  0  0  0  0  0  0  0 
1704729486.549639000  -2.51868  -0.146723  1.02851  0  0  0.0583993  -0.0315449  0.595672  0.051801  0  0  0  0  1.21926  0  0  0  0  0  0  0  0  0  0 
1704729486.554643000  -2.51884  -0.143729  1.02877  0  0  0.0590852  -0.0315449  0.601754  0.051801  0  0  0  0  1.21365  0  0  0  0  0  0  0  0  0  0 
1704729486.559641000  -2.519  -0.140706  1.02903  0  0  0.0597709  -0.0315449  0.607808  0.051801  0  0  0  0  1.20779  0  0  0  0  0  0  0  0  0  0 
1704729486.564637000  -2.51915  -0.137651  1.02929  0  0  0.0604564  -0.0315449  0.613831  0.051801  0  0  0  0  1.20169  0  0  0  0  0  0  0  0  0  0 
1704729486.569639000  -2.51931  -0.134567  1.02954  0  0  0.0611416  -0.0315449  0.619824  0.051801  0  0  0  0  1.19533  0  0  0  0  0  0  0  0  0  0 
1704729486.574644000  -2.51947  -0.131453  1.0298  0  0  0.0618263  -0.0315449  0.625784  0.051801  0  0  0  0  1.18872  0  0  0  0  0  0  0  0  0  0 
1704729486.579641000  -2.51963  -0.12831  1.03006  0  0  0.0625105  -0.0315449  0.631711  0.051801  0  0  0  0  1.18186  0  0  0  0  0  0  0  0  0  0 
1704729486.584640000  -2.51978  -0.125136  1.03032  0  0  0.063194  -0.0315449  0.637603  0.051801  0  0  0  0  1.17476  0  0  0  0  0  0  0  0  0  0 
1704729486.589641000  -2.51994  -0.121934  1.03058  0  0  0.0638769  -0.0315449  0.643458  0.051801  0  0  0  0  1.1674  0  0  0  0  0  0  0  0  0  0 
1704729486.594643000  -2.5201  -0.118702  1.03084  0  0  0.0645588  -0.0315449  0.649276  0.051801  0  0  0  0  1.15979  0  0  0  0  0  0  0  0  0  0 
1704729486.599641000  -2.52026  -0.115441  1.0311  0  0  0.0652397  -0.0315449  0.655056  0.051801  0  0  0  0  1.15194  0  0  0  0  0  0  0  0  0  0 
1704729486.604640000  -2.52042  -0.112151  1.03136  0  0  0.0659195  -0.0315449  0.660795  0.051801  0  0  0  0  1.14383  0  0  0  0  0  0  0  0  0  0 
1704729486.609641000  -2.52057  -0.108833  1.03162  0  0  0.066598  -0.0315449  0.666493  0.051801  0  0  0  0  1.13547  0  0  0  0  0  0  0  0  0  0 
1704729486.614638000  -2.52073  -0.105486  1.03188  0  0  0.067275  -0.0315449  0.672149  0.051801  0  0  0  0  1.12687  0  0  0  0  0  0  0  0  0  0 
1704729486.619645000  -2.52089  -0.102112  1.03213  0  0  0.0679503  -0.0315449  0.677762  0.051801  0  0  0  0  1.11801  0  0  0  0  0  0  0  0  0  0 
1704729486.624640000  -2.52105  -0.0987088  1.03239  0  0  0.0686238  -0.0315449  0.683329  0.051801  0  0  0  0  1.1089  0  0  0  0  0  0  0  0  0  0 
1704729486.629638000  -2.5212  -0.0952783  1.03265  0  0  0.0692952  -0.0315449  0.68885  0.051801  0  0  0  0  1.09955  0  0  0  0  0  0  0  0  0  0 
1704729486.634658000  -2.52136  -0.0918204  1.03291  0  0  0.0699644  -0.0315449  0.694324  0.051801  0  0  0  0  1.08994  0  0  0  0  0  0  0  0  0  0 
1704729486.639644000  -2.52152  -0.0883352  1.03317  0  0  0.0706312  -0.0315449  0.699749  0.051801  0  0  0  0  1.08008  0  0  0  0  0  0  0  0  0  0 
1704729486.644634000  -2.52168  -0.084823  1.03343  0  0  0.0712952  -0.0315449  0.705125  0.051801  0  0  0  0  1.06997  0  0  0  0  0  0  0  0  0  0 
1704729486.649641000  -2.52184  -0.081284  1.03369  0  0  0.0719563  -0.0315449  0.710449  0.051801  0  0  0  0  1.05962  0  0  0  0  0  0  0  0  0  0 
1704729486.654641000  -2.52199  -0.0777186  1.03395  0  0  0.0726143  -0.0315449  0.71572  0.051801  0  0  0  0  1.04901  0  0  0  0  0  0  0  0  0  0 
1704729486.659639000  -2.52215  -0.0741269  1.03421  0  0  0.0732688  -0.0315449  0.720938  0.051801  0  0  0  0  1.03815  0  0  0  0  0  0  0  0  0  0 
1704729486.664636000  -2.52231  -0.0705093  1.03447  0  0  0.0739196  -0.0315449  0.726101  0.051801  0  0  0  0  1.02705  0  0  0  0  0  0  0  0  0  0 
1704729486.669642000  -2.52247  -0.066866  1.03472  0  0  0.0745666  -0.0315449  0.731208  0.051801  0  0  0  0  1.01569  0  0  0  0  0  0  0  0  0  0 
1704729486.674632000  -2.52262  -0.0631973  1.03498  0  0  0.0752095  -0.0315449  0.736258  0.051801  0  0  0  0  1.00408  0  0  0  0  0  0  0  0  0  0 
1704729486.679634000  -2.52278  -0.0595035  1.03524  0  0  0.0758482  -0.0315449  0.741249  0.051801  0  0  0  0  0.992227  0  0  0  0  0  0  0  0  0  0 
1704729486.684633000  -2.52294  -0.0557849  1.0355  0  0  0.0764823  -0.0315449  0.74618  0.051801  0  0  0  0  0.98012  0  0  0  0  0  0  0  0  0  0 
1704729486.689630000  -2.5231  -0.0520418  1.03576  0  0  0.0771118  -0.0315449  0.75105  0.051801  0  0  0  0  0.967763  0  0  0  0  0  0  0  0  0  0 
1704729486.694641000  -2.52325  -0.0482745  1.03602  0  0  0.0777364  -0.0315449  0.755857  0.051801  0  0  0  0  0.955156  0  0  0  0  0  0  0  0  0  0 
1704729486.699631000  -2.52341  -0.0444833  1.03628  0  0  0.078356  -0.0315449  0.760601  0.051801  0  0  0  0  0.942299  0  0  0  0  0  0  0  0  0  0 
1704729486.704631000  -2.52357  -0.0406686  1.03654  0  0  0.0789705  -0.0315449  0.76528  0.051801  0  0  0  0  0.929192  0  0  0  0  0  0  0  0  0  0 
1704729486.709630000  -2.52373  -0.0368306  1.0368  0  0  0.0795797  -0.0315449  0.769892  0.051801  0  0  0  0  0.915835  0  0  0  0  0  0  0  0  0  0 
1704729486.714633000  -2.52389  -0.0329698  1.03706  0  0  0.0801834  -0.0315449  0.774437  0.051801  0  0  0  0  0.902228  0  0  0  0  0  0  0  0  0  0 
1704729486.719630000  -2.52404  -0.0290864  1.03731  0  0  0.0807816  -0.0315449  0.778914  0.051801  0  0  0  0  0.888372  0  0  0  0  0  0  0  0  0  0 
1704729486.724631000  -2.5242  -0.0251808  1.03757  0  0  0.0813742  -0.0315449  0.783321  0.051801  0  0  0  0  0.874265  0  0  0  0  0  0  0  0  0  0 
1704729486.729632000  -2.52436  -0.0212533  1.03783  0  0  0.0819609  -0.0315449  0.787656  0.051801  0  0  0  0  0.859908  0  0  0  0  0  0  0  0  0  0 
1704729486.734630000  -2.52452  -0.0173043  1.03809  0  0  0.0825418  -0.0315449  0.791919  0.051801  0  0  0  0  0.845301  0  0  0  0  0  0  0  0  0  0 
1704729486.739634000  -2.52467  -0.0133342  1.03835  0  0  0.0831168  -0.0315449  0.796109  0.051801  0  0  0  0  0.830444  0  0  0  0  0  0  0  0  0  0 
1704729486.744630000  -2.52483  -0.0093434  1.03861  0  0  0.0836857  -0.0315449  0.800223  0.051801  0  0  0  0  0.815337  0  0  0  0  0  0  0  0  0  0 
1704729486.749626000  -2.52499  -0.0053321  1.03887  0  0  0.0842486  -0.0315449  0.804262  0.051801  0  0  0  0  0.79998  0  0  0  0  0  0  0  0  0  0 
1704729486.754640000  -2.52515  -0.0013009  1.03913  0  0  0.0848053  -0.0315449  0.808223  0.051801  0  0  0  0  0.784373  0  0  0  0  0  0  0  0  0  0 
1704729486.759630000  -2.52531  0.00275  1.03939  0  0  0.0853558  -0.0315449  0.812105  0.051801  0  0  0  0  0.768516  0  0  0  0  0  0  0  0  0  0 
1704729486.764629000  -2.52546  0.0068201  1.03965  0  0  0.0859002  -0.0315449  0.815908  0.051801  0  0  0  0  0.75241  0  0  0  0  0  0  0  0  0  0 
1704729486.769630000  -2.52562  0.0109089  1.0399  0  0  0.0864383  -0.0315449  0.819629  0.051801  0  0  0  0  0.736053  0  0  0  0  0  0  0  0  0  0 
1704729486.774644000  -2.52578  0.0150162  1.04016  0  0  0.0869701  -0.0315449  0.823268  0.051801  0  0  0  0  0.719446  0  0  0  0  0  0  0  0  0  0 
1704729486.779631000  -2.52594  0.0191415  1.04042  0  0  0.0874957  -0.0315449  0.826823  0.051801  0  0  0  0  0.702589  0  0  0  0  0  0  0  0  0  0 
1704729486.784630000  -2.52609  0.0232843  1.04068  0  0  0.0880151  -0.0315449  0.830293  0.051801  0  0  0  0  0.685482  0  0  0  0  0  0  0  0  0  0 
1704729486.789631000  -2.52625  0.0274443  1.04094  0  0  0.0885282  -0.0315449  0.833677  0.051801  0  0  0  0  0.668125  0  0  0  0  0  0  0  0  0  0 
1704729486.794639000  -2.52641  0.0316209  1.0412  0  0  0.0890351  -0.0315449  0.836974  0.051801  0  0  0  0  0.650518  0  0  0  0  0  0  0  0  0  0 
1704729486.799632000  -2.52657  0.0358138  1.04146  0  0  0.0895357  -0.0315449  0.840182  0.051801  0  0  0  0  0.6327  0  0  0  0  0  0  0  0  0  0 
1704729486.804630000  -2.52672  0.0400226  1.04172  0  0  0.09003  -0.0315449  0.843301  0.051801  0  0  0  0  0.615038  0  0  0  0  0  0  0  0  0  0 
1704729486.809630000  -2.52688  0.0442467  1.04198  0  0  0.0905181  -0.0315449  0.846333  0.051801  0  0  0  0  0.597627  0  0  0  0  0  0  0  0  0  0 
1704729486.814630000  -2.52704  0.0484858  1.04224  0  0  0.091  -0.0315449  0.849278  0.051801  0  0  0  0  0.580466  0  0  0  0  0  0  0  0  0  0 
1704729486.819632000  -2.5272  0.0527393  1.04249  0  0  0.0914756  -0.0315449  0.852138  0.051801  0  0  0  0  0.563555  0  0  0  0  0  0  0  0  0  0 
1704729486.824633000  -2.52736  0.057007  1.04275  0  0  0.0919449  -0.0315449  0.854914  0.051801  0  0  0  0  0.546894  0  0  0  0  0  0  0  0  0  0 
1704729486.829631000  -2.52751  0.0612884  1.04301  0  0  0.0924081  -0.0315449  0.857607  0.051801  0  0  0  0  0.530482  0  0  0  0  0  0  0  0  0  0 
1704729486.834633000  -2.52767  0.065583  1.04327  0  0  0.0928649  -0.0315449  0.860219  0.051801  0  0  0  0  0.514321  0  0  0  0  0  0  0  0  0  0 
1704729486.839615000  -2.52783  0.0698904  1.04353  0  0  0.0933155  -0.0315449  0.862751  0.051801  0  0  0  0  0.49841  0  0  0  0  0  0  0  0  0  0 
1704729486.844631000  -2.52799  0.0742103  1.04379  0  0  0.0937599  -0.0315449  0.865204  0.051801  0  0  0  0  0.482749  0  0  0  0  0  0  0  0  0  0 
1704729486.849634000  -2.52814  0.0785423  1.04405  0  0  0.094198  -0.0315449  0.867579  0.051801  0  0  0  0  0.467337  0  0  0  0  0  0  0  0  0  0 
1704729486.854630000  -2.5283  0.082886  1.04431  0  0  0.0946298  -0.0315449  0.869878  0.051801  0  0  0  0  0.452176  0  0  0  0  0  0  0  0  0  0 
1704729486.859630000  -2.52846  0.087241  1.04457  0  0  0.0950554  -0.0315449  0.872101  0.051801  0  0  0  0  0.437265  0  0  0  0  0  0  0  0  0  0 
1704729486.864630000  -2.52862  0.0916069  1.04483  0  0  0.0954748  -0.0315449  0.874251  0.051801  0  0  0  0  0.422604  0  0  0  0  0  0  0  0  0  0 
1704729486.869628000  -2.52878  0.0959834  1.04508  0  0  0.0958879  -0.0315449  0.876327  0.051801  0  0  0  0  0.408193  0  0  0  0  0  0  0  0  0  0 
1704729486.874633000  -2.52893  0.10037  1.04534  0  0  0.0962948  -0.0315449  0.878333  0.051801  0  0  0  0  0.394031  0  0  0  0  0  0  0  0  0  0 
1704729486.879631000  -2.52909  0.104767  1.0456  0  0  0.0966954  -0.0315449  0.880268  0.051801  0  0  0  0  0.38012  0  0  0  0  0  0  0  0  0  0 
1704729486.884631000  -2.52925  0.109173  1.04586  0  0  0.0970897  -0.0315449  0.882135  0.051801  0  0  0  0  0.366459  0  0  0  0  0  0  0  0  0  0 
1704729486.889631000  -2.52941  0.113588  1.04612  0  0  0.0974778  -0.0315449  0.883933  0.051801  0  0  0  0  0.353048  0  0  0  0  0  0  0  0  0  0 
1704729486.894630000  -2.52956  0.118012  1.04638  0  0  0.0978597  -0.0315449  0.885665  0.051801  0  0  0  0  0.339886  0  0  0  0  0  0  0  0  0  0 
1704729486.899633000  -2.52972  0.122444  1.04664  0  0  0.0982353  -0.0315449  0.887333  0.051801  0  0  0  0  0.326975  0  0  0  0  0  0  0  0  0  0 
1704729486.904632000  -2.52988  0.126885  1.0469  0  0  0.0986046  -0.0315449  0.888936  0.051801  0  0  0  0  0.314314  0  0  0  0  0  0  0  0  0  0 
1704729486.909629000  -2.53004  0.131334  1.04716  0  0  0.0989677  -0.0315449  0.890476  0.051801  0  0  0  0  0.301903  0  0  0  0  0  0  0  0  0  0 
1704729486.914628000  -2.53019  0.13579  1.04742  0  0  0.0993246  -0.0315449  0.891955  0.051801  0  0  0  0  0.289741  0  0  0  0  0  0  0  0  0  0 
1704729486.919630000  -2.53035  0.140253  1.04767  0  0  0.0996752  -0.0315449  0.893374  0.051801  0  0  0  0  0.27783  0  0  0  0  0  0  0  0  0  0 
1704729486.924629000  -2.53051  0.144723  1.04793  0  0  0.10002  -0.0315449  0.894734  0.051801  0  0  0  0  0.266169  0  0  0  0  0  0  0  0  0  0 
1704729486.929653000  -2.53067  0.1492  1.04819  0  0  0.100358  -0.0315449  0.896036  0.051801  0  0  0  0  0.254758  0  0  0  0  0  0  0  0  0  0 
1704729486.934634000  -2.53083  0.153684  1.04845  0  0  0.10069  -0.0315449  0.897282  0.051801  0  0  0  0  0.243597  0  0  0  0  0  0  0  0  0  0 
1704729486.939633000  -2.53098  0.158173  1.04871  0  0  0.101015  -0.0315449  0.898472  0.051801  0  0  0  0  0.232685  0  0  0  0  0  0  0  0  0  0 
1704729486.944631000  -2.53114  0.162668  1.04897  0  0  0.101334  -0.0315449  0.899609  0.051801  0  0  0  0  0.222024  0  0  0  0  0  0  0  0  0  0 
1704729486.949632000  -2.5313  0.167169  1.04923  0  0  0.101648  -0.0315449  0.900693  0.051801  0  0  0  0  0.211613  0  0  0  0  0  0  0  0  0  0 
1704729486.954638000  -2.53146  0.171675  1.04949  0  0  0.101954  -0.0315449  0.901726  0.051801  0  0  0  0  0.201452  0  0  0  0  0  0  0  0  0  0 
1704729486.959635000  -2.53161  0.176186  1.04975  0  0  0.102255  -0.0315449  0.902708  0.051801  0  0  0  0  0.19154  0  0  0  0  0  0  0  0  0  0 
1704729486.964631000  -2.53177  0.180702  1.05001  0  0  0.102549  -0.0315449  0.903641  0.051801  0  0  0  0  0.181879  0  0  0  0  0  0  0  0  0  0 
1704729486.969631000  -2.53193  0.185223  1.05026  0  0  0.102838  -0.0315449  0.904527  0.051801  0  0  0  0  0.172468  0  0  0  0  0  0  0  0  0  0 
1704729486.974645000  -2.53209  0.189747  1.05052  0  0  0.103119  -0.0315449  0.905367  0.051801  0  0  0  0  0.163307  0  0  0  0  0  0  0  0  0  0 
1704729486.979630000  -2.53224  0.194276  1.05078  0  0  0.103395  -0.0315449  0.906161  0.051801  0  0  0  0  0.154396  0  0  0  0  0  0  0  0  0  0 
1704729486.984627000  -2.5324  0.198809  1.05104  0  0  0.103664  -0.0315449  0.906911  0.051801  0  0  0  0  0.145734  0  0  0  0  0  0  0  0  0  0 
1704729486.989629000  -2.53256  0.203345  1.0513  0  0  0.103927  -0.0315449  0.907618  0.051801  0  0  0  0  0.137323  0  0  0  0  0  0  0  0  0  0 
1704729486.994631000  -2.53272  0.207885  1.05156  0  0  0.104184  -0.0315449  0.908285  0.051801  0  0  0  0  0.129162  0  0  0  0  0  0  0  0  0  0 
1704729486.999632000  -2.53288  0.212428  1.05182  0  0  0.104435  -0.0315449  0.90891  0.051801  0  0  0  0  0.121251  0  0  0  0  0  0  0  0  0  0 
1704729487.004629000  -2.53303  0.216974  1.05208  0  0  0.104679  -0.0315449  0.909497  0.051801  0  0  0  0  0.113589  0  0  0  0  0  0  0  0  0  0 
1704729487.009629000  -2.53319  0.221523  1.05234  0  0  0.104917  -0.0315449  0.910047  0.051801  0  0  0  0  0.106178  0  0  0  0  0  0  0  0  0  0 
1704729487.014627000  -2.53335  0.226074  1.0526  0  0  0.105149  -0.0315449  0.91056  0.051801  0  0  0  0  0.099017  0  0  0  0  0  0  0  0  0  0 
1704729487.019630000  -2.53351  0.230628  1.05285  0  0  0.105375  -0.0315449  0.911037  0.051801  0  0  0  0  0.0921057  0  0  0  0  0  0  0  0  0  0 
1704729487.024630000  -2.53366  0.235185  1.05311  0  0  0.105594  -0.0315449  0.911481  0.051801  0  0  0  0  0.0854445  0  0  0  0  0  0  0  0  0  0 
1704729487.029629000  -2.53382  0.239743  1.05337  0  0  0.105807  -0.0315449  0.911892  0.051801  0  0  0  0  0.0790333  0  0  0  0  0  0  0  0  0  0 
1704729487.034633000  -2.53398  0.244304  1.05363  0  0  0.106014  -0.0315449  0.912272  0.051801  0  0  0  0  0.0728721  0  0  0  0  0  0  0  0  0  0 
1704729487.039636000  -2.53414  0.248866  1.05389  0  0  0.106215  -0.0315449  0.912621  0.051801  0  0  0  0  0.0669608  0  0  0  0  0  0  0  0  0  0 
1704729487.044630000  -2.5343  0.25343  1.05415  0  0  0.106409  -0.0315449  0.912942  0.051801  0  0  0  0  0.0612996  0  0  0  0  0  0  0  0  0  0 
1704729487.049628000  -2.53445  0.257995  1.05441  0  0  0.106597  -0.0315449  0.913235  0.051801  0  0  0  0  0.0558884  0  0  0  0  0  0  0  0  0  0 
1704729487.054632000  -2.53461  0.262562  1.05467  0  0  0.106779  -0.0315449  0.913501  0.051801  0  0  0  0  0.0507271  0  0  0  0  0  0  0  0  0  0 
1704729487.059631000  -2.53477  0.26713  1.05493  0  0  0.106955  -0.0315449  0.913742  0.051801  0  0  0  0  0.0458159  0  0  0  0  0  0  0  0  0  0 
1704729487.064628000  -2.53493  0.271699  1.05519  0  0  0.107124  -0.0315449  0.91396  0.051801  0  0  0  0  0.0411547  0  0  0  0  0  0  0  0  0  0 
1704729487.069630000  -2.53508  0.27627  1.05544  0  0  0.107287  -0.0315449  0.914154  0.051801  0  0  0  0  0.0367435  0  0  0  0  0  0  0  0  0  0 
1704729487.074633000  -2.53524  0.280841  1.0557  0  0  0.107444  -0.0315449  0.914328  0.051801  0  0  0  0  0.0325822  0  0  0  0  0  0  0  0  0  0 
1704729487.079631000  -2.5354  0.285413  1.05596  0  0  0.107595  -0.0315449  0.914481  0.051801  0  0  0  0  0.028671  0  0  0  0  0  0  0  0  0  0 
1704729487.084629000  -2.53556  0.289986  1.05622  0  0  0.107739  -0.0315449  0.914615  0.051801  0  0  0  0  0.0250098  0  0  0  0  0  0  0  0  0  0 
1704729487.089628000  -2.53571  0.294559  1.05648  0  0  0.107877  -0.0315449  0.914731  0.051801  0  0  0  0  0.0215986  0  0  0  0  0  0  0  0  0  0 
1704729487.094632000  -2.53587  0.299133  1.05674  0  0  0.108009  -0.0315449  0.914831  0.051801  0  0  0  0  0.0184373  0  0  0  0  0  0  0  0  0  0 
1704729487.099628000  -2.53603  0.303707  1.057  0  0  0.108135  -0.0315449  0.914916  0.051801  0  0  0  0  0.0155261  0  0  0  0  0  0  0  0  0  0 
1704729487.104630000  -2.53619  0.308282  1.05726  0  0  0.108254  -0.0315449  0.914987  0.051801  0  0  0  0  0.0128649  0  0  0  0  0  0  0  0  0  0 
1704729487.109630000  -2.53635  0.312857  1.05752  0  0  0.108367  -0.0315449  0.915045  0.051801  0  0  0  0  0.0104537  0  0  0  0  0  0  0  0  0  0 
1704729487.114631000  -2.5365  0.317433  1.05778  0  0  0.108474  -0.0315449  0.915092  0.051801  0  0  0  0  0.0082924  0  0  0  0  0  0  0  0  0  0 
1704729487.119630000  -2.53666  0.322008  1.05803  0  0  0.108574  -0.0315449  0.915128  0.051801  0  0  0  0  0.0063812  0  0  0  0  0  0  0  0  0  0 
1704729487.124628000  -2.53682  0.326584  1.05829  0  0  0.108669  -0.0315449  0.915156  0.051801  0  0  0  0  0.00472  0  0  0  0  0  0  0  0  0  0 
1704729487.129628000  -2.53698  0.33116  1.05855  0  0  0.108757  -0.0315449  0.915176  0.051801  0  0  0  0  0.0033088  0  0  0  0  0  0  0  0  0  0 
1704729487.134631000  -2.53713  0.335736  1.05881  0  0  0.108839  -0.0315449  0.91519  0.051801  0  0  0  0  0.0021475  0  0  0  0  0  0  0  0  0  0 
1704729487.139628000  -2.53729  0.340312  1.05907  0  0  0.108914  -0.0315449  0.915198  0.051801  0  0  0  0  0.0012363  0  0  0  0  0  0  0  0  0  0 
1704729487.144631000  -2.53745  0.344888  1.05933  0  0  0.108984  -0.0315449  0.915202  0.051801  0  0  0  0  0.0005751  0  0  0  0  0  0  0  0  0  0 
1704729487.149630000  -2.53761  0.349464  1.05959  0  0  0.109047  -0.0315449  0.915204  0.051801  0  0  0  0  0.0001639  0  0  0  0  0  0  0  0  0  0 
1704729487.154630000  -2.53777  0.35404  1.05985  0  0  0.109104  -0.0315449  0.915204  0.051801  0  0  0  0  2.6e-06  0  0  0  0  0  0  0  0  0  0 
1704729487.159630000  -2.53792  0.358616  1.06011  0  0  0.109154  -0.0315449  0.915204  0.051801  0  0  0  0  -0  0  0  0  0  0  0  0  0  0  0 
1704729487.164628000  -2.53808  0.363192  1.06037  0  0  0.109199  -0.0315449  0.915204  0.051801  0  0  0  0  -0  0  0  0  0  0  0  0  0  0  0 
1704729487.169630000  -2.53824  0.367768  1.06062  0  0  0.109237  -0.0315449  0.915204  0.051801  0  0  0  0  -0  0  0  0  0  0  0  0  0  0  0 
1704729487.174631000  -2.5384  0.372344  1.06088  0  0  0.109269  -0.0315449  0.915204  0.051801  0  0  0  0  -0  0  0  0  0  0  0  0  0  0  0 
1704729487.179632000  -2.53855  0.37692  1.06114  0  0  0.109294  -0.0315449  0.915204  0.051801  0  0  0  0  -0  0  0  0  0  0  0  0  0  0  0 
1704729487.184629000  -2.53871  0.381496  1.0614  0  0  0.109314  -0.0315449  0.915204  0.051801  0  0  0  0  -0  0  0  0  0  0  0  0  0  0  0 
1704729487.189628000  -2.53887  0.386072  1.06166  0  0  0.109327  -0.0315449  0.915204  0.051801  0  0  0  0  -0  0  0  0  0  0  0  0  0  0  0 
1704729487.194631000  -2.53903  0.390648  1.06192  0  0  0.109334  -0.0315449  0.915204  0.051801  0  0  0  0  -0  0  0  0  0  0  0  0  0  0  0 
1704729487.199633000  -2.53918  0.395224  1.06218  0  0  0.109334  -0.0315449  0.915204  0.051801  0  0  0  0  -0  0  0  0  0  0  0  0  0  0  0 
1704729487.204632000  -2.53934  0.3998  1.06244  0  0  0.109328  -0.0315449  0.915204  0.051801  0  0  0  0  -0  0  0  0  0  0  0  0  0  0  0 
1704729487.209631000  -2.5395  0.404376  1.0627  0  0  0.109317  -0.0315449  0.915204  0.051801  0  0  0  0  -0  0  0  0  0  0  0  0  0  0  0 
1704729487.214629000  -2.53966  0.408952  1.06296  0  0  0.109298  -0.0315449  0.915204  0.051801  0  0  0  0  -0  0  0  0  0  0  0  0  0  0  0 
1704729487.219633000  -2.53982  0.413528  1.06321  0  0  0.109274  -0.0315449  0.915204  0.051801  0  0  0  0  -0  0  0  0  0  0  0  0  0  0  0 
1704729487.224628000  -2.53997  0.418104  1.06347  0  0  0.109243  -0.0315449  0.915204  0.051801  0  0  0  0  -0  0  0  0  0  0  0  0  0  0  0 
1704729487.229624000  -2.54013  0.42268  1.06373  0  0  0.109207  -0.0315449  0.915204  0.051801  0  0  0  0  -0  0  0  0  0  0  0  0  0  0  0 
1704729487.234625000  -2.54029  0.427256  1.06399  0  0  0.109163  -0.0315449  0.915204  0.051801  0  0  0  0  -0  0  0  0  0  0  0  0  0  0  0 
1704729487.239626000  -2.54045  0.431832  1.06425  0  0  0.109114  -0.0315449  0.915204  0.051801  0  0  0  0  -0  0  0  0  0  0  0  0  0  0  0 
1704729487.244624000  -2.5406  0.436408  1.06451  0  0  0.109058  -0.0315449  0.915204  0.051801  0  0  0  0  -0  0  0  0  0  0  0  0  0  0  0 
1704729487.249623000  -2.54076  0.440984  1.06477  0  0  0.108996  -0.0315449  0.915204  0.051801  0  0  0  0  -0  0  0  0  0  0  0  0  0  0  0 
1704729487.254626000  -2.54092  0.44556  1.06503  0  0  0.108928  -0.0315449  0.915204  0.051801  0  0  0  0  -0  0  0  0  0  0  0  0  0  0  0 
1704729487.259625000  -2.54108  0.450136  1.06529  0  0  0.108854  -0.0315449  0.915204  0.051801  0  0  0  0  -0  0  0  0  0  0  0  0  0  0  0 
1704729487.264624000  -2.54124  0.454712  1.06555  0  0  0.108773  -0.0315449  0.915204  0.051801  0  0  0  0  -0  0  0  0  0  0  0  0  0  0  0 
1704729487.269620000  -2.54139  0.459288  1.0658  0  0  0.108686  -0.0315449  0.915204  0.051801  0  0  0  0  -0  0  0  0  0  0  0  0  0  0  0 
1704729487.274627000  -2.54155  0.463864  1.06606  0  0  0.108593  -0.0315449  0.915204  0.051801  0  0  0  0  -0  0  0  0  0  0  0  0  0  0  0 
1704729487.279627000  -2.54171  0.46844  1.06632  0  0  0.108494  -0.0315449  0.915204  0.051801  0  0  0  0  -0  0  0  0  0  0  0  0  0  0  0 
1704729487.284621000  -2.54187  0.473016  1.06658  0  0  0.108388  -0.0315449  0.915204  0.051801  0  0  0  0  -0  0  0  0  0  0  0  0  0  0  0 
1704729487.289624000  -2.54202  0.477592  1.06684  0  0  0.108276  -0.0315449  0.915204  0.051801  0  0  0  0  -1.57e-05  0  0  0  0  0  0  0  0  0  0 
1704729487.294625000  -2.54218  0.482168  1.0671  0  0  0.108158  -0.0315449  0.915204  0.051801  0  0  0  0  -0.0002291  0  0  0  0  0  0  0  0  0  0 
1704729487.299627000  -2.54234  0.486744  1.06736  0  0  0.108034  -0.0315449  0.915202  0.051801  0  0  0  0  -0.0006926  0  0  0  0  0  0  0  0  0  0 
1704729487.304626000  -2.5425  0.49132  1.06762  0  0  0.107903  -0.0315449  0.915197  0.051801  0  0  0  0  -0.0014061  0  0  0  0  0  0  0  0  0  0 
1704729487.309623000  -2.54265  0.495896  1.06788  0  0  0.107766  -0.0315449  0.915187  0.051801  0  0  0  0  -0.0023696  0  0  0  0  0  0  0  0  0  0 
1704729487.314629000  -2.54281  0.500472  1.06814  0  0  0.107623  -0.0315449  0.915172  0.051801  0  0  0  0  -0.0035831  0  0  0  0  0  0  0  0  0  0 
1704729487.319624000  -2.54297  0.505048  1.06839  0  0  0.107474  -0.0315449  0.915151  0.051801  0  0  0  0  -0.0050466  0  0  0  0  0  0  0  0  0  0 
1704729487.324621000  -2.54313  0.509624  1.06865  0  0  0.107318  -0.0315449  0.915122  0.051801  0  0  0  0  -0.0067601  0  0  0  0  0  0  0  0  0  0 
1704729487.329623000  -2.54329  0.514199  1.06891  0  0  0.107156  -0.0315449  0.915083  0.051801  0  0  0  0  -0.0087236  0  0  0  0  0  0  0  0  0  0 
1704729487.334623000  -2.54344  0.518774  1.06917  0  0  0.106988  -0.0315449  0.915034  0.051801  0  0  0  0  -0.010937  0  0  0  0  0  0  0  0  0  0 
1704729487.339622000  -2.5436  0.523349  1.06943  0  0  0.106814  -0.0315449  0.914973  0.051801  0  0  0  0  -0.0134005  0  0  0  0  0  0  0  0  0  0 
1704729487.344622000  -2.54376  0.527924  1.06969  0  0  0.106633  -0.0315449  0.914899  0.051801  0  0  0  0  -0.016114  0  0  0  0  0  0  0  0  0  0 
1704729487.349622000  -2.54392  0.532498  1.06995  0  0  0.106446  -0.0315449  0.914812  0.051801  0  0  0  0  -0.0190775  0  0  0  0  0  0  0  0  0  0 
1704729487.354624000  -2.54407  0.537072  1.07021  0  0  0.106253  -0.0315449  0.914708  0.051801  0  0  0  0  -0.022291  0  0  0  0  0  0  0  0  0  0 
1704729487.359622000  -2.54423  0.541645  1.07047  0  0  0.106054  -0.0315449  0.914588  0.051801  0  0  0  0  -0.0257545  0  0  0  0  0  0  0  0  0  0 
1704729487.364620000  -2.54439  0.546218  1.07073  0  0  0.105848  -0.0315449  0.91445  0.051801  0  0  0  0  -0.029468  0  0  0  0  0  0  0  0  0  0 
1704729487.369622000  -2.54455  0.55079  1.07098  0  0  0.105636  -0.0315449  0.914293  0.051801  0  0  0  0  -0.0334315  0  0  0  0  0  0  0  0  0  0 
1704729487.374622000  -2.54471  0.555361  1.07124  0  0  0.105418  -0.0315449  0.914116  0.051801  0  0  0  0  -0.0376449  0  0  0  0  0  0  0  0  0  0 
1704729487.379627000  -2.54486  0.559931  1.0715  0  0  0.105193  -0.0315449  0.913916  0.051801  0  0  0  0  -0.0421084  0  0  0  0  0  0  0  0  0  0 
1704729487.384623000  -2.54502  0.5645  1.07176  0  0  0.104963  -0.0315449  0.913694  0.051801  0  0  0  0  -0.0468219  0  0  0  0  0  0  0  0  0  0 
1704729487.389622000  -2.54518  0.569068  1.07202  0  0  0.104726  -0.0315449  0.913448  0.051801  0  0  0  0  -0.0517854  0  0  0  0  0  0  0  0  0  0 
1704729487.394621000  -2.54534  0.573634  1.07228  0  0  0.104483  -0.0315449  0.913176  0.051801  0  0  0  0  -0.0569989  0  0  0  0  0  0  0  0  0  0 
1704729487.399623000  -2.54549  0.5782  1.07254  0  0  0.104233  -0.0315449  0.912877  0.051801  0  0  0  0  -0.0624624  0  0  0  0  0  0  0  0  0  0 
1704729487.404624000  -2.54565  0.582763  1.0728  0  0  0.103978  -0.0315449  0.912551  0.051801  0  0  0  0  -0.0681759  0  0  0  0  0  0  0  0  0  0 
1704729487.409622000  -2.54581  0.587325  1.07306  0  0  0.103716  -0.0315449  0.912195  0.051801  0  0  0  0  -0.0741394  0  0  0  0  0  0  0  0  0  0 
1704729487.414621000  -2.54597  0.591885  1.07332  0  0  0.103448  -0.0315449  0.911809  0.051801  0  0  0  0  -0.0803528  0  0  0  0  0  0  0  0  0  0 
1704729487.419623000  -2.54612  0.596443  1.07357  0  0  0.103173  -0.0315449  0.911391  0.051801  0  0  0  0  -0.0868163  0  0  0  0  0  0  0  0  0  0 
1704729487.424621000  -2.54628  0.600999  1.07383  0  0  0.102893  -0.0315449  0.91094  0.051801  0  0  0  0  -0.0935298  0  0  0  0  0  0  0  0  0  0 
1704729487.429622000  -2.54644  0.605552  1.07409  0  0  0.102606  -0.0315449  0.910455  0.051801  0  0  0  0  -0.100493  0  0  0  0  0  0  0  0  0  0 
1704729487.434624000  -2.5466  0.610103  1.07435  0  0  0.102313  -0.0315449  0.909935  0.051801  0  0  0  0  -0.107707  0  0  0  0  0  0  0  0  0  0 
1704729487.439622000  -2.54676  0.614652  1.07461  0  0  0.102013  -0.0315449  0.909378  0.051801  0  0  0  0  -0.11517  0  0  0  0  0  0  0  0  0  0 
1704729487.444623000  -2.54691  0.619197  1.07487  0  0  0.101708  -0.0315449  0.908783  0.051801  0  0  0  0  -0.122884  0  0  0  0  0  0  0  0  0  0 
1704729487.449628000  -2.54707  0.62374  1.07513  0  0  0.101396  -0.0315449  0.908149  0.051801  0  0  0  0  -0.130847  0  0  0  0  0  0  0  0  0  0 
1704729487.454631000  -2.54723  0.628279  1.07539  0  0  0.101078  -0.0315449  0.907474  0.051801  0  0  0  0  -0.139061  0  0  0  0  0  0  0  0  0  0 
1704729487.459630000  -2.54739  0.632814  1.07565  0  0  0.100753  -0.0315449  0.906758  0.051801  0  0  0  0  -0.147524  0  0  0  0  0  0  0  0  0  0 
1704729487.464629000  -2.54754  0.637346  1.07591  0  0  0.100422  -0.0315449  0.905998  0.051801  0  0  0  0  -0.156238  0  0  0  0  0  0  0  0  0  0 
1704729487.469629000  -2.5477  0.641874  1.07616  0  0  0.100086  -0.0315449  0.905195  0.051801  0  0  0  0  -0.165201  0  0  0  0  0  0  0  0  0  0 
1704729487.474631000  -2.54786  0.646398  1.07642  0  0  0.0997425  -0.0315449  0.904346  0.051801  0  0  0  0  -0.174415  0  0  0  0  0  0  0  0  0  0 
1704729487.479630000  -2.54802  0.650917  1.07668  0  0  0.0993931  -0.0315449  0.90345  0.051801  0  0  0  0  -0.183878  0  0  0  0  0  0  0  0  0  0 
1704729487.484631000  -2.54818  0.655432  1.07694  0  0  0.0990374  -0.0315449  0.902507  0.051801  0  0  0  0  -0.193592  0  0  0  0  0  0  0  0  0  0 
1704729487.489629000  -2.54833  0.659942  1.0772  0  0  0.0986755  -0.0315449  0.901514  0.051801  0  0  0  0  -0.203555  0  0  0  0  0  0  0  0  0  0 
1704729487.494631000  -2.54849  0.664447  1.07746  0  0  0.0983074  -0.0315449  0.900471  0.051801  0  0  0  0  -0.213769  0  0  0  0  0  0  0  0  0  0 
1704729487.499630000  -2.54865  0.668947  1.07772  0  0  0.097933  -0.0315449  0.899376  0.051801  0  0  0  0  -0.224232  0  0  0  0  0  0  0  0  0  0 
1704729487.504629000  -2.54881  0.673441  1.07798  0  0  0.0975523  -0.0315449  0.898228  0.051801  0  0  0  0  -0.234946  0  0  0  0  0  0  0  0  0  0 
1704729487.509629000  -2.54896  0.677929  1.07824  0  0  0.0971654  -0.0315449  0.897026  0.051801  0  0  0  0  -0.245909  0  0  0  0  0  0  0  0  0  0 
1704729487.514630000  -2.54912  0.682411  1.0785  0  0  0.0967723  -0.0315449  0.895768  0.051801  0  0  0  0  -0.257123  0  0  0  0  0  0  0  0  0  0 
1704729487.519629000  -2.54928  0.686887  1.07875  0  0  0.0963729  -0.0315449  0.894454  0.051801  0  0  0  0  -0.268586  0  0  0  0  0  0  0  0  0  0 
1704729487.524629000  -2.54944  0.691356  1.07901  0  0  0.0959673  -0.0315449  0.893082  0.051801  0  0  0  0  -0.2803  0  0  0  0  0  0  0  0  0  0 
1704729487.529628000  -2.54959  0.695818  1.07927  0  0  0.0955554  -0.0315449  0.891651  0.051801  0  0  0  0  -0.292263  0  0  0  0  0  0  0  0  0  0 
1704729487.534630000  -2.54975  0.700272  1.07953  0  0  0.0951372  -0.0315449  0.890159  0.051801  0  0  0  0  -0.304477  0  0  0  0  0  0  0  0  0  0 
1704729487.539629000  -2.54991  0.704719  1.07979  0  0  0.0947128  -0.0315449  0.888606  0.051801  0  0  0  0  -0.31694  0  0  0  0  0  0  0  0  0  0 
1704729487.544630000  -2.55007  0.709158  1.08005  0  0  0.0942822  -0.0315449  0.886989  0.051801  0  0  0  0  -0.329654  0  0  0  0  0  0  0  0  0  0 
1704729487.549630000  -2.55023  0.713589  1.08031  0  0  0.0938453  -0.0315449  0.885309  0.051801  0  0  0  0  -0.342617  0  0  0  0  0  0  0  0  0  0 
1704729487.554631000  -2.55038  0.718011  1.08057  0  0  0.0934021  -0.0315449  0.883563  0.051801  0  0  0  0  -0.35583  0  0  0  0  0  0  0  0  0  0 
1704729487.559630000  -2.55054  0.722424  1.08083  0  0  0.0929528  -0.0315449  0.88175  0.051801  0  0  0  0  -0.369294  0  0  0  0  0  0  0  0  0  0 
1704729487.564629000  -2.5507  0.726828  1.08109  0  0  0.0924971  -0.0315449  0.879869  0.051801  0  0  0  0  -0.383007  0  0  0  0  0  0  0  0  0  0 
1704729487.569631000  -2.55086  0.731223  1.08134  0  0  0.0920352  -0.0315449  0.87792  0.051801  0  0  0  0  -0.396971  0  0  0  0  0  0  0  0  0  0 
1704729487.574632000  -2.55101  0.735608  1.0816  0  0  0.0915671  -0.0315449  0.875899  0.051801  0  0  0  0  -0.411184  0  0  0  0  0  0  0  0  0  0 
1704729487.579628000  -2.55117  0.739982  1.08186  0  0  0.0910927  -0.0315449  0.873807  0.051801  0  0  0  0  -0.425648  0  0  0  0  0  0  0  0  0  0 
1704729487.584631000  -2.55133  0.744345  1.08212  0  0  0.090612  -0.0315449  0.871642  0.051801  0  0  0  0  -0.440361  0  0  0  0  0  0  0  0  0  0 
1704729487.589630000  -2.55149  0.748698  1.08238  0  0  0.0901251  -0.0315449  0.869403  0.051801  0  0  0  0  -0.455325  0  0  0  0  0  0  0  0  0  0 
1704729487.594634000  -2.55165  0.753039  1.08264  0  0  0.089632  -0.0315449  0.867089  0.051801  0  0  0  0  -0.470538  0  0  0  0  0  0  0  0  0  0 
1704729487.599629000  -2.5518  0.757369  1.0829  0  0  0.0891326  -0.0315449  0.864697  0.051801  0  0  0  0  -0.486002  0  0  0  0  0  0  0  0  0  0 
1704729487.604627000  -2.55196  0.761686  1.08316  0  0  0.088627  -0.0315449  0.862228  0.051801  0  0  0  0  -0.501715  0  0  0  0  0  0  0  0  0  0 
1704729487.609629000  -2.55212  0.765991  1.08342  0  0  0.0881151  -0.0315449  0.85968  0.051801  0  0  0  0  -0.517679  0  0  0  0  0  0  0  0  0  0 
1704729487.614625000  -2.55228  0.770283  1.08368  0  0  0.0875969  -0.0315449  0.857051  0.051801  0  0  0  0  -0.533892  0  0  0  0  0  0  0  0  0  0 
1704729487.619629000  -2.55243  0.774561  1.08394  0  0  0.0870725  -0.0315449  0.854341  0.051801  0  0  0  0  -0.550356  0  0  0  0  0  0  0  0  0  0 
1704729487.624628000  -2.55259  0.778826  1.08419  0  0  0.0865419  -0.0315449  0.851547  0.051801  0  0  0  0  -0.567069  0  0  0  0  0  0  0  0  0  0 
1704729487.629627000  -2.55275  0.783077  1.08445  0  0  0.086005  -0.0315449  0.848669  0.051801  0  0  0  0  -0.584033  0  0  0  0  0  0  0  0  0  0 
1704729487.634632000  -2.55291  0.787313  1.08471  0  0  0.0854618  -0.0315449  0.845706  0.051801  0  0  0  0  -0.601246  0  0  0  0  0  0  0  0  0  0 
1704729487.639628000  -2.55306  0.791534  1.08497  0  0  0.0849124  -0.0315449  0.842657  0.051801  0  0  0  0  -0.61871  0  0  0  0  0  0  0  0  0  0 
1704729487.644627000  -2.55322  0.795739  1.08523  0  0  0.0843568  -0.0315449  0.839519  0.051801  0  0  0  0  -0.636423  0  0  0  0  0  0  0  0  0  0 
1704729487.649629000  -2.55338  0.799929  1.08549  0  0  0.0837949  -0.0315449  0.836292  0.051801  0  0  0  0  -0.654387  0  0  0  0  0  0  0  0  0  0 
1704729487.654633000  -2.55354  0.804102  1.08575  0  0  0.0832268  -0.0315449  0.832975  0.051801  0  0  0  0  -0.672395  0  0  0  0  0  0  0  0  0  0 
