ts fx fy fz tx ty tz exfx exfy exfz extx exty extz xd yd zd rolld pitchd yawd vxd vyd vzd wxd wyd wzd axd ayd azd e_x e_y e_z e_vx e_vy e_vz e_rx e_ry e_rz e_wx e_wy e_wz
1704729485.657587000  0  0  11.2058  0.087237  -0.0985201  0.0202034  nan  nan  nan  nan  nan  nan  -2.5  -0.3  1  0.017473  -0.0279404  -0.000488189  0  0  0  0  0  0  0  0  0  0.0242066  0.00456549  -0.000569273  -0.0189843  0.0116037  0.000134109  -0.0178684  0.0276553  -0.0258996  -0.0100846  -0.0573882  0.00645369 
1704729485.661553000  0  0  11.2172  0.0707604  -0.10521  0.0229515  nan  nan  nan  nan  nan  nan  -2.5  -0.3  1  0.0168436  -0.0284374  -0.000478968  0  0  0  0  0  0  0  0  0  0.0243237  0.00446374  -0.000556975  -0.0185901  0.0110671  -0.000834405  -0.0169775  0.0280795  -0.0262765  0.0146719  -0.0479107  -0.0241284 
1704729485.666569000  0  0  11.2332  0.0695012  -0.118214  0.0200178  nan  nan  nan  nan  nan  nan  -2.5  -0.3  1  0.0160076  -0.0300892  -0.000481625  0  0  0  0  0  0  0  0  0  0.0244338  0.00436824  -0.000551926  -0.0167215  0.0102648  -0.00216876  -0.0161206  0.029648  -0.0260383  0.00930712  -0.0363337  0.0101606 
1704729485.671596000  0  0  11.2504  0.0747307  -0.132466  0.0207677  nan  nan  nan  nan  nan  nan  -2.5  -0.3  1  0.0167232  -0.0287856  -0.000481364  0  0  0  0  0  0  0  0  0  0.024338  0.00442598  -0.000572508  -0.0180814  0.0110624  -0.00356764  -0.0167932  0.0285724  -0.0260642  0.00503593  0.00206676  0.001046 
1704729485.676661000  0  0  11.1786  0.0578952  -0.109143  0.0226357  nan  nan  nan  nan  nan  nan  -2.5  -0.3  1  0.0153359  -0.0289057  -0.000443267  0  0  0  0  0  0  0  0  0  0.0244267  0.00432335  -0.000515524  -0.018361  0.00943392  0.00230896  -0.0151705  0.028321  -0.0263084  0.023778  -0.042266  -0.0198625 
1704729485.681664000  0  0  11.2823  0.0512119  -0.139308  0.023343  nan  nan  nan  nan  nan  nan  -2.5  -0.3  1  0.0150848  -0.0315166  -0.000475379  0  0  0  0  0  0  0  0  0  0.0245458  0.00423366  -0.000559847  -0.015016  0.00949369  -0.0062405  -0.0147256  0.031026  -0.0265049  0.0330512  -0.00682261  -0.0267391 
1704729485.686655000  0  0  11.2711  0.0787276  -0.148655  0.0201481  nan  nan  nan  nan  nan  nan  -2.5  -0.3  1  0.0160856  -0.0296075  -0.000476225  0  0  0  0  0  0  0  0  0  0.0244441  0.00429299  -0.000568165  -0.0172214  0.0105974  -0.00529884  -0.016002  0.0294363  -0.0262563  -0.0102367  0.0264973  0.0107109 
1704729485.691665000  0  0  11.1716  0.0585471  -0.100985  0.0200318  nan  nan  nan  nan  nan  nan  -2.5  -0.3  1  0.0144956  -0.0298623  -0.000432838  0  0  0  0  0  0  0  0  0  0.0245385  0.00418052  -0.000506358  -0.0174445  0.0086959  0.00288252  -0.014232  0.028976  -0.0261721  0.0138399  -0.0646091  0.0113231 
1704729485.700560000  0  0  11.3054  0.0876102  -0.157141  0.021506  nan  nan  nan  nan  nan  nan  -2.5  -0.3  1  0.0153731  -0.0316025  -0.000485785  0  0  0  0  0  0  0  0  0  0.0245987  0.00413371  -0.000591725  -0.0149441  0.0101165  -0.00810294  -0.0154442  0.0312311  -0.0264713  -0.0331336  0.0269547  -0.00411289 
1704729485.703571000  0  0  11.2479  0.10784  -0.142123  0.0164058  nan  nan  nan  nan  nan  nan  -2.5  -0.3  1  0.0157646  -0.0293764  -0.000463078  0  0  0  0  0  0  0  0  0  0.0245276  0.00416688  -0.000569273  -0.0177726  0.0104354  -0.00336956  -0.0162184  0.0289772  -0.0259073  -0.0664715  0.0176553  0.0540005 
1704729485.710567000  0  0  11.2148  0.0549811  -0.100091  0.0249583  nan  nan  nan  nan  nan  nan  -2.5  -0.3  1  0.0140192  -0.0317185  -0.000444623  0  0  0  0  0  0  0  0  0  0.0246148  0.00406911  -0.000546366  -0.0151566  0.0084182  -0.000612054  -0.0139938  0.0301424  -0.0266538  0.0187807  -0.0771281  -0.0454402 
1704729485.715591000  0  0  11.3102  0.0995711  -0.152239  0.0221745  nan  nan  nan  nan  nan  nan  -2.5  -0.3  1  0.0150786  -0.0322589  -0.000486373  0  0  0  0  0  0  0  0  0  0.0247197  0.00399218  -0.000607051  -0.0143704  0.0100689  -0.00847134  -0.0157354  0.0313777  -0.0265786  -0.0543769  0.015804  -0.0113956 
1704729485.720530000  0  0  11.2271  0.115668  -0.123575  0.0146292  nan  nan  nan  nan  nan  nan  -2.5  -0.3  1  0.0150197  -0.0294689  -0.000442583  0  0  0  0  0  0  0  0  0  0.0246129  0.00403903  -0.000576026  -0.0179158  0.00975367  -0.00160741  -0.0162226  0.0283291  -0.0256305  -0.0820878  -0.0134764  0.0734401 
1704729485.725578000  0  0  11.2629  0.0599668  -0.101417  0.0284152  nan  nan  nan  nan  nan  nan  -2.5  -0.3  1  0.0143637  -0.0320072  -0.000459695  0  0  0  0  0  0  0  0  0  0.0247435  0.00393623  -0.000599628  -0.0149108  0.00921912  -0.00450919  -0.0148867  0.0300362  -0.0271009  0.0170242  -0.073499  -0.0841806 
1704729485.729643000  0  0  11.3346  0.0864035  -0.145377  0.0284101  nan  nan  nan  nan  nan  nan  -2.5  -0.3  1  0.0155209  -0.0325283  -0.00050482  0  0  0  0  0  0  0  0  0  0.0246884  0.00398994  -0.000665506  -0.0138737  0.0106712  -0.0103703  -0.0164319  0.0311386  -0.0274582  -0.0216339  0.0042792  -0.0805442 
1704729485.735573000  0  0  11.2968  0.112195  -0.124514  0.0151918  nan  nan  nan  nan  nan  nan  -2.5  -0.3  1  0.0147446  -0.030885  -0.000455349  -1.7e-06  1.7e-06  1.7e-06  0  0  0  -0.0005  0.0005  0.0005  0.0247598  0.00389966  -0.00066995  -0.0162982  0.00989713  -0.007172  -0.01645  0.029362  -0.0260137  -0.0730511  -0.0211031  0.0702385 
1704729485.740572000  0  0  11.2836  0.0806202  -0.115681  0.0248241  nan  nan  nan  nan  nan  nan  -2.5  -0.3  1  0.0144511  -0.03197  -0.000461955  -5.6e-06  5.6e-06  5.6e-06  0  0  0  -0.001125  0.001125  0.001125  0.0248835  0.00380645  -0.000681259  -0.0153368  0.009793  -0.00597296  -0.0158588  0.0300294  -0.0269377  -0.0153391  -0.0449097  -0.0409241 
1704729485.745571000  0  0  11.304  0.0975309  -0.140253  0.0229836  nan  nan  nan  nan  nan  nan  -2.5  -0.3  1  0.0145447  -0.0326861  -0.000475259  -1.33e-05  1.33e-05  1.33e-05  0  0  0  -0.002  0.002  0.002  0.0248175  0.00385625  -0.000725107  -0.0143274  0.00994332  -0.00750757  -0.016355  0.0309846  -0.0269695  -0.0445955  -0.0045531  -0.0176001 
1704729485.750569000  0  0  11.3388  0.103746  -0.141692  0.0133515  nan  nan  nan  nan  nan  nan  -2.5  -0.3  1  0.0139003  -0.0320695  -0.000445427  -2.6e-05  2.6e-05  2.6e-05  0  0  0  -0.003125  0.003125  0.003125  0.0249057  0.00376093  -0.000769363  -0.0153178  0.00954294  -0.0102179  -0.0160509  0.0305103  -0.0257411  -0.0598244  0.00268891  0.0905176 
1704729485.754573000  0  0  11.2791  0.087258  -0.122283  0.0207318  nan  nan  nan  nan  nan  nan  -2.5  -0.3  1  0.0143708  -0.0310964  -0.000446338  -4.5e-05  4.5e-05  4.5e-05  0  0  0  -0.0045  0.0045  0.0045  0.024833  0.00380344  -0.000761521  -0.0167642  0.0101205  -0.00512154  -0.0163601  0.0292096  -0.0263193  -0.0240029  -0.0241632  0.00404556 
1704729485.760574000  0  0  11.3088  0.0901313  -0.144615  0.0221085  nan  nan  nan  nan  nan  nan  -2.5  -0.299999  1  0.0134887  -0.0336057  -0.00045224  -7.15e-05  7.15e-05  7.15e-05  0  0  0  -0.006125  0.006125  0.006125  0.0249692  0.00371034  -0.000799968  -0.0140146  0.00947137  -0.00735701  -0.0157157  0.0317835  -0.0266972  -0.035678  -0.00317765  -0.00938451 
1704729485.764580000  0  0  11.3796  0.102437  -0.16044  0.0172755  nan  nan  nan  nan  nan  nan  -2.5  -0.299999  1  0.0138129  -0.0332078  -0.00045694  -0.0001067  0.0001067  0.0001067  0  0  0  -0.008  0.008  0.008  0.024907  0.00375381  -0.000872748  -0.0143521  0.0101289  -0.0129472  -0.0163673  0.0317339  -0.0261094  -0.0542937  0.0289291  0.045151 
1704729485.770584000  0  0  11.2702  0.0790622  -0.119356  0.0207546  nan  nan  nan  nan  nan  nan  -2.5  -0.299998  1  0.013399  -0.0319786  -0.000425734  -0.0001519  0.0001519  0.0001519  0  0  0  -0.010125  0.010125  0.010125  0.0249643  0.00367295  -0.000836296  -0.0166953  0.00989236  -0.00368276  -0.0157718  0.0299377  -0.0262935  -0.0130234  -0.036715  0.00350228 
1704729485.775520000  0  0  11.3138  0.0614983  -0.129603  0.0266306  nan  nan  nan  nan  nan  nan  -2.5  -0.299997  1  0.0119258  -0.0349962  -0.000413092  -0.0002083  0.0002083  0.0002083  0  0  0  -0.0125  0.0125  0.0125  0.0251135  0.00357286  -0.000876533  -0.0133768  0.00862784  -0.00699211  -0.0141828  0.0327242  -0.0271153  0.00748547  -0.0418568  -0.0617294 
1704729485.780570000  0  0  11.3896  0.0845601  -0.149986  0.0192843  nan  nan  nan  nan  nan  nan  -2.5  -0.299996  1  0.0126963  -0.0336669  -0.000421289  -0.0002773  0.0002773  0.0002773  0  0  0  -0.015125  0.015125  0.015125  0.0250282  0.00363082  -0.000965166  -0.0149082  0.00990796  -0.0128904  -0.0152934  0.0318216  -0.0264235  -0.0284208  0.00721424  0.023181 
1704729485.785571000  0  0  11.2392  0.0646321  -0.110798  0.021322  nan  nan  nan  nan  nan  nan  -2.50001  -0.299995  1.00001  0.0115972  -0.0326414  -0.000369899  -0.00036  0.00036  0.00036  0  0  0  -0.018  0.018  0.018  0.0251054  0.00353717  -0.000897537  -0.0172913  0.00889682  -0.000207047  -0.0139815  0.0301131  -0.0265875  -0.000634354  -0.0554444  -0.000650836 
1704729485.790569000  0  0  11.3213  0.0444522  -0.136081  0.0263708  nan  nan  nan  nan  nan  nan  -2.50001  -0.299993  1.00001  0.0101363  -0.0359715  -0.000352653  -0.0004577  0.0004577  0.0004577  0  0  0  -0.021125  0.021125  0.021125  0.0252536  0.00343168  -0.000945601  -0.0135266  0.00779492  -0.00663923  -0.0122949  0.0334258  -0.027326  0.0242089  -0.0353548  -0.0563749 
1704729485.795573000  0  0  11.3872  0.0723841  -0.151549  0.0188143  nan  nan  nan  nan  nan  nan  -2.50001  -0.29999  1.00001  0.0108808  -0.0349456  -0.000364173  -0.0005717  0.0005717  0.0005717  0  0  0  -0.0245  0.0245  0.0245  0.0251684  0.00348696  -0.00102151  -0.0148  0.00911632  -0.0116662  -0.0134074  0.0327093  -0.0265876  -0.0214199  0.00217261  0.0306973 
1704729485.800571000  0  0  11.3078  0.0599492  -0.124676  0.0191666  nan  nan  nan  nan  nan  nan  -2.50001  -0.299987  1.00001  0.00965669  -0.0347844  -0.000314745  -0.0007031  0.0007031  0.0007031  0  0  0  -0.028125  0.028125  0.028125  0.0252502  0.00338193  -0.00098236  -0.0159546  0.0081763  -0.0047693  -0.0121454  0.0320635  -0.0264722  -0.00816029  -0.045632  0.02514 
1704729485.805570000  0  0  11.3491  0.0446907  -0.13185  0.0253958  nan  nan  nan  nan  nan  nan  -2.50002  -0.299983  1.00002  0.00907951  -0.0357592  -0.000297316  -0.0008533  0.0008533  0.0008533  0  0  0  -0.032  0.032  0.032  0.0251889  0.00342162  -0.0010444  -0.0149203  0.00789599  -0.00769867  -0.0113789  0.0328757  -0.0272169  0.0153045  -0.0387559  -0.0452779 
1704729485.810564000  0  0  11.3868  0.0656966  -0.140148  0.0202423  nan  nan  nan  nan  nan  nan  -2.50002  -0.299978  1.00002  0.00886582  -0.036773  -0.000291157  -0.0010235  0.0010235  0.0010235  0  0  0  -0.036125  0.036125  0.036125  0.0253058  0.00332962  -0.00107436  -0.0142692  0.00839118  -0.010386  -0.0115385  0.033884  -0.0267491  -0.0252393  -0.0314369  0.0144622 
1704729485.815586000  0  0  11.3496  0.0640251  -0.141364  0.0194265  nan  nan  nan  nan  nan  nan  -2.50003  -0.299973  1.00003  0.00757881  -0.0374554  -0.000240107  -0.001215  0.001215  0.001215  0  0  0  -0.0405  0.0405  0.0405  0.0254113  0.0032213  -0.00106732  -0.0143499  0.00752816  -0.00687661  -0.0104587  0.0344399  -0.0265855  -0.0318305  -0.0341191  0.0230239 
1704729485.820571000  0  0  11.3247  0.059829  -0.133215  0.0238474  nan  nan  nan  nan  nan  nan  -2.50003  -0.299966  1.00003  0.00746523  -0.0365863  -0.000218769  -0.001429  0.001429  0.001429  0  0  0  -0.045125  0.045125  0.045125  0.0253223  0.00326049  -0.00107657  -0.0159376  0.00786438  -0.00434056  -0.0103975  0.0333419  -0.0270851  -0.0240008  -0.0403154  -0.0272407 
1704729485.825570000  0  0  11.3631  0.0659477  -0.135359  0.0214675  nan  nan  nan  nan  nan  nan  -2.50004  -0.299958  1.00004  0.00650582  -0.0389576  -0.000186691  -0.0016667  0.0016667  0.0016667  0  0  0  -0.05  0.05  0.05  0.0254531  0.00315761  -0.00110148  -0.0136937  0.00753231  -0.00700716  -0.00977377  0.0353894  -0.0269224  -0.0419767  -0.0548633  0.000880432 
1704729485.829531000  0  0  11.4076  0.0747557  -0.155196  0.0201893  nan  nan  nan  nan  nan  nan  -2.50005  -0.299949  1.00005  0.0063683  -0.0397236  -0.000171909  -0.0019294  0.0019294  0.0019294  0  0  0  -0.055125  0.055125  0.055125  0.0254056  0.0031885  -0.00115613  -0.0130724  0.007972  -0.0101234  -0.00999272  0.0362918  -0.0267612  -0.0575784  -0.0234936  0.0152461 
1704729485.835563000  0  0  11.2854  0.0811463  -0.135769  0.0217628  nan  nan  nan  nan  nan  nan  -2.50006  -0.299939  1.00006  0.00562713  -0.0378498  -0.000115337  -0.0022183  0.0022183  0.0022183  0  0  0  -0.0605  0.0605  0.0605  0.0254565  0.00310178  -0.00108305  -0.0167604  0.00783219  0.000424566  -0.00973117  0.0341977  -0.0269111  -0.0727658  -0.0430822  -0.00292343 
1704729485.840511000  0  0  11.348  0.066357  -0.130947  0.0247613  nan  nan  nan  nan  nan  nan  -2.50007  -0.299927  1.00007  0.0045523  -0.041634  -7.28768e-05  -0.0025348  0.0025348  0.0025348  0  0  0  -0.066125  0.066125  0.066125  0.0255933  0.00300376  -0.00110146  -0.0127377  0.0074485  -0.00418647  -0.00884681  0.0372977  -0.0273576  -0.0513232  -0.081244  -0.0359403 
1704729485.845563000  0  0  11.443  0.10299  -0.176709  0.0224389  nan  nan  nan  nan  nan  nan  -2.50009  -0.299914  1.00009  0.00533187  -0.0416373  -8.37423e-05  -0.0028798  0.00288  0.00288  0  0  0  -0.0718707  0.072  0.072  0.0255268  0.00305757  -0.00119106  -0.012873  0.00911332  -0.0113824  -0.0105541  0.0378515  -0.0272289  -0.108882  0.00518443  -0.00819745 
1704729485.849565000  0  0  11.3303  0.114074  -0.143485  0.0193943  nan  nan  nan  nan  nan  nan  -2.5001  -0.299898  1.0001  0.00483091  -0.039312  -2.70654e-05  -0.0032531  0.0032552  0.0032552  0  0  0  -0.077386  0.078125  0.078125  0.0254328  0.00309126  -0.00113641  -0.0168172  0.00911953  -0.00152533  -0.0106949  0.0351113  -0.0269018  -0.129754  -0.0360548  0.0265902 
1704729485.855552000  0  0  11.3756  0.0706487  -0.11329  0.0283339  nan  nan  nan  nan  nan  nan  -2.50012  -0.299881  1.00012  0.00326726  -0.0428477  5.04479e-05  -0.0036533  0.0036617  0.0036617  0  0  0  -0.0826514  0.0845  0.0845  0.025537  0.00300878  -0.00114716  -0.0130466  0.00816202  -0.00460364  -0.00916822  0.0373663  -0.028036  -0.0569498  -0.11719  -0.0738129 
1704729485.860553000  0  0  11.4904  0.110351  -0.175819  0.0242386  nan  nan  nan  nan  nan  nan  -2.50014  -0.299862  1.00014  0.0036565  -0.0444443  5.89421e-05  -0.0040792  0.0041006  0.0041006  0  0  0  -0.0876667  0.091125  0.091125  0.0256669  0.00294517  -0.00120828  -0.0113808  0.00968336  -0.0134367  -0.0106356  0.0396809  -0.027902  -0.122855  -0.0134265  -0.0239624 
1704729485.865551000  0  0  11.3587  0.110548  -0.126755  0.0179283  nan  nan  nan  nan  nan  nan  -2.50016  -0.29984  1.00016  0.00184167  -0.0427853  0.000177227  -0.0045295  0.0045733  0.0045733  0  0  0  -0.0924321  0.098  0.0979288  0.0257314  0.00285301  -0.00111804  -0.014878  0.00841983  -0.00198228  -0.00953528  0.0371929  -0.0272225  -0.133372  -0.0886644  0.0481218 
1704729485.870548000  0  0  11.4488  0.0660609  -0.125136  0.0276261  nan  nan  nan  nan  nan  nan  -2.50018  -0.299816  1.00018  0.00127624  -0.0446949  0.000237478  -0.0050031  0.005081  0.0050795  0  0  0  -0.0969475  0.105125  0.104537  0.0256778  0.00290104  -0.00119243  -0.0124721  0.00851901  -0.00865853  -0.00879261  0.0384063  -0.0283262  -0.0512298  -0.103067  -0.0620641 
1704729485.875567000  0  0  11.4976  0.0925606  -0.184615  0.0206593  nan  nan  nan  nan  nan  nan  -2.50021  -0.299789  1.00021  -0.000786631  -0.0482045  0.000374904  -0.0054986  0.005625  0.0056182  0  0  0  -0.101213  0.1125  0.110895  0.0263106  0.00250872  -0.00114698  -0.00968335  0.00770478  -0.0122192  -0.0076444  0.0426453  -0.0278875  -0.114793  -0.0231069  0.020634 
1704729485.880513000  0  0  11.4252  0.0834459  -0.148733  0.0163062  nan  nan  nan  nan  nan  nan  -2.50024  -0.299759  1.00024  -0.00206199  -0.0471223  0.00048083  -0.0060148  0.0062065  0.0061881  0  0  0  -0.105228  0.120125  0.117003  0.026244  0.00254111  -0.00114118  -0.0118097  0.00699117  -0.00559173  -0.0068397  0.0408655  -0.0272278  -0.103967  -0.0784971  0.0684506 
1704729485.885571000  0  0  11.4609  0.0415247  -0.147105  0.0273452  nan  nan  nan  nan  nan  nan  -2.50027  -0.299727  1.00027  -0.00323052  -0.0484231  0.000591271  -0.0065505  0.0068267  0.0067878  0  0  0  -0.108994  0.128  0.122861  0.0262948  0.00249411  -0.00116476  -0.0105547  0.00660409  -0.00791723  -0.00544298  0.0416335  -0.0284737  -0.032974  -0.0888176  -0.0570776 
1704729485.890523000  0  0  11.4824  0.0592085  -0.16386  0.023557  nan  nan  nan  nan  nan  nan  -2.5003  -0.299691  1.00031  -0.00356675  -0.0493509  0.000666652  -0.0071043  0.0074869  0.0074163  0  0  0  -0.112509  0.136125  0.128469  0.0262478  0.00253299  -0.00121866  -0.00959428  0.00711606  -0.00904999  -0.00566203  0.0424691  -0.0283855  -0.0663263  -0.0629944  -0.0106076 
1704729485.895576000  0  0  11.437  0.0571737  -0.161403  0.0173892  nan  nan  nan  nan  nan  nan  -2.50034  -0.299652  1.00035  -0.00634334  -0.0504586  0.000871245  -0.0076751  0.0081883  0.0080721  0  0  0  -0.115774  0.1445  0.133828  0.0266279  0.00225188  -0.0011286  -0.00969006  0.00530259  -0.00490401  -0.00336794  0.043301  -0.0276475  -0.0833623  -0.0755624  0.0591101 
1704729485.900563000  0  0  11.452  0.0308323  -0.141746  0.0262748  nan  nan  nan  nan  nan  nan  -2.50038  -0.299609  1.00039  -0.00739491  -0.049828  0.000985227  -0.0082617  0.0089323  0.0087541  0  0  0  -0.11879  0.153125  0.138936  0.0266465  0.00221905  -0.00113832  -0.0108335  0.00512626  -0.00561761  -0.0022625  0.0420071  -0.0286368  -0.0408496  -0.102973  -0.0420669 
1704729485.904587000  0  0  11.4199  0.0310147  -0.14033  0.0279371  nan  nan  nan  nan  nan  nan  -2.50042  -0.299563  1.00043  -0.00846122  -0.0517546  0.00112532  -0.0088626  0.00972  0.0094611  0  0  0  -0.121555  0.162  0.143794  0.0266287  0.00223076  -0.00113726  -0.00887287  0.00490847  -0.0024348  -0.00150591  0.0433345  -0.0291387  -0.0481751  -0.118017  -0.0578269 
1704729485.910557000  0  0  11.4692  0.067056  -0.160662  0.017839  nan  nan  nan  nan  nan  nan  -2.50047  -0.299512  1.00048  -0.00948136  -0.0513057  0.00124985  -0.0094768  0.0105527  0.0101916  0  0  0  -0.12407  0.171125  0.148402  0.0266448  0.00220593  -0.00115929  -0.00951489  0.00478101  -0.00604965  -0.00158475  0.0427867  -0.028111  -0.119532  -0.0723134  0.0581227 
1704729485.915573000  0  0  11.4091  0.0366924  -0.115324  0.0229969  nan  nan  nan  nan  nan  nan  -2.50052  -0.299457  1.00054  -0.0116921  -0.0514693  0.00144655  -0.0101029  0.0114317  0.0109447  0  0  0  -0.126336  0.1805  0.15276  0.0269099  0.00198509  -0.00104817  -0.0105251  0.00373209  -0.000783362  0.000526653  0.0417695  -0.0286319  -0.07823  -0.153631  -0.00114138 
1704729485.920580000  0  0  11.4077  0.0410234  -0.120773  0.0264788  nan  nan  nan  nan  nan  nan  -2.50057  -0.299398  1.00059  -0.012618  -0.0537202  0.00160945  -0.0107397  0.0123581  0.0117188  0  0  0  -0.128351  0.190125  0.156868  0.0268806  0.00200606  -0.00104861  -0.00786422  0.00374724  -0.000212038  0.000843354  0.0431891  -0.0292184  -0.0898056  -0.155794  -0.0388018 
1704729485.925579000  0  0  11.4739  0.0814401  -0.134023  0.0183508  nan  nan  nan  nan  nan  nan  -2.50063  -0.299333  1.00065  -0.01312  -0.0520414  0.00170701  -0.011386  0.0133333  0.0125129  0  0  0  -0.130116  0.2  0.160726  0.0268865  0.00197966  -0.00107534  -0.00984779  0.00432951  -0.00530378  0.000105306  0.0413005  -0.0283883  -0.163849  -0.111918  0.0544974 
1704729485.930574000  0  0  11.4098  0.0652739  -0.0799538  0.0212138  nan  nan  nan  nan  nan  nan  -2.50068  -0.299264  1.00072  -0.014246  -0.0504054  0.00184062  -0.0120405  0.0143585  0.0133257  0  0  0  -0.131632  0.210125  0.164334  0.0268082  0.00200189  -0.00105335  -0.0123136  0.00423512  0.000378385  0.000726444  0.03822  -0.0285839  -0.137231  -0.191717  0.0206663 
1704729485.935576000  0  0  11.4296  0.0499763  -0.111211  0.0272396  nan  nan  nan  nan  nan  nan  -2.50075  -0.29919  1.00079  -0.0166528  -0.0538945  0.00212404  -0.0127019  0.015435  0.0141558  0  0  0  -0.132897  0.2205  0.167692  0.0271064  0.00178611  -0.000964743  -0.00858068  0.00296551  -0.00104075  0.00251524  0.0411863  -0.0295178  -0.123093  -0.156492  -0.0453177 
1704729485.940579000  0  0  11.4955  0.0895642  -0.116945  0.0196824  nan  nan  nan  nan  nan  nan  -2.50081  -0.29911  1.00086  -0.0168913  -0.0523054  0.00222019  -0.013369  0.016564  0.0150022  0  0  0  -0.133913  0.231125  0.170801  0.0270418  0.00181065  -0.00101143  -0.0102025  0.00383585  -0.0061308  0.00137346  0.0391829  -0.0288012  -0.191764  -0.126593  0.0419818 
1704729485.945581000  0  0  11.4299  0.0717622  -0.0868876  0.0208003  nan  nan  nan  nan  nan  nan  -2.50088  -0.299024  1.00094  -0.0183603  -0.0510868  0.00239077  -0.0140406  0.0177467  0.0158634  0  0  0  -0.134678  0.242  0.173659  0.0270235  0.00178604  -0.000962117  -0.012186  0.00353445  -0.000452894  0.00221746  0.0368918  -0.0288634  -0.163925  -0.165629  0.0286308 
1704729485.950570000  0  0  11.4364  0.0604015  -0.102707  0.0266389  nan  nan  nan  nan  nan  nan  -2.50095  -0.298932  1.00102  -0.0197837  -0.0519188  0.00260212  -0.0147154  0.0189844  0.0167384  0  0  0  -0.135193  0.253125  0.176267  0.027035  0.00175619  -0.000934794  -0.0111746  0.00320448  -0.000753283  0.00294082  0.0372331  -0.029696  -0.147858  -0.137131  -0.0360267 
1704729485.954579000  0  0  11.4647  0.0798581  -0.100954  0.0232513  nan  nan  nan  nan  nan  nan  -2.50103  -0.298834  1.0011  -0.0206468  -0.051905  0.00277484  -0.0153921  0.0202783  0.0176257  0  0  0  -0.135459  0.2645  0.178625  0.027012  0.0017546  -0.000966329  -0.0110063  0.00350007  -0.00278784  0.00280338  0.0367139  -0.0295416  -0.185507  -0.135859  0.00477456 
1704729485.960578000  0  0  11.4606  0.078864  -0.0964111  0.0214101  nan  nan  nan  nan  nan  nan  -2.50111  -0.298729  1.00119  -0.0226566  -0.0514343  0.00300301  -0.0160696  0.0216298  0.0185242  0  0  0  -0.135474  0.276125  0.180733  0.0271436  0.00160549  -0.000866572  -0.0119155  0.00276882  -0.00238945  0.00362618  0.0355014  -0.0293545  -0.191089  -0.13379  0.0259187 
1704729485.965579000  0  0  11.4253  0.057308  -0.0875884  0.0259281  nan  nan  nan  nan  nan  nan  -2.50119  -0.298618  1.00129  -0.0248573  -0.0515026  0.00325851  -0.0167464  0.02304  0.0194326  0  0  0  -0.135239  0.288  0.182591  0.0272804  0.00149083  -0.000813803  -0.0122927  0.00183988  0.00067701  0.00522518  0.0348989  -0.0300135  -0.162688  -0.145893  -0.0239669 
1704729485.970573000  0  0  11.4767  0.0640058  -0.0936887  0.0252347  nan  nan  nan  nan  nan  nan  -2.50127  -0.298499  1.00139  -0.0258604  -0.0525013  0.00348288  -0.0174215  0.0245102  0.0203497  0  0  0  -0.134755  0.300125  0.184199  0.0272341  0.00150196  -0.000850166  -0.0105514  0.00195077  -0.0033053  0.00523321  0.0352668  -0.0302049  -0.176157  -0.137077  -0.0133841 
1704729485.975576000  0  0  11.5053  0.0731179  -0.123555  0.0214952  nan  nan  nan  nan  nan  nan  -2.50136  -0.298372  1.00149  -0.0275097  -0.0516098  0.0036982  -0.0180936  0.0260417  0.0212742  0  0  0  -0.13402  0.3125  0.185557  0.0273099  0.00139818  -0.000831781  -0.0115869  0.00157044  -0.00558387  0.0057906  0.0345888  -0.0299409  -0.199509  -0.0711073  0.0307186 
1704729485.980580000  0  0  11.4095  0.0499334  -0.0797917  0.0242876  nan  nan  nan  nan  nan  nan  -2.50145  -0.298238  1.0016  -0.0296237  -0.0494857  0.00390378  -0.0187613  0.0276356  0.0222048  0  0  0  -0.133035  0.325125  0.186666  0.0272256  0.00140107  -0.000782667  -0.014507  0.000781369  0.00243681  0.00729119  0.0315233  -0.0303219  -0.166946  -0.13043  -0.000376815 
1704729485.985581000  0  0  11.5141  0.0442511  -0.105313  0.0277256  nan  nan  nan  nan  nan  nan  -2.50155  -0.298096  1.00172  -0.0310507  -0.0527762  0.0042421  -0.0194235  0.0292933  0.0231404  0  0  0  -0.131801  0.338  0.187524  0.0273845  0.00129401  -0.000791649  -0.00989854  0.000518922  -0.00606456  0.0078468  0.0344244  -0.0310105  -0.160693  -0.106079  -0.0364647 
1704729485.989589000  0  0  11.5688  0.0697399  -0.144831  0.0229872  nan  nan  nan  nan  nan  nan  -2.50165  -0.297945  1.00183  -0.0320279  -0.0514748  0.00442396  -0.0200789  0.031016  0.0240797  0  0  0  -0.130316  0.351125  0.188132  0.0273514  0.00127329  -0.000857426  -0.0109775  0.000791464  -0.0104274  0.00766001  0.0337051  -0.0307376  -0.209952  -0.0204248  0.0200361 
1704729485.995576000  0  0  11.3914  0.0416788  -0.0749543  0.0233869  nan  nan  nan  nan  nan  nan  -2.50175  -0.297786  1.00196  -0.0351963  -0.0488455  0.0046728  -0.0207263  0.032805  0.0250213  0  0  0  -0.128582  0.3645  0.18849  0.027342  0.0012007  -0.00070387  -0.0150616  -0.000729831  0.0041191  0.00999526  0.0298795  -0.0308213  -0.175314  -0.124983  0.0158767 
1704729486.000578000  0  0  11.5069  0.0309428  -0.122347  0.0327316  nan  nan  nan  nan  nan  nan  -2.50186  -0.297617  1.00208  -0.0365467  -0.0525993  0.0050603  -0.0213643  0.0346615  0.0259641  0  0  0  -0.126597  0.378125  0.188598  0.0274989  0.00110831  -0.000708264  -0.00970601  -0.000929745  -0.00536499  0.0105199  0.033674  -0.0322568  -0.158669  -0.0651059  -0.0865771 
1704729486.005577000  0  0  11.5456  0.088177  -0.164479  0.0225521  nan  nan  nan  nan  nan  nan  -2.50196  -0.297439  1.00222  -0.0367452  -0.0497734  0.0051576  -0.0219918  0.0365867  0.0269069  0  0  0  -0.124362  0.392  0.188456  0.0274061  0.00112479  -0.000764661  -0.0126098  0.000373749  -0.00853383  0.00876434  0.0318077  -0.0314783  -0.256986  0.0363271  0.032882 
1704729486.010571000  0  0  11.3867  0.0554168  -0.0922756  0.0241861  nan  nan  nan  nan  nan  nan  -2.50208  -0.297251  1.00235  -0.0402081  -0.0486093  0.00548027  -0.0226075  0.0385819  0.0278483  0  0  0  -0.121878  0.406125  0.188064  0.0274467  0.00102367  -0.000631872  -0.0147091  -0.00133244  0.00448414  0.0113947  0.0295068  -0.0317546  -0.215665  -0.086911  0.015219 
1704729486.014580000  0  0  11.4618  0.0357502  -0.115843  0.0338464  nan  nan  nan  nan  nan  nan  -2.50219  -0.297053  1.00249  -0.0419819  -0.0502599  0.00583905  -0.0232102  0.0406483  0.0287871  0  0  0  -0.119143  0.4205  0.187422  0.0274322  0.000981025  -0.000704927  -0.0117937  -0.00197525  -0.00158197  0.0125108  0.0311908  -0.033146  -0.186599  -0.0552696  -0.0916198 
1704729486.020580000  0  0  11.5062  0.0973251  -0.165035  0.0217341  nan  nan  nan  nan  nan  nan  -2.50231  -0.296844  1.00264  -0.042462  -0.0496797  0.0060479  -0.0237985  0.0427873  0.0297221  0  0  0  -0.116158  0.435125  0.186531  0.0275327  0.000933081  -0.000659105  -0.012117  -0.000824675  -0.00546027  0.0105323  0.031632  -0.0322463  -0.291548  0.0390554  0.0507872 
1704729486.025578000  0  0  11.372  0.0701132  -0.114435  0.0210865  nan  nan  nan  nan  nan  nan  -2.50243  -0.296625  1.00279  -0.0454893  -0.0488033  0.00637437  -0.0243713  0.045  0.030652  0  0  0  -0.112924  0.45  0.185389  0.0275772  0.000831604  -0.000529221  -0.0136238  -0.00189282  0.00543959  0.012473  0.0300237  -0.0321355  -0.254978  -0.047348  0.0577739 
1704729486.030522000  0  0  11.4307  0.063587  -0.14644  0.0317119  nan  nan  nan  nan  nan  nan  -2.50255  -0.296394  1.00295  -0.0475609  -0.0505927  0.00678251  -0.0249274  0.0472877  0.0315756  0  0  0  -0.109439  0.465125  0.183997  0.0277291  0.000714934  -0.000468529  -0.010891  -0.00260417  0.000400299  0.0132384  0.0321585  -0.033529  -0.248968  -0.00297797  -0.061108 
1704729486.035729000  0  0  11.4256  0.107275  -0.143904  0.0174112  nan  nan  nan  nan  nan  nan  -2.50268  -0.296152  1.00311  -0.0486412  -0.0487032  0.00697351  -0.0254653  0.0496517  0.0324916  0  0  0  -0.105704  0.4805  0.182355  0.0276551  0.000721007  -0.000460226  -0.0126628  -0.00201258  0.000676431  0.0122099  0.0304566  -0.0322326  -0.326882  0.00760636  0.104686 
1704729486.040578000  0  0  11.3284  0.0936413  -0.122053  0.0191769  nan  nan  nan  nan  nan  nan  -2.50281  -0.295898  1.00327  -0.0511963  -0.0478757  0.00729026  -0.025984  0.0520931  0.0333987  0  0  0  -0.10172  0.496125  0.180463  0.0277281  0.000608556  -0.000323864  -0.0138545  -0.0024609  0.00839614  0.013345  0.0293534  -0.0322341  -0.310057  -0.0259459  0.08263 
1704729486.045581000  0  0  11.3383  0.0758899  -0.12017  0.0282379  nan  nan  nan  nan  nan  nan  -2.50294  -0.295631  1.00344  -0.0534568  -0.0473281  0.00761007  -0.0264821  0.0546133  0.0342958  0  0  0  -0.0974852  0.512  0.178321  0.027665  0.000590523  -0.000308039  -0.0137778  -0.00329538  0.00742156  0.0143597  0.0287884  -0.0333557  -0.283889  -0.0245134  -0.0194168 
1704729486.049536000  0  0  11.3911  0.0809782  -0.123772  0.0247057  nan  nan  nan  nan  nan  nan  -2.50307  -0.295351  1.00361  -0.0552176  -0.0468261  0.00791281  -0.0269584  0.0572135  0.0351815  0  0  0  -0.0930005  0.528125  0.175929  0.0276398  0.000521788  -0.000352646  -0.0134757  -0.00362269  0.00296967  0.0148507  0.0283769  -0.0332593  -0.298583  -0.0135234  0.0237717 
1704729486.055525000  0  0  11.3372  0.0907552  -0.110416  0.0230377  nan  nan  nan  nan  nan  nan  -2.50321  -0.295059  1.00379  -0.0567612  -0.0447178  0.00811881  -0.0274117  0.059895  0.0360546  0  0  0  -0.0882659  0.5445  0.173287  0.0276302  0.000502108  -0.000212468  -0.0157658  -0.00312124  0.00696397  0.0143901  0.026157  -0.0329787  -0.313899  -0.0198119  0.0418157 
1704729486.060578000  0  0  11.2897  0.0632085  -0.0849875  0.0312325  nan  nan  nan  nan  nan  nan  -2.50334  -0.294752  1.00398  -0.0594524  -0.0438884  0.00844951  -0.0278407  0.062659  0.036914  0  0  0  -0.0832813  0.561125  0.170396  0.0275441  0.000482571  -0.000156587  -0.0161761  -0.00403356  0.0106436  0.0159482  0.0248863  -0.034155  -0.273141  -0.0589787  -0.0488557 
1704729486.064565000  0  0  11.368  0.0533873  -0.10566  0.0298531  nan  nan  nan  nan  nan  nan  -2.50349  -0.294432  1.00416  -0.0614166  -0.0438346  0.00879839  -0.0282441  0.0655067  0.0377582  0  0  0  -0.0780466  0.578  0.167254  0.0275305  0.000403706  -0.000208132  -0.0151217  -0.00469332  0.00402895  0.0169309  0.0251028  -0.0344593  -0.262539  -0.0196248  -0.0285707 
1704729486.070571000  0  0  11.3508  0.0777927  -0.102724  0.0230037  nan  nan  nan  nan  nan  nan  -2.50363  -0.294097  1.00435  -0.0624918  -0.0405941  0.0089149  -0.0286207  0.0684394  0.0385861  0  0  0  -0.072562  0.595125  0.163862  0.027449  0.000414473  -0.000102131  -0.0183942  -0.00380657  0.00493189  0.0159607  0.022087  -0.0338266  -0.302424  0.00224829  0.05072 
1704729486.075589000  0  0  11.2971  0.0457078  -0.0776641  0.0286036  nan  nan  nan  nan  nan  nan  -2.50377  -0.293747  1.00455  -0.0661487  -0.0401704  0.00931398  -0.0289693  0.0714583  0.0393964  0  0  0  -0.0668336  0.6125  0.16022  0.0274397  0.000338674  -1.29143e-05  -0.0183598  -0.00563338  0.00904851  0.0185401  0.0212982  -0.0346385  -0.261985  -0.0406153  -0.0111601 
1704729486.080537000  0  0  11.3779  0.043934  -0.102908  0.0282862  nan  nan  nan  nan  nan  nan  -2.50392  -0.293382  1.00475  -0.0678421  -0.0399832  0.00965398  -0.0292892  0.0745648  0.0401879  0  0  0  -0.0611779  0.630125  0.156328  0.0273699  0.000310234  -3.94756e-05  -0.0173141  -0.00604907  0.00210106  0.0189632  0.021547  -0.0349987  -0.26233  0.00758278  -0.00359041 
1704729486.085585000  0  0  11.3194  0.0608878  -0.106665  0.0213884  nan  nan  nan  nan  nan  nan  -2.50406  -0.293002  1.00495  -0.0700917  -0.0389433  0.00996198  -0.0295815  0.07776  0.0409592  0  0  0  -0.0557721  0.647946  0.152186  0.0275014  0.000176616  7.06179e-05  -0.0184427  -0.0058753  0.00645061  0.0194917  0.0208898  -0.0343422  -0.3011  0.021144  0.0760667 
1704729486.090579000  0  0  11.2544  0.0282416  -0.0992265  0.0256988  nan  nan  nan  nan  nan  nan  -2.50421  -0.292605  1.00516  -0.0747167  -0.0390848  0.0104505  -0.0298473  0.0810439  0.0417093  0  0  0  -0.0506164  0.665589  0.147794  0.0276825  -2.05411e-05  0.000223085  -0.0182102  -0.00844936  0.0113596  0.0229854  0.0211506  -0.0349057  -0.267949  0.00386744  0.0278226 
1704729486.095588000  0  0  11.3147  0.0250144  -0.109275  0.0266023  nan  nan  nan  nan  nan  nan  -2.50436  -0.292191  1.00537  -0.07609  -0.0383373  0.0107506  -0.0300881  0.0844154  0.0424368  0  0  0  -0.0457107  0.682982  0.143152  0.0275997  -5.59857e-05  0.000222452  -0.0180336  -0.00837951  0.00599152  0.0231227  0.0207629  -0.035225  -0.262757  0.0275319  0.0197209 
1704729486.100587000  0  0  11.2871  0.0397602  -0.124491  0.0221939  nan  nan  nan  nan  nan  nan  -2.50451  -0.29176  1.00558  -0.0788929  -0.0387223  0.0111985  -0.0303049  0.0878733  0.0431404  0  0  0  -0.041055  0.700126  0.13826  0.0277312  -0.000226925  0.000344568  -0.0173006  -0.00907746  0.00774044  0.0241747  0.0216697  -0.0348883  -0.301927  0.04962  0.0714592 
1704729486.105536000  0  0  11.2689  0.0244291  -0.131816  0.0242318  nan  nan  nan  nan  nan  nan  -2.50467  -0.291312  1.0058  -0.0823655  -0.0375222  0.0115505  -0.030499  0.0914163  0.043819  0  0  0  -0.0366492  0.717019  0.133119  0.0278539  -0.000389102  0.000398423  -0.0185183  -0.0107578  0.00882454  0.0263695  0.0212024  -0.035106  -0.291458  0.0685702  0.0481618 
1704729486.110578000  0  0  11.2656  0.0149397  -0.116374  0.0281438  nan  nan  nan  nan  nan  nan  -2.50482  -0.290846  1.00602  -0.084303  -0.0365332  0.011862  -0.0306718  0.0950431  0.0444712  0  0  0  -0.0324935  0.733662  0.127727  0.0277594  -0.000436895  0.000440609  -0.0189756  -0.0109298  0.00861274  0.0270173  0.020395  -0.0357073  -0.278439  0.0451144  0.00527577 
1704729486.114598000  0  0  11.2916  0.0300245  -0.142078  0.0275412  nan  nan  nan  nan  nan  nan  -2.50497  -0.290362  1.00624  -0.0866445  -0.0372656  0.0123398  -0.0308244  0.0987525  0.0450958  0  0  0  -0.0285878  0.750055  0.122085  0.0277269  -0.000573742  0.000415677  -0.0173054  -0.0116894  0.00613935  0.0277826  0.0218275  -0.0359618  -0.315649  0.0833427  0.015352 
1704729486.120586000  0  0  11.2616  0.0507522  -0.148  0.0245024  nan  nan  nan  nan  nan  nan  -2.50513  -0.289858  1.00647  -0.0888525  -0.0351686  0.0125704  -0.0309581  0.102543  0.0456916  0  0  0  -0.024932  0.766198  0.116193  0.0277817  -0.00066612  0.000540028  -0.0196551  -0.0119233  0.00794436  0.0276678  0.0207786  -0.0356767  -0.356049  0.104837  0.0504874 
1704729486.125585000  0  0  11.2215  0.027377  -0.108809  0.0306396  nan  nan  nan  nan  nan  nan  -2.50528  -0.289336  1.0067  -0.0921333  -0.0361051  0.0131138  -0.0310741  0.106414  0.0462573  0  0  0  -0.0215263  0.782091  0.110051  0.0279321  -0.000851025  0.000640043  -0.0184526  -0.013148  0.0107255  0.029487  0.0214344  -0.0366194  -0.326034  0.0204213  -0.0168012 
1704729486.129543000  0  0  11.2705  0.0342221  -0.143389  0.0310933  nan  nan  nan  nan  nan  nan  -2.50544  -0.288794  1.00693  -0.0943554  -0.037161  0.0136415  -0.0311738  0.110364  0.0467917  0  0  0  -0.0183706  0.797734  0.103659  0.0279164  -0.00101456  0.000593758  -0.0164073  -0.0140369  0.00632299  0.0301323  0.0232854  -0.0371051  -0.345661  0.0725531  -0.0176151 
1704729486.135589000  0  0  11.2069  0.0892348  -0.147795  0.021071  nan  nan  nan  nan  nan  nan  -2.50559  -0.288232  1.00717  -0.0955714  -0.0327467  0.0136172  -0.0312582  0.114391  0.0472935  0  0  0  -0.0154649  0.813127  0.0970174  0.0279103  -0.00105998  0.000725377  -0.0217605  -0.0128913  0.0107722  0.0283098  0.0200206  -0.0360295  -0.43892  0.111401  0.0969071 
1704729486.140586000  0  0  11.1412  0.0570852  -0.0936559  0.0290131  nan  nan  nan  nan  nan  nan  -2.50575  -0.28765  1.00741  -0.0991681  -0.033452  0.0141657  -0.0313288  0.118495  0.0477615  0  0  0  -0.0128091  0.82827  0.0902159  0.0280368  -0.0012391  0.000843943  -0.0209683  -0.014285  0.0156231  0.030225  0.0200842  -0.0370718  -0.39224  0.00253743  0.00805406 
1704729486.145580000  0  0  11.2556  0.0809593  -0.155913  0.0313872  nan  nan  nan  nan  nan  nan  -2.50591  -0.287047  1.00765  -0.0996855  -0.0345208  0.0146556  -0.0313867  0.122673  0.048196  0  0  0  -0.0104034  0.843164  0.0836246  0.0279618  -0.00130438  0.000820808  -0.0186578  -0.0141079  0.00564287  0.0283685  0.0223837  -0.0377078  -0.422909  0.105896  -0.0152617 
1704729486.150568000  0  0  11.1833  0.122938  -0.136188  0.0212611  nan  nan  nan  nan  nan  nan  -2.50606  -0.286423  1.00789  -0.101152  -0.0298918  0.014609  -0.0314333  0.126926  0.0485982  0  0  0  -0.0082477  0.857807  0.0772834  0.0278773  -0.00140275  0.00092855  -0.0241976  -0.0131213  0.0109271  0.0269872  0.0183561  -0.0366537  -0.494158  0.1035  0.100774 
1704729486.155649000  0  0  11.1662  0.0744108  -0.0980211  0.0309839  nan  nan  nan  nan  nan  nan  -2.50622  -0.285778  1.00813  -0.10406  -0.0319553  0.0152903  -0.0314696  0.131251  0.0489693  0  0  0  -0.006342  0.8722  0.0711921  0.0280011  -0.00156991  0.000997181  -0.0216127  -0.0142675  0.0118928  0.0282112  0.020037  -0.0377064  -0.408365  0.0117014  -0.0102348 
1704729486.160645000  0  0  11.2609  0.110081  -0.139717  0.0278539  nan  nan  nan  nan  nan  nan  -2.50638  -0.285111  1.00838  -0.104634  -0.0315434  0.01565  -0.0314971  0.135647  0.0493105  0  0  0  -0.0046862  0.886343  0.0653509  0.0279001  -0.0016361  0.000978994  -0.0212859  -0.0141181  0.00361053  0.0262048  0.0205478  -0.0378336  -0.461246  0.0903937  0.0301625 
1704729486.165645000  0  0  11.1499  0.126767  -0.0897137  0.017897  nan  nan  nan  nan  nan  nan  -2.50654  -0.284421  1.00862  -0.107589  -0.0293346  0.0158964  -0.0315169  0.140114  0.0496232  0  0  0  -0.0032805  0.900236  0.0597596  0.0279598  -0.00182781  0.00111523  -0.0242924  -0.0143181  0.012263  0.0265718  0.0180917  -0.0368232  -0.497995  0.0129835  0.144519 
1704729486.170645000  0  0  11.1436  0.0884866  -0.0803069  0.0275708  nan  nan  nan  nan  nan  nan  -2.50669  -0.283709  1.00887  -0.109508  -0.0293499  0.016352  -0.0315303  0.144649  0.0499086  0  0  0  -0.0021248  0.913879  0.0544184  0.0278423  -0.00189876  0.00116768  -0.0237959  -0.0147015  0.0123544  0.0268022  0.017979  -0.0377843  -0.423554  -0.00479259  0.0332087 
1704729486.175646000  0  0  11.2127  0.10228  -0.118522  0.0269479  nan  nan  nan  nan  nan  nan  -2.50685  -0.282975  1.00912  -0.111258  -0.0300843  0.0168891  -0.0315386  0.149252  0.0501678  0  0  0  -0.0012191  0.927272  0.0493271  0.0279956  -0.00208992  0.00117408  -0.0227718  -0.0155482  0.00632342  0.02611  0.019473  -0.037934  -0.444771  0.0578928  0.0424904 
1704729486.179535000  0  0  11.2085  0.105038  -0.103021  0.0216881  nan  nan  nan  nan  nan  nan  -2.50701  -0.282217  1.00937  -0.113818  -0.0286768  0.0172156  -0.0315429  0.153922  0.0504023  0  0  0  -0.0005633  0.940415  0.0444859  0.0279353  -0.0023178  0.00115519  -0.0242224  -0.01651  0.00648426  0.0268481  0.0181973  -0.0375042  -0.457079  0.038627  0.10394 
1704729486.185646000  0  0  11.1805  0.0757079  -0.11168  0.0286717  nan  nan  nan  nan  nan  nan  -2.50717  -0.281435  1.00963  -0.115239  -0.0279845  0.0175924  -0.0315446  0.158656  0.0506131  0  0  0  -0.0001576  0.953308  0.0398947  0.027924  -0.00235504  0.00126425  -0.0250176  -0.0161936  0.008291  0.0262109  0.0179446  -0.0380658  -0.392556  0.0582703  0.022262 
1704729486.190694000  0  0  11.2067  0.061508  -0.116103  0.0285736  nan  nan  nan  nan  nan  nan  -2.50732  -0.28063  1.00988  -0.117869  -0.0288515  0.0181916  -0.0315449  0.163454  0.0508016  0  0  0  -1.9e-06  0.965952  0.0355534  0.028023  -0.0025517  0.00127371  -0.0239233  -0.017706  0.00595495  0.0270394  0.0191843  -0.0383766  -0.371778  0.055711  0.0265956 
1704729486.195654000  0  0  11.257  0.071585  -0.125362  0.0259269  nan  nan  nan  nan  nan  nan  -2.50748  -0.279801  1.01014  -0.118803  -0.0283099  0.0185823  -0.0315449  0.168315  0.050969  0  0  0  0  0.978345  0.0314622  0.0279106  -0.00264241  0.00126552  -0.0240999  -0.0177409  0.00153515  0.0260475  0.0191698  -0.0383061  -0.382807  0.0743621  0.0589753 
1704729486.200644000  0  0  11.2302  0.057534  -0.126877  0.0274683  nan  nan  nan  nan  nan  nan  -2.50764  -0.278947  1.01039  -0.121387  -0.0269177  0.0189212  -0.0315449  0.173237  0.0511167  0  0  0  0  0.990488  0.0276209  0.0279648  -0.00285286  0.00129222  -0.0259353  -0.0186062  0.00357991  0.0269871  0.0184242  -0.0385918  -0.36335  0.0842514  0.0425647 
1704729486.205644000  0  0  11.2226  0.0310352  -0.111355  0.0289768  nan  nan  nan  nan  nan  nan  -2.5078  -0.278068  1.01065  -0.124323  -0.0280898  0.0195885  -0.0315449  0.17822  0.0512457  0  0  0  0  1.00238  0.0240297  0.0280323  -0.00305463  0.0012753  -0.0244975  -0.020141  0.00420754  0.0285022  0.019733  -0.0389862  -0.324291  0.0411671  0.0276519 
1704729486.210672000  0  0  11.3271  0.0457189  -0.143423  0.0266197  nan  nan  nan  nan  nan  nan  -2.50796  -0.277164  1.0109  -0.12472  -0.0280771  0.0200451  -0.0315449  0.183261  0.0513574  0  0  0  0  1.01402  0.0206884  0.0279189  -0.00314879  0.00122997  -0.0238311  -0.0203649  -0.00459216  0.0271067  0.0205848  -0.0389829  -0.34082  0.0974667  0.0570817 
1704729486.215648000  0  0  11.2305  0.0516883  -0.128151  0.0234832  nan  nan  nan  nan  nan  nan  -2.50811  -0.276235  1.01116  -0.127279  -0.0257184  0.0202694  -0.0315449  0.188359  0.051453  0  0  0  0  1.02542  0.0175972  0.02791  -0.00334734  0.00125625  -0.0269696  -0.0203672  0.00330327  0.0278649  0.018712  -0.0386654  -0.359734  0.0841504  0.093114 
1704729486.220718000  0  0  11.2013  0.0252772  -0.110345  0.0282562  nan  nan  nan  nan  nan  nan  -2.50827  -0.275281  1.01142  -0.129638  -0.0256612  0.0207831  -0.0315449  0.193514  0.0515338  0  0  0  0  1.03656  0.014756  0.027782  -0.00344171  0.00128997  -0.026714  -0.0212364  0.00562671  0.0288603  0.0187689  -0.0392461  -0.316069  0.0480152  0.0392585 
1704729486.225516000  0  0  11.3145  0.0388184  -0.138396  0.0299212  nan  nan  nan  nan  nan  nan  -2.50843  -0.2743  1.01168  -0.130309  -0.0267948  0.0214147  -0.0315449  0.198725  0.051601  0  0  0  0  1.04745  0.0121647  0.0278487  -0.00368873  0.00117531  -0.0249777  -0.0217105  -0.00362691  0.0278041  0.0206383  -0.0396941  -0.333434  0.0869197  0.0229256 
1704729486.230646000  0  0  11.2328  0.0660928  -0.12947  0.0239831  nan  nan  nan  nan  nan  nan  -2.50859  -0.273293  1.01193  -0.132498  -0.0247157  0.0216692  -0.0315449  0.203989  0.0516558  0  0  0  0  1.0581  0.0098235  0.0278335  -0.00388323  0.00120698  -0.0276935  -0.0215044  0.00308255  0.0277592  0.0190764  -0.0391907  -0.38757  0.0834383  0.0921183 
1704729486.235631000  0  0  11.2079  0.0382616  -0.107267  0.0300798  nan  nan  nan  nan  nan  nan  -2.50874  -0.27226  1.01219  -0.134458  -0.0240139  0.0221018  -0.0315449  0.209305  0.0516996  0  0  0  0  1.06849  0.0077322  0.0276911  -0.00399651  0.00123167  -0.0282022  -0.0219976  0.00511136  0.0283464  0.0184773  -0.0399472  -0.33731  0.0445427  0.023474 
1704729486.240511000  0  0  11.2728  0.0456751  -0.122651  0.0323784  nan  nan  nan  nan  nan  nan  -2.5089  -0.2712  1.01245  -0.135592  -0.0250979  0.0227617  -0.0315449  0.214673  0.0517336  0  0  0  0  1.07863  0.005891  0.0277761  -0.00425278  0.0011335  -0.0267145  -0.0224633  -6.50769e-05  0.0277102  0.0200629  -0.0405435  -0.346284  0.0607222  0.000704491 
1704729486.245557000  0  0  11.2763  0.0880614  -0.13811  0.0244609  nan  nan  nan  nan  nan  nan  -2.50906  -0.270113  1.01271  -0.136491  -0.0240454  0.0231308  -0.0315449  0.220091  0.0517589  0  0  0  0  1.08853  0.0042997  0.0276372  -0.004353  0.00113632  -0.027619  -0.0221632  -0.000373415  0.0260848  0.0197732  -0.0399377  -0.416103  0.0943063  0.0936159 
1704729486.250560000  0  0  11.2474  0.0677209  -0.127601  0.0255659  nan  nan  nan  nan  nan  nan  -2.50922  -0.268999  1.01297  -0.139445  -0.023276  0.0235921  -0.0315449  0.225558  0.051777  0  0  0  0  1.09817  0.0029585  0.0277943  -0.00470623  0.00108197  -0.0288538  -0.0233884  0.00234102  0.0273837  0.0193462  -0.0399652  -0.387372  0.0772175  0.0800788 
1704729486.254578000  0  0  11.2431  0.0559828  -0.115113  0.0302557  nan  nan  nan  nan  nan  nan  -2.50937  -0.267858  1.01323  -0.141427  -0.0232118  0.0241331  -0.0315449  0.231072  0.0517889  0  0  0  0  1.10756  0.0018672  0.02771  -0.00502098  0.00104097  -0.028613  -0.0238723  0.00291961  0.0280036  0.0194486  -0.0407343  -0.369599  0.0512984  0.029147 
1704729486.260563000  0  0  11.3295  0.0968163  -0.156673  0.0244468  nan  nan  nan  nan  nan  nan  -2.50953  -0.266689  1.01349  -0.141688  -0.0255556  0.0249829  -0.0315449  0.236633  0.0517961  0  0  0  0  1.11671  0.001026  0.0278326  -0.00512943  0.000930929  -0.0255544  -0.0240427  -0.00396871  0.0251762  0.022611  -0.0401212  -0.425254  0.105325  0.0956269 
1704729486.265564000  0  0  11.298  0.0983751  -0.139126  0.0229343  nan  nan  nan  nan  nan  nan  -2.50969  -0.265491  1.01374  -0.142473  -0.0224521  0.025074  -0.0315449  0.242239  0.0517996  0  0  0  0  1.1256  0.0004348  0.0276989  -0.00526384  0.000945757  -0.0291801  -0.0231798  -0.0013451  0.0240178  0.0199946  -0.0398082  -0.417714  0.094302  0.111404 
1704729486.270515000  0  0  11.2122  0.0826801  -0.108756  0.029706  nan  nan  nan  nan  nan  nan  -2.50985  -0.264266  1.014  -0.1439  -0.0220125  0.0255649  -0.0315449  0.247889  0.0518008  0  0  0  0  1.13424  9.35e-05  0.027561  -0.00538213  0.00100242  -0.0295363  -0.0222273  0.00578299  0.0237883  0.0194265  -0.0407227  -0.384212  0.0387877  0.0359025 
1704729486.275566000  0  0  11.3858  0.109302  -0.170296  0.0258527  nan  nan  nan  nan  nan  nan  -2.51001  -0.263012  1.01426  -0.143574  -0.0232156  0.0262595  -0.0315449  0.253581  0.051801  0  0  0  0  1.14263  0  0.0274776  -0.00552124  0.000886768  -0.0272379  -0.0231395  -0.00831808  0.0211405  0.0219681  -0.0405312  -0.413097  0.138484  0.0821535 
1704729486.279574000  0  0  11.3588  0.117726  -0.15501  0.0207772  nan  nan  nan  nan  nan  nan  -2.51016  -0.26173  1.01452  -0.145163  -0.020029  0.0263659  -0.0315449  0.259315  0.051801  0  0  0  0  1.15078  0  0.0273563  -0.00585739  0.00084091  -0.0309645  -0.0230074  -0.00579176  0.0210082  0.0193701  -0.0399945  -0.428728  0.131816  0.14023 
1704729486.285562000  0  0  11.2546  0.075959  -0.096331  0.0310986  nan  nan  nan  nan  nan  nan  -2.51032  -0.260419  1.01478  -0.145939  -0.0201441  0.0269393  -0.0315449  0.265088  0.051801  0  0  0  0  1.15867  0  0.027196  -0.0057671  0.000934471  -0.0306139  -0.0214744  0.00274093  0.0202647  0.018868  -0.0410704  -0.338354  0.0190767  0.021971 
1704729486.290563000  0  0  11.4225  0.104677  -0.155205  0.0304362  nan  nan  nan  nan  nan  nan  -2.51048  -0.259079  1.01504  -0.145392  -0.0214  0.0276587  -0.0315449  0.270901  0.051801  0  0  0  0  1.16631  0  0.0271128  -0.00591972  0.000798371  -0.0282919  -0.022116  -0.0108711  0.017568  0.0213381  -0.0414189  -0.37098  0.1141  0.0337365 
1704729486.295568000  0  0  11.3659  0.122084  -0.117434  0.0226637  nan  nan  nan  nan  nan  nan  -2.51064  -0.25771  1.0153  -0.145715  -0.0179241  0.0277088  -0.0315449  0.276751  0.051801  0  0  0  0  1.17371  0  0.0269298  -0.00601203  0.000806099  -0.0323694  -0.0205713  -0.00615569  0.0159001  0.0179884  -0.0406238  -0.39045  0.0693752  0.122942 
1704729486.300565000  0  0  11.2815  0.0787219  -0.0835801  0.0309304  nan  nan  nan  nan  nan  nan  -2.51079  -0.256312  1.01556  -0.147557  -0.0182287  0.028347  -0.0315449  0.282638  0.051801  0  0  0  0  1.18085  0  0.0268255  -0.00615741  0.000824035  -0.0317894  -0.0202444  0.00101828  0.0166816  0.0178905  -0.0416491  -0.310915  0.00256735  0.0298612 
1704729486.305566000  0  0  11.4156  0.0878431  -0.122909  0.0303005  nan  nan  nan  nan  nan  nan  -2.51095  -0.254884  1.01582  -0.14704  -0.0182616  0.0289075  -0.0315449  0.288559  0.051801  0  0  0  0  1.18774  0  0.0266779  -0.00626286  0.000715609  -0.0310026  -0.0206503  -0.00987126  0.0146137  0.0187971  -0.0420039  -0.310133  0.0728846  0.0412828 
1704729486.310564000  0  0  11.3933  0.0984378  -0.0928117  0.0215193  nan  nan  nan  nan  nan  nan  -2.51111  -0.253426  1.01608  -0.147712  -0.0164325  0.0292194  -0.0315449  0.294515  0.051801  0  0  0  0  1.19439  0  0.0265692  -0.00641481  0.00067141  -0.0330274  -0.0199988  -0.00782778  0.0136735  0.0169128  -0.0410816  -0.322672  0.030026  0.141825 
1704729486.315566000  0  0  11.3312  0.0701642  -0.0883371  0.0271807  nan  nan  nan  nan  nan  nan  -2.51127  -0.251938  1.01633  -0.149205  -0.0162519  0.0297947  -0.0315449  0.300503  0.051801  0  0  0  0  1.20078  0  0.0264893  -0.00658486  0.000657132  -0.033059  -0.01965  -0.00248057  0.0141843  0.016868  -0.0416527  -0.270824  0.0214888  0.0767688 
1704729486.320710000  0  0  11.3969  0.0689151  -0.0957587  0.0258224  nan  nan  nan  nan  nan  nan  -2.51143  -0.250421  1.01659  -0.149273  -0.0158214  0.0303143  -0.0315449  0.306522  0.051801  0  0  0  0  1.20692  0  0.0263224  -0.0066476  0.000594394  -0.0329783  -0.0198984  -0.00774383  0.0130321  0.0168433  -0.0417299  -0.257725  0.0365588  0.0945186 
1704729486.325561000  0  0  11.4245  0.0662761  -0.0926012  0.022431  nan  nan  nan  nan  nan  nan  -2.51158  -0.248873  1.01685  -0.150064  -0.0156585  0.0308916  -0.0315449  0.312571  0.051801  0  0  0  0  1.21282  0  0.0262414  -0.0068749  0.00050124  -0.0328037  -0.0200851  -0.00971697  0.0127007  0.0168937  -0.041401  -0.249399  0.0297801  0.133622 
1704729486.329566000  0  0  11.3875  0.0521609  -0.100804  0.0254838  nan  nan  nan  nan  nan  nan  -2.51174  -0.247295  1.01711  -0.151969  -0.0142787  0.0313057  -0.0315449  0.31865  0.051801  0  0  0  0  1.21846  0  0.0261333  -0.00726473  0.000445446  -0.0342241  -0.0203168  -0.00629692  0.0138634  0.016068  -0.041827  -0.231865  0.0537831  0.0997227 
1704729486.335566000  0  0  11.3732  0.0338494  -0.0986941  0.0280061  nan  nan  nan  nan  nan  nan  -2.5119  -0.245687  1.01737  -0.154783  -0.0163309  0.0322674  -0.0315449  0.324756  0.051801  0  0  0  0  1.22385  0  0.0264957  -0.00763192  4.52912e-05  -0.0322075  -0.0219979  -0.00391228  0.0157475  0.018357  -0.041988  -0.212576  0.0285034  0.0698027 
1704729486.340562000  0  0  11.4824  0.0421384  -0.126477  0.0276677  nan  nan  nan  nan  nan  nan  -2.51206  -0.244048  1.01763  -0.154381  -0.0176712  0.0330752  -0.0315449  0.330888  0.051801  0  0  0  0  1.22899  0  0.026403  -0.00779187  -7.42469e-05  -0.0299131  -0.0222726  -0.0127047  0.0142153  0.0203098  -0.0421556  -0.215058  0.0661039  0.0757101 
1704729486.345561000  0  0  11.3992  0.0622095  -0.133823  0.0257817  nan  nan  nan  nan  nan  nan  -2.51221  -0.242378  1.01789  -0.154442  -0.0152783  0.0333152  -0.0315449  0.337045  0.051801  0  0  0  0  1.23389  0  0.0262197  -0.007885  -6.80458e-05  -0.0326599  -0.0201903  -0.00585476  0.0129465  0.0187166  -0.0420766  -0.243527  0.0954539  0.0984954 
1704729486.350574000  0  0  11.354  0.0411112  -0.101386  0.0290601  nan  nan  nan  nan  nan  nan  -2.51237  -0.240677  1.01815  -0.156075  -0.0150392  0.0339197  -0.0315449  0.343226  0.051801  0  0  0  0  1.23853  0  0.026119  -0.00804758  -8.60986e-05  -0.0326547  -0.0204994  -0.00185784  0.0137604  0.0183401  -0.0425812  -0.208818  0.0340424  0.0625601 
1704729486.354566000  0  0  11.4453  0.0480811  -0.132576  0.0309357  nan  nan  nan  nan  nan  nan  -2.51253  -0.238945  1.01841  -0.156624  -0.0158773  0.0346821  -0.0315449  0.34943  0.051801  0  0  0  0  1.24292  0  0.0260385  -0.00847868  -0.00021777  -0.0310462  -0.0211949  -0.00902822  0.0133328  0.0199166  -0.0431549  -0.218824  0.081919  0.0448527 
1704729486.360571000  0  0  11.3675  0.0954295  -0.142383  0.023693  nan  nan  nan  nan  nan  nan  -2.51269  -0.237183  1.01867  -0.155242  -0.0135771  0.0349263  -0.0315449  0.355655  0.051801  0  0  0  0  1.24707  0  0.025858  -0.00830177  -0.00017324  -0.033706  -0.0180764  -0.00289438  0.00994642  0.018578  -0.0424167  -0.282366  0.113848  0.128004 
1704729486.365572000  0  0  11.326  0.0725814  -0.101003  0.0274199  nan  nan  nan  nan  nan  nan  -2.51284  -0.235389  1.01892  -0.156394  -0.0131983  0.035514  -0.0315449  0.3619  0.051801  0  0  0  0  1.25096  0  0.0257409  -0.00845812  -0.000166537  -0.0338414  -0.0179588  0.000680051  0.0101899  0.0179464  -0.0428321  -0.23891  0.0368985  0.0855718 
1704729486.370566000  0  0  11.4198  0.0912281  -0.130018  0.0294838  nan  nan  nan  nan  nan  nan  -2.513  -0.233564  1.01918  -0.154687  -0.0140559  0.0362606  -0.0315449  0.368164  0.051801  0  0  0  0  1.2546  0  0.025593  -0.00854282  -0.000249004  -0.0321707  -0.0167304  -0.00711138  0.00717716  0.0194945  -0.0433471  -0.248486  0.0806873  0.0649232 
1704729486.375567000  0  0  11.3758  0.116854  -0.122645  0.0220792  nan  nan  nan  nan  nan  nan  -2.51316  -0.231707  1.01944  -0.155402  -0.0125967  0.0366827  -0.0315449  0.374446  0.051801  0  0  0  0  1.258  0  0.0254886  -0.0087159  -0.000265441  -0.033743  -0.0161079  -0.00334306  0.00626488  0.0184935  -0.0426422  -0.291346  0.075151  0.150432 
1704729486.379581000  0  0  11.3324  0.0928195  -0.0976116  0.025908  nan  nan  nan  nan  nan  nan  -2.51332  -0.229819  1.0197  -0.157381  -0.0115376  0.0371847  -0.0315449  0.380744  0.051801  0  0  0  0  1.26114  0  0.0253805  -0.00915221  -0.00030044  -0.0347226  -0.0164918  0.000595056  0.00751895  0.0174324  -0.0431296  -0.254813  0.0348448  0.107447 
1704729486.385573000  0  0  11.3822  0.102982  -0.113408  0.0297563  nan  nan  nan  nan  nan  nan  -2.51348  -0.2279  1.01996  -0.155003  -0.0123937  0.0379389  -0.0315449  0.387057  0.051801  0  0  0  0  1.26403  0  0.0252295  -0.00894221  -0.000336056  -0.0331808  -0.0144326  -0.00378038  0.00384656  0.0187113  -0.0437158  -0.241352  0.0546726  0.0652047 
1704729486.390566000  0  0  11.3953  0.11996  -0.124458  0.0222181  nan  nan  nan  nan  nan  nan  -2.51363  -0.225949  1.02022  -0.155227  -0.012281  0.0385765  -0.0315449  0.393384  0.051801  0  0  0  0  1.26668  0  0.0251347  -0.00911412  -0.000383323  -0.0329503  -0.0142091  -0.00473053  0.00262908  0.0191951  -0.0429527  -0.264107  0.0723212  0.151801 
1704729486.395573000  0  0  11.3785  0.108949  -0.105088  0.0259863  nan  nan  nan  nan  nan  nan  -2.51379  -0.223966  1.02048  -0.154669  -0.00999449  0.038869  -0.0315449  0.399723  0.051801  0  0  0  0  1.26907  0  0.0249496  -0.00917679  -0.000392585  -0.035397  -0.0128781  -0.00339073  0.00123363  0.0171  -0.0432877  -0.229248  0.0528564  0.108048 
1704729486.400573000  0  0  11.3597  0.0935928  -0.0994253  0.031077  nan  nan  nan  nan  nan  nan  -2.51395  -0.221951  1.02074  -0.155279  -0.0110293  0.0396964  -0.0315449  0.406074  0.051801  0  0  0  0  1.27121  0  0.0248894  -0.00935258  -0.000417105  -0.0338167  -0.0125934  -0.00171888  0.00109903  0.0182535  -0.044089  -0.197297  0.0309188  0.0524271 
1704729486.404564000  0  0  11.4069  0.0929546  -0.124731  0.027385  nan  nan  nan  nan  nan  nan  -2.51411  -0.219905  1.021  -0.156362  -0.011685  0.0404744  -0.0315449  0.412435  0.051801  0  0  0  0  1.27311  0  0.0248006  -0.00981912  -0.000511867  -0.0325048  -0.0134346  -0.00526207  0.00135941  0.0196069  -0.0440292  -0.198416  0.0690774  0.09798 
1704729486.410565000  0  0  11.3909  0.105693  -0.119098  0.0242891  nan  nan  nan  nan  nan  nan  -2.51426  -0.217827  1.02126  -0.154461  -0.00951261  0.0407785  -0.0315449  0.418805  0.051801  0  0  0  0  1.27475  0  0.0246351  -0.00960289  -0.000515209  -0.0349171  -0.0111527  -0.00420968  -0.00159212  0.0179612  -0.0435801  -0.196738  0.0729519  0.132187 
1704729486.415574000  0  0  11.3494  0.0643334  -0.10555  0.0295048  nan  nan  nan  nan  nan  nan  -2.51442  -0.215717  1.02151  -0.1558  -0.0103173  0.0415857  -0.0315449  0.425182  0.051801  0  0  0  0  1.27614  0  0.0245894  -0.00979723  -0.000525117  -0.0336627  -0.0114498  -0.000583445  -0.000362837  0.0188409  -0.0442517  -0.125329  0.0377629  0.0737062 
1704729486.420565000  0  0  11.4224  0.0705043  -0.138484  0.0273618  nan  nan  nan  nan  nan  nan  -2.51458  -0.213575  1.02177  -0.1547  -0.0112186  0.0423848  -0.0315449  0.431566  0.051801  0  0  0  0  1.27728  0  0.0244399  -0.00985829  -0.000591841  -0.0319648  -0.0109888  -0.00664145  -0.00206061  0.0205549  -0.0442795  -0.122051  0.0878631  0.100772 
1704729486.425568000  0  0  11.41  0.0787317  -0.126483  0.0222504  nan  nan  nan  nan  nan  nan  -2.51474  -0.211401  1.02203  -0.154542  -0.00950995  0.0427891  -0.0315449  0.437954  0.051801  0  0  0  0  1.27818  0  0.0243477  -0.0100254  -0.000624164  -0.0338529  -0.01017  -0.00556582  -0.00283799  0.0192571  -0.0437042  -0.131354  0.0758007  0.158913 
1704729486.429554000  0  0  11.3535  0.0445716  -0.110438  0.0264591  nan  nan  nan  nan  nan  nan  -2.5149  -0.209196  1.02229  -0.156897  -0.00914042  0.0434278  -0.0315449  0.444347  0.051801  0  0  0  0  1.27882  0  0.0242462  -0.0105145  -0.000653624  -0.0339413  -0.0109774  -0.000501214  -0.000487268  0.0190279  -0.0442559  -0.0846604  0.0458191  0.11182 
1704729486.435569000  0  0  11.4278  0.0437165  -0.135278  0.029123  nan  nan  nan  nan  nan  nan  -2.51505  -0.206958  1.02255  -0.154693  -0.0103763  0.0442759  -0.0315449  0.450742  0.051801  0  0  0  0  1.27921  0  0.0241474  -0.0102797  -0.000706898  -0.0319916  -0.00989657  -0.00686407  -0.00285047  0.0209326  -0.0446765  -0.0612087  0.0779766  0.0827272 
1704729486.440573000  0  0  11.4071  0.0603789  -0.135995  0.0248953  nan  nan  nan  nan  nan  nan  -2.51521  -0.204688  1.02281  -0.154802  -0.00985671  0.0448736  -0.0315449  0.457139  0.051801  0  0  0  0  1.27936  0  0.0240995  -0.0104893  -0.000752925  -0.0324524  -0.0092121  -0.00505754  -0.00330844  0.0209456  -0.0443128  -0.0903202  0.0792908  0.131936 
1704729486.445561000  0  0  11.3701  0.0419116  -0.128135  0.0274003  nan  nan  nan  nan  nan  nan  -2.51537  -0.202387  1.02307  -0.154984  -0.00916853  0.0454469  -0.0315449  0.463535  0.051801  0  0  0  0  1.27925  0  0.0239372  -0.010542  -0.000752189  -0.0328975  -0.00872801  -0.00197708  -0.0031387  0.0206093  -0.0446197  -0.0549472  0.0666644  0.103693 
1704729486.450560000  0  0  11.371  0.0362415  -0.124303  0.0301853  nan  nan  nan  nan  nan  nan  -2.51553  -0.200053  1.02333  -0.154739  -0.00944443  0.046168  -0.0315449  0.469931  0.051801  0  0  0  0  1.27889  0  0.0238912  -0.0107378  -0.000795702  -0.0323227  -0.00802037  -0.00200851  -0.00341399  0.0211764  -0.0451424  -0.0410744  0.0537827  0.0741073 
1704729486.455573000  0  0  11.4181  0.0548962  -0.137221  0.0267749  nan  nan  nan  nan  nan  nan  -2.51568  -0.197687  1.02359  -0.153718  -0.00989701  0.0469095  -0.0315449  0.476324  0.051801  0  0  0  0  1.27829  0  0.0237311  -0.010775  -0.000844762  -0.0312273  -0.00750188  -0.00595477  -0.00494545  0.0221362  -0.0449654  -0.0642942  0.0707899  0.114967 
1704729486.460558000  0  0  11.3808  0.0572365  -0.133313  0.0261931  nan  nan  nan  nan  nan  nan  -2.51584  -0.19529  1.02385  -0.153627  -0.00813141  0.0473175  -0.0315449  0.482713  0.051801  0  0  0  0  1.27743  0  0.0236606  -0.0109608  -0.000877514  -0.0332722  -0.00654317  -0.00282011  -0.00523227  0.0208894  -0.0449482  -0.0663361  0.074444  0.122068 
1704729486.465580000  0  0  11.2938  0.0451079  -0.099086  0.0297709  nan  nan  nan  nan  nan  nan  -2.516  -0.19286  1.0241  -0.154354  -0.00828288  0.0480303  -0.0315449  0.489098  0.051801  0  0  0  0  1.27632  0  0.0236233  -0.0111671  -0.000835288  -0.0329707  -0.0056275  0.00437214  -0.00456679  0.0207788  -0.0454645  -0.0482014  0.00700669  0.082509 
1704729486.470571000  0  0  11.4052  0.0707088  -0.134676  0.0285333  nan  nan  nan  nan  nan  nan  -2.51616  -0.190399  1.02436  -0.152819  -0.0100363  0.0489712  -0.0315449  0.495476  0.051801  0  0  0  0  1.27497  0  0.0234844  -0.0112074  -0.000914749  -0.0301832  -0.00557301  -0.00491074  -0.00676353  0.0231189  -0.0455576  -0.0791931  0.0566583  0.0989104 
