    ts      x      y      z   roll  pitch    yaw     vx     vy     vz     wx     wy     wz     ax     ay     az    dwx    dwy    dwz
 0.0050000  -2.5000000  -0.3000000   1.0000000   0.0000000   0.0000000   0.0000000  -0.0000002   0.0000002   0.0000002   0.0000000   0.0000000   0.0000000  -0.0001250   0.0001250   0.0001250   0.0000000   0.0000000   0.0000000
 0.0100000  -2.5000000  -0.3000000   1.0000000   0.0000000   0.0000000   0.0000000  -0.0000017   0.0000017   0.0000017   0.0000000   0.0000000   0.0000000  -0.0005000   0.0005000   0.0005000   0.0000000   0.0000000   0.0000000
 0.0150000  -2.5000000  -0.3000000   1.0000000   0.0000000   0.0000000   0.0000000  -0.0000056   0.0000056   0.0000056   0.0000000   0.0000000   0.0000000  -0.0011250   0.0011250   0.0011250   0.0000000   0.0000000   0.0000000
 0.0200000  -2.5000000  -0.3000000   1.0000000   0.0000000   0.0000000   0.0000001  -0.0000133   0.0000133   0.0000133   0.0000000   0.0000000   0.0000000  -0.0020000   0.0020000   0.0020000   0.0000000   0.0000000   0.0000000
 0.0250000  -2.5000000  -0.3000000   1.0000000   0.0000000   0.0000000   0.0000003  -0.0000260   0.0000260   0.0000260   0.0000000   0.0000000   0.0000000  -0.0031250   0.0031250   0.0031250   0.0000000   0.0000000   0.0000000
 0.0300000  -2.5000000  -0.3000000   1.0000000   0.0000000   0.0000000   0.0000005  -0.0000450   0.0000450   0.0000450   0.0000000   0.0000000   0.0000000  -0.0045000   0.0045000   0.0045000   0.0000000   0.0000000   0.0000000
 0.0350000  -2.5000000  -0.2999990   1.0000000   0.0000000   0.0000000   0.0000010  -0.0000715   0.0000715   0.0000715   0.0000000   0.0000000   0.0000000  -0.0061250   0.0061250   0.0061250   0.0000000   0.0000000   0.0000000
 0.0400000  -2.5000000  -0.2999990   1.0000000   0.0000000   0.0000000   0.0000017  -0.0001067   0.0001067   0.0001067   0.0000000   0.0000000   0.0000000  -0.0080000   0.0080000   0.0080000   0.0000000   0.0000000   0.0000000
 0.0450000  -2.5000000  -0.2999980   1.0000000   0.0000000   0.0000000   0.0000027  -0.0001519   0.0001519   0.0001519   0.0000000   0.0000000   0.0000000  -0.0101250   0.0101250   0.0101250   0.0000000   0.0000000   0.0000000
 0.0500000  -2.5000000  -0.2999970   1.0000000   0.0000000   0.0000000   0.0000042  -0.0002083   0.0002083   0.0002083   0.0000000   0.0000000   0.0000000  -0.0125000   0.0125000   0.0125000   0.0000000   0.0000000   0.0000000
 0.0550000  -2.5000000  -0.2999960   1.0000000   0.0000000   0.0000000   0.0000061  -0.0002773   0.0002773   0.0002773   0.0000000   0.0000000   0.0000000  -0.0151250   0.0151250   0.0151250   0.0000000   0.0000000   0.0000000
 0.0600000  -2.5000100  -0.2999950   1.0000100   0.0000000   0.0000000   0.0000086  -0.0003600   0.0003600   0.0003600   0.0000000   0.0000000   0.0000000  -0.0180000   0.0180000   0.0180000   0.0000000   0.0000000   0.0000000
 0.0650000  -2.5000100  -0.2999930   1.0000100   0.0000000   0.0000000   0.0000119  -0.0004577   0.0004577   0.0004577   0.0000000   0.0000000   0.0000000  -0.0211250   0.0211250   0.0211250   0.0000000   0.0000000   0.0000000
 0.0700000  -2.5000100  -0.2999900   1.0000100   0.0000000   0.0000000   0.0000160  -0.0005717   0.0005717   0.0005717   0.0000000   0.0000000   0.0000000  -0.0245000   0.0245000   0.0245000   0.0000000   0.0000000   0.0000000
 0.0750000  -2.5000100  -0.2999870   1.0000100   0.0000000   0.0000000   0.0000211  -0.0007031   0.0007031   0.0007031   0.0000000   0.0000000   0.0000000  -0.0281250   0.0281250   0.0281250   0.0000000   0.0000000   0.0000000
 0.0800000  -2.5000200  -0.2999830   1.0000200   0.0000000   0.0000000   0.0000273  -0.0008533   0.0008533   0.0008533   0.0000000   0.0000000   0.0000000  -0.0320000   0.0320000   0.0320000   0.0000000   0.0000000   0.0000000
 0.0850000  -2.5000200  -0.2999780   1.0000200   0.0000000   0.0000000   0.0000348  -0.0010235   0.0010235   0.0010235   0.0000000   0.0000000   0.0000000  -0.0361250   0.0361250   0.0361250   0.0000000   0.0000000   0.0000000
 0.0900000  -2.5000300  -0.2999730   1.0000300   0.0000000   0.0000000   0.0000437  -0.0012150   0.0012150   0.0012150   0.0000000   0.0000000   0.0000000  -0.0405000   0.0405000   0.0405000   0.0000000   0.0000000   0.0000000
 0.0950000  -2.5000300  -0.2999660   1.0000300   0.0000000   0.0000000   0.0000543  -0.0014290   0.0014290   0.0014290   0.0000000   0.0000000   0.0000000  -0.0451250   0.0451250   0.0451250   0.0000000   0.0000000   0.0000000
 0.1000000  -2.5000400  -0.2999580   1.0000400   0.0000000   0.0000000   0.0000667  -0.0016667   0.0016667   0.0016667   0.0000000   0.0000000   0.0000000  -0.0500000   0.0500000   0.0500000   0.0000000   0.0000000   0.0000000
 0.1050000  -2.5000500  -0.2999490   1.0000500   0.0000000   0.0000000   0.0000810  -0.0019294   0.0019294   0.0019294   0.0000000   0.0000000   0.0000000  -0.0551250   0.0551250   0.0551250   0.0000000   0.0000000   0.0000000
 0.1100000  -2.5000600  -0.2999390   1.0000600   0.0000000   0.0000000   0.0000976  -0.0022183   0.0022183   0.0022183   0.0000000   0.0000000   0.0000000  -0.0605000   0.0605000   0.0605000   0.0000000   0.0000000   0.0000000
 0.1150000  -2.5000700  -0.2999270   1.0000700   0.0000000   0.0000000   0.0001166  -0.0025348   0.0025348   0.0025348   0.0000000   0.0000000   0.0000000  -0.0661250   0.0661250   0.0661250   0.0000000   0.0000000   0.0000000
 0.1200000  -2.5000900  -0.2999140   1.0000900   0.0000000   0.0000000   0.0001382  -0.0028798   0.0028800   0.0028800   0.0000000   0.0000000   0.0000000  -0.0718707   0.0720000   0.0720000   0.0000000   0.0000000   0.0000000
 0.1250000  -2.5001000  -0.2998980   1.0001000   0.0000000   0.0000000   0.0001628  -0.0032531   0.0032552   0.0032552   0.0000000   0.0000000   0.0000000  -0.0773860   0.0781250   0.0781250   0.0000000   0.0000000   0.0000000
 0.1300000  -2.5001200  -0.2998810   1.0001200   0.0000000   0.0000000   0.0001904  -0.0036533   0.0036617   0.0036617   0.0000000   0.0000000   0.0000000  -0.0826514   0.0845000   0.0845000   0.0000000   0.0000000   0.0000000
 0.1350000  -2.5001400  -0.2998620   1.0001400   0.0000000   0.0000000   0.0002214  -0.0040792   0.0041006   0.0041006   0.0000000   0.0000000   0.0000000  -0.0876667   0.0911250   0.0911250   0.0000000   0.0000000   0.0000000
 0.1400000  -2.5001600  -0.2998400   1.0001600   0.0000000   0.0000000   0.0002560  -0.0045295   0.0045733   0.0045733   0.0000000   0.0000000   0.0000000  -0.0924321   0.0980000   0.0979288   0.0000000   0.0000000   0.0000000
 0.1450000  -2.5001800  -0.2998160   1.0001800   0.0000000   0.0000000   0.0002945  -0.0050031   0.0050810   0.0050795   0.0000000   0.0000000   0.0000000  -0.0969475   0.1051250   0.1045370   0.0000000   0.0000000   0.0000000
 0.1500000  -2.5002100  -0.2997890   1.0002100   0.0000000   0.0000000   0.0003370  -0.0054986   0.0056250   0.0056182   0.0000000   0.0000000   0.0000000  -0.1012130   0.1125000   0.1108950   0.0000000   0.0000000   0.0000000
 0.1550000  -2.5002400  -0.2997590   1.0002400   0.0000000   0.0000000   0.0003837  -0.0060148   0.0062065   0.0061881   0.0000000   0.0000000   0.0000000  -0.1052280   0.1201250   0.1170030   0.0000000   0.0000000   0.0000000
 0.1600000  -2.5002700  -0.2997270   1.0002700   0.0000000   0.0000000   0.0004349  -0.0065505   0.0068267   0.0067878   0.0000000   0.0000000   0.0000000  -0.1089940   0.1280000   0.1228610   0.0000000   0.0000000   0.0000000
 0.1650000  -2.5003000  -0.2996910   1.0003100   0.0000000   0.0000000   0.0004907  -0.0071043   0.0074869   0.0074163   0.0000000   0.0000000   0.0000000  -0.1125090   0.1361250   0.1284690   0.0000000   0.0000000   0.0000000
 0.1700000  -2.5003400  -0.2996520   1.0003500   0.0000000   0.0000000   0.0005513  -0.0076751   0.0081883   0.0080721   0.0000000   0.0000000   0.0000000  -0.1157740   0.1445000   0.1338280   0.0000000   0.0000000   0.0000000
 0.1750000  -2.5003800  -0.2996090   1.0003900   0.0000000   0.0000000   0.0006169  -0.0082617   0.0089323   0.0087541   0.0000000   0.0000000   0.0000000  -0.1187900   0.1531250   0.1389360   0.0000000   0.0000000   0.0000000
 0.1800000  -2.5004200  -0.2995630   1.0004300   0.0000000   0.0000000   0.0006876  -0.0088626   0.0097200   0.0094611   0.0000000   0.0000000   0.0000000  -0.1215550   0.1620000   0.1437940   0.0000000   0.0000000   0.0000000
 0.1850000  -2.5004700  -0.2995120   1.0004800   0.0000000   0.0000000   0.0007636  -0.0094768   0.0105527   0.0101916   0.0000000   0.0000000   0.0000000  -0.1240700   0.1711250   0.1484020   0.0000000   0.0000000   0.0000000
 0.1900000  -2.5005200  -0.2994570   1.0005400   0.0000000   0.0000000   0.0008450  -0.0101029   0.0114317   0.0109447   0.0000000   0.0000000   0.0000000  -0.1263360   0.1805000   0.1527600   0.0000000   0.0000000   0.0000000
 0.1950000  -2.5005700  -0.2993980   1.0005900   0.0000000   0.0000000   0.0009319  -0.0107397   0.0123581   0.0117188   0.0000000   0.0000000   0.0000000  -0.1283510   0.1901250   0.1568680   0.0000000   0.0000000   0.0000000
 0.2000000  -2.5006300  -0.2993330   1.0006500   0.0000000   0.0000000   0.0010245  -0.0113860   0.0133333   0.0125129   0.0000000   0.0000000   0.0000000  -0.1301160   0.2000000   0.1607260   0.0000000   0.0000000   0.0000000
 0.2050000  -2.5006800  -0.2992640   1.0007200   0.0000000   0.0000000   0.0011228  -0.0120405   0.0143585   0.0133257   0.0000000   0.0000000   0.0000000  -0.1316320   0.2101250   0.1643340   0.0000000   0.0000000   0.0000000
 0.2100000  -2.5007500  -0.2991900   1.0007900   0.0000000   0.0000000   0.0012269  -0.0127019   0.0154350   0.0141558   0.0000000   0.0000000   0.0000000  -0.1328970   0.2205000   0.1676920   0.0000000   0.0000000   0.0000000
 0.2150000  -2.5008100  -0.2991100   1.0008600   0.0000000   0.0000000   0.0013370  -0.0133690   0.0165640   0.0150022   0.0000000   0.0000000   0.0000000  -0.1339130   0.2311250   0.1708010   0.0000000   0.0000000   0.0000000
 0.2200000  -2.5008800  -0.2990240   1.0009400   0.0000000   0.0000000   0.0014531  -0.0140406   0.0177467   0.0158634   0.0000000   0.0000000   0.0000000  -0.1346780   0.2420000   0.1736590   0.0000000   0.0000000   0.0000000
 0.2250000  -2.5009500  -0.2989320   1.0010200   0.0000000   0.0000000   0.0015753  -0.0147154   0.0189844   0.0167384   0.0000000   0.0000000   0.0000000  -0.1351930   0.2531250   0.1762670   0.0000000   0.0000000   0.0000000
 0.2300000  -2.5010300  -0.2988340   1.0011000   0.0000000   0.0000000   0.0017035  -0.0153921   0.0202783   0.0176257   0.0000000   0.0000000   0.0000000  -0.1354590   0.2645000   0.1786250   0.0000000   0.0000000   0.0000000
 0.2350000  -2.5011100  -0.2987290   1.0011900   0.0000000   0.0000000   0.0018380  -0.0160696   0.0216298   0.0185242   0.0000000   0.0000000   0.0000000  -0.1354740   0.2761250   0.1807330   0.0000000   0.0000000   0.0000000
 0.2400000  -2.5011900  -0.2986180   1.0012900   0.0000000   0.0000000   0.0019786  -0.0167464   0.0230400   0.0194326   0.0000000   0.0000000   0.0000000  -0.1352390   0.2880000   0.1825910   0.0000000   0.0000000   0.0000000
 0.2450000  -2.5012700  -0.2984990   1.0013900   0.0000000   0.0000000   0.0021255  -0.0174215   0.0245102   0.0203497   0.0000000   0.0000000   0.0000000  -0.1347550   0.3001250   0.1841990   0.0000000   0.0000000   0.0000000
 0.2500000  -2.5013600  -0.2983720   1.0014900   0.0000000   0.0000000   0.0022787  -0.0180936   0.0260417   0.0212742   0.0000000   0.0000000   0.0000000  -0.1340200   0.3125000   0.1855570   0.0000000   0.0000000   0.0000000
 0.2550000  -2.5014500  -0.2982380   1.0016000   0.0000000   0.0000000   0.0024380  -0.0187613   0.0276356   0.0222048   0.0000000   0.0000000   0.0000000  -0.1330350   0.3251250   0.1866660   0.0000000   0.0000000   0.0000000
 0.2600000  -2.5015500  -0.2980960   1.0017200   0.0000000   0.0000000   0.0026036  -0.0194235   0.0292933   0.0231404   0.0000000   0.0000000   0.0000000  -0.1318010   0.3380000   0.1875240   0.0000000   0.0000000   0.0000000
 0.2650000  -2.5016500  -0.2979450   1.0018300   0.0000000   0.0000000   0.0027755  -0.0200789   0.0310160   0.0240797   0.0000000   0.0000000   0.0000000  -0.1303160   0.3511250   0.1881320   0.0000000   0.0000000   0.0000000
 0.2700000  -2.5017500  -0.2977860   1.0019600   0.0000000   0.0000000   0.0029536  -0.0207263   0.0328050   0.0250213   0.0000000   0.0000000   0.0000000  -0.1285820   0.3645000   0.1884900   0.0000000   0.0000000   0.0000000
 0.2750000  -2.5018600  -0.2976170   1.0020800   0.0000000   0.0000000   0.0031380  -0.0213643   0.0346615   0.0259641   0.0000000   0.0000000   0.0000000  -0.1265970   0.3781250   0.1885980   0.0000000   0.0000000   0.0000000
 0.2800000  -2.5019600  -0.2974390   1.0022200   0.0000000   0.0000000   0.0033286  -0.0219918   0.0365867   0.0269069   0.0000000   0.0000000   0.0000000  -0.1243620   0.3920000   0.1884560   0.0000000   0.0000000   0.0000000
 0.2850000  -2.5020800  -0.2972510   1.0023500   0.0000000   0.0000000   0.0035255  -0.0226075   0.0385819   0.0278483   0.0000000   0.0000000   0.0000000  -0.1218780   0.4061250   0.1880640   0.0000000   0.0000000   0.0000000
 0.2900000  -2.5021900  -0.2970530   1.0024900   0.0000000   0.0000000   0.0037287  -0.0232102   0.0406483   0.0287871   0.0000000   0.0000000   0.0000000  -0.1191430   0.4205000   0.1874220   0.0000000   0.0000000   0.0000000
 0.2950000  -2.5023100  -0.2968440   1.0026400   0.0000000   0.0000000   0.0039380  -0.0237985   0.0427873   0.0297221   0.0000000   0.0000000   0.0000000  -0.1161580   0.4351250   0.1865310   0.0000000   0.0000000   0.0000000
 0.3000000  -2.5024300  -0.2966250   1.0027900   0.0000000   0.0000000   0.0041537  -0.0243713   0.0450000   0.0306520   0.0000000   0.0000000   0.0000000  -0.1129240   0.4500000   0.1853890   0.0000000   0.0000000   0.0000000
 0.3050000  -2.5025500  -0.2963940   1.0029500   0.0000000   0.0000000   0.0043755  -0.0249274   0.0472877   0.0315756   0.0000000   0.0000000   0.0000000  -0.1094390   0.4651250   0.1839970   0.0000000   0.0000000   0.0000000
 0.3100000  -2.5026800  -0.2961520   1.0031100   0.0000000   0.0000000   0.0046036  -0.0254653   0.0496517   0.0324916   0.0000000   0.0000000   0.0000000  -0.1057040   0.4805000   0.1823550   0.0000000   0.0000000   0.0000000
 0.3150000  -2.5028100  -0.2958980   1.0032700   0.0000000   0.0000000   0.0048380  -0.0259840   0.0520931   0.0333987   0.0000000   0.0000000   0.0000000  -0.1017200   0.4961250   0.1804630   0.0000000   0.0000000   0.0000000
 0.3200000  -2.5029400  -0.2956310   1.0034400   0.0000000   0.0000000   0.0050786  -0.0264821   0.0546133   0.0342958   0.0000000   0.0000000   0.0000000  -0.0974852   0.5120000   0.1783210   0.0000000   0.0000000   0.0000000
 0.3250000  -2.5030700  -0.2953510   1.0036100   0.0000000   0.0000000   0.0053255  -0.0269584   0.0572135   0.0351815   0.0000000   0.0000000   0.0000000  -0.0930005   0.5281250   0.1759290   0.0000000   0.0000000   0.0000000
 0.3300000  -2.5032100  -0.2950590   1.0037900   0.0000000   0.0000000   0.0055787  -0.0274117   0.0598950   0.0360546   0.0000000   0.0000000   0.0000000  -0.0882659   0.5445000   0.1732870   0.0000000   0.0000000   0.0000000
 0.3350000  -2.5033400  -0.2947520   1.0039800   0.0000000   0.0000000   0.0058380  -0.0278407   0.0626590   0.0369140   0.0000000   0.0000000   0.0000000  -0.0832813   0.5611250   0.1703960   0.0000000   0.0000000   0.0000000
 0.3400000  -2.5034900  -0.2944320   1.0041600   0.0000000   0.0000000   0.0061037  -0.0282441   0.0655067   0.0377582   0.0000000   0.0000000   0.0000000  -0.0780466   0.5780000   0.1672540   0.0000000   0.0000000   0.0000000
 0.3450000  -2.5036300  -0.2940970   1.0043500   0.0000000   0.0000000   0.0063755  -0.0286207   0.0684394   0.0385861   0.0000000   0.0000000   0.0000000  -0.0725620   0.5951250   0.1638620   0.0000000   0.0000000   0.0000000
 0.3500000  -2.5037700  -0.2937470   1.0045500   0.0000000   0.0000000   0.0066536  -0.0289693   0.0714583   0.0393964   0.0000000   0.0000000   0.0000000  -0.0668336   0.6125000   0.1602200   0.0000000   0.0000000   0.0000000
 0.3550000  -2.5039200  -0.2933820   1.0047500   0.0000000   0.0000000   0.0069380  -0.0292892   0.0745648   0.0401879   0.0000000   0.0000000   0.0000000  -0.0611779   0.6301250   0.1563280   0.0000000   0.0000000   0.0000000
 0.3600000  -2.5040600  -0.2930020   1.0049500   0.0000000   0.0000000   0.0072286  -0.0295815   0.0777600   0.0409592   0.0000000   0.0000000   0.0000000  -0.0557721   0.6479460   0.1521860   0.0000000   0.0000000   0.0000000
 0.3650000  -2.5042100  -0.2926050   1.0051600   0.0000000   0.0000000   0.0075255  -0.0298473   0.0810439   0.0417093   0.0000000   0.0000000   0.0000000  -0.0506164   0.6655890   0.1477940   0.0000000   0.0000000   0.0000000
 0.3700000  -2.5043600  -0.2921910   1.0053700   0.0000000   0.0000000   0.0078286  -0.0300881   0.0844154   0.0424368   0.0000000   0.0000000   0.0000000  -0.0457107   0.6829820   0.1431520   0.0000000   0.0000000   0.0000000
 0.3750000  -2.5045100  -0.2917600   1.0055800   0.0000000   0.0000000   0.0081380  -0.0303049   0.0878733   0.0431404   0.0000000   0.0000000   0.0000000  -0.0410550   0.7001260   0.1382600   0.0000000   0.0000000   0.0000000
 0.3800000  -2.5046700  -0.2913120   1.0058000   0.0000000   0.0000000   0.0084537  -0.0304990   0.0914163   0.0438190   0.0000000   0.0000000   0.0000000  -0.0366492   0.7170190   0.1331190   0.0000000   0.0000000   0.0000000
 0.3850000  -2.5048200  -0.2908460   1.0060200   0.0000000   0.0000000   0.0087755  -0.0306718   0.0950431   0.0444712   0.0000000   0.0000000   0.0000000  -0.0324935   0.7336620   0.1277270   0.0000000   0.0000000   0.0000000
 0.3900000  -2.5049700  -0.2903620   1.0062400   0.0000000   0.0000000   0.0091036  -0.0308244   0.0987525   0.0450958   0.0000000   0.0000000   0.0000000  -0.0285878   0.7500550   0.1220850   0.0000000   0.0000000   0.0000000
 0.3950000  -2.5051300  -0.2898580   1.0064700   0.0000000   0.0000000   0.0094380  -0.0309581   0.1025430   0.0456916   0.0000000   0.0000000   0.0000000  -0.0249320   0.7661980   0.1161930   0.0000000   0.0000000   0.0000000
 0.4000000  -2.5052800  -0.2893360   1.0067000   0.0000000   0.0000000   0.0097786  -0.0310741   0.1064140   0.0462573   0.0000000   0.0000000   0.0000000  -0.0215263   0.7820910   0.1100510   0.0000000   0.0000000   0.0000000
 0.4050000  -2.5054400  -0.2887940   1.0069300   0.0000000   0.0000000   0.0101255  -0.0311738   0.1103640   0.0467917   0.0000000   0.0000000   0.0000000  -0.0183706   0.7977340   0.1036590   0.0000000   0.0000000   0.0000000
 0.4100000  -2.5055900  -0.2882320   1.0071700   0.0000000   0.0000000   0.0104786  -0.0312582   0.1143910   0.0472935   0.0000000   0.0000000   0.0000000  -0.0154649   0.8131270   0.0970174   0.0000000   0.0000000   0.0000000
 0.4150000  -2.5057500  -0.2876500   1.0074100   0.0000000   0.0000000   0.0108380  -0.0313288   0.1184950   0.0477615   0.0000000   0.0000000   0.0000000  -0.0128091   0.8282700   0.0902159   0.0000000   0.0000000   0.0000000
 0.4200000  -2.5059100  -0.2870470   1.0076500   0.0000000   0.0000000   0.0112036  -0.0313867   0.1226730   0.0481960   0.0000000   0.0000000   0.0000000  -0.0104034   0.8431640   0.0836246   0.0000000   0.0000000   0.0000000
 0.4250000  -2.5060600  -0.2864230   1.0078900   0.0000000   0.0000000   0.0115755  -0.0314333   0.1269260   0.0485982   0.0000000   0.0000000   0.0000000  -0.0082477   0.8578070   0.0772834   0.0000000   0.0000000   0.0000000
 0.4300000  -2.5062200  -0.2857780   1.0081300   0.0000000   0.0000000   0.0119536  -0.0314696   0.1312510   0.0489693   0.0000000   0.0000000   0.0000000  -0.0063420   0.8722000   0.0711921   0.0000000   0.0000000   0.0000000
 0.4350000  -2.5063800  -0.2851110   1.0083800   0.0000000   0.0000000   0.0123380  -0.0314971   0.1356470   0.0493105   0.0000000   0.0000000   0.0000000  -0.0046862   0.8863430   0.0653509   0.0000000   0.0000000   0.0000000
 0.4400000  -2.5065400  -0.2844210   1.0086200   0.0000000   0.0000000   0.0127286  -0.0315169   0.1401140   0.0496232   0.0000000   0.0000000   0.0000000  -0.0032805   0.9002360   0.0597596   0.0000000   0.0000000   0.0000000
 0.4450000  -2.5066900  -0.2837090   1.0088700   0.0000000   0.0000000   0.0131255  -0.0315303   0.1446490   0.0499086   0.0000000   0.0000000   0.0000000  -0.0021248   0.9138790   0.0544184   0.0000000   0.0000000   0.0000000
 0.4500000  -2.5068500  -0.2829750   1.0091200   0.0000000   0.0000000   0.0135286  -0.0315386   0.1492520   0.0501678   0.0000000   0.0000000   0.0000000  -0.0012191   0.9272720   0.0493271   0.0000000   0.0000000   0.0000000
 0.4550000  -2.5070100  -0.2822170   1.0093700   0.0000000   0.0000000   0.0139380  -0.0315429   0.1539220   0.0504023   0.0000000   0.0000000   0.0000000  -0.0005633   0.9404150   0.0444859   0.0000000   0.0000000   0.0000000
 0.4600000  -2.5071700  -0.2814350   1.0096300   0.0000000   0.0000000   0.0143536  -0.0315446   0.1586560   0.0506131   0.0000000   0.0000000   0.0000000  -0.0001576   0.9533080   0.0398947   0.0000000   0.0000000   0.0000000
 0.4650000  -2.5073200  -0.2806300   1.0098800   0.0000000   0.0000000   0.0147755  -0.0315449   0.1634540   0.0508016   0.0000000   0.0000000   0.0000000  -0.0000019   0.9659520   0.0355534   0.0000000   0.0000000   0.0000000
 0.4700000  -2.5074800  -0.2798010   1.0101400   0.0000000   0.0000000   0.0152036  -0.0315449   0.1683150   0.0509690   0.0000000   0.0000000   0.0000000   0.0000000   0.9783450   0.0314622   0.0000000   0.0000000   0.0000000
 0.4750000  -2.5076400  -0.2789470   1.0103900   0.0000000   0.0000000   0.0156380  -0.0315449   0.1732370   0.0511167   0.0000000   0.0000000   0.0000000   0.0000000   0.9904880   0.0276209   0.0000000   0.0000000   0.0000000
 0.4800000  -2.5078000  -0.2780680   1.0106500   0.0000000   0.0000000   0.0160786  -0.0315449   0.1782200   0.0512457   0.0000000   0.0000000   0.0000000   0.0000000   1.0023800   0.0240297   0.0000000   0.0000000   0.0000000
 0.4850000  -2.5079600  -0.2771640   1.0109000   0.0000000   0.0000000   0.0165255  -0.0315449   0.1832610   0.0513574   0.0000000   0.0000000   0.0000000   0.0000000   1.0140200   0.0206884   0.0000000   0.0000000   0.0000000
 0.4900000  -2.5081100  -0.2762350   1.0111600   0.0000000   0.0000000   0.0169786  -0.0315449   0.1883590   0.0514530   0.0000000   0.0000000   0.0000000   0.0000000   1.0254200   0.0175972   0.0000000   0.0000000   0.0000000
 0.4950000  -2.5082700  -0.2752810   1.0114200   0.0000000   0.0000000   0.0174380  -0.0315449   0.1935140   0.0515338   0.0000000   0.0000000   0.0000000   0.0000000   1.0365600   0.0147560   0.0000000   0.0000000   0.0000000
 0.5000000  -2.5084300  -0.2743000   1.0116800   0.0000000   0.0000000   0.0179036  -0.0315449   0.1987250   0.0516010   0.0000000   0.0000000   0.0000000   0.0000000   1.0474500   0.0121647   0.0000000   0.0000000   0.0000000
 0.5050000  -2.5085900  -0.2732930   1.0119300   0.0000000   0.0000000   0.0183755  -0.0315449   0.2039890   0.0516558   0.0000000   0.0000000   0.0000000   0.0000000   1.0581000   0.0098235   0.0000000   0.0000000   0.0000000
 0.5100000  -2.5087400  -0.2722600   1.0121900   0.0000000   0.0000000   0.0188536  -0.0315449   0.2093050   0.0516996   0.0000000   0.0000000   0.0000000   0.0000000   1.0684900   0.0077322   0.0000000   0.0000000   0.0000000
 0.5150000  -2.5089000  -0.2712000   1.0124500   0.0000000   0.0000000   0.0193380  -0.0315449   0.2146730   0.0517336   0.0000000   0.0000000   0.0000000   0.0000000   1.0786300   0.0058910   0.0000000   0.0000000   0.0000000
 0.5200000  -2.5090600  -0.2701130   1.0127100   0.0000000   0.0000000   0.0198286  -0.0315449   0.2200910   0.0517589   0.0000000   0.0000000   0.0000000   0.0000000   1.0885300   0.0042997   0.0000000   0.0000000   0.0000000
 0.5250000  -2.5092200  -0.2689990   1.0129700   0.0000000   0.0000000   0.0203255  -0.0315449   0.2255580   0.0517770   0.0000000   0.0000000   0.0000000   0.0000000   1.0981700   0.0029585   0.0000000   0.0000000   0.0000000
 0.5300000  -2.5093700  -0.2678580   1.0132300   0.0000000   0.0000000   0.0208286  -0.0315449   0.2310720   0.0517889   0.0000000   0.0000000   0.0000000   0.0000000   1.1075600   0.0018672   0.0000000   0.0000000   0.0000000
 0.5350000  -2.5095300  -0.2666890   1.0134900   0.0000000   0.0000000   0.0213380  -0.0315449   0.2366330   0.0517961   0.0000000   0.0000000   0.0000000   0.0000000   1.1167100   0.0010260   0.0000000   0.0000000   0.0000000
 0.5400000  -2.5096900  -0.2654910   1.0137400   0.0000000   0.0000000   0.0218536  -0.0315449   0.2422390   0.0517996   0.0000000   0.0000000   0.0000000   0.0000000   1.1256000   0.0004348   0.0000000   0.0000000   0.0000000
 0.5450000  -2.5098500  -0.2642660   1.0140000   0.0000000   0.0000000   0.0223755  -0.0315449   0.2478890   0.0518008   0.0000000   0.0000000   0.0000000   0.0000000   1.1342400   0.0000935   0.0000000   0.0000000   0.0000000
 0.5500000  -2.5100100  -0.2630120   1.0142600   0.0000000   0.0000000   0.0229036  -0.0315449   0.2535810   0.0518010   0.0000000   0.0000000   0.0000000   0.0000000   1.1426300   0.0000000   0.0000000   0.0000000   0.0000000
 0.5550000  -2.5101600  -0.2617300   1.0145200   0.0000000   0.0000000   0.0234380  -0.0315449   0.2593150   0.0518010   0.0000000   0.0000000   0.0000000   0.0000000   1.1507800   0.0000000   0.0000000   0.0000000   0.0000000
 0.5600000  -2.5103200  -0.2604190   1.0147800   0.0000000   0.0000000   0.0239786  -0.0315449   0.2650880   0.0518010   0.0000000   0.0000000   0.0000000   0.0000000   1.1586700   0.0000000   0.0000000   0.0000000   0.0000000
 0.5650000  -2.5104800  -0.2590790   1.0150400   0.0000000   0.0000000   0.0245255  -0.0315449   0.2709010   0.0518010   0.0000000   0.0000000   0.0000000   0.0000000   1.1663100   0.0000000   0.0000000   0.0000000   0.0000000
 0.5700000  -2.5106400  -0.2577100   1.0153000   0.0000000   0.0000000   0.0250785  -0.0315449   0.2767510   0.0518010   0.0000000   0.0000000   0.0000000   0.0000000   1.1737100   0.0000000   0.0000000   0.0000000   0.0000000
 0.5750000  -2.5107900  -0.2563120   1.0155600   0.0000000   0.0000000   0.0256377  -0.0315449   0.2826380   0.0518010   0.0000000   0.0000000   0.0000000   0.0000000   1.1808500   0.0000000   0.0000000   0.0000000   0.0000000
 0.5800000  -2.5109500  -0.2548840   1.0158200   0.0000000   0.0000000   0.0262030  -0.0315449   0.2885590   0.0518010   0.0000000   0.0000000   0.0000000   0.0000000   1.1877400   0.0000000   0.0000000   0.0000000   0.0000000
 0.5850000  -2.5111100  -0.2534260   1.0160800   0.0000000   0.0000000   0.0267744  -0.0315449   0.2945150   0.0518010   0.0000000   0.0000000   0.0000000   0.0000000   1.1943900   0.0000000   0.0000000   0.0000000   0.0000000
 0.5900000  -2.5112700  -0.2519380   1.0163300   0.0000000   0.0000000   0.0273518  -0.0315449   0.3005030   0.0518010   0.0000000   0.0000000   0.0000000   0.0000000   1.2007800   0.0000000   0.0000000   0.0000000   0.0000000
 0.5950000  -2.5114300  -0.2504210   1.0165900   0.0000000   0.0000000   0.0279350  -0.0315449   0.3065220   0.0518010   0.0000000   0.0000000   0.0000000   0.0000000   1.2069200   0.0000000   0.0000000   0.0000000   0.0000000
 0.6000000  -2.5115800  -0.2488730   1.0168500   0.0000000   0.0000000   0.0285241  -0.0315449   0.3125710   0.0518010   0.0000000   0.0000000   0.0000000   0.0000000   1.2128200   0.0000000   0.0000000   0.0000000   0.0000000
 0.6050000  -2.5117400  -0.2472950   1.0171100   0.0000000   0.0000000   0.0291190  -0.0315449   0.3186500   0.0518010   0.0000000   0.0000000   0.0000000   0.0000000   1.2184600   0.0000000   0.0000000   0.0000000   0.0000000
 0.6100000  -2.5119000  -0.2456870   1.0173700   0.0000000   0.0000000   0.0297194  -0.0315449   0.3247560   0.0518010   0.0000000   0.0000000   0.0000000   0.0000000   1.2238500   0.0000000   0.0000000   0.0000000   0.0000000
 0.6150000  -2.5120600  -0.2440480   1.0176300   0.0000000   0.0000000   0.0303254  -0.0315449   0.3308880   0.0518010   0.0000000   0.0000000   0.0000000   0.0000000   1.2289900   0.0000000   0.0000000   0.0000000   0.0000000
 0.6200000  -2.5122100  -0.2423780   1.0178900   0.0000000   0.0000000   0.0309367  -0.0315449   0.3370450   0.0518010   0.0000000   0.0000000   0.0000000   0.0000000   1.2338900   0.0000000   0.0000000   0.0000000   0.0000000
 0.6250000  -2.5123700  -0.2406770   1.0181500   0.0000000   0.0000000   0.0315533  -0.0315449   0.3432260   0.0518010   0.0000000   0.0000000   0.0000000   0.0000000   1.2385300   0.0000000   0.0000000   0.0000000   0.0000000
 0.6300000  -2.5125300  -0.2389450   1.0184100   0.0000000   0.0000000   0.0321749  -0.0315449   0.3494300   0.0518010   0.0000000   0.0000000   0.0000000   0.0000000   1.2429200   0.0000000   0.0000000   0.0000000   0.0000000
 0.6350000  -2.5126900  -0.2371830   1.0186700   0.0000000   0.0000000   0.0328015  -0.0315449   0.3556550   0.0518010   0.0000000   0.0000000   0.0000000   0.0000000   1.2470700   0.0000000   0.0000000   0.0000000   0.0000000
 0.6400000  -2.5128400  -0.2353890   1.0189200   0.0000000   0.0000000   0.0334329  -0.0315449   0.3619000   0.0518010   0.0000000   0.0000000   0.0000000   0.0000000   1.2509600   0.0000000   0.0000000   0.0000000   0.0000000
 0.6450000  -2.5130000  -0.2335640   1.0191800   0.0000000   0.0000000   0.0340689  -0.0315449   0.3681640   0.0518010   0.0000000   0.0000000   0.0000000   0.0000000   1.2546000   0.0000000   0.0000000   0.0000000   0.0000000
 0.6500000  -2.5131600  -0.2317070   1.0194400   0.0000000   0.0000000   0.0347093  -0.0315449   0.3744460   0.0518010   0.0000000   0.0000000   0.0000000   0.0000000   1.2580000   0.0000000   0.0000000   0.0000000   0.0000000
 0.6550000  -2.5133200  -0.2298190   1.0197000   0.0000000   0.0000000   0.0353538  -0.0315449   0.3807440   0.0518010   0.0000000   0.0000000   0.0000000   0.0000000   1.2611400   0.0000000   0.0000000   0.0000000   0.0000000
 0.6600000  -2.5134800  -0.2279000   1.0199600   0.0000000   0.0000000   0.0360024  -0.0315449   0.3870570   0.0518010   0.0000000   0.0000000   0.0000000   0.0000000   1.2640300   0.0000000   0.0000000   0.0000000   0.0000000
 0.6650000  -2.5136300  -0.2259490   1.0202200   0.0000000   0.0000000   0.0366548  -0.0315449   0.3933840   0.0518010   0.0000000   0.0000000   0.0000000   0.0000000   1.2666800   0.0000000   0.0000000   0.0000000   0.0000000
 0.6700000  -2.5137900  -0.2239660   1.0204800   0.0000000   0.0000000   0.0373107  -0.0315449   0.3997230   0.0518010   0.0000000   0.0000000   0.0000000   0.0000000   1.2690700   0.0000000   0.0000000   0.0000000   0.0000000
 0.6750000  -2.5139500  -0.2219510   1.0207400   0.0000000   0.0000000   0.0379699  -0.0315449   0.4060740   0.0518010   0.0000000   0.0000000   0.0000000   0.0000000   1.2712100   0.0000000   0.0000000   0.0000000   0.0000000
 0.6800000  -2.5141100  -0.2199050   1.0210000   0.0000000   0.0000000   0.0386323  -0.0315449   0.4124350   0.0518010   0.0000000   0.0000000   0.0000000   0.0000000   1.2731100   0.0000000   0.0000000   0.0000000   0.0000000
 0.6850000  -2.5142600  -0.2178270   1.0212600   0.0000000   0.0000000   0.0392974  -0.0315449   0.4188050   0.0518010   0.0000000   0.0000000   0.0000000   0.0000000   1.2747500   0.0000000   0.0000000   0.0000000   0.0000000
 0.6900000  -2.5144200  -0.2157170   1.0215100   0.0000000   0.0000000   0.0399652  -0.0315449   0.4251820   0.0518010   0.0000000   0.0000000   0.0000000   0.0000000   1.2761400   0.0000000   0.0000000   0.0000000   0.0000000
 0.6950000  -2.5145800  -0.2135750   1.0217700   0.0000000   0.0000000   0.0406353  -0.0315449   0.4315660   0.0518010   0.0000000   0.0000000   0.0000000   0.0000000   1.2772800   0.0000000   0.0000000   0.0000000   0.0000000
 0.7000000  -2.5147400  -0.2114010   1.0220300   0.0000000   0.0000000   0.0413076  -0.0315449   0.4379540   0.0518010   0.0000000   0.0000000   0.0000000   0.0000000   1.2781800   0.0000000   0.0000000   0.0000000   0.0000000
 0.7050000  -2.5149000  -0.2091960   1.0222900   0.0000000   0.0000000   0.0419818  -0.0315449   0.4443470   0.0518010   0.0000000   0.0000000   0.0000000   0.0000000   1.2788200   0.0000000   0.0000000   0.0000000   0.0000000
 0.7100000  -2.5150500  -0.2069580   1.0225500   0.0000000   0.0000000   0.0426579  -0.0315449   0.4507420   0.0518010   0.0000000   0.0000000   0.0000000   0.0000000   1.2792100   0.0000000   0.0000000   0.0000000   0.0000000
 0.7150000  -2.5152100  -0.2046880   1.0228100   0.0000000   0.0000000   0.0433355  -0.0315449   0.4571390   0.0518010   0.0000000   0.0000000   0.0000000   0.0000000   1.2793600   0.0000000   0.0000000   0.0000000   0.0000000
 0.7200000  -2.5153700  -0.2023870   1.0230700   0.0000000   0.0000000   0.0440145  -0.0315449   0.4635350   0.0518010   0.0000000   0.0000000   0.0000000   0.0000000   1.2792500   0.0000000   0.0000000   0.0000000   0.0000000
 0.7250000  -2.5155300  -0.2000530   1.0233300   0.0000000   0.0000000   0.0446948  -0.0315449   0.4699310   0.0518010   0.0000000   0.0000000   0.0000000   0.0000000   1.2788900   0.0000000   0.0000000   0.0000000   0.0000000
 0.7300000  -2.5156800  -0.1976870   1.0235900   0.0000000   0.0000000   0.0453761  -0.0315449   0.4763240   0.0518010   0.0000000   0.0000000   0.0000000   0.0000000   1.2782900   0.0000000   0.0000000   0.0000000   0.0000000
 0.7350000  -2.5158400  -0.1952900   1.0238500   0.0000000   0.0000000   0.0460584  -0.0315449   0.4827130   0.0518010   0.0000000   0.0000000   0.0000000   0.0000000   1.2774300   0.0000000   0.0000000   0.0000000   0.0000000
 0.7400000  -2.5160000  -0.1928600   1.0241000   0.0000000   0.0000000   0.0467416  -0.0315449   0.4890980   0.0518010   0.0000000   0.0000000   0.0000000   0.0000000   1.2763200   0.0000000   0.0000000   0.0000000   0.0000000
 0.7450000  -2.5161600  -0.1903990   1.0243600   0.0000000   0.0000000   0.0474254  -0.0315449   0.4954760   0.0518010   0.0000000   0.0000000   0.0000000   0.0000000   1.2749700   0.0000000   0.0000000   0.0000000   0.0000000
 0.7500000  -2.5163100  -0.1879050   1.0246200   0.0000000   0.0000000   0.0481098  -0.0315449   0.5018470   0.0518010   0.0000000   0.0000000   0.0000000   0.0000000   1.2733600   0.0000000   0.0000000   0.0000000   0.0000000
 0.7550000  -2.5164700  -0.1853800   1.0248800   0.0000000   0.0000000   0.0487947  -0.0315449   0.5082090   0.0518010   0.0000000   0.0000000   0.0000000   0.0000000   1.2715000   0.0000000   0.0000000   0.0000000   0.0000000
 0.7600000  -2.5166300  -0.1828230   1.0251400   0.0000000   0.0000000   0.0494800  -0.0315449   0.5145620   0.0518010   0.0000000   0.0000000   0.0000000   0.0000000   1.2694000   0.0000000   0.0000000   0.0000000   0.0000000
 0.7650000  -2.5167900  -0.1802350   1.0254000   0.0000000   0.0000000   0.0501656  -0.0315449   0.5209030   0.0518010   0.0000000   0.0000000   0.0000000   0.0000000   1.2670400   0.0000000   0.0000000   0.0000000   0.0000000
 0.7700000  -2.5169500  -0.1776140   1.0256600   0.0000000   0.0000000   0.0508514  -0.0315449   0.5272320   0.0518010   0.0000000   0.0000000   0.0000000   0.0000000   1.2644300   0.0000000   0.0000000   0.0000000   0.0000000
 0.7750000  -2.5171000  -0.1749620   1.0259200   0.0000000   0.0000000   0.0515374  -0.0315449   0.5335470   0.0518010   0.0000000   0.0000000   0.0000000   0.0000000   1.2615700   0.0000000   0.0000000   0.0000000   0.0000000
 0.7800000  -2.5172600  -0.1722790   1.0261800   0.0000000   0.0000000   0.0522235  -0.0315449   0.5398470   0.0518010   0.0000000   0.0000000   0.0000000   0.0000000   1.2584700   0.0000000   0.0000000   0.0000000   0.0000000
 0.7850000  -2.5174200  -0.1695640   1.0264400   0.0000000   0.0000000   0.0529097  -0.0315449   0.5461310   0.0518010   0.0000000   0.0000000   0.0000000   0.0000000   1.2551100   0.0000000   0.0000000   0.0000000   0.0000000
 0.7900000  -2.5175800  -0.1668180   1.0266900   0.0000000   0.0000000   0.0535959  -0.0315449   0.5523980   0.0518010   0.0000000   0.0000000   0.0000000   0.0000000   1.2515000   0.0000000   0.0000000   0.0000000   0.0000000
 0.7950000  -2.5177300  -0.1640400   1.0269500   0.0000000   0.0000000   0.0542821  -0.0315449   0.5586460   0.0518010   0.0000000   0.0000000   0.0000000   0.0000000   1.2476500   0.0000000   0.0000000   0.0000000   0.0000000
 0.8000000  -2.5178900  -0.1612310   1.0272100   0.0000000   0.0000000   0.0549684  -0.0315449   0.5648740   0.0518010   0.0000000   0.0000000   0.0000000   0.0000000   1.2435400   0.0000000   0.0000000   0.0000000   0.0000000
 0.8050000  -2.5180500  -0.1583910   1.0274700   0.0000000   0.0000000   0.0556546  -0.0315449   0.5710810   0.0518010   0.0000000   0.0000000   0.0000000   0.0000000   1.2391800   0.0000000   0.0000000   0.0000000   0.0000000
 0.8100000  -2.5182100  -0.1555200   1.0277300   0.0000000   0.0000000   0.0563409  -0.0315449   0.5772650   0.0518010   0.0000000   0.0000000   0.0000000   0.0000000   1.2345800   0.0000000   0.0000000   0.0000000   0.0000000
 0.8150000  -2.5183700  -0.1526190   1.0279900   0.0000000   0.0000000   0.0570271  -0.0315449   0.5834260   0.0518010   0.0000000   0.0000000   0.0000000   0.0000000   1.2297200   0.0000000   0.0000000   0.0000000   0.0000000
 0.8200000  -2.5185200  -0.1496860   1.0282500   0.0000000   0.0000000   0.0577132  -0.0315449   0.5895620   0.0518010   0.0000000   0.0000000   0.0000000   0.0000000   1.2246100   0.0000000   0.0000000   0.0000000   0.0000000
 0.8250000  -2.5186800  -0.1467230   1.0285100   0.0000000   0.0000000   0.0583993  -0.0315449   0.5956720   0.0518010   0.0000000   0.0000000   0.0000000   0.0000000   1.2192600   0.0000000   0.0000000   0.0000000   0.0000000
 0.8300000  -2.5188400  -0.1437290   1.0287700   0.0000000   0.0000000   0.0590852  -0.0315449   0.6017540   0.0518010   0.0000000   0.0000000   0.0000000   0.0000000   1.2136500   0.0000000   0.0000000   0.0000000   0.0000000
 0.8350000  -2.5190000  -0.1407060   1.0290300   0.0000000   0.0000000   0.0597709  -0.0315449   0.6078080   0.0518010   0.0000000   0.0000000   0.0000000   0.0000000   1.2077900   0.0000000   0.0000000   0.0000000   0.0000000
 0.8400000  -2.5191500  -0.1376510   1.0292900   0.0000000   0.0000000   0.0604564  -0.0315449   0.6138310   0.0518010   0.0000000   0.0000000   0.0000000   0.0000000   1.2016900   0.0000000   0.0000000   0.0000000   0.0000000
 0.8450000  -2.5193100  -0.1345670   1.0295400   0.0000000   0.0000000   0.0611416  -0.0315449   0.6198240   0.0518010   0.0000000   0.0000000   0.0000000   0.0000000   1.1953300   0.0000000   0.0000000   0.0000000   0.0000000
 0.8500000  -2.5194700  -0.1314530   1.0298000   0.0000000   0.0000000   0.0618263  -0.0315449   0.6257840   0.0518010   0.0000000   0.0000000   0.0000000   0.0000000   1.1887200   0.0000000   0.0000000   0.0000000   0.0000000
 0.8550000  -2.5196300  -0.1283100   1.0300600   0.0000000   0.0000000   0.0625105  -0.0315449   0.6317110   0.0518010   0.0000000   0.0000000   0.0000000   0.0000000   1.1818600   0.0000000   0.0000000   0.0000000   0.0000000
 0.8600000  -2.5197800  -0.1251360   1.0303200   0.0000000   0.0000000   0.0631940  -0.0315449   0.6376030   0.0518010   0.0000000   0.0000000   0.0000000   0.0000000   1.1747600   0.0000000   0.0000000   0.0000000   0.0000000
 0.8650000  -2.5199400  -0.1219340   1.0305800   0.0000000   0.0000000   0.0638769  -0.0315449   0.6434580   0.0518010   0.0000000   0.0000000   0.0000000   0.0000000   1.1674000   0.0000000   0.0000000   0.0000000   0.0000000
 0.8700000  -2.5201000  -0.1187020   1.0308400   0.0000000   0.0000000   0.0645588  -0.0315449   0.6492760   0.0518010   0.0000000   0.0000000   0.0000000   0.0000000   1.1597900   0.0000000   0.0000000   0.0000000   0.0000000
 0.8750000  -2.5202600  -0.1154410   1.0311000   0.0000000   0.0000000   0.0652397  -0.0315449   0.6550560   0.0518010   0.0000000   0.0000000   0.0000000   0.0000000   1.1519400   0.0000000   0.0000000   0.0000000   0.0000000
 0.8800000  -2.5204200  -0.1121510   1.0313600   0.0000000   0.0000000   0.0659195  -0.0315449   0.6607950   0.0518010   0.0000000   0.0000000   0.0000000   0.0000000   1.1438300   0.0000000   0.0000000   0.0000000   0.0000000
 0.8850000  -2.5205700  -0.1088330   1.0316200   0.0000000   0.0000000   0.0665980  -0.0315449   0.6664930   0.0518010   0.0000000   0.0000000   0.0000000   0.0000000   1.1354700   0.0000000   0.0000000   0.0000000   0.0000000
 0.8900000  -2.5207300  -0.1054860   1.0318800   0.0000000   0.0000000   0.0672750  -0.0315449   0.6721490   0.0518010   0.0000000   0.0000000   0.0000000   0.0000000   1.1268700   0.0000000   0.0000000   0.0000000   0.0000000
 0.8950000  -2.5208900  -0.1021120   1.0321300   0.0000000   0.0000000   0.0679503  -0.0315449   0.6777620   0.0518010   0.0000000   0.0000000   0.0000000   0.0000000   1.1180100   0.0000000   0.0000000   0.0000000   0.0000000
 0.9000000  -2.5210500  -0.0987088   1.0323900   0.0000000   0.0000000   0.0686238  -0.0315449   0.6833290   0.0518010   0.0000000   0.0000000   0.0000000   0.0000000   1.1089000   0.0000000   0.0000000   0.0000000   0.0000000
 0.9050000  -2.5212000  -0.0952783   1.0326500   0.0000000   0.0000000   0.0692952  -0.0315449   0.6888500   0.0518010   0.0000000   0.0000000   0.0000000   0.0000000   1.0995500   0.0000000   0.0000000   0.0000000   0.0000000
 0.9100000  -2.5213600  -0.0918204   1.0329100   0.0000000   0.0000000   0.0699644  -0.0315449   0.6943240   0.0518010   0.0000000   0.0000000   0.0000000   0.0000000   1.0899400   0.0000000   0.0000000   0.0000000   0.0000000
 0.9150000  -2.5215200  -0.0883352   1.0331700   0.0000000   0.0000000   0.0706312  -0.0315449   0.6997490   0.0518010   0.0000000   0.0000000   0.0000000   0.0000000   1.0800800   0.0000000   0.0000000   0.0000000   0.0000000
 0.9200000  -2.5216800  -0.0848230   1.0334300   0.0000000   0.0000000   0.0712952  -0.0315449   0.7051250   0.0518010   0.0000000   0.0000000   0.0000000   0.0000000   1.0699700   0.0000000   0.0000000   0.0000000   0.0000000
 0.9250000  -2.5218400  -0.0812840   1.0336900   0.0000000   0.0000000   0.0719563  -0.0315449   0.7104490   0.0518010   0.0000000   0.0000000   0.0000000   0.0000000   1.0596200   0.0000000   0.0000000   0.0000000   0.0000000
 0.9300000  -2.5219900  -0.0777186   1.0339500   0.0000000   0.0000000   0.0726143  -0.0315449   0.7157200   0.0518010   0.0000000   0.0000000   0.0000000   0.0000000   1.0490100   0.0000000   0.0000000   0.0000000   0.0000000
 0.9350000  -2.5221500  -0.0741269   1.0342100   0.0000000   0.0000000   0.0732688  -0.0315449   0.7209380   0.0518010   0.0000000   0.0000000   0.0000000   0.0000000   1.0381500   0.0000000   0.0000000   0.0000000   0.0000000
 0.9400000  -2.5223100  -0.0705093   1.0344700   0.0000000   0.0000000   0.0739196  -0.0315449   0.7261010   0.0518010   0.0000000   0.0000000   0.0000000   0.0000000   1.0270500   0.0000000   0.0000000   0.0000000   0.0000000
 0.9450000  -2.5224700  -0.0668660   1.0347200   0.0000000   0.0000000   0.0745666  -0.0315449   0.7312080   0.0518010   0.0000000   0.0000000   0.0000000   0.0000000   1.0156900   0.0000000   0.0000000   0.0000000   0.0000000
 0.9500000  -2.5226200  -0.0631973   1.0349800   0.0000000   0.0000000   0.0752095  -0.0315449   0.7362580   0.0518010   0.0000000   0.0000000   0.0000000   0.0000000   1.0040800   0.0000000   0.0000000   0.0000000   0.0000000
 0.9550000  -2.5227800  -0.0595035   1.0352400   0.0000000   0.0000000   0.0758482  -0.0315449   0.7412490   0.0518010   0.0000000   0.0000000   0.0000000   0.0000000   0.9922270   0.0000000   0.0000000   0.0000000   0.0000000
 0.9600000  -2.5229400  -0.0557849   1.0355000   0.0000000   0.0000000   0.0764823  -0.0315449   0.7461800   0.0518010   0.0000000   0.0000000   0.0000000   0.0000000   0.9801200   0.0000000   0.0000000   0.0000000   0.0000000
 0.9650000  -2.5231000  -0.0520418   1.0357600   0.0000000   0.0000000   0.0771118  -0.0315449   0.7510500   0.0518010   0.0000000   0.0000000   0.0000000   0.0000000   0.9677630   0.0000000   0.0000000   0.0000000   0.0000000
 0.9700000  -2.5232500  -0.0482745   1.0360200   0.0000000   0.0000000   0.0777364  -0.0315449   0.7558570   0.0518010   0.0000000   0.0000000   0.0000000   0.0000000   0.9551560   0.0000000   0.0000000   0.0000000   0.0000000
 0.9750000  -2.5234100  -0.0444833   1.0362800   0.0000000   0.0000000   0.0783560  -0.0315449   0.7606010   0.0518010   0.0000000   0.0000000   0.0000000   0.0000000   0.9422990   0.0000000   0.0000000   0.0000000   0.0000000
 0.9800000  -2.5235700  -0.0406686   1.0365400   0.0000000   0.0000000   0.0789705  -0.0315449   0.7652800   0.0518010   0.0000000   0.0000000   0.0000000   0.0000000   0.9291920   0.0000000   0.0000000   0.0000000   0.0000000
 0.9850000  -2.5237300  -0.0368306   1.0368000   0.0000000   0.0000000   0.0795797  -0.0315449   0.7698920   0.0518010   0.0000000   0.0000000   0.0000000   0.0000000   0.9158350   0.0000000   0.0000000   0.0000000   0.0000000
 0.9900000  -2.5238900  -0.0329698   1.0370600   0.0000000   0.0000000   0.0801834  -0.0315449   0.7744370   0.0518010   0.0000000   0.0000000   0.0000000   0.0000000   0.9022280   0.0000000   0.0000000   0.0000000   0.0000000
 0.9950000  -2.5240400  -0.0290864   1.0373100   0.0000000   0.0000000   0.0807816  -0.0315449   0.7789140   0.0518010   0.0000000   0.0000000   0.0000000   0.0000000   0.8883720   0.0000000   0.0000000   0.0000000   0.0000000
 1.0000000  -2.5242000  -0.0251808   1.0375700   0.0000000   0.0000000   0.0813742  -0.0315449   0.7833210   0.0518010   0.0000000   0.0000000   0.0000000   0.0000000   0.8742650   0.0000000   0.0000000   0.0000000   0.0000000
 1.0050000  -2.5243600  -0.0212533   1.0378300   0.0000000   0.0000000   0.0819609  -0.0315449   0.7876560   0.0518010   0.0000000   0.0000000   0.0000000   0.0000000   0.8599080   0.0000000   0.0000000   0.0000000   0.0000000
 1.0100000  -2.5245200  -0.0173043   1.0380900   0.0000000   0.0000000   0.0825418  -0.0315449   0.7919190   0.0518010   0.0000000   0.0000000   0.0000000   0.0000000   0.8453010   0.0000000   0.0000000   0.0000000   0.0000000
 1.0150000  -2.5246700  -0.0133342   1.0383500   0.0000000   0.0000000   0.0831168  -0.0315449   0.7961090   0.0518010   0.0000000   0.0000000   0.0000000   0.0000000   0.8304440   0.0000000   0.0000000   0.0000000   0.0000000
 1.0200000  -2.5248300  -0.0093434   1.0386100   0.0000000   0.0000000   0.0836857  -0.0315449   0.8002230   0.0518010   0.0000000   0.0000000   0.0000000   0.0000000   0.8153370   0.0000000   0.0000000   0.0000000   0.0000000
 1.0250000  -2.5249900  -0.0053321   1.0388700   0.0000000   0.0000000   0.0842486  -0.0315449   0.8042620   0.0518010   0.0000000   0.0000000   0.0000000   0.0000000   0.7999800   0.0000000   0.0000000   0.0000000   0.0000000
 1.0300000  -2.5251500  -0.0013009   1.0391300   0.0000000   0.0000000   0.0848053  -0.0315449   0.8082230   0.0518010   0.0000000   0.0000000   0.0000000   0.0000000   0.7843730   0.0000000   0.0000000   0.0000000   0.0000000
 1.0350000  -2.5253100   0.0027500   1.0393900   0.0000000   0.0000000   0.0853558  -0.0315449   0.8121050   0.0518010   0.0000000   0.0000000   0.0000000   0.0000000   0.7685160   0.0000000   0.0000000   0.0000000   0.0000000
 1.0400000  -2.5254600   0.0068201   1.0396500   0.0000000   0.0000000   0.0859002  -0.0315449   0.8159080   0.0518010   0.0000000   0.0000000   0.0000000   0.0000000   0.7524100   0.0000000   0.0000000   0.0000000   0.0000000
 1.0450000  -2.5256200   0.0109089   1.0399000   0.0000000   0.0000000   0.0864383  -0.0315449   0.8196290   0.0518010   0.0000000   0.0000000   0.0000000   0.0000000   0.7360530   0.0000000   0.0000000   0.0000000   0.0000000
 1.0500000  -2.5257800   0.0150162   1.0401600   0.0000000   0.0000000   0.0869701  -0.0315449   0.8232680   0.0518010   0.0000000   0.0000000   0.0000000   0.0000000   0.7194460   0.0000000   0.0000000   0.0000000   0.0000000
 1.0550000  -2.5259400   0.0191415   1.0404200   0.0000000   0.0000000   0.0874957  -0.0315449   0.8268230   0.0518010   0.0000000   0.0000000   0.0000000   0.0000000   0.7025890   0.0000000   0.0000000   0.0000000   0.0000000
 1.0600000  -2.5260900   0.0232843   1.0406800   0.0000000   0.0000000   0.0880151  -0.0315449   0.8302930   0.0518010   0.0000000   0.0000000   0.0000000   0.0000000   0.6854820   0.0000000   0.0000000   0.0000000   0.0000000
 1.0650000  -2.5262500   0.0274443   1.0409400   0.0000000   0.0000000   0.0885282  -0.0315449   0.8336770   0.0518010   0.0000000   0.0000000   0.0000000   0.0000000   0.6681250   0.0000000   0.0000000   0.0000000   0.0000000
 1.0700000  -2.5264100   0.0316209   1.0412000   0.0000000   0.0000000   0.0890351  -0.0315449   0.8369740   0.0518010   0.0000000   0.0000000   0.0000000   0.0000000   0.6505180   0.0000000   0.0000000   0.0000000   0.0000000
 1.0750000  -2.5265700   0.0358138   1.0414600   0.0000000   0.0000000   0.0895357  -0.0315449   0.8401820   0.0518010   0.0000000   0.0000000   0.0000000   0.0000000   0.6327000   0.0000000   0.0000000   0.0000000   0.0000000
 1.0800000  -2.5267200   0.0400226   1.0417200   0.0000000   0.0000000   0.0900300  -0.0315449   0.8433010   0.0518010   0.0000000   0.0000000   0.0000000   0.0000000   0.6150380   0.0000000   0.0000000   0.0000000   0.0000000
 1.0850000  -2.5268800   0.0442467   1.0419800   0.0000000   0.0000000   0.0905181  -0.0315449   0.8463330   0.0518010   0.0000000   0.0000000   0.0000000   0.0000000   0.5976270   0.0000000   0.0000000   0.0000000   0.0000000
 1.0900000  -2.5270400   0.0484858   1.0422400   0.0000000   0.0000000   0.0910000  -0.0315449   0.8492780   0.0518010   0.0000000   0.0000000   0.0000000   0.0000000   0.5804660   0.0000000   0.0000000   0.0000000   0.0000000
 1.0950000  -2.5272000   0.0527393   1.0424900   0.0000000   0.0000000   0.0914756  -0.0315449   0.8521380   0.0518010   0.0000000   0.0000000   0.0000000   0.0000000   0.5635550   0.0000000   0.0000000   0.0000000   0.0000000
 1.1000000  -2.5273600   0.0570070   1.0427500   0.0000000   0.0000000   0.0919449  -0.0315449   0.8549140   0.0518010   0.0000000   0.0000000   0.0000000   0.0000000   0.5468940   0.0000000   0.0000000   0.0000000   0.0000000
 1.1050000  -2.5275100   0.0612884   1.0430100   0.0000000   0.0000000   0.0924081  -0.0315449   0.8576070   0.0518010   0.0000000   0.0000000   0.0000000   0.0000000   0.5304820   0.0000000   0.0000000   0.0000000   0.0000000
 1.1100000  -2.5276700   0.0655830   1.0432700   0.0000000   0.0000000   0.0928649  -0.0315449   0.8602190   0.0518010   0.0000000   0.0000000   0.0000000   0.0000000   0.5143210   0.0000000   0.0000000   0.0000000   0.0000000
 1.1150000  -2.5278300   0.0698904   1.0435300   0.0000000   0.0000000   0.0933155  -0.0315449   0.8627510   0.0518010   0.0000000   0.0000000   0.0000000   0.0000000   0.4984100   0.0000000   0.0000000   0.0000000   0.0000000
 1.1200000  -2.5279900   0.0742103   1.0437900   0.0000000   0.0000000   0.0937599  -0.0315449   0.8652040   0.0518010   0.0000000   0.0000000   0.0000000   0.0000000   0.4827490   0.0000000   0.0000000   0.0000000   0.0000000
 1.1250000  -2.5281400   0.0785423   1.0440500   0.0000000   0.0000000   0.0941980  -0.0315449   0.8675790   0.0518010   0.0000000   0.0000000   0.0000000   0.0000000   0.4673370   0.0000000   0.0000000   0.0000000   0.0000000
 1.1300000  -2.5283000   0.0828860   1.0443100   0.0000000   0.0000000   0.0946298  -0.0315449   0.8698780   0.0518010   0.0000000   0.0000000   0.0000000   0.0000000   0.4521760   0.0000000   0.0000000   0.0000000   0.0000000
 1.1350000  -2.5284600   0.0872410   1.0445700   0.0000000   0.0000000   0.0950554  -0.0315449   0.8721010   0.0518010   0.0000000   0.0000000   0.0000000   0.0000000   0.4372650   0.0000000   0.0000000   0.0000000   0.0000000
 1.1400000  -2.5286200   0.0916069   1.0448300   0.0000000   0.0000000   0.0954748  -0.0315449   0.8742510   0.0518010   0.0000000   0.0000000   0.0000000   0.0000000   0.4226040   0.0000000   0.0000000   0.0000000   0.0000000
 1.1450000  -2.5287800   0.0959834   1.0450800   0.0000000   0.0000000   0.0958879  -0.0315449   0.8763270   0.0518010   0.0000000   0.0000000   0.0000000   0.0000000   0.4081930   0.0000000   0.0000000   0.0000000   0.0000000
 1.1500000  -2.5289300   0.1003700   1.0453400   0.0000000   0.0000000   0.0962948  -0.0315449   0.8783330   0.0518010   0.0000000   0.0000000   0.0000000   0.0000000   0.3940310   0.0000000   0.0000000   0.0000000   0.0000000
 1.1550000  -2.5290900   0.1047670   1.0456000   0.0000000   0.0000000   0.0966954  -0.0315449   0.8802680   0.0518010   0.0000000   0.0000000   0.0000000   0.0000000   0.3801200   0.0000000   0.0000000   0.0000000   0.0000000
 1.1600000  -2.5292500   0.1091730   1.0458600   0.0000000   0.0000000   0.0970897  -0.0315449   0.8821350   0.0518010   0.0000000   0.0000000   0.0000000   0.0000000   0.3664590   0.0000000   0.0000000   0.0000000   0.0000000
 1.1650000  -2.5294100   0.1135880   1.0461200   0.0000000   0.0000000   0.0974778  -0.0315449   0.8839330   0.0518010   0.0000000   0.0000000   0.0000000   0.0000000   0.3530480   0.0000000   0.0000000   0.0000000   0.0000000
 1.1700000  -2.5295600   0.1180120   1.0463800   0.0000000   0.0000000   0.0978597  -0.0315449   0.8856650   0.0518010   0.0000000   0.0000000   0.0000000   0.0000000   0.3398860   0.0000000   0.0000000   0.0000000   0.0000000
 1.1750000  -2.5297200   0.1224440   1.0466400   0.0000000   0.0000000   0.0982353  -0.0315449   0.8873330   0.0518010   0.0000000   0.0000000   0.0000000   0.0000000   0.3269750   0.0000000   0.0000000   0.0000000   0.0000000
 1.1800000  -2.5298800   0.1268850   1.0469000   0.0000000   0.0000000   0.0986046  -0.0315449   0.8889360   0.0518010   0.0000000   0.0000000   0.0000000   0.0000000   0.3143140   0.0000000   0.0000000   0.0000000   0.0000000
 1.1850000  -2.5300400   0.1313340   1.0471600   0.0000000   0.0000000   0.0989677  -0.0315449   0.8904760   0.0518010   0.0000000   0.0000000   0.0000000   0.0000000   0.3019030   0.0000000   0.0000000   0.0000000   0.0000000
 1.1900000  -2.5301900   0.1357900   1.0474200   0.0000000   0.0000000   0.0993246  -0.0315449   0.8919550   0.0518010   0.0000000   0.0000000   0.0000000   0.0000000   0.2897410   0.0000000   0.0000000   0.0000000   0.0000000
 1.1950000  -2.5303500   0.1402530   1.0476700   0.0000000   0.0000000   0.0996752  -0.0315449   0.8933740   0.0518010   0.0000000   0.0000000   0.0000000   0.0000000   0.2778300   0.0000000   0.0000000   0.0000000   0.0000000
 1.2000000  -2.5305100   0.1447230   1.0479300   0.0000000   0.0000000   0.1000200  -0.0315449   0.8947340   0.0518010   0.0000000   0.0000000   0.0000000   0.0000000   0.2661690   0.0000000   0.0000000   0.0000000   0.0000000
 1.2050000  -2.5306700   0.1492000   1.0481900   0.0000000   0.0000000   0.1003580  -0.0315449   0.8960360   0.0518010   0.0000000   0.0000000   0.0000000   0.0000000   0.2547580   0.0000000   0.0000000   0.0000000   0.0000000
 1.2100000  -2.5308300   0.1536840   1.0484500   0.0000000   0.0000000   0.1006900  -0.0315449   0.8972820   0.0518010   0.0000000   0.0000000   0.0000000   0.0000000   0.2435970   0.0000000   0.0000000   0.0000000   0.0000000
 1.2150000  -2.5309800   0.1581730   1.0487100   0.0000000   0.0000000   0.1010150  -0.0315449   0.8984720   0.0518010   0.0000000   0.0000000   0.0000000   0.0000000   0.2326850   0.0000000   0.0000000   0.0000000   0.0000000
 1.2200000  -2.5311400   0.1626680   1.0489700   0.0000000   0.0000000   0.1013340  -0.0315449   0.8996090   0.0518010   0.0000000   0.0000000   0.0000000   0.0000000   0.2220240   0.0000000   0.0000000   0.0000000   0.0000000
 1.2250000  -2.5313000   0.1671690   1.0492300   0.0000000   0.0000000   0.1016480  -0.0315449   0.9006930   0.0518010   0.0000000   0.0000000   0.0000000   0.0000000   0.2116130   0.0000000   0.0000000   0.0000000   0.0000000
 1.2300000  -2.5314600   0.1716750   1.0494900   0.0000000   0.0000000   0.1019540  -0.0315449   0.9017260   0.0518010   0.0000000   0.0000000   0.0000000   0.0000000   0.2014520   0.0000000   0.0000000   0.0000000   0.0000000
 1.2350000  -2.5316100   0.1761860   1.0497500   0.0000000   0.0000000   0.1022550  -0.0315449   0.9027080   0.0518010   0.0000000   0.0000000   0.0000000   0.0000000   0.1915400   0.0000000   0.0000000   0.0000000   0.0000000
 1.2400000  -2.5317700   0.1807020   1.0500100   0.0000000   0.0000000   0.1025490  -0.0315449   0.9036410   0.0518010   0.0000000   0.0000000   0.0000000   0.0000000   0.1818790   0.0000000   0.0000000   0.0000000   0.0000000
 1.2450000  -2.5319300   0.1852230   1.0502600   0.0000000   0.0000000   0.1028380  -0.0315449   0.9045270   0.0518010   0.0000000   0.0000000   0.0000000   0.0000000   0.1724680   0.0000000   0.0000000   0.0000000   0.0000000
 1.2500000  -2.5320900   0.1897470   1.0505200   0.0000000   0.0000000   0.1031190  -0.0315449   0.9053670   0.0518010   0.0000000   0.0000000   0.0000000   0.0000000   0.1633070   0.0000000   0.0000000   0.0000000   0.0000000
 1.2550000  -2.5322400   0.1942760   1.0507800   0.0000000   0.0000000   0.1033950  -0.0315449   0.9061610   0.0518010   0.0000000   0.0000000   0.0000000   0.0000000   0.1543960   0.0000000   0.0000000   0.0000000   0.0000000
 1.2600000  -2.5324000   0.1988090   1.0510400   0.0000000   0.0000000   0.1036640  -0.0315449   0.9069110   0.0518010   0.0000000   0.0000000   0.0000000   0.0000000   0.1457340   0.0000000   0.0000000   0.0000000   0.0000000
 1.2650000  -2.5325600   0.2033450   1.0513000   0.0000000   0.0000000   0.1039270  -0.0315449   0.9076180   0.0518010   0.0000000   0.0000000   0.0000000   0.0000000   0.1373230   0.0000000   0.0000000   0.0000000   0.0000000
 1.2700000  -2.5327200   0.2078850   1.0515600   0.0000000   0.0000000   0.1041840  -0.0315449   0.9082850   0.0518010   0.0000000   0.0000000   0.0000000   0.0000000   0.1291620   0.0000000   0.0000000   0.0000000   0.0000000
 1.2750000  -2.5328800   0.2124280   1.0518200   0.0000000   0.0000000   0.1044350  -0.0315449   0.9089100   0.0518010   0.0000000   0.0000000   0.0000000   0.0000000   0.1212510   0.0000000   0.0000000   0.0000000   0.0000000
 1.2800000  -2.5330300   0.2169740   1.0520800   0.0000000   0.0000000   0.1046790  -0.0315449   0.9094970   0.0518010   0.0000000   0.0000000   0.0000000   0.0000000   0.1135890   0.0000000   0.0000000   0.0000000   0.0000000
 1.2850000  -2.5331900   0.2215230   1.0523400   0.0000000   0.0000000   0.1049170  -0.0315449   0.9100470   0.0518010   0.0000000   0.0000000   0.0000000   0.0000000   0.1061780   0.0000000   0.0000000   0.0000000   0.0000000
 1.2900000  -2.5333500   0.2260740   1.0526000   0.0000000   0.0000000   0.1051490  -0.0315449   0.9105600   0.0518010   0.0000000   0.0000000   0.0000000   0.0000000   0.0990170   0.0000000   0.0000000   0.0000000   0.0000000
 1.2950000  -2.5335100   0.2306280   1.0528500   0.0000000   0.0000000   0.1053750  -0.0315449   0.9110370   0.0518010   0.0000000   0.0000000   0.0000000   0.0000000   0.0921057   0.0000000   0.0000000   0.0000000   0.0000000
 1.3000000  -2.5336600   0.2351850   1.0531100   0.0000000   0.0000000   0.1055940  -0.0315449   0.9114810   0.0518010   0.0000000   0.0000000   0.0000000   0.0000000   0.0854445   0.0000000   0.0000000   0.0000000   0.0000000
 1.3050000  -2.5338200   0.2397430   1.0533700   0.0000000   0.0000000   0.1058070  -0.0315449   0.9118920   0.0518010   0.0000000   0.0000000   0.0000000   0.0000000   0.0790333   0.0000000   0.0000000   0.0000000   0.0000000
 1.3100000  -2.5339800   0.2443040   1.0536300   0.0000000   0.0000000   0.1060140  -0.0315449   0.9122720   0.0518010   0.0000000   0.0000000   0.0000000   0.0000000   0.0728721   0.0000000   0.0000000   0.0000000   0.0000000
 1.3150000  -2.5341400   0.2488660   1.0538900   0.0000000   0.0000000   0.1062150  -0.0315449   0.9126210   0.0518010   0.0000000   0.0000000   0.0000000   0.0000000   0.0669608   0.0000000   0.0000000   0.0000000   0.0000000
