ts fx fy fz tx ty tz exfx exfy exfz extx exty extz xd yd zd rolld pitchd yawd vxd vyd vzd wxd wyd wzd axd ayd azd e_x e_y e_z e_vx e_vy e_vz e_rx e_ry e_rz e_wx e_wy e_wz
1701777762.852402000  0  0  11.8584  0.0208885  -0.0813579  0.00902662  nan  nan  nan  nan  nan  nan  -2  -1  1.5  0.00831152  -0.0310892  -0.000258363  0  0  0  0  0  0  0  0  0  0.00750165  -0.0156348  -0.0212973  0.0243088  0.0456903  0.00691995  -0.0126547  0.0296976  -0.01113  0.0746465  -0.110502  -0.00153237 
1701777762.856864000  0  0  11.8542  0.026693  -0.0781715  0.00872077  nan  nan  nan  nan  nan  nan  -2  -1  1.5  0.00847774  -0.0318009  -0.000269561  0  0  0  0  0  0  0  0  0  0.00767831  -0.0155287  -0.0213364  0.0248397  0.045669  0.00736691  -0.01271  0.0298805  -0.0111281  0.0635461  -0.118558  0.00227125 
1701777762.861402000  0  0  11.8196  0.0152371  -0.0592235  0.00871362  nan  nan  nan  nan  nan  nan  -2  -1  1.5  0.00936835  -0.0323146  -0.000302691  0  0  0  0  0  0  0  0  0  0.0077926  -0.0153204  -0.0212782  0.0251382  0.046342  0.0101597  -0.0130074  0.0294272  -0.0111119  0.0891937  -0.152284  0.00219908 
1701777762.866395000  0  0  11.8747  0.0112331  -0.0656441  0.00841796  nan  nan  nan  nan  nan  nan  -2  -1  1.5  0.0100572  -0.0323757  -0.000325562  0  0  0  0  0  0  0  0  0  0.00794593  -0.0151402  -0.0213008  0.0250755  0.046907  0.00564097  -0.0131579  0.0289471  -0.011069  0.0985864  -0.135025  0.0054655 
1701777762.871778000  0  0  11.8401  0.0083275  -0.0539117  0.00842815  nan  nan  nan  nan  nan  nan  -2  -1  1.5  0.0104749  -0.0329671  -0.000345278  0  0  0  0  0  0  0  0  0  0.00811255  -0.014941  -0.021266  0.0253584  0.0469742  0.00848521  -0.0130496  0.0286037  -0.0110436  0.103402  -0.15533  0.00508443 
1701777762.876397000  0  0  11.8477  -0.015726  -0.0405949  0.00873113  nan  nan  nan  nan  nan  nan  -2  -1  1.5  0.0111448  -0.0333022  -0.000371093  0  0  0  0  0  0  0  0  0  0.00823109  -0.0147239  -0.0212349  0.0255632  0.0473812  0.00783118  -0.0126828  0.0279414  -0.0110649  0.148134  -0.175871  0.00150938 
1701777762.881538000  0  0  11.8857  -0.0158755  -0.0622565  0.00823166  nan  nan  nan  nan  nan  nan  -2  -1  1.5  0.0116702  -0.0330738  -0.000385923  0  0  0  0  0  0  0  0  0  0.00835771  -0.0144819  -0.0212251  0.0251206  0.0475837  0.00465476  -0.0124544  0.0273871  -0.0109962  0.146331  -0.127448  0.00706651 
1701777762.886392000  0  0  11.8588  -0.0292663  -0.0477275  0.00823408  nan  nan  nan  nan  nan  nan  -2  -1  1.5  0.0117731  -0.0337121  -0.000396839  0  0  0  0  0  0  0  0  0  0.00850817  -0.0143001  -0.0212172  0.0255276  0.0472796  0.00691904  -0.0116667  0.0271317  -0.0109746  0.165866  -0.154157  0.00681997 
1701777762.891547000  0  0  11.8962  -0.0526098  -0.0476865  0.00787944  nan  nan  nan  nan  nan  nan  -2  -1  1.5  0.01228  -0.0339713  -0.000417109  0  0  0  0  0  0  0  0  0  0.00868569  -0.0141047  -0.0212375  0.0256149  0.0475629  0.00388946  -0.0108238  0.0265901  -0.0109412  0.204798  -0.149256  0.010919 
1701777762.896550000  0  0  11.8849  -0.0443812  -0.0675432  0.00743673  nan  nan  nan  nan  nan  nan  -2  -1  1.5  0.0126224  -0.0341008  -0.000430372  0  0  0  0  0  0  0  0  0  0.00881253  -0.0138696  -0.0212057  0.0254614  0.0474766  0.00477504  -0.0103864  0.0264645  -0.0108306  0.184317  -0.108387  0.0153469 
1701777762.901528000  0  0  11.8742  -0.0754279  -0.0511803  0.00921809  nan  nan  nan  nan  nan  nan  -2  -1  1.5  0.012732  -0.0347598  -0.000442496  0  0  0  0  0  0  0  0  0  0.00898329  -0.0136955  -0.0211855  0.0259099  0.0472181  0.00566849  -0.00905781  0.02624  -0.0110084  0.234188  -0.139048  -0.00514184 
1701777762.907000000  0  0  11.9012  -0.0750042  -0.0699138  0.0101014  nan  nan  nan  nan  nan  nan  -2  -1  1.5  0.0130447  -0.0350645  -0.000457337  0  0  0  0  0  0  0  0  0  0.0091654  -0.0134987  -0.0211876  0.0260122  0.0472316  0.00344429  -0.0081916  0.0262197  -0.0111795  0.225371  -0.101394  -0.0144727 
1701777762.911384000  0  0  11.8753  -0.0659708  -0.0846541  0.0104139  nan  nan  nan  nan  nan  nan  -2  -1  1.5  0.01332  -0.0351377  -0.000467964  0  0  0  0  0  0  0  0  0  0.00927695  -0.0132937  -0.021151  0.0257598  0.0471012  0.00553962  -0.00774946  0.0262086  -0.0112805  0.203237  -0.071811  -0.0173684 
1701777762.916394000  0  0  11.8451  -0.0860795  -0.0695164  0.0111321  nan  nan  nan  nan  nan  nan  -2  -1  1.5  0.0133366  -0.0360816  -0.000481132  0  0  0  0  0  0  0  0  0  0.00944588  -0.0131119  -0.0211472  0.0265085  0.0466734  0.00808217  -0.00646387  0.0264269  -0.011491  0.231627  -0.104095  -0.0242411 
1701777762.921406000  0  0  11.8949  -0.0801191  -0.0858548  0.0103934  nan  nan  nan  nan  nan  nan  -2  -1  1.5  0.0138958  -0.036054  -0.000500923  0  0  0  0  0  0  0  0  0  0.00957669  -0.0128751  -0.0211501  0.0263811  0.0469591  0.00395143  -0.00602302  0.0262555  -0.0115093  0.21565  -0.0698409  -0.0148247 
1701777762.926411000  0  0  11.8631  -0.0698007  -0.100829  0.00896745  nan  nan  nan  nan  nan  nan  -2  -1  1.5  0.0139861  -0.0364976  -0.000510378  0  0  0  0  0  0  0  0  0  0.00974188  -0.0126993  -0.0211476  0.0264716  0.0466377  0.00660584  -0.00539576  0.0267375  -0.0114  0.189242  -0.044327  0.00190736 
1701777762.931885000  0  0  11.8263  -0.0749532  -0.0778395  0.00856547  nan  nan  nan  nan  nan  nan  -2  -1  1.5  0.0141253  -0.037118  -0.000524219  0  0  0  0  0  0  0  0  0  0.00991668  -0.0124936  -0.0211535  0.0267485  0.0463052  0.00971975  -0.0045107  0.0265431  -0.0113873  0.191405  -0.0885178  0.00680429 
1701777762.936402000  0  0  11.887  -0.0537729  -0.0980311  0.00778001  nan  nan  nan  nan  nan  nan  -2  -1  1.5  0.0146172  -0.0367988  -0.000537812  0  0  0  0  0  0  0  0  0  0.0100337  -0.012282  -0.0211623  0.0263173  0.0465794  0.00468407  -0.00462402  0.0263272  -0.0112447  0.150087  -0.0461477  0.0151972 
1701777762.941398000  0  0  11.8396  -0.0455855  -0.095152  0.00805873  nan  nan  nan  nan  nan  nan  -2  -1  1.5  0.0146425  -0.0374454  -0.000548203  0  0  0  0  0  0  0  0  0  0.0102004  -0.0121008  -0.0211596  0.0266038  0.0461323  0.00864223  -0.00418517  0.0266929  -0.0112531  0.129675  -0.0552709  0.0117965 
1701777762.946412000  0  0  11.8262  -0.047903  -0.0789092  0.00837403  nan  nan  nan  nan  nan  nan  -2  -1  1.5  0.0154129  -0.0375223  -0.000578238  0  0  0  0  0  0  0  0  0  0.0103322  -0.0118654  -0.0211127  0.0263563  0.0465981  0.00968902  -0.00422832  0.0261088  -0.0112423  0.134707  -0.0823828  0.00774813 
1701777762.951412000  0  0  11.8711  -0.0189488  -0.0938927  0.00819902  nan  nan  nan  nan  nan  nan  -2  -1  1.5  0.0155831  -0.0374355  -0.00058327  0  0  0  0  0  0  0  0  0  0.0104919  -0.0116804  -0.0211479  0.0260743  0.0464883  0.00602017  -0.00443268  0.0260115  -0.0112219  0.0786783  -0.0515203  0.00973085 
1701777762.956868000  0  0  11.8187  -0.0234796  -0.0747686  0.00941599  nan  nan  nan  nan  nan  nan  -2  -1  1.5  0.0159362  -0.0381707  -0.000608198  0  0  0  0  0  0  0  0  0  0.0106699  -0.0114668  -0.0211125  0.0264262  0.0463849  0.0103434  -0.00431899  0.0260222  -0.0113765  0.0866939  -0.0898671  -0.0039352 
1701777762.961403000  0  0  11.8519  -0.0119035  -0.0725852  0.010412  nan  nan  nan  nan  nan  nan  -2  -1  1.5  0.0166309  -0.0378419  -0.000629251  0  0  0  0  0  0  0  0  0  0.0107853  -0.0112525  -0.021097  0.0258773  0.0468814  0.0075604  -0.00479888  0.0252562  -0.011523  0.0679567  -0.0871865  -0.0149195 
1701777762.966405000  0  0  11.8816  0.0133045  -0.0808409  0.0102189  nan  nan  nan  nan  nan  nan  -2  -1  1.5  0.016729  -0.0377385  -0.000631238  0  0  0  0  0  0  0  0  0  0.0109463  -0.0110605  -0.0211232  0.0255079  0.046639  0.00514308  -0.00518616  0.0250051  -0.0115962  0.0211036  -0.0683651  -0.011774 
1701777762.971356000  0  0  11.8291  -0.00621502  -0.0501037  0.0110514  nan  nan  nan  nan  nan  nan  -2  -1  1.5  0.0172832  -0.0380259  -0.000657118  0  0  0  0  0  0  0  0  0  0.0110737  -0.0108295  -0.0210525  0.0253819  0.0467549  0.00940806  -0.00517428  0.0242685  -0.0117573  0.0600334  -0.123062  -0.0205706 
1701777762.976354000  0  0  11.9048  0.00492551  -0.0615684  0.0105415  nan  nan  nan  nan  nan  nan  -2  -1  1.5  0.0175442  -0.0377159  -0.000661607  0  0  0  0  0  0  0  0  0  0.0112331  -0.0106337  -0.0211123  0.0249371  0.0468098  0.00323694  -0.00537052  0.0236648  -0.0118221  0.0395578  -0.0945792  -0.013547 
1701777762.981358000  0  0  11.8928  0.0140914  -0.0669384  0.00979149  nan  nan  nan  nan  nan  nan  -2  -1  1.5  0.0177375  -0.0378057  -0.000670488  0  0  0  0  0  0  0  0  0  0.0113585  -0.0104031  -0.0210792  0.0247269  0.0465288  0.0041731  -0.00560556  0.0234842  -0.0117657  0.0233884  -0.0821773  -0.00473617 
1701777762.986353000  0  0  11.8447  -0.0135941  -0.0431865  0.0100243  nan  nan  nan  nan  nan  nan  -2  -1  1.5  0.0180964  -0.0379764  -0.000687145  0  0  0  0  0  0  0  0  0  0.0115142  -0.010203  -0.0210763  0.0244026  0.0464604  0.00820639  -0.00523338  0.0227384  -0.011855  0.0753353  -0.122821  -0.006754 
1701777762.991363000  0  0  11.9314  -0.00050922  -0.0686846  0.00900774  nan  nan  nan  nan  nan  nan  -2  -1  1.5  0.0180101  -0.0378314  -0.00068126  0  0  0  0  0  0  0  0  0  0.0116709  -0.0100249  -0.0211378  0.0242278  0.0461247  0.00111296  -0.0051068  0.0226477  -0.0117694  0.048001  -0.0709897  0.005097 
1701777762.996362000  0  0  11.8927  -0.00269632  -0.0673216  0.00907551  nan  nan  nan  nan  nan  nan  -2  -1  1.5  0.0181568  -0.0379264  -0.000688532  0  0  0  0  0  0  0  0  0  0.011792  -0.00979795  -0.0210941  0.0239214  0.0457363  0.00425338  -0.00501718  0.0224091  -0.0117531  0.0515507  -0.0715201  0.00408694 
1701777763.001348000  0  0  11.8786  -0.0257442  -0.0599319  0.00960545  nan  nan  nan  nan  nan  nan  -2  -1  1.5  0.0180715  -0.0380833  -0.00068813  0  0  0  0  0  0  0  0  0  0.0119614  -0.00964466  -0.0210764  0.0236921  0.0452543  0.00540518  -0.00420847  0.0220744  -0.0118299  0.0902063  -0.0832204  -0.00176938 
1701777763.006350000  0  0  11.9365  -0.0171162  -0.0778435  0.00960547  nan  nan  nan  nan  nan  nan  -2  -1  1.5  0.0177141  -0.0379282  -0.000671774  0  0  0  0  0  0  0  0  0  0.0121043  -0.00947118  -0.0211306  0.0234132  0.0445117  0.000690513  -0.00369874  0.021988  -0.0118662  0.0682608  -0.0466025  -0.00140665 
1701777763.011506000  0  0  11.8877  -0.0443675  -0.0627873  0.0103024  nan  nan  nan  nan  nan  nan  -2  -1  1.5  0.0178993  -0.0378761  -0.000677865  0  0  0  0  0  0  0  0  0  0.012223  -0.00924319  -0.0210845  0.0228741  0.0441531  0.00467855  -0.00299033  0.0214076  -0.0119659  0.116246  -0.071375  -0.00912092 
1701777763.016342000  0  0  11.8705  -0.0520257  -0.0625441  0.0105755  nan  nan  nan  nan  nan  nan  -2  -1  1.5  0.0175946  -0.0380347  -0.000669113  0  0  0  0  0  0  0  0  0  0.0123729  -0.00911005  -0.0210733  0.0226776  0.0434214  0.00608776  -0.00205547  0.0212616  -0.0120767  0.122962  -0.0705182  -0.0114275 
1701777763.021410000  0  0  11.8944  -0.0553075  -0.0664016  0.00966931  nan  nan  nan  nan  nan  nan  -2  -1  1.5  0.0174789  -0.0377894  -0.000660425  0  0  0  0  0  0  0  0  0  0.0124866  -0.00889294  -0.0210691  0.0222012  0.0428331  0.00408784  -0.00134721  0.0208377  -0.0120025  0.123009  -0.0589034  -0.000841786 
1701777763.026347000  0  0  11.8481  -0.0856669  -0.051112  0.00941311  nan  nan  nan  nan  nan  nan  -2  -1  1.5  0.0172972  -0.0376202  -0.000650636  0  0  0  0  0  0  0  0  0  0.0126242  -0.00874602  -0.0210693  0.0214771  0.0421777  0.00795568  5.17225e-05  0.0201008  -0.0120188  0.170858  -0.0827037  0.00252415 
1701777763.031393000  0  0  11.8586  -0.06874  -0.0594677  0.00932629  nan  nan  nan  nan  nan  nan  -2  -1  1.5  0.01709  -0.0374331  -0.000639646  -6e-07  -6e-07  6e-07  0  0  0  -0.000375  -0.000375  0.000375  0.0127322  -0.0085372  -0.0210464  0.020986  0.0414131  0.00705949  0.000612218  0.0197512  -0.0120111  0.131848  -0.062776  0.00353228 
1701777763.036388000  0  0  11.9003  -0.0595694  -0.0698124  0.00927212  nan  nan  nan  nan  nan  nan  -2  -1  1.5  0.0165468  -0.0376247  -0.000622479  -5e-06  -5e-06  5e-06  0  0  0  -0.0015  -0.0015  0.0014996  0.012869  -0.00839916  -0.0210994  0.020963  0.0403225  0.00380236  0.00142631  0.0199219  -0.0120457  0.106017  -0.0436569  0.00455539 
1701777763.042189000  0  0  11.8969  -0.0750997  -0.0660124  0.00947238  nan  nan  nan  nan  nan  nan  -2  -1  1.5  0.0167037  -0.0374498  -0.000625463  -1.69e-05  -1.69e-05  1.55e-05  0  0  0  -0.003375  -0.003375  0.0025892  0.0130099  -0.00821318  -0.021147  0.020162  0.039868  0.00429188  0.00220596  0.0194592  -0.0120886  0.129905  -0.0470001  0.00248109 
1701777763.046576000  0  0  11.8836  -0.0531992  -0.073006  0.00886864  nan  nan  nan  nan  nan  nan  -2  -1  1.5  0.0166429  -0.03771  -0.000627413  -4e-05  -4e-05  2.96e-05  0  0  0  -0.006  -0.006  0.0029289  0.0130993  -0.00804312  -0.0211177  0.019912  0.0390455  0.00538284  0.00232879  0.0196582  -0.0120039  0.0849735  -0.0348434  0.00918114 
1701777763.051401000  0  0  11.9154  -0.0517088  -0.0791256  0.00909629  nan  nan  nan  nan  nan  nan  -2  -1  1.5  0.016766  -0.0378397  -0.000634129  -7.81e-05  -7.81e-05  4.36e-05  0  0  0  -0.009375  -0.009375  0.0025185  0.0132174  -0.00791362  -0.0211775  0.0195186  0.038543  0.00282228  0.00253466  0.0197767  -0.0120274  0.0800987  -0.0236944  0.00657023 
1701777763.056875000  0  0  11.9124  -0.0578553  -0.0826505  0.0100449  nan  nan  nan  nan  nan  nan  -2  -1  1.5  0.0169395  -0.0379528  -0.000642408  -0.000135  -0.000135  5.36e-05  0  0  0  -0.0135  -0.0135  0.0013619  0.0133433  -0.00775919  -0.021197  0.0188432  0.0378904  0.00300377  0.00293223  0.0198722  -0.0121514  0.088734  -0.017523  -0.00404697 
1701777763.061426000  0  0  11.8895  -0.0304086  -0.0826479  0.0113236  nan  nan  nan  nan  nan  nan  -2  -1  1.5  0.0171748  -0.0386775  -0.000663576  -0.0002144  -0.0002144  5.74e-05  0  0  0  -0.018375  -0.018375  0.0003076  0.0134318  -0.00759202  -0.0211659  0.018878  0.0371554  0.00476014  0.00247635  0.0204466  -0.0123398  0.0380349  -0.0228126  -0.0181475 
1701777763.066402000  0  0  11.9423  -0.0294954  -0.0891977  0.0112159  nan  nan  nan  nan  nan  nan  -2  -1  1.5  0.017767  -0.0388015  -0.000688487  -0.00032  -0.00032  5.79e-05  0  0  0  -0.024  -0.024  -3.3e-06  0.0135448  -0.00746999  -0.0212461  0.0182918  0.0370424  0.000517676  0.00206767  0.0206124  -0.0124278  0.0399682  -0.011239  -0.0159201 
1701777763.071409000  0  0  11.9187  -0.0207374  -0.0866823  0.0111308  nan  nan  nan  nan  nan  nan  -2.00001  -1.00001  1.5  0.0183578  -0.0392121  -0.000718743  -0.0004549  -0.0004556  5.71e-05  0  0  0  -0.0298319  -0.030375  -0.0004491  0.0136423  -0.00727961  -0.0212194  0.017764  0.0365296  0.00240598  0.00153236  0.0208701  -0.0124724  0.0273771  -0.0186402  -0.0144112 
1701777763.076402000  0  0  11.9161  -0.00213292  -0.088731  0.0111093  nan  nan  nan  nan  nan  nan  -2.00001  -1.00001  1.5  0.0188515  -0.0398222  -0.0007494  -0.0006171  -0.000625  5.22e-05  0  0  0  -0.0349304  -0.0375  -0.0016448  0.0137491  -0.00716576  -0.0212575  0.0176653  0.0360026  0.00260313  0.00077237  0.0214096  -0.01254  -0.00283996  -0.0195061  -0.0134662 
1701777763.081406000  0  0  11.955  0.00733418  -0.0986651  0.0108967  nan  nan  nan  nan  nan  nan  -2.00001  -1.00001  1.5  0.0199636  -0.0396854  -0.000790761  -0.0008029  -0.0008318  3.94e-05  0  0  0  -0.0392789  -0.0452796  -0.0035905  0.0138294  -0.0069862  -0.0212765  0.0169164  0.0361547  -0.000764712  -0.000446937  0.0214064  -0.0125393  -0.0105565  0.000391343  -0.0108162 
1701777763.086479000  0  0  11.9144  0.0155324  -0.0898522  0.010612  nan  nan  nan  nan  nan  nan  -2.00002  -1.00002  1.5  0.020265  -0.0401234  -0.000811294  -0.0010086  -0.0010769  1.5e-05  0  0  0  -0.0428774  -0.0526197  -0.0062863  0.0139419  -0.00687421  -0.0213026  0.0166025  0.035265  0.00242859  -0.000983303  0.0216635  -0.0125531  -0.0220184  -0.0196001  -0.00711906 
1701777763.091400000  0  0  11.9434  0.0204195  -0.0883631  0.010493  nan  nan  nan  nan  nan  nan  -2.00002  -1.00002  1.5  0.0201765  -0.0399258  -0.00080346  -0.0012224  -0.0013394  -1.7e-05  0  0  0  -0.0425024  -0.0522447  -0.0066612  0.0140185  -0.00670828  -0.0213149  0.0163478  0.0348931  -6.14218e-06  -0.00110614  0.0213594  -0.0125686  -0.0306625  -0.0197806  -0.00547659 
1701777763.096398000  0  0  11.9743  0.0211771  -0.0927988  0.00974121  nan  nan  nan  nan  nan  nan  -2.00003  -1.00003  1.5  0.020301  -0.039197  -0.000793345  -0.0014324  -0.0015981  -5.29e-05  0  0  0  -0.0413774  -0.0511197  -0.0077862  0.0140981  -0.00652912  -0.0213375  0.0154831  0.034876  -0.00264778  -0.00135858  0.0207146  -0.0124837  -0.0298553  -0.00497671  0.00307148 
1701777763.101424000  0  0  11.9173  0.0173872  -0.074682  0.00950392  nan  nan  nan  nan  nan  nan  -2.00004  -1.00004  1.5  0.0199104  -0.0388506  -0.000770739  -0.0016349  -0.0018493  -9.62e-05  0  0  0  -0.0395024  -0.0492447  -0.0096612  0.0141757  -0.0063581  -0.0213029  0.0148453  0.0340937  0.00183638  -0.00107536  0.0199909  -0.0124397  -0.0248812  -0.0345525  0.0055982 
1701777763.106883000  0  0  11.9588  -0.00142722  -0.0648068  0.00941428  nan  nan  nan  nan  nan  nan  -2.00004  -1.00005  1.5  0.0186197  -0.0383824  -0.000711276  -0.0018262  -0.0020893  -0.0001507  0  0  0  -0.0368774  -0.0466197  -0.0122863  0.014289  -0.00635055  -0.0214613  0.0144876  0.0327959  -0.001568  0.000370618  0.0192495  -0.0124579  -0.000555237  -0.0474818  0.00690056 
1701777763.111412000  0  0  11.9722  -0.00950254  -0.0717447  0.00890824  nan  nan  nan  nan  nan  nan  -2.00005  -1.00006  1.5  0.01817  -0.0374276  -0.000676075  -0.0020024  -0.0023142  -0.0002203  0  0  0  -0.0335024  -0.0432447  -0.0156613  0.0143512  -0.0062033  -0.0214805  0.0135718  0.0323365  -0.00299958  0.000957628  0.0183642  -0.0123774  0.0101949  -0.0254617  0.0124213 
1701777763.116354000  0  0  11.8977  -0.0351196  -0.0474931  0.00948502  nan  nan  nan  nan  nan  nan  -2.00006  -1.00007  1.5  0.0168167  -0.0371432  -0.000619841  -0.0021599  -0.0025205  -0.0003086  0  0  0  -0.0293774  -0.0391197  -0.0197863  0.0144341  -0.00613937  -0.0215172  0.0132334  0.030791  0.00285518  0.00274081  0.0175256  -0.0124524  0.0450239  -0.0662496  0.00596135 
1701777763.121424000  0  0  11.9482  -0.0514753  -0.0423711  0.0102835  nan  nan  nan  nan  nan  nan  -2.00008  -1.00008  1.5  0.0161005  -0.0359568  -0.000573046  -0.0022949  -0.0027042  -0.0004194  0  0  0  -0.0245024  -0.0342447  -0.0246613  0.0145063  -0.0059863  -0.0215552  0.012335  0.0302269  -0.00177321  0.00398276  0.0160214  -0.0125637  0.0663093  -0.0626548  -0.00290689 
1701777763.126403000  0  0  11.9591  -0.0600191  -0.0450766  0.0103347  nan  nan  nan  nan  nan  nan  -2.00009  -1.0001  1.49999  0.0145149  -0.0348404  -0.000498538  -0.0024037  -0.0028617  -0.0005564  0  0  0  -0.0188774  -0.0286197  -0.0302863  0.0145722  -0.00592473  -0.0216401  0.0114748  0.0287337  -0.00310868  0.00588032  0.0148774  -0.0126385  0.0659391  -0.0467192  -0.00279812 
1701777763.131873000  0  0  11.8985  -0.0887305  -0.0158064  0.0114133  nan  nan  nan  nan  nan  nan  -2.0001  -1.00011  1.49999  0.0129347  -0.0338874  -0.000429365  -0.0024825  -0.0029891  -0.0007235  0  0  0  -0.0125024  -0.0222447  -0.0366613  0.0146362  -0.00586961  -0.0216869  0.0106608  0.0272518  0.00137528  0.00826399  0.0131729  -0.0128684  0.101432  -0.0895774  -0.0139824 
1701777763.136347000  0  0  11.9463  -0.084508  -0.0287577  0.0113313  nan  nan  nan  nan  nan  nan  -2.00011  -1.00013  1.49999  0.0119422  -0.0322877  -0.000374536  -0.0025275  -0.0030829  -0.0009243  0  0  0  -0.0053774  -0.0151197  -0.0437863  0.0146781  -0.00574093  -0.0217326  0.00954486  0.0266408  -0.0032587  0.00950515  0.0116455  -0.0129427  0.0815685  -0.049623  -0.012215 
1701777763.141401000  0  0  11.8996  -0.0941708  -0.0242761  0.0110411  nan  nan  nan  nan  nan  nan  -2.00012  -1.00014  1.49998  0.0098986  -0.031096  -0.000293967  -0.002535  -0.0031391  -0.0011626  0  0  0  0.0024976  -0.0072447  -0.0516613  0.0147293  -0.00571774  -0.0217813  0.00870573  0.024847  -0.000107694  0.011918  0.0103399  -0.0130214  0.0786962  -0.046575  -0.0078004 
1701777763.146398000  0  0  11.8497  -0.116435  -0.00312767  0.0112447  nan  nan  nan  nan  nan  nan  -2.00014  -1.00016  1.49998  0.00861959  -0.0297787  -0.000239548  -0.0025013  -0.0031541  -0.0014422  0  0  0  0.0111226  0.0013803  -0.0602863  0.0147789  -0.00559052  -0.0217642  0.00780364  0.0239425  0.00312048  0.0139257  0.00846872  -0.0131245  0.104753  -0.0716569  -0.00931454 
1701777763.151401000  0  0  11.9206  -0.0994891  -0.0250273  0.0100072  nan  nan  nan  nan  nan  nan  -2.00015  -1.00018  1.49997  0.00677597  -0.0279083  -0.000167784  -0.0024225  -0.003124  -0.0017667  0  0  0  0.0204976  0.0107553  -0.0696613  0.0148178  -0.00557193  -0.0218837  0.00668664  0.0227418  -0.00353215  0.0157131  0.00698086  -0.0130538  0.0544178  -0.0141694  0.00544816 
1701777763.157069000  0  0  11.8437  -0.109232  -0.00836348  0.00990932  nan  nan  nan  nan  nan  nan  -2.00016  -1.00019  1.49996  0.0042539  -0.0264684  -8.62813e-05  -0.002295  -0.0030453  -0.00214  0  0  0  0.0306226  0.0208803  -0.0797863  0.0148574  -0.0055629  -0.0219159  0.00577486  0.0206562  0.00187266  0.0184377  0.0053558  -0.0130687  0.0488381  -0.0325464  0.00682077 
1701777763.161409000  0  0  11.8339  -0.119481  -0.00738189  0.0103445  nan  nan  nan  nan  nan  nan  -2.00017  -1.00021  1.49995  0.00282097  -0.0248351  -3.7652e-05  -0.002115  -0.002914  -0.0025658  0  0  0  0.0414976  0.0317553  -0.0906613  0.0148819  -0.00546528  -0.0219189  0.00495035  0.0199573  0.00156928  0.020176  0.00372999  -0.0131246  0.0533428  -0.0195522  0.0019391 
1701777763.166530000  0  0  11.8767  -0.0905438  -0.0418686  0.010537  nan  nan  nan  nan  nan  nan  -2.00018  -1.00022  1.49993  0.000683526  -0.0227586  2.41452e-05  -0.0018788  -0.0027265  -0.0030479  0  0  0  0.0531226  0.0433803  -0.102286  0.014904  -0.005476  -0.0220175  0.00378223  0.0186775  -0.00299456  0.0217278  0.00256943  -0.0131813  -0.0188082  0.0600985  0.000101031 
1701777763.171351000  0  0  11.7993  -0.100488  -0.0201789  0.0112855  nan  nan  nan  nan  nan  nan  -2.00019  -1.00023  1.49992  -0.00132798  -0.0211006  7.63191e-05  -0.0015826  -0.0024789  -0.00359  0  0  0  0.0654976  0.0557553  -0.114661  0.0149243  -0.00539274  -0.0219883  0.00296813  0.0174493  0.00211648  0.0236803  0.000914619  -0.0133139  -0.0168832  0.0319432  -0.00793025 
1701777763.176384000  0  0  11.788  -0.102336  -0.020706  0.0117302  nan  nan  nan  nan  nan  nan  -2.0002  -1.00024  1.4999  -0.00362534  -0.0191888  0.000127862  -0.0012226  -0.0021677  -0.0041958  0  0  0  0.0786226  0.0688803  -0.127786  0.0149477  -0.00541155  -0.0220502  0.00208306  0.0161798  0.00183135  0.0257577  -0.000628736  -0.0134658  -0.0322991  0.0471964  -0.0119695 
1701777763.181434000  0  0  11.8347  -0.0692625  -0.0527738  0.0115156  nan  nan  nan  nan  nan  nan  -2.0002  -1.00025  1.49987  -0.00540382  -0.0169982  0.000161952  -0.0007951  -0.0017889  -0.0048691  0  0  0  0.0924976  0.0827553  -0.141661  0.0149514  -0.00532922  -0.0220879  0.00108718  0.0154318  -0.00337532  0.0264957  -0.00164554  -0.0134838  -0.105235  0.120687  -0.00910733 
1701777763.186422000  0  0  11.7405  -0.0782427  -0.034986  0.0123528  nan  nan  nan  nan  nan  nan  -2.00021  -1.00026  1.49985  -0.00821633  -0.0150258  0.000207155  -0.0002963  -0.0013388  -0.0056136  0  0  0  0.107123  0.0973803  -0.156286  0.014972  -0.0053607  -0.0221056  0.000181783  0.0137778  0.00301446  0.0287505  -0.00317148  -0.0136927  -0.108019  0.0991495  -0.0174835 
1701777763.191404000  0  0  11.735  -0.0658921  -0.0466485  0.0124573  nan  nan  nan  nan  nan  nan  -2.00021  -1.00027  1.49982  -0.0106816  -0.0127067  0.00023513  0.0002774  -0.0008138  -0.0064332  0  0  0  0.122498  0.112755  -0.171661  0.0149816  -0.0053864  -0.0221656  -0.000885176  0.0126103  0.00205761  0.0302629  -0.00452227  -0.0138163  -0.146634  0.134902  -0.0175537 
1701777763.196477000  0  0  11.7515  -0.0385673  -0.0700762  0.0119276  nan  nan  nan  nan  nan  nan  -2.0002  -1.00027  1.49978  -0.0128978  -0.0104695  0.000252339  0.0009299  -0.00021  -0.0073315  0  0  0  0.138623  0.12888  -0.187786  0.014971  -0.00532652  -0.0221831  -0.00167574  0.0116455  -0.000875346  0.0309901  -0.00536116  -0.0138186  -0.207975  0.189475  -0.0109083 
1701777763.201412000  0  0  11.6844  -0.0549907  -0.0533652  0.0115646  nan  nan  nan  nan  nan  nan  -2.0002  -1.00027  1.49974  -0.015523  -0.00816189  0.000264406  0.0016649  0.0004762  -0.0083123  0  0  0  0.155498  0.145755  -0.204661  0.0149819  -0.00536004  -0.0222054  -0.00259311  0.0105853  0.00308471  0.032797  -0.0068921  -0.0138502  -0.191751  0.170138  -0.00605548 
1701777763.206865000  0  0  11.6844  -0.0329262  -0.0695711  0.0108211  nan  nan  nan  nan  nan  nan  -2.00019  -1.00027  1.4997  -0.0184093  -0.00535899  0.000259366  0.0024861  0.0012488  -0.0093793  0  0  0  0.173123  0.16338  -0.222286  0.0149814  -0.00538942  -0.0222676  -0.00395397  0.00917725  0.00148529  0.0340065  -0.00815246  -0.0137856  -0.247007  0.214145  0.00259255 
1701777763.211424000  0  0  11.6631  -0.0216255  -0.068531  0.0113616  nan  nan  nan  nan  nan  nan  -2.00017  -1.00026  1.49965  -0.0208994  -0.00276339  0.000244461  0.0033973  0.0021113  -0.0105364  0  0  0  0.191498  0.181755  -0.240661  0.0149574  -0.00535087  -0.0222605  -0.0049037  0.00827906  0.00145336  0.0349806  -0.00956368  -0.0138371  -0.278571  0.225048  -0.00364943 
1701777763.216395000  0  0  11.599  -0.0395654  -0.0552519  0.0124071  nan  nan  nan  nan  nan  nan  -2.00015  -1.00024  1.49959  -0.024006  -0.000193897  0.000220456  0.0044023  0.0030676  -0.0117872  0  0  0  0.210623  0.20088  -0.259786  0.0149544  -0.00539466  -0.0222491  -0.00575803  0.00698783  0.00490281  0.0369769  -0.011076  -0.0140002  -0.261057  0.212403  -0.0150863 
1701777763.221451000  0  0  11.6048  -0.0199929  -0.0727229  0.0118821  nan  nan  nan  nan  nan  nan  -2.00013  -1.00023  1.49953  -0.0269024  0.00303532  0.000166423  0.0055048  0.0041213  -0.0131355  0  0  0  0.230498  0.220755  -0.279661  0.0149248  -0.0053549  -0.0222596  -0.00729055  0.00571323  0.00253069  0.0380182  -0.0125994  -0.0139722  -0.309781  0.26136  -0.00880452 
1701777763.226391000  0  0  11.5707  -0.0268334  -0.0550802  0.0121626  nan  nan  nan  nan  nan  nan  -2.0001  -1.0002  1.49946  -0.0302429  0.00604153  0.000101132  0.0067086  0.0052764  -0.0145851  0  0  0  0.251123  0.24138  -0.300286  0.0149133  -0.00541727  -0.0223012  -0.00845654  0.00431918  0.00348388  0.0397583  -0.0144167  -0.0140501  -0.31211  0.242794  -0.0115326 
1701777763.231865000  0  0  11.5132  -0.0409278  -0.0402135  0.0124659  nan  nan  nan  nan  nan  nan  -2.00006  -1.00017  1.49939  -0.0338836  0.00927918  8.77221e-06  0.0080173  0.0065364  -0.0161396  0  0  0  0.272498  0.262755  -0.321661  0.0148961  -0.00548651  -0.0223302  -0.00976462  0.00276502  0.00628903  0.041859  -0.0164162  -0.014138  -0.303247  0.231456  -0.014444 
1701777763.236399000  0  0  11.5049  -0.0321574  -0.0514221  0.0119922  nan  nan  nan  nan  nan  nan  -2.00002  -1.00014  1.4993  -0.0372197  0.0127373  -0.000107786  0.0094348  0.0079052  -0.0178029  0  0  0  0.294623  0.28488  -0.343786  0.0148491  -0.00547469  -0.0223131  -0.01122  0.00135974  0.00485125  0.0434719  -0.0182883  -0.0140789  -0.335627  0.271097  -0.00911281 
1701777763.241408000  0  0  11.4671  -0.0570227  -0.0300253  0.0123676  nan  nan  nan  nan  nan  nan  -1.99997  -1.00009  1.49921  -0.0413172  0.0162313  -0.000257386  0.0109648  0.0093864  -0.0195787  0  0  0  0.317498  0.307755  -0.366661  0.0148409  -0.00559128  -0.0223206  -0.012654  -0.000496261  0.00584917  0.0461658  -0.0205757  -0.0141314  -0.31068  0.249347  -0.0132809 
1701777763.246424000  0  0  11.4231  -0.0634797  -0.0110824  0.012048  nan  nan  nan  nan  nan  nan  -1.99991  -1.00004  1.4991  -0.0449118  0.0202175  -0.000443851  0.012611  0.010984  -0.0214708  0  0  0  0.341123  0.33138  -0.390286  0.0147721  -0.00559426  -0.0222778  -0.0144415  -0.00180153  0.00720147  0.0482229  -0.0234197  -0.014089  -0.316691  0.237626  -0.0097097 
1701777763.251429000  0  0  11.3837  -0.0596833  -0.0119746  0.0116817  nan  nan  nan  nan  nan  nan  -1.99984  -0.999984  1.49899  -0.049577  0.0238371  -0.00066253  0.0143772  0.0127015  -0.0234829  0  0  0  0.365498  0.355755  -0.414661  0.0147236  -0.00570227  -0.0222934  -0.0156898  -0.00412074  0.00826462  0.0509217  -0.0254844  -0.0140048  -0.349113  0.258405  -0.00597224 
1701777763.256867000  0  0  11.3667  -0.087287  0.00356692  0.012085  nan  nan  nan  nan  nan  nan  -1.99976  -0.999916  1.49887  -0.0535666  0.0280278  -0.000922795  0.0162672  0.0145428  -0.0256187  0  0  0  0.390623  0.38088  -0.439786  0.0146629  -0.00579547  -0.0223109  -0.017577  -0.00561422  0.00738941  0.0534003  -0.0282605  -0.0139971  -0.316709  0.252863  -0.0110918 
1701777763.261412000  0  0  11.3263  -0.0892587  0.0175595  0.0116136  nan  nan  nan  nan  nan  nan  -1.99968  -0.999838  1.49874  -0.0579278  0.0323078  -0.00122949  0.0182847  0.0165116  -0.027882  0  0  0  0.416498  0.406755  -0.465661  0.0145795  -0.0058329  -0.0222669  -0.0193353  -0.00743722  0.0082757  0.05614  -0.0313419  -0.0138739  -0.337971  0.253226  -0.00643113 
1701777763.266410000  0  0  11.2919  -0.0924157  0.0201708  0.0110384  nan  nan  nan  nan  nan  nan  -1.99958  -0.99975  1.49859  -0.0627962  0.0365501  -0.00158531  0.0204335  0.0186116  -0.0302763  0  0  0  0.443123  0.43338  -0.492044  0.0145071  -0.00595783  -0.0222591  -0.0209654  -0.0096043  0.00874446  0.0590476  -0.0340048  -0.0136986  -0.358407  0.272503  -0.000994772 
1701777763.271410000  0  0  11.2702  -0.114901  0.0264928  0.0107613  nan  nan  nan  nan  nan  nan  -1.99947  -0.999652  1.49843  -0.0669135  0.0412657  -0.00197897  0.0227172  0.0208466  -0.0328013  0  0  0  0.470498  0.460755  -0.517817  0.0143952  -0.00600447  -0.0222245  -0.0230349  -0.0109617  0.00815199  0.0616656  -0.0371311  -0.0135132  -0.337521  0.288621  0.000616101 
1701777763.276397000  0  0  11.2428  -0.114531  0.0290448  0.0102947  nan  nan  nan  nan  nan  nan  -1.99935  -0.999542  1.49826  -0.0721222  0.0456351  -0.00243247  0.0251397  0.0232204  -0.0354532  0  0  0  0.498623  0.48888  -0.542839  0.0142951  -0.00614151  -0.0222587  -0.0245574  -0.0133171  0.00831654  0.064849  -0.039737  -0.0132792  -0.367549  0.307491  0.00410771 
1701777763.281386000  0  0  11.2131  -0.117496  0.0316302  0.01041  nan  nan  nan  nan  nan  nan  -1.99922  -0.999419  1.49808  -0.0768209  0.0505711  -0.0029449  0.0277047  0.0257367  -0.0382284  0  0  0  0.527498  0.517755  -0.567112  0.0141701  -0.00621068  -0.022222  -0.0266019  -0.0150305  0.00862695  0.0675127  -0.0428181  -0.0130701  -0.386126  0.330666  0.000576037 
1701777763.286394000  0  0  11.1912  -0.126021  0.0293356  0.0109409  nan  nan  nan  nan  nan  nan  -1.99908  -0.999284  1.49788  -0.0818071  0.055418  -0.00350797  0.0304159  0.0283992  -0.0411231  0  0  0  0.557123  0.54738  -0.590635  0.0140572  -0.00636275  -0.0222539  -0.0284903  -0.0168546  0.00853898  0.0704405  -0.0455779  -0.0129157  -0.396011  0.360645  -0.00760433 
1701777763.291409000  0  0  11.1692  -0.118381  0.0212695  0.0113339  nan  nan  nan  nan  nan  nan  -1.99892  -0.999135  1.49767  -0.0872479  0.0599244  -0.0041128  0.0332772  0.0312117  -0.0441335  0  0  0  0.587498  0.577755  -0.613407  0.0139337  -0.00652511  -0.0222797  -0.0298168  -0.0190894  0.00859833  0.0733792  -0.0477431  -0.0127638  -0.438327  0.396698  -0.0140357 
1701777763.296398000  0  0  11.1716  -0.119451  0.0128188  0.0116226  nan  nan  nan  nan  nan  nan  -1.99874  -0.998972  1.49744  -0.0919317  0.0651877  -0.00478262  0.0362921  0.034178  -0.0472559  0  0  0  0.618623  0.60888  -0.63543  0.0137722  -0.00662033  -0.0222563  -0.0320636  -0.0206455  0.006629  0.0756714  -0.0504923  -0.0125884  -0.457275  0.438891  -0.0193988 
1701777763.301420000  0  0  11.1146  -0.115248  0.00872334  0.011931  nan  nan  nan  nan  nan  nan  -1.99855  -0.998793  1.49719  -0.0975416  0.0703211  -0.00555049  0.0394646  0.0373018  -0.0504865  0  0  0  0.650498  0.640755  -0.656702  0.013636  -0.00679613  -0.0222514  -0.0336612  -0.022425  0.00978456  0.0785519  -0.0529739  -0.0124062  -0.492181  0.469913  -0.0250759 
1701777763.306889000  0  0  11.1027  -0.1077  -0.00552051  0.0121003  nan  nan  nan  nan  nan  nan  -1.99835  -0.998598  1.49693  -0.103067  0.0748784  -0.00630583  0.0427984  0.0405868  -0.0538217  0  0  0  0.683123  0.67338  -0.677225  0.0135092  -0.00697443  -0.0222872  -0.0347831  -0.0244292  0.00943044  0.0808898  -0.054367  -0.0122323  -0.528787  0.511218  -0.0289306 
1701777763.311415000  0  0  11.1249  -0.105303  -0.019609  0.0118497  nan  nan  nan  nan  nan  nan  -1.99812  -0.998387  1.49666  -0.108125  0.0801336  -0.00714525  0.0462971  0.0440368  -0.0572575  0  0  0  0.716498  0.706755  -0.696998  0.0133198  -0.0071059  -0.022262  -0.0368382  -0.0262437  0.00619542  0.0832386  -0.0567047  -0.0119506  -0.55519  0.560902  -0.0286157 
1701777763.316406000  0  0  11.0539  -0.0951631  -0.0221957  0.0111534  nan  nan  nan  nan  nan  nan  -1.99788  -0.998158  1.49636  -0.113968  0.0858182  -0.0081503  0.0499643  0.0476554  -0.0607904  0  0  0  0.750312  0.740692  -0.71602  0.0131707  -0.00729449  -0.0222514  -0.0386138  -0.0276504  0.0109234  0.085741  -0.0592138  -0.0115894  -0.598491  0.589158  -0.0235227 
1701777763.321414000  0  0  11.0441  -0.0765541  -0.0296548  0.0112829  nan  nan  nan  nan  nan  nan  -1.99762  -0.99791  1.49605  -0.119622  0.0907317  -0.00910812  0.053799  0.0514426  -0.0644165  0  0  0  0.783471  0.774066  -0.734293  0.0129797  -0.00743876  -0.0222125  -0.0399631  -0.0297065  0.0106408  0.0877119  -0.0608093  -0.0113106  -0.653842  0.618755  -0.0279303 
1701777763.326414000  0  0  11.0765  -0.0755695  -0.0447137  0.011335  nan  nan  nan  nan  nan  nan  -1.99735  -0.997643  1.49572  -0.124628  0.0954675  -0.0100325  0.0577977  0.0553948  -0.0681321  0  0  0  0.81588  0.806689  -0.751815  0.0128352  -0.00765161  -0.0222673  -0.0417268  -0.0314651  0.00716067  0.0891808  -0.0619432  -0.0110561  -0.669324  0.659305  -0.0311258 
1701777763.331879000  0  0  11.0306  -0.060029  -0.0501279  0.0107758  nan  nan  nan  nan  nan  nan  -1.99705  -0.997356  1.49537  -0.130054  0.100479  -0.0110788  0.0619566  0.0595083  -0.0719334  0  0  0  0.847539  0.838563  -0.768588  0.0126909  -0.00786063  -0.02229  -0.0430941  -0.032721  0.0103041  0.0903591  -0.0630641  -0.0107137  -0.711246  0.680446  -0.0275605 
1701777763.336411000  0  0  11.0236  -0.0418418  -0.0457017  0.0102538  nan  nan  nan  nan  nan  nan  -1.99673  -0.997048  1.495  -0.135759  0.105537  -0.0122121  0.0662719  0.0637792  -0.0758167  0  0  0  0.878448  0.869686  -0.784611  0.0124665  -0.00804363  -0.0222189  -0.0448731  -0.0349929  0.0100942  0.0921336  -0.0649582  -0.0102995  -0.763945  0.689019  -0.0251769 
1701777763.341413000  0  0  11.0565  -0.0483015  -0.0512543  0.0102171  nan  nan  nan  nan  nan  nan  -1.99638  -0.996718  1.49461  -0.140414  0.110078  -0.0132088  0.0707398  0.0682039  -0.0797783  0  0  0  0.908607  0.90006  -0.799883  0.0122964  -0.00827925  -0.022261  -0.0466894  -0.0365567  0.00690347  0.0929233  -0.0658456  -0.0100036  -0.758291  0.708288  -0.0276782 
1701777763.346449000  0  0  11.0118  -0.0311598  -0.0505809  0.0102053  nan  nan  nan  nan  nan  nan  -1.99602  -0.996365  1.4942  -0.145755  0.115365  -0.0144328  0.0753567  0.0727786  -0.0838143  0  0  0  0.938016  0.929683  -0.814406  0.0120681  -0.00846058  -0.0221963  -0.048457  -0.0379207  0.0101153  0.0938703  -0.067446  -0.00962836  -0.801287  0.721665  -0.0312823 
1701777763.351404000  0  0  11.0259  -0.0167221  -0.0513256  0.0106805  nan  nan  nan  nan  nan  nan  -1.99563  -0.99599  1.49377  -0.150917  0.119634  -0.0155342  0.0801187  0.0774995  -0.0879211  0  0  0  0.966675  0.958557  -0.828179  0.0118942  -0.00870424  -0.0222321  -0.0499174  -0.0399511  0.00876359  0.0944988  -0.0680487  -0.0093958  -0.835945  0.728699  -0.0395485 
1701777763.356873000  0  0  11.0521  -0.0168515  -0.0642634  0.0115738  nan  nan  nan  nan  nan  nan  -1.99522  -0.99559  1.49332  -0.155257  0.123832  -0.0165614  0.0850222  0.0823629  -0.0920948  0  0  0  0.994584  0.98668  -0.841201  0.011725  -0.00895568  -0.0222804  -0.0515503  -0.0412545  0.00655232  0.0941773  -0.0679323  -0.00928784  -0.832728  0.753504  -0.0517936 
1701777763.361342000  0  0  10.9982  -0.0155529  -0.0575501  0.0115867  nan  nan  nan  nan  nan  nan  -1.99478  -0.995166  1.49285  -0.161249  0.129137  -0.0180163  0.0900633  0.087365  -0.0963318  0  0  0  1.02174  1.01405  -0.853474  0.0114471  -0.0091876  -0.0221664  -0.0533737  -0.0432867  0.0107451  0.0960953  -0.0698858  -0.00889374  -0.852971  0.75805  -0.0558963 
1701777763.366960000  0  0  11.0487  -0.00802878  -0.06583  0.0112949  nan  nan  nan  nan  nan  nan  -1.99432  -0.994716  1.49236  -0.165025  0.132514  -0.0189091  0.0952384  0.0925022  -0.100628  0  0  0  1.04815  1.04068  -0.864996  0.0112831  -0.00939985  -0.0223066  -0.0545474  -0.0446181  0.00690455  0.094863  -0.0689062  -0.00879414  -0.856682  0.765597  -0.0532454 
1701777763.371406000  0  0  11.0519  -0.0165445  -0.0721182  0.0108143  nan  nan  nan  nan  nan  nan  -1.99383  -0.994241  1.49184  -0.169845  0.137638  -0.0202662  0.100544  0.0977706  -0.104981  0  0  0  1.07381  1.06655  -0.875769  0.0109804  -0.00964955  -0.0222184  -0.0570861  -0.0463469  0.00660446  0.0958355  -0.070407  -0.00839894  -0.848598  0.79198  -0.0511896 
1701777763.376420000  0  0  11.0008  -0.0186692  -0.0635778  0.0100806  nan  nan  nan  nan  nan  nan  -1.99331  -0.993738  1.49131  -0.175401  0.141867  -0.0216209  0.105975  0.103166  -0.109385  0  0  0  1.09872  1.09167  -0.885792  0.0107692  -0.00989884  -0.0222304  -0.0579648  -0.0480232  0.0111361  0.0968571  -0.0708615  -0.00795318  -0.853747  0.779082  -0.0464758 
1701777763.381351000  0  0  11.052  -0.0324929  -0.0628414  0.00946607  nan  nan  nan  nan  nan  nan  -1.99277  -0.993209  1.49075  -0.17962  0.145757  -0.0227587  0.11153  0.108686  -0.113837  0  0  0  1.12288  1.11605  -0.895064  0.0104752  -0.0101485  -0.0222108  -0.0599258  -0.050137  0.0071709  0.0970537  -0.0710243  -0.00760978  -0.827908  0.779106  -0.042228 
1701777763.386554000  0  0  11.067  -0.0330482  -0.0780377  0.0085278  nan  nan  nan  nan  nan  nan  -1.99219  -0.992651  1.49017  -0.183504  0.149755  -0.0238949  0.117203  0.114326  -0.118334  0  0  0  1.14629  1.13967  -0.903587  0.0102372  -0.0104031  -0.0222713  -0.0616509  -0.0512063  0.00650333  0.0964921  -0.0707002  -0.00724051  -0.821631  0.806518  -0.0341924 
1701777763.391418000  0  0  11.0265  -0.035701  -0.0626956  0.00804823  nan  nan  nan  nan  nan  nan  -1.99159  -0.992065  1.48957  -0.189069  0.153696  -0.0253153  0.122991  0.120082  -0.122872  0  0  0  1.16895  1.16254  -0.911359  0.00999729  -0.0107084  -0.0222576  -0.0625492  -0.053164  0.0103733  0.097724  -0.0711271  -0.00670682  -0.827659  0.779761  -0.0335346 
1701777763.396401000  0  0  11.0881  -0.0510447  -0.0576681  0.00756623  nan  nan  nan  nan  nan  nan  -1.99096  -0.99145  1.48894  -0.19281  0.157278  -0.0264121  0.128891  0.12595  -0.127446  0  0  0  1.19086  1.18467  -0.918382  0.00967683  -0.0109811  -0.0222488  -0.0646174  -0.0552001  0.005826  0.0975944  -0.0710913  -0.00636104  -0.795779  0.769377  -0.0309675 
1701777763.401401000  0  0  11.11  -0.0501103  -0.0781708  0.00679221  nan  nan  nan  nan  nan  nan  -1.99031  -0.990806  1.48829  -0.196748  0.161195  -0.027632  0.134898  0.131927  -0.132054  0  0  0  1.21202  1.20604  -0.924655  0.00942269  -0.0113054  -0.0222437  -0.0666814  -0.0566  0.00474009  0.0973312  -0.0708396  -0.00590548  -0.795226  0.808066  -0.0258479 
1701777763.406353000  0  0  11.0538  -0.0533594  -0.061384  0.0071328  nan  nan  nan  nan  nan  nan  -1.98962  -0.990131  1.48762  -0.202261  0.16475  -0.029077  0.14101  0.138009  -0.136692  0  0  0  1.23242  1.22667  -0.930177  0.00916061  -0.0116418  -0.0222152  -0.0670333  -0.0582902  0.0101229  0.0985755  -0.0708937  -0.00541428  -0.800176  0.77499  -0.0350172 
1701777763.411410000  0  0  11.1045  -0.0658634  -0.0574888  0.00779103  nan  nan  nan  nan  nan  nan  -1.98889  -0.989425  1.48692  -0.205666  0.168096  -0.0301498  0.147221  0.144192  -0.141355  0  0  0  1.25208  1.24654  -0.93495  0.00881434  -0.0119329  -0.0222061  -0.0689148  -0.0599781  0.0067211  0.0981584  -0.0705941  -0.00524525  -0.77133  0.764443  -0.0449354 
1701777763.416420000  0  0  11.127  -0.0504668  -0.0795823  0.00769486  nan  nan  nan  nan  nan  nan  -1.98814  -0.988689  1.48621  -0.209228  0.17159  -0.0313023  0.153529  0.150473  -0.14604  0  0  0  1.27099  1.26566  -0.938973  0.00852308  -0.012278  -0.0222431  -0.0706864  -0.0611774  0.00591723  0.0973731  -0.0699143  -0.00497104  -0.794899  0.802376  -0.0464754 
1701777763.421567000  0  0  11.0718  -0.0508599  -0.0509958  0.00851972  nan  nan  nan  nan  nan  nan  -1.98736  -0.98792  1.48546  -0.213873  0.174995  -0.0326566  0.15993  0.156848  -0.150743  0  0  0  1.28915  1.28404  -0.942245  0.00819591  -0.0125695  -0.0221742  -0.0709247  -0.0621212  0.0113173  0.0976752  -0.0699589  -0.00473439  -0.796892  0.745614  -0.0591526 
1701777763.426363000  0  0  11.124  -0.0471957  -0.0577747  0.00924138  nan  nan  nan  nan  nan  nan  -1.98654  -0.98712  1.4847  -0.217312  0.178064  -0.0337449  0.16642  0.163312  -0.155461  0  0  0  1.30656  1.30166  -0.944768  0.00787222  -0.0129642  -0.0221818  -0.0729013  -0.0639718  0.00812066  0.0970751  -0.0694852  -0.00465582  -0.7987  0.754813  -0.0689591 
1701777763.431911000  0  0  11.1631  -0.0285195  -0.0806604  0.00866043  nan  nan  nan  nan  nan  nan  -1.9857  -0.986287  1.48391  -0.219793  0.180503  -0.0345343  0.172995  0.169863  -0.16019  0  0  0  1.32322  1.31853  -0.94654  0.00761723  -0.0132835  -0.0222774  -0.0740037  -0.0646516  0.00621623  0.09476  -0.0674536  -0.00461188  -0.814753  0.781894  -0.0621365 
1701777763.436368000  0  0  11.0952  -0.0419905  -0.0465763  0.0083944  nan  nan  nan  nan  nan  nan  -1.98481  -0.985421  1.4831  -0.224954  0.184451  -0.0361853  0.179651  0.176496  -0.164925  0  0  0  1.33913  1.33466  -0.947563  0.00719254  -0.0136632  -0.0221067  -0.0747706  -0.0658848  0.0127194  0.0961706  -0.0687867  -0.00414569  -0.800789  0.72599  -0.0634731 
1701777763.441407000  0  0  11.1629  -0.0336068  -0.0589842  0.00844635  nan  nan  nan  nan  nan  nan  -1.9839  -0.984522  1.48226  -0.227434  0.186945  -0.0370197  0.186385  0.183208  -0.169664  0  0  0  1.35429  1.35003  -0.947836  0.00686048  -0.0140551  -0.022115  -0.0766195  -0.0673157  0.0084241  0.0944598  -0.0676015  -0.00414283  -0.801816  0.739902  -0.0641511 
1701777763.446358000  0  0  11.1656  -0.015934  -0.0767893  0.00787791  nan  nan  nan  nan  nan  nan  -1.98295  -0.983589  1.4814  -0.230619  0.189976  -0.0381287  0.193192  0.189995  -0.174402  0  0  0  1.3687  1.36465  -0.947358  0.00647133  -0.0143961  -0.0220562  -0.0778091  -0.0681642  0.00946653  0.093201  -0.0667321  -0.00392964  -0.825581  0.767514  -0.0591775 
1701777763.451400000  0  0  11.1133  -0.0254106  -0.0523329  0.00837348  nan  nan  nan  nan  nan  nan  -1.98197  -0.982622  1.48052  -0.234328  0.192686  -0.0392878  0.20007  0.196854  -0.179137  0  0  0  1.38236  1.37853  -0.946131  0.0061427  -0.0147827  -0.0220143  -0.0776802  -0.0682852  0.0150012  0.0927773  -0.0663423  -0.00378748  -0.80273  0.715015  -0.0667937 
1701777763.456361000  0  0  11.1905  -0.00501538  -0.0696569  0.0078686  nan  nan  nan  nan  nan  nan  -1.98095  -0.98162  1.47961  -0.23654  0.19474  -0.0400056  0.207015  0.203779  -0.183863  0  0  0  1.39527  1.39165  -0.944153  0.00577619  -0.0152163  -0.0220077  -0.0794448  -0.0699021  0.0101048  0.0906358  -0.06477  -0.00377253  -0.823819  0.735198  -0.0606322 
1701777763.461406000  0  0  11.1857  0.0109324  -0.0815321  0.00706665  nan  nan  nan  nan  nan  nan  -1.9799  -0.980584  1.47868  -0.239289  0.197362  -0.0409783  0.214022  0.210769  -0.188577  0  0  0  1.40742  1.40402  -0.941426  0.00538927  -0.0155567  -0.0219495  -0.0802272  -0.0703328  0.0119068  0.0888454  -0.0636059  -0.00359363  -0.839242  0.748239  -0.0523968 
1701777763.467002000  0  0  11.1562  0.00270146  -0.0685127  0.00744444  nan  nan  nan  nan  nan  nan  -1.97881  -0.979513  1.47772  -0.241569  0.198894  -0.0416042  0.221088  0.217818  -0.193276  0  0  0  1.41883  1.41565  -0.937949  0.00511866  -0.0158905  -0.0219514  -0.0793927  -0.0697782  0.0156473  0.0867507  -0.0616321  -0.00365863  -0.803509  0.704041  -0.0564692 
1701777763.471406000  0  0  11.2153  0.0248829  -0.0847384  0.00731451  nan  nan  nan  nan  nan  nan  -1.97769  -0.978406  1.47674  -0.243839  0.201537  -0.0425051  0.228209  0.224924  -0.197955  0  0  0  1.42949  1.42652  -0.933721  0.00462948  -0.0163343  -0.0218068  -0.0816011  -0.0712599  0.0121965  0.085015  -0.0610122  -0.0035972  -0.831904  0.730789  -0.0554594 
1701777763.476371000  0  0  11.1983  0.0301465  -0.093257  0.00751767  nan  nan  nan  nan  nan  nan  -1.97653  -0.977263  1.47574  -0.246872  0.20352  -0.0434191  0.235381  0.232082  -0.202612  0  0  0  1.4394  1.43664  -0.928744  0.00424915  -0.0167768  -0.0217431  -0.0816313  -0.0718165  0.015117  0.0837116  -0.0594572  -0.00347113  -0.83044  0.73352  -0.0592597 
1701777763.481371000  0  0  11.164  0.00907953  -0.0788166  0.00825761  nan  nan  nan  nan  nan  nan  -1.97533  -0.976085  1.47472  -0.249016  0.20573  -0.0442098  0.242602  0.239289  -0.207241  0  0  0  1.44856  1.44602  -0.923017  0.00384204  -0.0171263  -0.0216405  -0.0815324  -0.0711475  0.0192369  0.0822522  -0.0585432  -0.00358646  -0.774879  0.696231  -0.0673556 
1701777763.486353000  0  0  11.2379  0.029752  -0.0998275  0.00755987  nan  nan  nan  nan  nan  nan  -1.9741  -0.97487  1.47367  -0.250468  0.206829  -0.0445807  0.249866  0.246541  -0.21184  0  0  0  1.45697  1.45464  -0.916539  0.00344905  -0.0175777  -0.0216009  -0.0826035  -0.0724945  0.0147685  0.0795678  -0.0560626  -0.00366888  -0.791527  0.715431  -0.0578096 
1701777763.491356000  0  0  11.2181  0.0258466  -0.102846  0.00741043  nan  nan  nan  nan  nan  nan  -1.97283  -0.973619  1.4726  -0.252935  0.208566  -0.0453386  0.25717  0.253834  -0.216405  0  0  0  1.46463  1.46251  -0.909312  0.0030461  -0.0180227  -0.0214845  -0.0824655  -0.0726059  0.0178644  0.0781399  -0.0544423  -0.00358278  -0.77058  0.706561  -0.0568025 
1701777763.496348000  0  0  11.2002  0.0023089  -0.0963447  0.00790364  nan  nan  nan  nan  nan  nan  -1.97153  -0.972332  1.47151  -0.254502  0.210153  -0.0458671  0.264511  0.261165  -0.220932  0  0  0  1.47154  1.46964  -0.901334  0.00264182  -0.0183798  -0.0213769  -0.0822143  -0.0720171  0.0206838  0.0765354  -0.0529007  -0.00375316  -0.708743  0.679376  -0.061264 
1701777763.501353000  0  0  11.2753  0.0221761  -0.114574  0.00777166  nan  nan  nan  nan  nan  nan  -1.97019  -0.971008  1.47039  -0.255617  0.210736  -0.0460438  0.271884  0.26853  -0.225417  0  0  0  1.4777  1.47601  -0.892607  0.00224755  -0.018849  -0.0213341  -0.0829719  -0.0733567  0.016169  0.0738835  -0.0500764  -0.00393643  -0.72408  0.689851  -0.0577815 
1701777763.506353000  0  0  11.2492  0.00545045  -0.112861  0.00785167  nan  nan  nan  nan  nan  nan  -1.96881  -0.969647  1.46925  -0.257665  0.212113  -0.0466343  0.279286  0.275924  -0.229857  0  0  0  1.48311  1.48164  -0.88313  0.0018448  -0.0193003  -0.0212148  -0.0825006  -0.0731185  0.0198013  0.0726959  -0.0483424  -0.00395361  -0.679703  0.670471  -0.0586098 
1701777763.511360000  0  0  11.2515  -0.0130866  -0.110597  0.00797805  nan  nan  nan  nan  nan  nan  -1.96739  -0.968248  1.46809  -0.258676  0.213081  -0.0468913  0.286714  0.283345  -0.234248  0  0  0  1.48776  1.48651  -0.872902  0.00143229  -0.0196624  -0.0211111  -0.0821927  -0.0727845  0.0210169  0.0709256  -0.0462662  -0.0041895  -0.626342  0.646843  -0.0578306 
1701777763.516351000  0  0  11.3145  0.00294614  -0.128007  0.00780954  nan  nan  nan  nan  nan  nan  -1.96594  -0.966813  1.46691  -0.259764  0.213334  -0.0469824  0.294163  0.290788  -0.238585  0  0  0  1.49167  1.49063  -0.861925  0.00102294  -0.0201563  -0.021035  -0.0825361  -0.074084  0.017505  0.0687247  -0.043297  -0.00435522  -0.638159  0.654347  -0.0540671 
1701777763.521352000  0  0  11.314  -0.0124071  -0.121108  0.00802665  nan  nan  nan  nan  nan  nan  -1.96445  -0.965341  1.46571  -0.260388  0.21424  -0.0471386  0.301629  0.29825  -0.242866  0  0  0  1.49483  1.49401  -0.850197  0.000612878  -0.0205187  -0.020934  -0.0822617  -0.0734251  0.0189967  0.0667184  -0.0412866  -0.00464089  -0.588995  0.622053  -0.0539243 
1701777763.526354000  0  0  11.3062  -0.0264951  -0.116921  0.0076594  nan  nan  nan  nan  nan  nan  -1.96293  -0.963831  1.46448  -0.261714  0.214841  -0.0473767  0.30911  0.305727  -0.247086  0  0  0  1.49724  1.49663  -0.83772  0.000213471  -0.0209903  -0.0208122  -0.0816028  -0.0732904  0.0211456  0.0655456  -0.0392173  -0.00471559  -0.550029  0.594642  -0.0485867 
1701777763.531358000  0  0  11.3757  -0.0156098  -0.126909  0.00778949  nan  nan  nan  nan  nan  nan  -1.96136  -0.962283  1.46324  -0.262203  0.214661  -0.0472211  0.316601  0.313215  -0.251241  0  0  0  1.4989  1.4985  -0.824493  -0.000215124  -0.0214885  -0.020751  -0.0817842  -0.0744405  0.0171275  0.0633111  -0.0362248  -0.00499394  -0.551243  0.587086  -0.0474292 
1701777763.536349000  0  0  11.3668  -0.0278502  -0.122059  0.00852789  nan  nan  nan  nan  nan  nan  -1.95976  -0.960698  1.46197  -0.262066  0.21527  -0.0471292  0.324098  0.32071  -0.255329  0  0  0  1.49981  1.49963  -0.810515  -0.00062038  -0.0218499  -0.0206353  -0.08119  -0.0729986  0.019224  0.06101  -0.0341665  -0.00545599  -0.505592  0.558449  -0.0520388 
1701777763.541369000  0  0  11.341  -0.0293675  -0.116176  0.00908788  nan  nan  nan  nan  nan  nan  -1.95812  -0.959076  1.46068  -0.263055  0.215574  -0.047215  0.331597  0.32821  -0.259345  0  0  0  1.5  1.5  -0.795788  -0.00102735  -0.0223358  -0.0204948  -0.0799688  -0.0722764  0.0228233  0.0596751  -0.0321254  -0.00570643  -0.490276  0.527905  -0.0565342 
1701777763.546354000  0  0  11.408  -0.0114103  -0.116716  0.00965611  nan  nan  nan  nan  nan  nan  -1.95644  -0.957416  1.45938  -0.262096  0.215128  -0.0466592  0.339097  0.33571  -0.263286  0  0  0  1.5  1.5  -0.780311  -0.00143819  -0.0227061  -0.0204258  -0.0799103  -0.0722295  0.0188357  0.0563016  -0.0292342  -0.00638428  -0.495154  0.502388  -0.0568587 
1701777763.551359000  0  0  11.4018  -0.0184188  -0.116686  0.00953503  nan  nan  nan  nan  nan  nan  -1.95473  -0.955719  1.45805  -0.262339  0.215527  -0.0465989  0.346597  0.34321  -0.267147  0  0  0  1.5  1.5  -0.764083  -0.00184927  -0.0231878  -0.0202994  -0.0792584  -0.071231  0.0209088  0.0544844  -0.0273773  -0.00669918  -0.464419  0.485243  -0.0521961 
1701777763.556351000  0  0  11.3813  -0.0168275  -0.103719  0.00933806  nan  nan  nan  nan  nan  nan  -1.95298  -0.953984  1.4567  -0.263118  0.215638  -0.0465863  0.354097  0.35071  -0.270926  0  0  0  1.5  1.5  -0.747106  -0.00226098  -0.0236808  -0.0201427  -0.0779297  -0.0704796  0.0241617  0.0531059  -0.0256584  -0.00689823  -0.454919  0.443496  -0.0477434 
1701777763.561353000  0  0  11.458  -0.00330424  -0.0967728  0.0094993  nan  nan  nan  nan  nan  nan  -1.95119  -0.952212  1.45534  -0.261508  0.215098  -0.0458576  0.361597  0.35821  -0.274617  0  0  0  1.5  1.5  -0.729378  -0.00265755  -0.0240355  -0.0200749  -0.0779869  -0.0699965  0.019423  0.0494317  -0.0232004  -0.00761315  -0.448163  0.406989  -0.0426098 
1701777763.566355000  0  0  11.4491  0.00310613  -0.0957856  0.00914423  nan  nan  nan  nan  nan  nan  -1.94936  -0.950402  1.45396  -0.261554  0.21548  -0.0457478  0.369097  0.36571  -0.278218  0  0  0  1.5  1.5  -0.710901  -0.00307961  -0.0245144  -0.0199292  -0.0772199  -0.0687097  0.0218171  0.0473716  -0.0217907  -0.00789305  -0.442031  0.392046  -0.0353724 
1701777763.571364000  0  0  11.4013  0.00901279  -0.0786135  0.00908561  nan  nan  nan  nan  nan  nan  -1.9475  -0.948555  1.45256  -0.261591  0.215342  -0.0455003  0.376597  0.37321  -0.281772  0  0  0  1.5  1.5  -0.710526  -0.00344417  -0.0248454  -0.019791  -0.0749698  -0.0667321  0.025426  0.0453348  -0.0201922  -0.00821562  -0.435106  0.342995  -0.031414 
1701777763.576350000  0  0  11.4499  0.0156686  -0.0755584  0.00865313  nan  nan  nan  nan  nan  nan  -1.9456  -0.94667  1.45114  -0.261097  0.215707  -0.0452625  0.384097  0.38071  -0.285322  0  0  0  1.5  1.5  -0.709401  -0.00389444  -0.0253367  -0.0196566  -0.0754805  -0.0663804  0.0215023  0.0428751  -0.0191482  -0.00852915  -0.425788  0.32728  -0.0228726 
1701777763.581371000  0  0  11.4279  0.0274313  -0.0818633  0.00866439  nan  nan  nan  nan  nan  nan  -1.94366  -0.944748  1.4497  -0.26041  0.216025  -0.0449683  0.391597  0.38821  -0.288865  0  0  0  1.5  1.5  -0.707526  -0.0042623  -0.0256518  -0.0195324  -0.074389  -0.0642484  0.0231802  0.0401493  -0.017714  -0.00892629  -0.424236  0.326695  -0.0190419 
1701777763.586353000  0  0  11.3615  0.0220212  -0.0523091  0.00936072  nan  nan  nan  nan  nan  nan  -1.94168  -0.942788  1.44825  -0.261365  0.215948  -0.044947  0.399097  0.39571  -0.292396  0  0  0  1.5  1.5  -0.704901  -0.00467116  -0.0261253  -0.0193506  -0.0717415  -0.0625276  0.0285387  0.0392447  -0.0169228  -0.0090784  -0.405093  0.260308  -0.026225 
1701777763.591361000  0  0  11.4378  0.0258363  -0.062434  0.0101324  nan  nan  nan  nan  nan  nan  -1.93967  -0.940791  1.44678  -0.26029  0.216055  -0.0445092  0.406597  0.40321  -0.295912  0  0  0  1.5  1.5  -0.701526  -0.00510989  -0.0265906  -0.0192422  -0.072591  -0.0623573  0.0225131  0.0364934  -0.0157182  -0.00965245  -0.387412  0.269475  -0.0301311 
1701777763.596351000  0  0  11.4035  0.037262  -0.0722908  0.0104097  nan  nan  nan  nan  nan  nan  -1.93761  -0.938756  1.44529  -0.259714  0.215974  -0.0441369  0.414097  0.41071  -0.29941  0  0  0  1.5  1.5  -0.697401  -0.00547428  -0.026896  -0.0190961  -0.0707128  -0.0600992  0.0252544  0.034059  -0.0140882  -0.010106  -0.387866  0.274193  -0.029061 
1701777763.601356000  0  0  11.3514  0.0196814  -0.0341357  0.0109475  nan  nan  nan  nan  nan  nan  -1.93553  -0.936684  1.44379  -0.259978  0.215819  -0.0439376  0.421597  0.41821  -0.302885  0  0  0  1.5  1.5  -0.692526  -0.00587019  -0.0273091  -0.0189323  -0.0683062  -0.0581214  0.0295541  0.0329768  -0.0135918  -0.0104191  -0.342749  0.193316  -0.0326525 
1701777763.606353000  0  0  11.4409  0.0257751  -0.0635479  0.0113125  nan  nan  nan  nan  nan  nan  -1.9334  -0.934574  1.44226  -0.258913  0.215897  -0.0434951  0.429097  0.42571  -0.306334  0  0  0  1.5  1.5  -0.686901  -0.00633152  -0.027804  -0.0188046  -0.0693967  -0.0582648  0.0226317  0.0304946  -0.0123038  -0.0109759  -0.332101  0.24029  -0.0316467 
1701777763.611357000  0  0  11.411  0.0320744  -0.0673824  0.0106745  nan  nan  nan  nan  nan  nan  -1.93123  -0.932426  1.44072  -0.258195  0.21526  -0.0429485  0.436597  0.43321  -0.309753  0  0  0  1.5  1.5  -0.680526  -0.00666831  -0.0280862  -0.0186628  -0.0669778  -0.0560917  0.0250926  0.0283032  -0.0104017  -0.0113408  -0.324538  0.23046  -0.020024 
1701777763.616344000  0  0  11.3793  0.00723737  -0.044286  0.0110061  nan  nan  nan  nan  nan  nan  -1.92903  -0.930242  1.43917  -0.258134  0.215111  -0.0426778  0.444097  0.44071  -0.313138  0  0  0  1.5  1.5  -0.673401  -0.00706739  -0.0285071  -0.0184863  -0.065055  -0.0542864  0.027896  0.0274282  -0.00985013  -0.0116442  -0.266814  0.179193  -0.0211342 
1701777763.621370000  0  0  11.4762  0.0188338  -0.0839192  0.0105511  nan  nan  nan  nan  nan  nan  -1.92679  -0.928019  1.43759  -0.25563  0.214249  -0.0416709  0.451597  0.44821  -0.316486  0  0  0  1.5  1.5  -0.665526  -0.00739804  -0.0287763  -0.0184213  -0.0653181  -0.0535343  0.0202271  0.0238995  -0.0072704  -0.012336  -0.257543  0.234726  -0.00852895 
1701777763.626351000  0  0  11.456  0.0101448  -0.0857768  0.010709  nan  nan  nan  nan  nan  nan  -1.92452  -0.92576  1.436  -0.255723  0.213814  -0.0413637  0.459097  0.45571  -0.319792  0  0  0  1.5  1.5  -0.656901  -0.00777079  -0.0291989  -0.0182276  -0.0633759  -0.0522576  0.0222169  0.0231042  -0.00583545  -0.0125296  -0.232848  0.22524  -0.00856629 
1701777763.631822000  0  0  11.4441  -0.01775  -0.0704521  0.0111195  nan  nan  nan  nan  nan  nan  -1.9222  -0.923462  1.43439  -0.254348  0.21251  -0.0405062  0.466597  0.46321  -0.323053  0  0  0  1.5  1.5  -0.647526  -0.00800863  -0.0294536  -0.0181818  -0.0607422  -0.0499606  0.0234254  0.0215687  -0.00395763  -0.0130275  -0.162932  0.177314  -0.00871882 
1701777763.636404000  0  0  11.5482  -0.00614669  -0.106432  0.0104743  nan  nan  nan  nan  nan  nan  -1.91985  -0.921127  1.43277  -0.253069  0.212119  -0.0399047  0.474097  0.47071  -0.326266  0  0  0  1.5  1.5  -0.637401  -0.00849591  -0.0298899  -0.0180126  -0.0614847  -0.0503817  0.015511  0.0196003  -0.00200226  -0.0133972  -0.168029  0.231284  0.00304243 
1701777763.641405000  0  0  11.5074  -0.0197401  -0.0995878  0.0105415  nan  nan  nan  nan  nan  nan  -1.91746  -0.918755  1.43113  -0.253368  0.211757  -0.0396657  0.481597  0.47821  -0.329426  0  0  0  1.5  1.5  -0.626526  -0.00889631  -0.0303063  -0.0178403  -0.0591072  -0.0488097  0.019432  0.0194932  -0.000863948  -0.0134755  -0.139857  0.207124  0.00298598 
1701777763.646403000  0  0  11.5132  -0.0387208  -0.0957212  0.0113595  nan  nan  nan  nan  nan  nan  -1.91503  -0.916345  1.42948  -0.251666  0.210453  -0.0387446  0.489097  0.48571  -0.33253  0  0  0  1.5  1.5  -0.614901  -0.00918709  -0.0305434  -0.0177429  -0.0567601  -0.0466338  0.0192642  0.0179419  0.00128064  -0.014066  -0.0876234  0.17966  -0.00133407 
1701777763.651402000  0  0  11.591  -0.0214932  -0.129443  0.0106964  nan  nan  nan  nan  nan  nan  -1.91257  -0.913898  1.42781  -0.250871  0.209901  -0.0382177  0.496597  0.49321  -0.335574  0  0  0  1.5  1.5  -0.602526  -0.00959077  -0.0309865  -0.0176417  -0.0568667  -0.0469009  0.013839  0.0166243  0.00322023  -0.0142825  -0.109957  0.229259  0.00912078 
1701777763.656869000  0  0  11.5291  -0.0372628  -0.117376  0.0105383  nan  nan  nan  nan  nan  nan  -1.91007  -0.911413  1.42612  -0.24966  0.208477  -0.0373845  0.504097  0.50071  -0.338554  0  0  0  1.5  1.5  -0.589401  -0.00975001  -0.0311678  -0.0176002  -0.0530983  -0.0436288  0.0193592  0.0155225  0.00537555  -0.0145737  -0.0682811  0.185297  0.0140081 
1701777763.661419000  0  0  11.5403  -0.0473466  -0.105509  0.0110785  nan  nan  nan  nan  nan  nan  -1.90753  -0.908891  1.42442  -0.249074  0.208089  -0.0369497  0.511597  0.50821  -0.341467  0  0  0  1.5  1.5  -0.575526  -0.0102175  -0.0315899  -0.0173626  -0.0517262  -0.0423923  0.0191156  0.0150562  0.00627085  -0.0148765  -0.0438243  0.153326  0.0102842 
1701777763.666407000  0  0  11.6071  -0.027702  -0.125526  0.0107497  nan  nan  nan  nan  nan  nan  -1.90495  -0.906331  1.42271  -0.248077  0.207392  -0.0363506  0.519097  0.51571  -0.344308  0  0  0  1.5  1.5  -0.560901  -0.0106047  -0.0320153  -0.0172403  -0.0513981  -0.0421624  0.0146417  0.013712  0.00796134  -0.0150931  -0.0707464  0.177808  0.0165596 
1701777763.671415000  0  0  11.5516  -0.0440119  -0.104403  0.0118124  nan  nan  nan  nan  nan  nan  -1.90234  -0.903734  1.42098  -0.246363  0.20623  -0.0354843  0.526597  0.52321  -0.347075  0  0  0  1.5  1.5  -0.545526  -0.010835  -0.0322008  -0.0171125  -0.0479561  -0.0384279  0.0196354  0.0123211  0.00951037  -0.0156542  -0.0253305  0.121311  0.00888722 
