ts fx fy fz tx ty tz exfx exfy exfz extx exty extz xd yd zd rolld pitchd yawd vxd vyd vzd wxd wyd wzd axd ayd azd e_x e_y e_z e_vx e_vy e_vz e_rx e_ry e_rz e_wx e_wy e_wz
1701274855.292111000  0  0  15.9091  0.0502776  -0.0276547  0.00697692  nan  nan  nan  nan  nan  nan  -1.5  0  1  -0.00427314  -0.00402437  1.71968e-05  0  0  0  0  0  0  0  0  0  0.00428859  -0.000736206  -0.0405225  -0.00492506  -0.00394901  0.00460406  -0.00642213  -0.00345954  -0.00570104  -0.0155577  0.088955  -0.00654842 
1701274855.296401000  0  0  15.8759  0.0585992  -0.0275008  0.00703686  nan  nan  nan  nan  nan  nan  -1.5  0  1  -0.00404757  -0.00439067  1.77716e-05  0  0  0  0  0  0  0  0  0  0.00427879  -0.00075525  -0.0405409  -0.00442348  -0.00359002  0.00674755  -0.00687173  -0.00275581  -0.00572666  -0.0251854  0.0805895  -0.00705487 
1701274855.301092000  0  0  15.8923  0.0618291  -0.0331044  0.00656185  nan  nan  nan  nan  nan  nan  -1.5  0  1  -0.00341511  -0.00435763  1.48818e-05  0  0  0  0  0  0  0  0  0  0.00425566  -0.000765247  -0.0405267  -0.00440598  -0.002726  0.00566888  -0.00758583  -0.00235901  -0.00566465  -0.0227175  0.0859912  -0.000321064 
1701274855.306098000  0  0  15.8498  0.0808286  -0.0281583  0.00673089  nan  nan  nan  nan  nan  nan  -1.5  0  1  -0.00342515  -0.00488041  1.67161e-05  0  0  0  0  0  0  0  0  0  0.00427977  -0.000781581  -0.0404935  -0.00378243  -0.00268789  0.00828685  -0.00800693  -0.00164169  -0.00572068  -0.0516603  0.0689478  -0.00206261 
1701274855.311093000  0  0  15.8578  0.0849109  -0.0279998  0.00704793  nan  nan  nan  nan  nan  nan  -1.5  0  1  -0.00283201  -0.00466019  1.31977e-05  0  0  0  0  0  0  0  0  0  0.0042569  -0.000789893  -0.0404654  -0.0040179  -0.00187897  0.00770209  -0.00883399  -0.00154056  -0.00577089  -0.0494093  0.0675031  -0.00638698 
1701274855.316082000  0  0  15.8521  0.0928335  -0.0246932  0.00722325  nan  nan  nan  nan  nan  nan  -1.5  0  1  -0.00278895  -0.00526282  1.46777e-05  0  0  0  0  0  0  0  0  0  0.00431472  -0.000825603  -0.0404176  -0.00335544  -0.00173431  0.00795291  -0.00924749  -0.000868457  -0.0058487  -0.0587425  0.0538952  -0.00781345 
1701274855.321078000  0  0  15.825  0.103769  -0.0185252  0.00665659  nan  nan  nan  nan  nan  nan  -1.5  0  1  -0.00248722  -0.00553181  1.37588e-05  0  0  0  0  0  0  0  0  0  0.00434729  -0.000834912  -0.0403562  -0.00308761  -0.00130387  0.00952866  -0.0100117  -0.000603777  -0.0057983  -0.0694007  0.0398838  0.000674092 
1701274855.326111000  0  0  15.8462  0.10257  -0.00930944  0.00583273  nan  nan  nan  nan  nan  nan  -1.5  0  1  -0.00213782  -0.00535423  1.14463e-05  0  0  0  0  0  0  0  0  0  0.00432947  -0.000839773  -0.0403268  -0.0032716  -0.000830859  0.00810753  -0.0105983  -0.000748778  -0.00564727  -0.0605247  0.0251638  0.0115151 
1701274855.331096000  0  0  15.8066  0.109795  0.00138001  0.00596347  nan  nan  nan  nan  nan  nan  -1.5  0  1  -0.00183249  -0.00563881  1.0333e-05  0  0  0  0  0  0  0  0  0  0.00435687  -0.000840083  -0.0402673  -0.00297682  -0.000416975  0.0104735  -0.0112855  -0.000662696  -0.00562406  -0.0654681  0.00516613  0.00888504 
1701274855.336034000  0  0  15.8059  0.114688  0.000853843  0.00594836  nan  nan  nan  nan  nan  nan  -1.5  0  1  -0.0014477  -0.00545274  7.89389e-06  0  0  0  0  0  0  0  0  0  0.00434022  -0.000840119  -0.040223  -0.00318452  9.4875e-05  0.0104087  -0.0119997  -0.000791712  -0.00558414  -0.0659573  0.00758526  0.00836771 
1701274855.341031000  0  0  15.7936  0.118983  0.00112568  0.00589584  nan  nan  nan  nan  nan  nan  -1.5  0  1  -0.00111267  -0.00537655  5.98229e-06  0  0  0  0  0  0  0  0  0  0.00432414  -0.000838539  -0.0401693  -0.00325267  0.00053772  0.0110556  -0.0126639  -0.000833751  -0.00553867  -0.0659573  0.00758526  0.00836771 
1701274855.346186000  0  0  15.8665  0.116631  0.0304178  0.0061322  nan  nan  nan  nan  nan  nan  -1.5  0  1  -0.0007495  -0.00408263  3.05992e-06  0  0  0  0  0  0  0  0  0  0.0042986  -0.000825601  -0.0401748  -0.00488546  0.000984543  0.00642941  -0.0132201  -0.00271676  -0.0055583  -0.055379  -0.0228498  0.00480072 
1701274855.351174000  0  0  15.876  0.109586  0.0349697  0.00565568  nan  nan  nan  nan  nan  nan  -1.5  0  1  -0.000907408  -0.00419672  3.80812e-06  0  0  0  0  0  0  0  0  0  0.00428222  -0.000817855  -0.0401577  -0.00469041  0.000754405  0.00578917  -0.0132246  -0.00277341  -0.00542826  -0.0428007  -0.0302925  0.0102481 
1701274855.356107000  0  0  15.8409  0.10526  0.0645905  0.00556464  nan  nan  nan  nan  nan  nan  -1.5  0  1  -0.00089227  -0.00396097  3.53424e-06  0  0  0  0  0  0  0  0  0  0.00425469  -0.000800652  -0.0401331  -0.00495079  0.000735888  0.00794965  -0.0133647  -0.00373599  -0.00534976  -0.0334977  -0.0718956  0.0102542 
1701274855.361088000  0  0  15.8881  0.10537  0.0539394  0.0054668  nan  nan  nan  nan  nan  nan  -1.5  0  1  -0.000409186  -0.00321154  1.31412e-06  0  0  0  0  0  0  0  0  0  0.00422355  -0.000791537  -0.0401235  -0.00586194  0.00135617  0.00492683  -0.0139239  -0.00448341  -0.00529263  -0.0272624  -0.0443616  0.010786 
1701274855.366098000  0  0  15.8605  0.0978939  0.0721497  0.00582233  nan  nan  nan  nan  nan  nan  -1.5  0  1  -0.000901475  -0.00341513  3.07865e-06  0  0  0  0  0  0  0  0  0  0.00419434  -0.000784044  -0.0401102  -0.00552751  0.000682193  0.00665091  -0.0134925  -0.00481328  -0.00530755  -0.0189295  -0.0729499  0.00513878 
1701274855.370117000  0  0  15.8534  0.0904764  0.0824091  0.00598445  nan  nan  nan  nan  nan  nan  -1.5  0  1  -0.000971936  -0.00328904  3.19673e-06  0  0  0  0  0  0  0  0  0  0.00417223  -0.000781666  -0.0400806  -0.00564454  0.000583025  0.00702715  -0.0133501  -0.0053882  -0.00532308  -0.00737754  -0.0845824  0.00273203 
1701274855.376056000  0  0  15.9203  0.0723905  0.0566226  0.00525858  nan  nan  nan  nan  nan  nan  -1.5  0  1  -0.000801646  -0.00268379  2.15145e-06  0  0  0  0  0  0  0  0  0  0.00411927  -0.000767966  -0.0401123  -0.00630943  0.00077271  0.00286272  -0.0132069  -0.00581491  -0.00517037  0.0231364  -0.0338226  0.0119048 
1701274855.381163000  0  0  15.8837  0.0656198  0.076845  0.00529173  nan  nan  nan  nan  nan  nan  -1.5  0  1  -0.00136006  -0.00272597  3.70749e-06  0  0  0  0  0  0  0  0  0  0.00407958  -0.000770001  -0.0400984  -0.0061659  3.38225e-05  0.00515312  -0.012488  -0.00634124  -0.00512614  0.0269101  -0.0637297  0.0104985 
1701274855.386039000  0  0  15.9083  0.05819  0.0566281  0.00553217  nan  nan  nan  nan  nan  nan  -1.5  -0  1  -0.00120903  -0.00205907  2.48948e-06  6e-07  -6e-07  6e-07  0  0  0  0.000375  -0.000375  0.000375  0.00404345  -0.000766836  -0.0400873  -0.00691929  0.000178854  0.0036028  -0.0123626  -0.00680519  -0.00512494  0.038679  -0.0224454  0.00646152 
1701274855.391086000  0  0  15.9175  0.0367674  0.0528798  0.0060337  nan  nan  nan  nan  nan  nan  -1.5  -0  1  -0.00152309  -0.00243848  3.71403e-06  5e-06  -5e-06  5e-06  0  0  0  0.0015  -0.0015  0.0015  0.00400496  -0.000769044  -0.0401096  -0.00617701  -0.000377416  0.00318906  -0.0114869  -0.00647988  -0.00518246  0.0667032  -0.0195209  -0.000801467 
1701274855.396437000  0  0  15.9257  0.0422688  0.058735  0.00570398  nan  nan  nan  nan  nan  nan  -1.5  -1e-07  1  -0.00152113  -0.0021268  3.23514e-06  1.69e-05  -1.69e-05  1.69e-05  0  0  0  0.003375  -0.003375  0.003375  0.0039558  -0.000771674  -0.0401354  -0.00624131  -0.00060297  0.00290604  -0.011301  -0.00700544  -0.00513099  0.0547829  -0.0238895  0.00371014 
1701274855.401033000  0  0  15.9654  0.0363392  0.0387304  0.00618121  nan  nan  nan  nan  nan  nan  -1.5  -2e-07  1  -0.00121692  -0.00160277  1.85043e-06  4e-05  -4e-05  4e-05  0  0  0  0.006  -0.006  0.006  0.00392421  -0.000772097  -0.0401409  -0.00653531  -0.000525244  0.000646466  -0.0112362  -0.00712604  -0.00520192  0.0645818  0.0130693  -0.00288865 
1701274855.406041000  0  0  15.9405  0.0297436  0.0496225  0.00631621  nan  nan  nan  nan  nan  nan  -1.5  -5e-07  1  -0.00172938  -0.00194471  3.06315e-06  7.81e-05  -7.81e-05  7.81e-05  0  0  0  0.009375  -0.009375  0.009375  0.00392071  -0.00079749  -0.040139  -0.00565146  -0.00156912  0.00254467  -0.0103359  -0.00710933  -0.00526987  0.0659586  -0.00649097  -0.0038321 
1701274855.411085000  0  0  15.9744  0.0452591  0.0201708  0.00676432  nan  nan  nan  nan  nan  nan  -1.5  -1e-06  1  -0.00081608  -0.00101467  3.28049e-07  0.000135  -0.000135  0.000135  0  0  0  0.0135  -0.0135  0.0135  0.00388583  -0.000796951  -0.040141  -0.00629841  -0.000861501  0.000775495  -0.0111675  -0.00735489  -0.00536336  0.0479307  0.0487032  -0.00950991 
1701274855.416098000  0  0  15.9347  0.0385739  0.0284329  0.0069511  nan  nan  nan  nan  nan  nan  -1.5  -1.9e-06  1  -0.00113599  -0.0013443  5.27115e-07  0.0002144  -0.0002144  0.0002144  0  0  0  0.018375  -0.018375  0.018375  0.00386428  -0.000831636  -0.0401466  -0.0052011  -0.00181123  0.00376936  -0.0105437  -0.00700402  -0.00544086  0.0526464  0.0299772  -0.0111338 
1701274855.421473000  0  0  15.945  0.0451819  0.0265652  0.00670746  nan  nan  nan  nan  nan  nan  -1.5  -3.2e-06  1  -0.000791807  -0.000935084  -9.59593e-07  0.00032  -0.00032  0.00032  0  0  0  0.024  -0.024  0.024  0.00384341  -0.000864444  -0.0401561  -0.00499837  -0.00197197  0.00366607  -0.0107383  -0.00723235  -0.00545739  0.0431327  0.0359237  -0.00674789 
1701274855.426041000  0  0  15.9794  0.0449275  0.00463137  0.00637475  nan  nan  nan  nan  nan  nan  -1.49999  -5.1e-06  1.00001  -3.1454e-05  -0.000349804  -2.689e-06  0.0004556  -0.0004556  0.0004556  0  0  0  0.030375  -0.030375  0.030375  0.00381158  -0.00086999  -0.0401672  -0.00491225  -0.00173243  0.00210281  -0.0112254  -0.0071249  -0.00541204  0.0491865  0.0736907  -0.00206826 
1701274855.431085000  0  0  15.9372  0.0493711  0.0122169  0.00668207  nan  nan  nan  nan  nan  nan  -1.49999  -7.8e-06  1.00001  0.000337949  -0.00046094  -4.35577e-06  0.000625  -0.000625  0.000625  0  0  0  0.0375  -0.0375  0.0375  0.00380688  -0.000897135  -0.0401551  -0.00386605  -0.00205886  0.0054179  -0.0114105  -0.00685079  -0.00547267  0.0434137  0.0570503  -0.00602943 
1701274855.436043000  0  0  15.9667  0.0635652  -0.00594208  0.00650255  nan  nan  nan  nan  nan  nan  -1.49999  -1.14e-05  1.00001  0.00167938  0.000699547  -4.92519e-06  0.0008319  -0.0008319  0.0008319  0  0  0  0.045375  -0.045375  0.045375  0.00378407  -0.000899816  -0.040142  -0.00438851  -0.00123002  0.00424037  -0.0126854  -0.00725842  -0.0054634  0.032833  0.0940276  -0.00321148 
1701274855.441092000  0  0  15.945  0.0593123  -0.00182468  0.00659927  nan  nan  nan  nan  nan  nan  -1.49998  -1.62e-05  1.00002  0.00206845  0.000556164  -7.4496e-06  0.00108  -0.00108  0.00108  0  0  0  0.054  -0.054  0.054  0.00383355  -0.000936685  -0.0401203  -0.00323995  -0.00169636  0.00637533  -0.0127352  -0.00692446  -0.0055136  0.0409687  0.082866  -0.003858 
1701274855.446093000  0  0  15.9663  0.0791197  0.00460725  0.00630476  nan  nan  nan  nan  nan  nan  -1.49998  -2.23e-05  1.00002  0.00333353  0.00166167  -6.36076e-06  0.0013731  -0.0013731  0.0013731  0  0  0  0.063375  -0.063375  0.063375  0.00381964  -0.000941643  -0.0400925  -0.00352535  -0.00114846  0.00582095  -0.0140602  -0.00770217  -0.00548167  0.0209821  0.0803713  0.000442618 
1701274855.451085000  0  0  15.9933  0.0857858  -0.0048412  0.00622691  nan  nan  nan  nan  nan  nan  -1.49997  -3e-05  1.00003  0.0046472  0.00242987  -4.70782e-06  0.001715  -0.001715  0.001715  0  0  0  0.0735  -0.0735  0.0735  0.00383549  -0.000969911  -0.0400967  -0.00334036  -0.000565712  0.00505605  -0.0152875  -0.00784497  -0.00545563  0.0232408  0.0988145  0.00124017 
1701274855.456097000  0  0  15.9695  0.101386  0.0168591  0.00646337  nan  nan  nan  nan  nan  nan  -1.49996  -3.96e-05  1.00004  0.0055165  0.00284908  -5.38291e-06  0.0021094  -0.0021094  0.0021094  0  0  0  0.084375  -0.084375  0.084375  0.00387512  -0.000995417  -0.0400342  -0.00264007  -0.000699549  0.00742764  -0.0161903  -0.00827359  -0.0055036  0.00588106  0.0651558  -0.00178231 
1701274855.461084000  0  0  16.0212  0.117058  0.00355336  0.00631688  nan  nan  nan  nan  nan  nan  -1.49995  -5.12e-05  1.00005  0.00736821  0.00455734  6.27991e-06  0.00256  -0.00256  0.00256  0  0  0  0.096  -0.096  0.096  0.00385637  -0.000992307  -0.0400188  -0.00346298  0.00036602  0.00518626  -0.0180933  -0.00922546  -0.00548616  -0.000104939  0.0997611  0.000326851 
1701274855.466097000  0  0  16.015  0.120055  0.028757  0.00613967  nan  nan  nan  nan  nan  nan  -1.49993  -6.53e-05  1.00007  0.00855056  0.00495296  7.55143e-06  0.0030706  -0.0030706  0.0030706  0  0  0  0.108375  -0.108375  0.108375  0.00390862  -0.00100239  -0.0399674  -0.00257868  0.000439185  0.00660682  -0.0191337  -0.00973413  -0.00544955  0.00652926  0.0607932  0.00257913 
1701274855.471428000  0  0  16.0432  0.145205  0.0372021  0.00577424  nan  nan  nan  nan  nan  nan  -1.49992  -8.2e-05  1.00008  0.010507  0.00646363  2.42153e-05  0.003645  -0.003645  0.003645  0  0  0  0.1215  -0.1215  0.1215  0.00395136  -0.000995961  -0.0399198  -0.00309888  0.0014515  0.00591198  -0.0212742  -0.0110924  -0.00537947  -0.0135782  0.0613938  0.00732813 
1701274855.476045000  0  0  16.0725  0.142695  0.0371552  0.00541087  nan  nan  nan  nan  nan  nan  -1.4999  -0.0001018  1.0001  0.0124035  0.00827299  4.83182e-05  0.0042869  -0.0042869  0.0042869  0  0  0  0.135375  -0.135375  0.135375  0.00393198  -0.000985326  -0.0398982  -0.00378851  0.00228976  0.00528793  -0.0229142  -0.0123984  -0.0052921  0.00974192  0.0764951  0.0117094 
1701274855.481084000  0  0  16.0793  0.14105  0.0663623  0.00595439  nan  nan  nan  nan  nan  nan  -1.49988  -0.000125  1.00012  0.0139369  0.00950707  6.58059e-05  0.005  -0.005  0.005  0  0  0  0.15  -0.15  0.15  0.00393418  -0.000975384  -0.0398871  -0.00364805  0.00252735  0.00618951  -0.0241551  -0.013725  -0.00532421  0.026935  0.0398126  0.00325535 
1701274855.486046000  0  0  16.1195  0.152483  0.0621825  0.00631848  nan  nan  nan  nan  nan  nan  -1.49985  -0.0001519  1.00015  0.0161044  0.0118607  0.000110021  0.0057881  -0.0057881  0.0057881  0  0  0  0.165375  -0.165375  0.165375  0.00390478  -0.000958228  -0.0398702  -0.00488952  0.0035597  0.0050272  -0.0261509  -0.0155141  -0.00538879  0.0295543  0.067818  -0.00157724 
1701274855.491091000  0  0  16.122  0.135445  0.0926037  0.00687333  nan  nan  nan  nan  nan  nan  -1.49982  -0.000183  1.00018  0.0172794  0.0129696  0.000126522  0.006655  -0.006655  0.006655  0  0  0  0.1815  -0.1815  0.1815  0.00390682  -0.000957252  -0.0398628  -0.00439446  0.00314766  0.00635857  -0.0266945  -0.0167928  -0.00547887  0.0661013  0.0284257  -0.00910264 
1701274855.496533000  0  0  16.1988  0.142041  0.0884003  0.00654918  nan  nan  nan  nan  nan  nan  -1.49978  -0.0002186  1.00022  0.0193582  0.015249  0.000178618  0.0076044  -0.0076044  0.0076044  0  0  0  0.198375  -0.198375  0.198375  0.00388935  -0.000943075  -0.039888  -0.00544486  0.00395856  0.00312541  -0.0283352  -0.018649  -0.00546879  0.0732386  0.0572448  -0.00388581 
1701274855.501091000  0  0  16.251  0.13823  0.0903645  0.00664401  nan  nan  nan  nan  nan  nan  -1.49974  -0.0002592  1.00026  0.0212329  0.0173745  0.000230748  0.00864  -0.00864  0.00864  0  0  0  0.216  -0.216  0.216  0.00386071  -0.000923078  -0.0398852  -0.00615787  0.00436517  0.00146993  -0.0295956  -0.0202985  -0.00551328  0.0945081  0.0727188  -0.00461117 
1701274855.506099000  0  0  16.2707  0.135736  0.116273  0.00657682  nan  nan  nan  nan  nan  nan  -1.49969  -0.0003052  1.00031  0.0230772  0.0190314  0.000276442  0.0097656  -0.0097656  0.0097656  0  0  0  0.234375  -0.234375  0.234375  0.00386854  -0.000903242  -0.0398731  -0.00618898  0.00459085  0.00191748  -0.0306651  -0.0220485  -0.00553045  0.111242  0.0467712  -0.00315835 
1701274855.511082000  0  0  16.3358  0.142078  0.100103  0.00643024  nan  nan  nan  nan  nan  nan  -1.49964  -0.000357  1.00036  0.0251063  0.0214942  0.00034931  0.010985  -0.010985  0.010985  0  0  0  0.2535  -0.2535  0.2535  0.00383531  -0.000880234  -0.0398761  -0.00722169  0.00507017  -0.000387287  -0.0320682  -0.0236822  -0.00554285  0.116097  0.0943091  -0.000472543 
1701274855.516052000  0  0  16.3708  0.13734  0.11953  0.00666025  nan  nan  nan  nan  nan  nan  -1.49958  -0.0004152  1.00042  0.0266788  0.0231389  0.000396008  0.0123019  -0.0123019  0.0123019  0  0  0  0.273375  -0.273375  0.273375  0.0038323  -0.000886726  -0.0399221  -0.00707209  0.00485189  -0.000622852  -0.032898  -0.025132  -0.0055888  0.134063  0.0764348  -0.00342627 
1701274855.521477000  0  0  16.4434  0.134085  0.128191  0.00624946  nan  nan  nan  nan  nan  nan  -1.49952  -0.0004802  1.00048  0.0287659  0.0253514  0.000473378  0.01372  -0.01372  0.01372  0  0  0  0.294  -0.294  0.294  0.00383429  -0.000892115  -0.039983  -0.00771681  0.00534794  -0.00312345  -0.0340483  -0.0269356  -0.00553886  0.153079  0.0817724  0.0024684 
1701274855.526097000  0  0  16.4963  0.131363  0.102973  0.00563021  nan  nan  nan  nan  nan  nan  -1.49945  -0.0005526  1.00055  0.03065  0.0274312  0.000546423  0.0152431  -0.0152431  0.0152431  0  0  0  0.315375  -0.315375  0.315375  0.00379906  -0.000866664  -0.0400024  -0.0079751  0.00536795  -0.00437614  -0.0350292  -0.0279163  -0.00543637  0.169199  0.137893  0.0108296 
1701274855.531091000  0  0  16.5436  0.118182  0.116362  0.00562602  nan  nan  nan  nan  nan  nan  -1.49937  -0.0006328  1.00063  0.0327102  0.0293969  0.000624783  0.016875  -0.016875  0.016875  0  0  0  0.3375  -0.3375  0.3375  0.00380025  -0.000875207  -0.0400715  -0.00807384  0.00562292  -0.00508378  -0.0358755  -0.0293323  -0.00539322  0.202367  0.130366  0.0100676 
1701274855.536099000  0  0  16.6127  0.11592  0.0934585  0.0056353  nan  nan  nan  nan  nan  nan  -1.49928  -0.0007215  1.00072  0.0348109  0.0318926  0.000726769  0.0186194  -0.0186194  0.0186194  0  0  0  0.360375  -0.360375  0.360375  0.00375707  -0.000849264  -0.0401098  -0.0087878  0.00583645  -0.00714468  -0.036745  -0.0305027  -0.00538533  0.216388  0.184551  0.00976047 
1701274855.541096000  0  0  16.6316  0.11057  0.0817225  0.00633251  nan  nan  nan  nan  nan  nan  -1.49918  -0.0008192  1.00082  0.0363776  0.0333036  0.000776912  0.02048  -0.02048  0.02048  0  0  0  0.384  -0.384  0.384  0.0038424  -0.000896177  -0.040097  -0.00807888  0.00525353  -0.00607007  -0.0369624  -0.0308979  -0.0055044  0.2284  0.209964  0.000417538 
1701274855.546482000  0  0  16.6759  0.0930997  0.0790422  0.00670268  nan  nan  nan  nan  nan  nan  -1.49907  -0.0009265  1.00093  0.0383031  0.0349285  0.000847554  0.0224606  -0.0224606  0.0224606  0  0  0  0.408375  -0.408375  0.408375  0.00392739  -0.000949523  -0.0400848  -0.00765571  0.00518134  -0.00651201  -0.0370709  -0.0315237  -0.0056055  0.260713  0.221926  -0.00381243 
1701274855.551085000  0  0  16.7608  0.0997493  0.0551108  0.00687163  nan  nan  nan  nan  nan  nan  -1.49896  -0.001044  1.00104  0.0405745  0.0374635  0.000969239  0.024565  -0.024565  0.024565  0  0  0  0.4335  -0.4335  0.4335  0.0038902  -0.000919119  -0.0401337  -0.00826986  0.00545189  -0.00929975  -0.0381316  -0.0323691  -0.00568479  0.261085  0.274201  -0.00510399 
1701274855.556056000  0  0  16.789  0.0844151  0.0628219  0.00725102  nan  nan  nan  nan  nan  nan  -1.49883  -0.0011724  1.00117  0.0428931  0.0394933  0.00107769  0.0267969  -0.0267969  0.0267969  0  0  0  0.459375  -0.459375  0.459375  0.00395515  -0.000961811  -0.0401449  -0.00816643  0.00569927  -0.00849895  -0.0386513  -0.0332613  -0.00582214  0.294328  0.270748  -0.0087891 
1701274855.561102000  0  0  16.8167  0.0858626  0.0562598  0.00697913  nan  nan  nan  nan  nan  nan  -1.49869  -0.0013122  1.00131  0.0451173  0.0422008  0.00121711  0.02916  -0.02916  0.02916  0  0  0  0.486  -0.486  0.485993  0.00391572  -0.000940569  -0.0401708  -0.0086876  0.00557235  -0.0075426  -0.0392821  -0.0343174  -0.00585103  0.299008  0.29456  -0.00369335 
1701274855.566105000  0  0  16.8947  0.0846111  0.0535696  0.00657492  nan  nan  nan  nan  nan  nan  -1.49854  -0.0014642  1.00146  0.047474  0.0441256  0.00133211  0.031658  -0.0316581  0.0316565  0  0  0  0.513223  -0.513371  0.512473  0.00397006  -0.000971147  -0.0401953  -0.0084479  0.00587689  -0.00978185  -0.0399644  -0.0348032  -0.0058453  0.309079  0.30493  0.00294369 
1701274855.571102000  0  0  16.8991  0.0778947  0.0634574  0.00640792  nan  nan  nan  nan  nan  nan  -1.49837  -0.001629  1.00163  0.0503029  0.0471043  0.0015256  0.0342912  -0.0342935  0.0342835  0  0  0  0.539924  -0.54064  0.538204  0.00392061  -0.000942103  -0.0402182  -0.00926822  0.00643982  -0.00739876  -0.040899  -0.0362911  -0.00584032  0.331769  0.304457  0.00563553 
1701274855.576108000  0  0  16.9506  0.0887456  0.0585995  0.00674962  nan  nan  nan  nan  nan  nan  -1.49819  -0.0018074  1.00181  0.0524346  0.0494072  0.00166006  0.037056  -0.0370633  0.0370373  0  0  0  0.565875  -0.567159  0.563184  0.00396876  -0.000986277  -0.040227  -0.00964881  0.00649187  -0.00811528  -0.0414974  -0.0370108  -0.00590632  0.319355  0.32137  0.00120393 
1701274855.581104000  0  0  16.979  0.0755663  0.0654464  0.00736531  nan  nan  nan  nan  nan  nan  -1.498  -0.0019999  1.002  0.0550725  0.0518146  0.00183066  0.0399487  -0.0399638  0.0399141  0  0  0  0.591076  -0.592928  0.587414  0.00396165  -0.000986638  -0.040261  -0.0100602  0.00716368  -0.00733562  -0.042087  -0.0377102  -0.00598805  0.349569  0.317237  -0.00749813 
1701274855.586104000  0  0  17.0159  0.0823225  0.0545678  0.00788551  nan  nan  nan  nan  nan  nan  -1.49779  -0.0022072  1.00221  0.0574693  0.0547722  0.0020268  0.0429655  -0.0429913  0.0429102  0  0  0  0.615526  -0.617947  0.610894  0.00390482  -0.000954328  -0.0402971  -0.0112854  0.00755507  -0.00714147  -0.0427581  -0.0386922  -0.0061628  0.345272  0.347874  -0.0128128 
1701274855.591097000  0  0  17.054  0.0821224  0.055386  0.00769742  nan  nan  nan  nan  nan  nan  -1.49757  -0.00243  1.00243  0.0601498  0.0568577  0.00219535  0.0461027  -0.046142  0.0460218  0  0  0  0.639227  -0.642216  0.633625  0.003895  -0.000931189  -0.0403353  -0.0114867  0.00849059  -0.00707691  -0.0434775  -0.0388054  -0.00614499  0.3539  0.34772  -0.0100163 
1701274855.596484000  0  0  17.0612  0.0807725  0.0507803  0.00747775  nan  nan  nan  nan  nan  nan  -1.49733  -0.0026688  1.00267  0.0623437  0.0589685  0.00234194  0.0493565  -0.0494122  0.0492452  0  0  0  0.662178  -0.665734  0.655605  0.00390159  -0.000942814  -0.0403228  -0.0117123  0.00875617  -0.00522291  -0.0436217  -0.0387719  -0.00612168  0.357959  0.355525  -0.00679852 
1701274855.601099000  0  0  17.1268  0.0860069  0.0419257  0.00729724  nan  nan  nan  nan  nan  nan  -1.49708  -0.0029243  1.00292  0.065137  0.0616679  0.00256689  0.0527232  -0.0527981  0.0525766  0  0  0  0.684378  -0.688503  0.676835  0.00383027  -0.000879478  -0.0403775  -0.0130059  0.0101144  -0.00697195  -0.0447173  -0.0395061  -0.00616827  0.361248  0.379712  -0.00288709 
1701274855.606097000  0  0  17.1629  0.0795593  0.0516882  0.00777313  nan  nan  nan  nan  nan  nan  -1.4968  -0.003197  1.00319  0.0677647  0.0641694  0.00277677  0.0561991  -0.056296  0.0560123  0  0  0  0.705829  -0.710522  0.697315  0.00375696  -0.000827044  -0.0404091  -0.0139689  0.0112133  -0.0069594  -0.0452397  -0.0402425  -0.00630457  0.378721  0.37082  -0.00820322 
1701274855.611090000  0  0  17.1746  0.0927636  0.0367395  0.00786536  nan  nan  nan  nan  nan  nan  -1.49651  -0.0034874  1.00348  0.069667  0.066318  0.00292074  0.0597803  -0.0599021  0.0595485  0  0  0  0.72653  -0.731791  0.717046  0.00377145  -0.000832339  -0.0403393  -0.0145962  0.0113698  -0.00572161  -0.0454248  -0.0401893  -0.00637738  0.357369  0.396789  -0.00833911 
1701274855.616102000  0  0  17.2211  0.0705764  0.0429019  0.00809379  nan  nan  nan  nan  nan  nan  -1.49621  -0.0037962  1.00379  0.0719719  0.0676635  0.00303653  0.0634631  -0.0636127  0.0631815  0  0  0  0.746481  -0.75231  0.736026  0.00384871  -0.000854983  -0.0403255  -0.014505  0.0124591  -0.00660985  -0.0453826  -0.039738  -0.00647174  0.396337  0.380642  -0.010333 
1701274855.621097000  0  0  17.2512  0.0839374  0.0436877  0.00743568  nan  nan  nan  nan  nan  nan  -1.49588  -0.0041237  1.00411  0.073908  0.0699014  0.00319284  0.0672438  -0.0674239  0.0669075  0  0  0  0.765681  -0.772079  0.754256  0.00377401  -0.000799122  -0.0403476  -0.0153574  0.0128295  -0.00645334  -0.0455855  -0.0400645  -0.00640826  0.374911  0.382999  -0.000570815 
1701274855.626103000  0  0  17.2719  0.0761156  0.037818  0.00735034  nan  nan  nan  nan  nan  nan  -1.49553  -0.0044706  1.00446  0.0760059  0.071622  0.00332398  0.0711187  -0.0713322  0.0707228  0  0  0  0.784132  -0.791098  0.771737  0.00382325  -0.000819098  -0.0402944  -0.0157992  0.013661  -0.00593164  -0.0456965  -0.0397689  -0.00637545  0.390096  0.390038  0.000221131 
1701274855.631525000  0  0  17.2636  0.0651671  0.0350168  0.00756132  nan  nan  nan  nan  nan  nan  -1.49517  -0.0048372  1.00482  0.0775469  0.0729172  0.00338209  0.0750839  -0.0753337  0.0746236  0  0  0  0.801833  -0.809367  0.788467  0.00387887  -0.00084259  -0.0402116  -0.0155477  0.013606  -0.0037281  -0.0450098  -0.0390029  -0.00636847  0.401669  0.386212  -0.00343547 
1701274855.636107000  0  0  17.3131  0.0954455  0.0232085  0.0073691  nan  nan  nan  nan  nan  nan  -1.49478  -0.0052241  1.0052  0.0799423  0.075401  0.00359681  0.0791358  -0.0794246  0.0786062  0  0  0  0.818784  -0.826886  0.804447  0.0037668  -0.000745492  -0.0402673  -0.0170987  0.01497  -0.00489334  -0.0461222  -0.0393893  -0.00641106  0.360619  0.411652  0.000594293 
1701274855.641096000  0  0  17.3387  0.0730189  0.0261463  0.00754931  nan  nan  nan  nan  nan  nan  -1.49438  -0.0056316  1.00561  0.0823388  0.0772013  0.00376106  0.0832705  -0.0836013  0.0826668  0  0  0  0.834984  -0.843654  0.819677  0.00373896  -0.000692596  -0.0402706  -0.0178016  0.0163885  -0.00470015  -0.0461811  -0.0391169  -0.00643427  0.401175  0.403295  -0.00196638 
1701274855.646482000  0  0  17.3465  0.0878126  0.00994629  0.0069885  nan  nan  nan  nan  nan  nan  -1.49395  -0.0060602  1.00603  0.0836466  0.0784684  0.00379663  0.0874843  -0.0878599  0.0868017  0  0  0  0.850435  -0.859673  0.834158  0.00376848  -0.000704777  -0.0402281  -0.0178322  0.0163642  -0.00363782  -0.0458855  -0.0379604  -0.00636147  0.37147  0.418804  0.00599178 
1701274855.651084000  0  0  17.4013  0.085562  0.00786574  0.00686052  nan  nan  nan  nan  nan  nan  -1.4935  -0.0065103  1.00648  0.0865516  0.0806649  0.00403786  0.0917736  -0.0921968  0.0910071  0  0  0  0.865136  -0.874942  0.847888  0.00364607  -0.000581956  -0.0402976  -0.0192934  0.0187635  -0.00524408  -0.0468915  -0.038158  -0.00635038  0.387039  0.424776  0.00791438 
1701274855.655091000  0  0  17.4274  0.096214  0.0132745  0.00748401  nan  nan  nan  nan  nan  nan  -1.49303  -0.0069823  1.00694  0.088749  0.0829739  0.00423664  0.0961345  -0.0966081  0.0952793  0  0  0  0.879086  -0.889461  0.860868  0.00347621  -0.000417554  -0.0403942  -0.0207155  0.0199351  -0.00509658  -0.0475972  -0.0388205  -0.00643429  0.376213  0.422775  -0.00087587 
1701274855.661083000  0  0  17.4341  0.0921394  -0.00310716  0.00788097  nan  nan  nan  nan  nan  nan  -1.49254  -0.0074765  1.00743  0.0904812  0.0839981  0.00428335  0.100563  -0.10109  0.0996146  0  0  0  0.892287  -0.90323  0.873099  0.00353796  -0.000446888  -0.040292  -0.0207488  0.0208534  -0.00425028  -0.0472086  -0.0370629  -0.00650169  0.37899  0.431696  -0.00620297 
1701274855.666090000  0  0  17.418  0.0767444  -0.000496714  0.0082439  nan  nan  nan  nan  nan  nan  -1.49203  -0.0079933  1.00794  0.0924509  0.0853793  0.00438068  0.105056  -0.105639  0.104009  0  0  0  0.904738  -0.916249  0.884579  0.00348883  -0.000355018  -0.0402427  -0.0209759  0.0217421  -0.00189759  -0.0469402  -0.0363188  -0.0065696  0.403279  0.418498  -0.010952 
1701274855.671518000  0  0  17.4188  0.0866336  -0.00485611  0.00746309  nan  nan  nan  nan  nan  nan  -1.49149  -0.008533  1.00847  0.0942553  0.0864573  0.00443422  0.109609  -0.110251  0.108459  0  0  0  0.916439  -0.928518  0.895309  0.00349848  -0.000276112  -0.0400931  -0.0211097  0.0226484  -0.000946333  -0.0468604  -0.0350609  -0.0064348  0.384777  0.411785  -0.000516892 
1701274855.676102000  0  0  17.4607  0.0664022  0.00367536  0.00746487  nan  nan  nan  nan  nan  nan  -1.49093  -0.0090959  1.00902  0.0965294  0.0885112  0.00462117  0.114219  -0.114923  0.112961  0  0  0  0.927389  -0.940037  0.905289  0.00335025  -0.000120086  -0.0401489  -0.0227062  0.0244647  -0.00209303  -0.0468936  -0.0353767  -0.00641838  0.421133  0.400246  -0.000863093 
1701274855.681103000  0  0  17.4555  0.08792  0.00608061  0.00756752  nan  nan  nan  nan  nan  nan  -1.49035  -0.0096823  1.0096  0.0978701  0.0897806  0.00464924  0.118882  -0.11965  0.117511  0  0  0  0.93759  -0.950805  0.91452  0.00326963  4.41887e-05  -0.0401049  -0.0230457  0.0246321  -0.000690491  -0.0465516  -0.0346102  -0.00637313  0.378938  0.387156  -0.00344913 
1701274855.686053000  0  0  17.5006  0.0758886  0.0100668  0.00828274  nan  nan  nan  nan  nan  nan  -1.48974  -0.0102925  1.0102  0.100198  0.0916114  0.00482148  0.123594  -0.12443  0.122105  0  0  0  0.947041  -0.960824  0.923  0.00313941  0.000185142  -0.0401291  -0.0245836  0.026797  -0.00224573  -0.0467095  -0.0346339  -0.00648242  0.402148  0.38034  -0.0132813 
1701274855.691082000  0  0  17.4855  0.0751236  0.00969534  0.0080325  nan  nan  nan  nan  nan  nan  -1.48911  -0.0109267  1.01082  0.101462  0.0927608  0.00482672  0.128351  -0.129257  0.12674  0  0  0  0.955741  -0.970093  0.93073  0.00304387  0.000373037  -0.04005  -0.0248153  0.0268989  -0.000420716  -0.0458688  -0.0337194  -0.0063776  0.393842  0.370484  -0.011125 
1701274855.696487000  0  0  17.4755  0.0713309  0.00186848  0.00758591  nan  nan  nan  nan  nan  nan  -1.48846  -0.0115852  1.01146  0.103441  0.0940318  0.00490887  0.13315  -0.13413  0.131411  0  0  0  0.963692  -0.978612  0.93771  0.00301125  0.000500157  -0.0398902  -0.0255147  0.0283186  0.000902389  -0.045615  -0.0327138  -0.00632996  0.397668  0.372839  -0.00458844 
1701274855.701098000  0  0  17.4885  0.0394226  0.00595558  0.0072578  nan  nan  nan  nan  nan  nan  -1.48778  -0.0122681  1.01213  0.10484  0.0957063  0.00497644  0.137987  -0.139042  0.136115  0  0  0  0.970893  -0.986381  0.943941  0.00283785  0.000681075  -0.0399362  -0.0267409  0.0290508  0.0011603  -0.0445394  -0.0327454  -0.00617049  0.442039  0.365936  -0.00218597 
1701274855.706049000  0  0  17.4835  0.0557001  0.00595628  0.00679003  nan  nan  nan  nan  nan  nan  -1.48708  -0.0129757  1.01283  0.106147  0.0970211  0.00499529  0.142858  -0.143992  0.140849  0  0  0  0.977344  -0.9934  0.949421  0.00270379  0.00084805  -0.0398709  -0.0274792  0.0296281  0.0021768  -0.0441365  -0.032155  -0.00602686  0.408462  0.359146  0.00285337 
1701274855.711090000  0  0  17.4937  0.0359489  0.00880225  0.00730263  nan  nan  nan  nan  nan  nan  -1.48635  -0.0137081  1.01354  0.108011  0.0986824  0.00510394  0.147759  -0.148975  0.145608  0  0  0  0.983044  -0.999669  0.954151  0.00256148  0.00100131  -0.0398489  -0.0289316  0.0312689  0.00235778  -0.0435548  -0.0320834  -0.00601453  0.436894  0.353261  -0.00594123 
1701274855.716102000  0  0  17.4712  0.049333  0.0190719  0.0068893  nan  nan  nan  nan  nan  nan  -1.4856  -0.0144655  1.01428  0.108918  0.0997684  0.00505328  0.152687  -0.153988  0.150389  0  0  0  0.987995  -1.00519  0.958132  0.00242398  0.00118784  -0.039768  -0.029356  0.0312488  0.00424234  -0.0427252  -0.0315221  -0.00585128  0.403555  0.328545  -0.002189 
1701274855.721099000  0  0  17.4939  0.0312614  0.0230439  0.00648174  nan  nan  nan  nan  nan  nan  -1.48482  -0.015248  1.01505  0.110606  0.101421  0.0051402  0.157638  -0.159026  0.155188  0  0  0  0.992196  -1.00996  0.961362  0.00226424  0.00135489  -0.0397637  -0.0310427  0.0329026  0.00352674  -0.0421015  -0.0316019  -0.00567289  0.428518  0.3224  0.00117504 
1701274855.726098000  0  0  17.4607  0.0393628  0.0319159  0.00592465  nan  nan  nan  nan  nan  nan  -1.48402  -0.0160558  1.01583  0.111185  0.102333  0.00502903  0.162608  -0.164086  0.160002  0  0  0  0.995646  -1.01398  0.963842  0.0021295  0.00153869  -0.0397007  -0.0312999  0.0324987  0.00594014  -0.0409548  -0.0310724  -0.00541199  0.400927  0.300535  0.00544443 
1701274855.731091000  0  0  17.473  0.0510075  0.0415468  0.00554737  nan  nan  nan  nan  nan  nan  -1.4832  -0.0168889  1.01665  0.113089  0.103878  0.00512248  0.167593  -0.169164  0.164826  0  0  0  0.998347  -1.01724  0.965572  0.00195614  0.0017502  -0.0396646  -0.0329008  0.0344615  0.00563994  -0.0411903  -0.0312511  -0.0052374  0.382928  0.285465  0.00837621 
1701274855.736102000  0  0  17.4801  0.0403853  0.040883  0.00574394  nan  nan  nan  nan  nan  nan  -1.48235  -0.0177474  1.01748  0.113781  0.104822  0.00501802  0.17259  -0.174257  0.169656  0  0  0  1.0003  -1.01976  0.966553  0.00179408  0.00191924  -0.0396336  -0.0336687  0.0348192  0.00548351  -0.0398856  -0.0307793  -0.00503495  0.386815  0.28122  0.00119147 
1701274855.741102000  0  0  17.4637  0.0573509  0.0457722  0.00606128  nan  nan  nan  nan  nan  nan  -1.48147  -0.0186315  1.01834  0.114881  0.105738  0.00494903  0.177595  -0.179361  0.17449  0  0  0  1.0015  -1.02153  0.966783  0.00161124  0.00214585  -0.0395435  -0.0342387  0.0355042  0.00660216  -0.0395004  -0.0303532  -0.00497351  0.352218  0.267627  -0.00529048 
1701274855.746491000  0  0  17.4751  0.0408968  0.0360604  0.00670482  nan  nan  nan  nan  nan  nan  -1.48057  -0.019541  1.01923  0.116762  0.106936  0.00499308  0.182604  -0.184471  0.179323  0  0  0  1.00195  -1.02255  0.966263  0.00142016  0.00241705  -0.0394355  -0.035548  0.0375632  0.00601306  -0.0390296  -0.0297574  -0.00499776  0.376062  0.278046  -0.0155657 
1701274855.751091000  0  0  17.477  0.0610774  0.0332739  0.00664445  nan  nan  nan  nan  nan  nan  -1.47965  -0.0204762  1.02014  0.117111  0.107584  0.00480346  0.187613  -0.189585  0.184151  0  0  0  1.00165  -1.02282  0.964993  0.00119371  0.00265537  -0.0394785  -0.0359551  0.0375022  0.00604791  -0.0382597  -0.0291325  -0.00486469  0.331324  0.275815  -0.0171235 
1701274855.756098000  0  0  17.4716  0.054991  0.0298715  0.00676003  nan  nan  nan  nan  nan  nan  -1.4787  -0.0214369  1.02107  0.119103  0.108764  0.00485136  0.192619  -0.194698  0.188971  0  0  0  1.0006  -1.02234  0.962974  0.0009549  0.0029801  -0.0394352  -0.0371612  0.0396234  0.00650311  -0.0383934  -0.0287749  -0.00482572  0.343685  0.277753  -0.0198043 
1701274855.761097000  0  0  17.4711  0.0543195  0.0206204  0.0066561  nan  nan  nan  nan  nan  nan  -1.47772  -0.0224231  1.02203  0.119085  0.108898  0.00454956  0.197618  -0.199807  0.19378  0  0  0  0.998801  -1.02111  0.960204  0.000770451  0.00317103  -0.0394089  -0.0370639  0.0393164  0.00633273  -0.0368651  -0.0274629  -0.00462238  0.327305  0.279118  -0.0219899 
1701274855.766105000  0  0  17.4608  0.0602387  0.0163031  0.00655358  nan  nan  nan  nan  nan  nan  -1.47672  -0.0234349  1.02301  0.120239  0.109601  0.00443944  0.202606  -0.204908  0.198572  0  0  0  0.996252  -1.01913  0.956684  0.000567191  0.00341107  -0.0393094  -0.0377821  0.0405769  0.00668033  -0.036705  -0.0267623  -0.0045459  0.314939  0.278738  -0.0217529 
1701274855.771471000  0  0  17.4469  0.0489863  0.00570124  0.00641549  nan  nan  nan  nan  nan  nan  -1.47569  -0.0244722  1.02401  0.121067  0.110043  0.00425664  0.207579  -0.209997  0.203345  0  0  0  0.992953  -1.0164  0.952415  0.000358001  0.00364094  -0.0391547  -0.0381507  0.0414477  0.0070233  -0.0358814  -0.025574  -0.00446845  0.325477  0.283926  -0.0209412 
1701274855.776102000  0  0  17.4442  0.0681096  0.00611364  0.00547122  nan  nan  nan  nan  nan  nan  -1.47464  -0.0255349  1.02504  0.121254  0.110278  0.00397149  0.212534  -0.215071  0.208095  0  0  0  0.988904  -1.01291  0.947395  0.000107753  0.00390584  -0.0391974  -0.038307  0.0415259  0.0069291  -0.0351752  -0.0246122  -0.00416586  0.283353  0.272134  -0.0110124 
1701274855.781102000  0  0  17.4528  0.0567161  -0.00395261  0.00502878  nan  nan  nan  nan  nan  nan  -1.47357  -0.0266229  1.02609  0.122677  0.111022  0.00388096  0.217467  -0.220125  0.212818  0  0  0  0.984104  -1.00868  0.941625  -0.000177647  0.0042443  -0.0391333  -0.0393369  0.0434084  0.00600719  -0.0351208  -0.0237866  -0.00403167  0.302988  0.28054  -0.00621398 
1701274855.786099000  0  0  17.435  0.0666475  -0.0092435  0.00442202  nan  nan  nan  nan  nan  nan  -1.47247  -0.0277361  1.02717  0.122332  0.110703  0.0034564  0.222374  -0.225156  0.21751  0  0  0  0.978555  -1.0037  0.935105  -0.000369534  0.00445427  -0.0391028  -0.0388549  0.0428932  0.00644994  -0.0337285  -0.0221265  -0.00367527  0.269317  0.270859  -0.00295674 
1701274855.791092000  0  0  17.421  0.0685634  -0.0273111  0.00485252  nan  nan  nan  nan  nan  nan  -1.47135  -0.0288744  1.02827  0.123519  0.110943  0.00326588  0.227251  -0.230161  0.222168  0  0  0  0.972256  -0.997971  0.927836  -0.000601572  0.00474797  -0.0390442  -0.0392422  0.0445106  0.00672075  -0.0338543  -0.0208194  -0.0036302  0.267357  0.287957  -0.011012 
1701274855.796103000  0  0  17.4131  0.0627202  -0.0425435  0.00432443  nan  nan  nan  nan  nan  nan  -1.4702  -0.0300376  1.02939  0.122851  0.110263  0.00274815  0.232095  -0.235135  0.226787  0  0  0  0.965206  -0.99149  0.919816  -0.0007909  0.00495982  -0.0390097  -0.0385094  0.0438231  0.00632698  -0.0320371  -0.0186006  -0.00325119  0.256853  0.28953  -0.00950394 
1701274855.801049000  0  0  17.3873  0.0760046  -0.0422555  0.00408629  nan  nan  nan  nan  nan  nan  -1.46902  -0.0312257  1.03053  0.124285  0.110596  0.00258397  0.236902  -0.240074  0.231365  0  0  0  0.957407  -0.984258  0.911046  -0.00112183  0.00539022  -0.0389238  -0.0388742  0.0455302  0.00715692  -0.0326342  -0.0175657  -0.00315593  0.240096  0.277119  -0.00736557 
1701274855.806087000  0  0  17.3801  0.067553  -0.0580321  0.00371893  nan  nan  nan  nan  nan  nan  -1.46783  -0.0324383  1.0317  0.124716  0.110321  0.0022262  0.241668  -0.244976  0.235896  0  0  0  0.948858  -0.976277  0.901526  -0.00133998  0.00570812  -0.038853  -0.0388705  0.0463599  0.00663557  -0.0318839  -0.0157268  -0.00288549  0.246498  0.284028  -0.00644717 
1701274855.811091000  0  0  17.3531  0.0717237  -0.0580318  0.0039712  nan  nan  nan  nan  nan  nan  -1.46661  -0.0336754  1.03289  0.124156  0.109686  0.00170676  0.246389  -0.249836  0.240379  0  0  0  0.939559  -0.967546  0.891257  -0.00153061  0.00593425  -0.0388124  -0.038311  0.0458811  0.0071919  -0.0304701  -0.013895  -0.00262586  0.222825  0.262964  -0.0156642 
1701274855.816102000  0  0  17.328  0.0576838  -0.0612671  0.00440926  nan  nan  nan  nan  nan  nan  -1.46536  -0.0349366  1.03411  0.124528  0.109456  0.00133497  0.251062  -0.25465  0.244808  0  0  0  0.929509  -0.958065  0.880237  -0.00177008  0.00626032  -0.0387368  -0.0383437  0.046605  0.00762824  -0.0296774  -0.0124644  -0.00249979  0.238675  0.252268  -0.0254074 
1701274855.821484000  0  0  17.276  0.0696354  -0.0619902  0.00460829  nan  nan  nan  nan  nan  nan  -1.4641  -0.0362218  1.03534  0.124004  0.108574  0.000777023  0.255683  -0.259415  0.24918  0  0  0  0.91871  -0.947834  0.868467  -0.00192581  0.00652636  -0.0385597  -0.0374742  0.0460197  0.0092552  -0.0284966  -0.010499  -0.00233166  0.203845  0.230954  -0.0319715 
1701274855.826099000  0  0  17.261  0.0577328  -0.0529678  0.00475307  nan  nan  nan  nan  nan  nan  -1.46281  -0.0375307  1.0366  0.124044  0.108459  0.000370257  0.260248  -0.264127  0.253491  0  0  0  0.907161  -0.936853  0.855948  -0.00220367  0.0068459  -0.038619  -0.0378642  0.0465769  0.00918521  -0.0275204  -0.00964873  -0.00213757  0.213786  0.205133  -0.0381305 
1701274855.831093000  0  0  17.271  0.0551474  -0.0531882  0.00454605  nan  nan  nan  nan  nan  nan  -1.46149  -0.038863  1.03788  0.123976  0.108068  -8.87239e-05  0.264753  -0.268782  0.257738  0  0  0  0.894862  -0.925122  0.842678  -0.00249909  0.00727263  -0.0386324  -0.0381287  0.0470827  0.00732957  -0.0266908  -0.00846477  -0.00197222  0.208844  0.191911  -0.0378628 
1701274855.836105000  0  0  17.2261  0.0486543  -0.0496507  0.00426264  nan  nan  nan  nan  nan  nan  -1.46016  -0.0402184  1.03918  0.123159  0.107184  -0.000696398  0.269195  -0.273377  0.261917  0  0  0  0.881812  -0.912641  0.828658  -0.00268044  0.00750412  -0.0385813  -0.0375479  0.0465218  0.00854744  -0.0250015  -0.00689048  -0.00164086  0.200965  0.167519  -0.0395205 
1701274855.841079000  0  0  17.1635  0.0409111  -0.0518693  0.00335105  nan  nan  nan  nan  nan  nan  -1.4588  -0.0415966  1.0405  0.122866  0.106819  -0.00118858  0.27357  -0.277908  0.266023  0  0  0  0.868013  -0.899409  0.813888  -0.00293541  0.0078539  -0.0384998  -0.0374868  0.0463305  0.0108467  -0.0238691  -0.00580229  -0.00127579  0.201712  0.158951  -0.0313419 
1701274855.845101000  0  0  17.1587  0.0428424  -0.0420708  0.00269146  nan  nan  nan  nan  nan  nan  -1.45742  -0.0429974  1.04184  0.122238  0.106422  -0.00172686  0.277874  -0.28237  0.270054  0  0  0  0.853464  -0.885428  0.798369  -0.00335607  0.00831102  -0.0387255  -0.0375924  0.0460975  0.0101153  -0.0227006  -0.00504035  -0.000859072  0.184842  0.132767  -0.0283658 
1701274855.851086000  0  0  17.0919  0.0242943  -0.0397436  0.00220693  nan  nan  nan  nan  nan  nan  -1.45602  -0.0444202  1.0432  0.121362  0.105292  -0.00238642  0.282104  -0.286761  0.274006  0  0  0  0.838164  -0.870697  0.782099  -0.00340182  0.00847902  -0.0383715  -0.0370873  0.0456776  0.01177  -0.0207918  -0.00347368  -0.000463135  0.195876  0.110614  -0.0279112 
1701274855.855096000  0  0  17.0985  0.0246261  -0.0359563  0.00179076  nan  nan  nan  nan  nan  nan  -1.4546  -0.0458648  1.04458  0.120414  0.104849  -0.00297523  0.286255  -0.291076  0.277874  0  0  0  0.822115  -0.855216  0.765079  -0.00383182  0.00894447  -0.0386116  -0.0373932  0.0452807  0.0101715  -0.0193328  -0.00271359  -2.65319e-05  0.17851  0.0951395  -0.0293819 
1701274855.861085000  0  0  17.0095  0.00925487  -0.0202134  0.00169268  nan  nan  nan  nan  nan  nan  -1.45316  -0.0473308  1.04597  0.119276  0.103453  -0.00370304  0.290323  -0.295312  0.281655  0  0  0  0.805316  -0.838985  0.74731  -0.00384599  0.00909354  -0.0382018  -0.0365984  0.0445171  0.0128749  -0.0173472  -0.00152216  0.000331243  0.183011  0.0534459  -0.0346427 
1701274855.866098000  0  0  16.9941  0.0110453  -0.018399  0.00144035  nan  nan  nan  nan  nan  nan  -1.4517  -0.0488178  1.04739  0.118441  0.102838  -0.00431014  0.294307  -0.299464  0.285346  0  0  0  0.787767  -0.822004  0.72879  -0.00413925  0.00948802  -0.0381606  -0.0369904  0.044425  0.0118549  -0.0161959  -0.00101805  0.000648328  0.166589  0.044423  -0.0365442 
1701274855.871516000  0  0  16.9598  0.00193551  -0.000657529  0.00149328  nan  nan  nan  nan  nan  nan  -1.45022  -0.0503253  1.04883  0.117552  0.101806  -0.00497693  0.2982  -0.30353  0.288942  0  0  0  0.769467  -0.804273  0.70952  -0.0043555  0.00979189  -0.0380415  -0.0369069  0.0443858  0.0117236  -0.0146157  -0.000281051  0.00100568  0.164618  0.00440089  -0.0443177 
1701274855.876104000  0  0  16.9209  -0.0104663  -0.00917442  0.00121245  nan  nan  nan  nan  nan  nan  -1.44872  -0.051853  1.05028  0.115927  0.100673  -0.005735  0.302  -0.307506  0.29244  0  0  0  0.750418  -0.785792  0.6895  -0.00464802  0.0101181  -0.0380999  -0.0365623  0.0433138  0.0121211  -0.0123264  0.000933268  0.00144763  0.160347  0.0055826  -0.0481506 
1701274855.881084000  0  0  16.892  -0.006681  0.000956049  0.00146177  nan  nan  nan  nan  nan  nan  -1.4472  -0.0534002  1.05175  0.114695  0.0997497  -0.00643191  0.305703  -0.311387  0.295836  0  0  0  0.730619  -0.76656  0.668731  -0.00498493  0.0105086  -0.0380642  -0.0365927  0.0428343  0.0116721  -0.0107161  0.00153604  0.00170939  0.1351  -0.0193623  -0.0573593 
1701274855.886099000  0  0  16.8505  -0.0257001  -0.00560401  0.00164396  nan  nan  nan  nan  nan  nan  -1.44566  -0.0549667  1.05324  0.112705  0.0979246  -0.0073101  0.309305  -0.31517  0.299126  0  0  0  0.710069  -0.746579  0.647211  -0.0051655  0.01072  -0.0380065  -0.0357218  0.0417087  0.0117158  -0.008049  0.00320081  0.00204562  0.138252  -0.0268397  -0.0668834 
1701274855.891091000  0  0  16.8293  -0.0151366  -0.0116942  0.00106801  nan  nan  nan  nan  nan  nan  -1.44411  -0.0565518  1.05474  0.111425  0.0970248  -0.00801513  0.312802  -0.318852  0.302307  0  0  0  0.68877  -0.725848  0.624941  -0.00551464  0.0111256  -0.0379797  -0.0360229  0.0413968  0.0106555  -0.00672954  0.00386061  0.00231727  0.104296  -0.0235971  -0.0625065 
1701274855.896535000  0  0  16.7712  -0.0199272  0.000191726  0.00110698  nan  nan  nan  nan  nan  nan  -1.44253  -0.058155  1.05626  0.109984  0.0958794  -0.00876669  0.316191  -0.322427  0.305374  0  0  0  0.666721  -0.704367  0.601921  -0.00577736  0.011387  -0.0378284  -0.035991  0.040961  0.0115168  -0.00507783  0.00440563  0.00252731  0.0938221  -0.0509994  -0.0672067 
1701274855.901099000  0  0  16.7459  -0.0226939  -0.0107759  0.000588019  nan  nan  nan  nan  nan  nan  -1.44094  -0.0597759  1.0578  0.107766  0.0940411  -0.00967008  0.319468  -0.325894  0.308325  0  0  0  0.643922  -0.682136  0.578152  -0.00608023  0.0117125  -0.0379228  -0.0352594  0.0397005  0.0106532  -0.00275731  0.00606479  0.00297727  0.0720591  -0.0505749  -0.0672191 
1701274855.906099000  0  0  16.6893  -0.0197348  -0.00862985  0.000295825  nan  nan  nan  nan  nan  nan  -1.43934  -0.0614138  1.05935  0.106049  0.0923811  -0.010506  0.322629  -0.329248  0.311154  0  0  0  0.620372  -0.659155  0.553632  -0.00636925  0.0120437  -0.0378797  -0.0346727  0.0389372  0.011441  -0.00106035  0.00719267  0.00332336  0.0472847  -0.0673599  -0.0690141 
1701274855.911094000  0  0  16.6105  -0.0265307  -0.0189608  -9.46346e-06  nan  nan  nan  nan  nan  nan  -1.43772  -0.0630682  1.06091  0.103611  0.0900335  -0.0114795  0.325671  -0.332484  0.31386  0  0  0  0.596073  -0.635424  0.528362  -0.00654143  0.0122391  -0.0378079  -0.0333624  0.0374146  0.0133439  0.00137585  0.00918149  0.00372014  0.0313563  -0.071858  -0.0715681 
1701274855.916104000  0  0  16.5655  -0.0158118  -0.0238634  -0.000714212  nan  nan  nan  nan  nan  nan  -1.43608  -0.0647384  1.06248  0.101533  0.0880046  -0.0123836  0.328589  -0.335601  0.316437  0  0  0  0.571024  -0.610943  0.502343  -0.00683808  0.0125538  -0.0377517  -0.0325655  0.0365099  0.0131664  0.0030227  0.0107166  0.00412464  -0.00664031  -0.0807922  -0.0676024 
1701274855.921528000  0  0  16.5125  -0.0198417  -0.0254951  -0.00065174  nan  nan  nan  nan  nan  nan  -1.43443  -0.0664239  1.06407  0.100003  0.0861788  -0.0132176  0.33138  -0.338592  0.318882  0  0  0  0.545224  -0.585711  0.475636  -0.00708021  0.0128361  -0.0376366  -0.0322275  0.0364704  0.0133827  0.00430286  0.011871  0.00429418  -0.0141945  -0.0911642  -0.0719142 
1701274855.926100000  0  0  16.4817  -0.0105011  -0.0435467  -0.001267  nan  nan  nan  nan  nan  nan  -1.43277  -0.0681241  1.06567  0.0974338  0.0835681  -0.014217  0.33404  -0.341456  0.321194  0  0  0  0.518675  -0.55973  0.4493  -0.00736485  0.0131472  -0.037724  -0.0309856  0.0352226  0.0125136  0.00626142  0.0141804  0.00472138  -0.0533245  -0.0856206  -0.06988 
1701274855.931091000  0  0  16.4279  -0.000389047  -0.0313294  -0.00075739  nan  nan  nan  nan  nan  nan  -1.43109  -0.0698383  1.06728  0.0964676  0.0820079  -0.0149769  0.336565  -0.344189  0.323376  0  0  0  0.491467  -0.532999  0.423715  -0.00775332  0.0135905  -0.0377914  -0.0308588  0.0357654  0.0134107  0.0065264  0.0147645  0.00479162  -0.0743524  -0.114061  -0.0797414 
1701274855.936079000  0  0  16.3687  0.000822637  -0.0479189  -0.000405752  nan  nan  nan  nan  nan  nan  -1.4294  -0.0715658  1.06891  0.0933948  0.0789185  -0.0160537  0.338955  -0.346785  0.325432  0  0  0  0.464691  -0.505552  0.398879  -0.00791022  0.0137707  -0.037737  -0.0291566  0.0341107  0.014058  0.0088483  0.0172952  0.00504234  -0.103206  -0.113661  -0.0904453 
1701274855.941084000  0  0  16.3275  0.0181379  -0.0371128  0.000107086  nan  nan  nan  nan  nan  nan  -1.4277  -0.0733059  1.07054  0.0914099  0.0768645  -0.0169398  0.341213  -0.349245  0.327366  0  0  0  0.438664  -0.478389  0.374793  -0.00822909  0.0141294  -0.0377264  -0.0285152  0.0336366  0.0139934  0.00963561  0.0181709  0.00508381  -0.143048  -0.142946  -0.0998058 
1701274855.946527000  0  0  16.2604  0.0207251  -0.036208  0.00046422  nan  nan  nan  nan  nan  nan  -1.42599  -0.075058  1.07218  0.0895255  0.0744432  -0.0178493  0.343343  -0.35157  0.329181  0  0  0  0.413388  -0.451976  0.351458  -0.00836312  0.0143401  -0.037585  -0.0275792  0.0333677  0.0153059  0.0104062  0.0193923  0.00511035  -0.156509  -0.158599  -0.106279 
1701274855.951085000  0  0  16.233  0.0366492  -0.0440691  -0.000347518  nan  nan  nan  nan  nan  nan  -1.42427  -0.0768214  1.07383  0.0865824  0.0715767  -0.0188712  0.345349  -0.353766  0.330882  0  0  0  0.388861  -0.426314  0.328872  -0.00863605  0.0146433  -0.037675  -0.0259006  0.0316557  0.0145796  0.0119989  0.021439  0.00546112  -0.20314  -0.168155  -0.0994916 
1701274855.956102000  0  0  16.1982  0.0405809  -0.0374628  -0.000362296  nan  nan  nan  nan  nan  nan  -1.42254  -0.0785955  1.07549  0.0849435  0.0692533  -0.019746  0.347233  -0.355835  0.332471  0  0  0  0.365085  -0.401401  0.307037  -0.00886853  0.0149502  -0.0377036  -0.0249065  0.0315617  0.0144485  0.0122818  0.0225136  0.00558749  -0.213384  -0.192258  -0.101682 
1701274855.961099000  0  0  16.1663  0.0433405  -0.0544115  -0.00117096  nan  nan  nan  nan  nan  nan  -1.4208  -0.0803795  1.07715  0.0816438  0.0660416  -0.0208037  0.349001  -0.357781  0.333954  0  0  0  0.342058  -0.377238  0.285951  -0.00899021  0.0151033  -0.0376372  -0.0229578  0.0295137  0.0137501  0.0141732  0.0248194  0.00594652  -0.240039  -0.188633  -0.0951046 
1701274855.966100000  0  0  16.1359  0.052208  -0.0411817  -0.00145905  nan  nan  nan  nan  nan  nan  -1.41905  -0.0821731  1.07883  0.0797039  0.0635819  -0.0217005  0.350655  -0.359608  0.335332  0  0  0  0.319782  -0.353825  0.265616  -0.00921908  0.0154169  -0.0376973  -0.0216679  0.0288472  0.0135426  0.0145267  0.0258031  0.00618696  -0.259872  -0.22347  -0.0949312 
1701274855.971521000  0  0  16.1166  0.0564873  -0.0368074  -0.00200526  nan  nan  nan  nan  nan  nan  -1.41729  -0.0839754  1.08051  0.0785442  0.0620757  -0.022471  0.3522  -0.36132  0.336611  0  0  0  0.298256  -0.331163  0.24603  -0.00941861  0.0157339  -0.0377299  -0.0216938  0.029225  0.0128167  0.0140232  0.025679  0.00630935  -0.261691  -0.229821  -0.088173 
1701274855.976106000  0  0  16.092  0.0613801  -0.0293821  -0.00236618  nan  nan  nan  nan  nan  nan  -1.41553  -0.0857861  1.08219  0.0755456  0.0592772  -0.023454  0.353639  -0.362921  0.337794  0  0  0  0.277479  -0.30925  0.227195  -0.00965565  0.0160112  -0.037815  -0.0198274  0.0270713  0.0123322  0.0155  0.0270517  0.00668853  -0.287374  -0.258809  -0.089459 
1701274855.981088000  0  0  16.0743  0.0615741  -0.0213862  -0.00212448  nan  nan  nan  nan  nan  nan  -1.41376  -0.0876045  1.08389  0.0740378  0.0573311  -0.0242785  0.354976  -0.364414  0.338884  0  0  0  0.257453  -0.288087  0.209109  -0.00986118  0.0163017  -0.0378814  -0.019094  0.0268607  0.011668  0.0153859  0.0272764  0.00680711  -0.286406  -0.275611  -0.0957798 
1701274855.986101000  0  0  16.0591  0.0667285  -0.0247634  -0.0020226  nan  nan  nan  nan  nan  nan  -1.41198  -0.0894301  1.08558  0.0706035  0.0544442  -0.0252771  0.356215  -0.365803  0.339886  0  0  0  0.238176  -0.267674  0.191773  -0.00995257  0.0164232  -0.0378258  -0.0173574  0.0243681  0.0103965  0.0170506  0.0286387  0.00705638  -0.314713  -0.28527  -0.102287 
1701274855.991087000  0  0  16.07  0.0741127  0.00558605  -0.000963909  nan  nan  nan  nan  nan  nan  -1.41019  -0.0912623  1.08728  0.0693006  0.052886  -0.0260594  0.357359  -0.367092  0.340803  0  0  0  0.21965  -0.248012  0.175188  -0.0102175  0.016775  -0.0379859  -0.0169506  0.024277  0.00837239  0.0164088  0.0278588  0.00700418  -0.320464  -0.33027  -0.118953 
1701274855.996531000  0  0  16.0726  0.0762689  0.00270664  -0.000592934  nan  nan  nan  nan  nan  nan  -1.4084  -0.0931008  1.08899  0.066969  0.0508355  -0.02693  0.358412  -0.368285  0.341639  0  0  0  0.201873  -0.229099  0.159352  -0.0102912  0.0168798  -0.0379529  -0.0162481  0.0232357  0.00637369  0.0166402  0.0279633  0.00699418  -0.326959  -0.326351  -0.124953 
1701274856.001098000  0  0  16.054  0.0859388  0.0110736  -0.000482565  nan  nan  nan  nan  nan  nan  -1.40661  -0.094945  1.0907  0.0643238  0.0484025  -0.0278371  0.359379  -0.369384  0.342398  0  0  0  0.184847  -0.210936  0.144267  -0.0105124  0.0171403  -0.0380731  -0.0145135  0.0211705  0.00607706  0.0174755  0.0286026  0.00714886  -0.353758  -0.34858  -0.129778 
1701274856.006100000  0  0  16.0482  0.0880048  0.0320215  5.29015e-06  nan  nan  nan  nan  nan  nan  -1.40481  -0.0967945  1.09241  0.063244  0.0473325  -0.0285791  0.360262  -0.370395  0.343083  0  0  0  0.16857  -0.193523  0.129931  -0.0107695  0.0174577  -0.0382186  -0.0144365  0.0210896  0.00535882  0.0166196  0.0273737  0.00705031  -0.347591  -0.371699  -0.136022 
1701274856.011092000  0  0  16.051  0.0888979  0.0223367  -0.00013658  nan  nan  nan  nan  nan  nan  -1.40301  -0.0986488  1.09413  0.0599469  0.0446529  -0.0295245  0.361066  -0.371321  0.343699  0  0  0  0.153044  -0.176861  0.116346  -0.0108381  0.017557  -0.0382155  -0.0126716  0.0184525  0.00351936  0.018  0.0282426  0.0071799  -0.365051  -0.364469  -0.136152 
1701274856.016099000  0  0  16.042  0.0827296  0.0470638  0.000237393  nan  nan  nan  nan  nan  nan  -1.4012  -0.100508  1.09585  0.0580418  0.0428946  -0.0303463  0.361794  -0.372165  0.344248  0  0  0  0.138268  -0.160948  0.10351  -0.0110004  0.0177822  -0.0383295  -0.011737  0.0172528  0.00298089  0.0180391  0.0274314  0.00717222  -0.354533  -0.39911  -0.142246 
1701274856.021098000  0  0  16.0321  0.0750534  0.0409945  -0.000498101  nan  nan  nan  nan  nan  nan  -1.39939  -0.10237  1.09757  0.0550349  0.0405049  -0.0312478  0.36245  -0.372932  0.344735  0  0  0  0.124241  -0.145785  0.0914246  -0.0110576  0.0178625  -0.0383187  -0.0101623  0.0148014  0.00213742  0.0193231  0.0278324  0.00738917  -0.355647  -0.392929  -0.134152 
1701274856.026099000  0  0  16.0458  0.0724565  0.0563911  -0.00105954  nan  nan  nan  nan  nan  nan  -1.39758  -0.104237  1.0993  0.0529017  0.0387529  -0.032074  0.363037  -0.373624  0.345163  0  0  0  0.110965  -0.131372  0.0800891  -0.0112277  0.0180664  -0.0384712  -0.00912601  0.0132612  0.000387807  0.0194651  0.0270235  0.00754092  -0.352663  -0.411006  -0.127705 
1701274856.031087000  0  0  16.0285  0.0493679  0.0506278  -0.00174045  nan  nan  nan  nan  nan  nan  -1.39576  -0.106106  1.10102  0.0501648  0.0364748  -0.0329477  0.363561  -0.374247  0.345537  0  0  0  0.0984383  -0.11771  0.0695035  -0.0112799  0.0181334  -0.0384658  -0.00750718  0.010982  0.000211333  0.0208414  0.0272789  0.00780702  -0.327432  -0.403694  -0.121469 
1701274856.036103000  0  0  16.0628  0.0508012  0.04878  -0.00190749  nan  nan  nan  nan  nan  nan  -1.39394  -0.107979  1.10275  0.048049  0.0351274  -0.0337492  0.364023  -0.374803  0.34586  0  0  0  0.0866618  -0.104797  0.059668  -0.0114589  0.0183291  -0.0386505  -0.00687117  0.00938723  -0.00259729  0.0210383  0.0264966  0.00791408  -0.332245  -0.391413  -0.120745 
1701274856.041100000  0  0  16.0427  0.0412748  0.0643038  -0.00138664  nan  nan  nan  nan  nan  nan  -1.39212  -0.109854  1.10448  0.0456379  0.0331279  -0.0345909  0.364428  -0.375296  0.346135  0  0  0  0.0756354  -0.092634  0.0505824  -0.0115677  0.0184266  -0.03875  -0.00529374  0.00727867  -0.00213933  0.0217951  0.0261158  0.00797607  -0.324007  -0.414639  -0.130635 
1701274856.046099000  0  0  16.065  0.0358973  0.0456241  -0.00171785  nan  nan  nan  nan  nan  nan  -1.3903  -0.111732  1.10621  0.0425285  0.0310262  -0.0354554  0.364781  -0.37573  0.346367  0  0  0  0.065359  -0.0812213  0.0422469  -0.0115921  0.0184563  -0.0387808  -0.00383929  0.00445666  -0.00451076  0.0232512  0.0264622  0.00815973  -0.331187  -0.385406  -0.128647 
1701274856.051091000  0  0  16.062  0.0249769  0.0616953  -0.000893458  nan  nan  nan  nan  nan  nan  -1.38847  -0.113612  1.10795  0.0402789  0.0293193  -0.0362722  0.365083  -0.376109  0.346559  0  0  0  0.0558325  -0.0705585  0.0346614  -0.0117284  0.0185816  -0.0389575  -0.00245262  0.0023836  -0.0047696  0.0239018  0.0257281  0.00814915  -0.31925  -0.405543  -0.142205 
1701274856.056100000  0  0  16.0576  0.0223743  0.0555102  -0.000222087  nan  nan  nan  nan  nan  nan  -1.38664  -0.115493  1.10968  0.0380153  0.027644  -0.0370867  0.36534  -0.376437  0.346715  0  0  0  0.0470561  -0.0606458  0.0278258  -0.0117887  0.0186319  -0.0390423  -0.00120141  0.000373755  -0.00508366  0.0245783  0.0253678  0.00808302  -0.3224  -0.390401  -0.152137 
1701274856.061099000  0  0  16.0678  0.0250888  0.0437431  -0.000205761  nan  nan  nan  nan  nan  nan  -1.38482  -0.117376  1.11141  0.0352149  0.0253315  -0.0379363  0.365555  -0.376717  0.346838  0  0  0  0.0390297  -0.051483  0.0217403  -0.0117831  0.0186282  -0.0390772  0.000781995  -0.00231175  -0.00642832  0.0256023  0.0258828  0.00810935  -0.339002  -0.375399  -0.152917 
1701274856.066100000  0  0  16.0605  0.0147705  0.0600518  0.000113978  nan  nan  nan  nan  nan  nan  -1.38299  -0.11926  1.11315  0.0332891  0.0238005  -0.038733  0.365732  -0.376953  0.346933  0  0  0  0.0317532  -0.0430703  0.0164047  -0.0119186  0.0187269  -0.0392606  0.00221931  -0.00417881  -0.00614649  0.0260367  0.0251449  0.00807522  -0.325649  -0.395914  -0.157597 
1701274856.071523000  0  0  16.1089  0.0219988  0.0344641  -6.62604e-05  nan  nan  nan  nan  nan  nan  -1.38116  -0.121145  1.11488  0.0309041  0.0222306  -0.0395414  0.365874  -0.377149  0.347003  0  0  0  0.0252268  -0.0354075  0.0118192  -0.011845  0.0186176  -0.0393032  0.00317088  -0.00611177  -0.0096636  0.0264853  0.0250527  0.00803045  -0.34366  -0.349354  -0.153725 
1701274856.076102000  0  0  16.0691  0.0193034  0.0403323  0.000344672  nan  nan  nan  nan  nan  nan  -1.37933  -0.123032  1.11662  0.0287807  0.0201604  -0.0403576  0.365985  -0.377308  0.347053  0  0  0  0.0194503  -0.0284948  0.0079836  -0.0119757  0.0187431  -0.039473  0.00554912  -0.00861655  -0.00725138  0.0270735  0.0253093  0.00801577  -0.345632  -0.362739  -0.160301 
1701274856.081099000  0  0  16.0918  0.0267807  0.0363328  9.04893e-05  nan  nan  nan  nan  nan  nan  -1.3775  -0.124918  1.11835  0.0272961  0.019199  -0.0411294  0.36607  -0.377435  0.347085  0  0  0  0.0144239  -0.022332  0.0048981  -0.0120598  0.0188012  -0.0396465  0.00633751  -0.00997556  -0.0086214  0.026897  0.0246945  0.00802301  -0.356899  -0.348558  -0.156198 
1701274856.086098000  0  0  16.0949  0.034451  0.0239363  -0.000475583  nan  nan  nan  nan  nan  nan  -1.37567  -0.126806  1.12009  0.0251031  0.0170186  -0.0419482  0.366131  -0.377533  0.347103  0  0  0  0.0101475  -0.0169193  0.0025625  -0.0120212  0.0187486  -0.0397005  0.00856241  -0.0122388  -0.00903163  0.0271468  0.02528  0.00811491  -0.37341  -0.333247  -0.14852 
1701274856.091093000  0  0  16.0593  0.0373669  0.0418375  -0.000367032  nan  nan  nan  nan  nan  nan  -1.37384  -0.128694  1.12182  0.0237621  0.0153638  -0.0427385  0.366172  -0.377606  0.347111  0  0  0  0.006621  -0.0122565  0.000977  -0.0120447  0.0187653  -0.0398379  0.0104117  -0.0136655  -0.00665019  0.0267215  0.0248587  0.00814281  -0.373704  -0.360234  -0.15087 
