ts fx fy fz tx ty tz exfx exfy exfz extx exty extz xd yd zd rolld pitchd yawd vxd vyd vzd wxd wyd wzd axd ayd azd e_x e_y e_z e_vx e_vy e_vz e_rx e_ry e_rz e_wx e_wy e_wz
1699890556.687330000  0  0  11.2998  0.104491  -0.00771593  0.00305406  nan  nan  nan  nan  nan  nan  -1  0  1  -0.000809913  -0.0165665  1.34168e-05  0  0  0  0  0  0  0  0  0  0.0149452  -0.00814097  -0.00451073  -0.0124095  0.0170743  -0.00358936  -0.0163265  0.00670053  -0.00507495  -0.0587779  -0.046213  0.0125738 
1699890556.691448000  0  0  11.2631  0.0787594  0.00331801  0.00470704  nan  nan  nan  nan  nan  nan  -1  0  1  -0.000954618  -0.0170426  1.62684e-05  0  0  0  0  0  0  0  0  0  0.0149583  -0.00817468  -0.00448705  -0.0119105  0.0169715  -0.000563698  -0.0158974  0.00673727  -0.00519529  -0.0112629  -0.0686189  -0.00688509 
1699890556.696796000  0  0  11.2654  0.0955541  -0.0274748  0.00416939  nan  nan  nan  nan  nan  nan  -1  0  1  -0.00125808  -0.0169711  2.135e-05  0  0  0  0  0  0  0  0  0  0.0149589  -0.00820769  -0.00449305  -0.0119969  0.0166648  -0.000750424  -0.0160119  0.00696753  -0.00517188  -0.0437985  -0.00915175  -0.000398581 
1699890556.701307000  0  0  11.2834  0.0787642  -0.0149155  0.00457192  nan  nan  nan  nan  nan  nan  -1  0  1  -0.000762306  -0.0164503  1.25396e-05  0  0  0  0  0  0  0  0  0  0.0149032  -0.00813306  -0.00450938  -0.0124921  0.0171179  -0.00222851  -0.0163349  0.00624572  -0.00521389  -0.0072472  -0.0276298  -0.00501009 
1699890556.706309000  0  0  11.2839  0.039709  -0.00716041  0.00497273  nan  nan  nan  nan  nan  nan  -1  0  1  -0.0012163  -0.0170406  2.07255e-05  0  0  0  0  0  0  0  0  0  0.0149391  -0.0082081  -0.00454865  -0.0118311  0.0167155  -0.00216302  -0.0151132  0.00655307  -0.00527485  0.0596237  -0.0459674  -0.00941065 
1699890556.711343000  0  0  11.2855  0.0681943  -0.0406692  0.00344791  nan  nan  nan  nan  nan  nan  -1  0  1  -0.000728486  -0.0166782  1.21493e-05  0  0  0  0  0  0  0  0  0  0.0148789  -0.00812502  -0.00455939  -0.0121486  0.0171422  -0.00228791  -0.0158566  0.006692  -0.00512753  0.00949241  0.019772  0.0081764 
1699890556.716424000  0  0  11.3176  0.0283172  -0.0244198  0.00463033  nan  nan  nan  nan  nan  nan  -1  0  1  -0.00169911  -0.0169313  2.87668e-05  0  0  0  0  0  0  0  0  0  0.0149188  -0.00823705  -0.00461574  -0.0118598  0.0161682  -0.00482049  -0.0141115  0.00680294  -0.00521968  0.0731915  -0.0137475  -0.00568243 
1699890556.720312000  0  0  11.3203  0.0153459  -0.0243514  0.00548012  nan  nan  nan  nan  nan  nan  -1  0  1  -0.000919486  -0.016756  1.54062e-05  0  0  0  0  0  0  0  0  0  0.0148738  -0.00817065  -0.0046308  -0.0119753  0.0170006  -0.00501624  -0.0143089  0.00658303  -0.00533342  0.10095  -0.011861  -0.0151673 
1699890556.726406000  0  0  11.3108  0.0462662  -0.0531669  0.00476851  nan  nan  nan  nan  nan  nan  -1  0  1  -0.00184853  -0.0174678  3.22883e-05  0  0  0  0  0  0  0  0  0  0.0149165  -0.00823929  -0.00464762  -0.0111933  0.0159868  -0.00417763  -0.013556  0.00779065  -0.00531965  0.032183  0.0346598  -0.00640993 
1699890556.731419000  0  0  11.3211  0.00146057  -0.0381702  0.00498641  nan  nan  nan  nan  nan  nan  -1  0  1  -0.00230531  -0.01765  4.06867e-05  0  0  0  0  0  0  0  0  0  0.0149521  -0.00832439  -0.00467811  -0.0110238  0.0155994  -0.00494608  -0.0121409  0.00793078  -0.00537975  0.108775  0.00337725  -0.00853261 
1699890556.736429000  0  0  11.336  0.0155375  -0.0526315  0.00474943  nan  nan  nan  nan  nan  nan  -1  0  1  -0.00158828  -0.0174442  2.77049e-05  0  0  0  0  0  0  0  0  0  0.0148982  -0.00824453  -0.00470968  -0.011134  0.016321  -0.00613094  -0.0125076  0.00802356  -0.00539475  0.083995  0.0314464  -0.00542041 
1699890556.741470000  0  0  11.3151  0.0589806  -0.0633368  0.00404509  nan  nan  nan  nan  nan  nan  -1  0  1  -0.00223742  -0.0179142  4.00796e-05  0  0  0  0  0  0  0  0  0  0.0149277  -0.00831117  -0.00470933  -0.0106488  0.0156569  -0.00438928  -0.0123866  0.00884652  -0.00533033  -0.00400414  0.0452857  0.00273974 
1699890556.746327000  0  0  11.2815  0.0473595  -0.0451716  0.00467193  nan  nan  nan  nan  nan  nan  -1  0  1  -0.00113969  -0.0173213  1.97401e-05  0  0  0  0  0  0  0  0  0  0.0148716  -0.00822877  -0.00470837  -0.0113342  0.0168578  -0.00160383  -0.0131924  0.00814415  -0.00538653  0.0266513  0.015417  -0.00453377 
1699890556.751435000  0  0  11.3109  0.0524095  -0.0593139  0.0046013  nan  nan  nan  nan  nan  nan  -1  -0  1  -0.00210114  -0.0182078  3.8255e-05  6e-07  -6e-07  6e-07  0  0  0  0  0  0  0.0149402  -0.00835274  -0.00474851  -0.0103161  0.0159216  -0.00395667  -0.0121254  0.00941859  -0.00541935  0.00673474  0.0319768  -0.00332275 
1699890556.756436000  0  0  11.2615  0.0860837  -0.0557241  0.00381503  nan  nan  nan  nan  nan  nan  -1  -0  1  -0.00239207  -0.0183445  4.38791e-05  5e-06  -5e-06  5e-06  0  0  0  0  0  0  0.0149546  -0.00839807  -0.00471344  -0.0102766  0.0156699  8.45046e-05  -0.0124898  0.00965214  -0.00533852  -0.0572612  0.0226485  0.00569725 
1699890556.761424000  0  0  11.2163  0.0626377  -0.0315118  0.00442829  nan  nan  nan  nan  nan  nan  -1  -1e-07  1  -0.00109109  -0.0177888  1.94081e-05  1.69e-05  -1.69e-05  1.69e-05  0  0  0  0  0  0  0.0148999  -0.00831253  -0.00469048  -0.0109397  0.0171128  0.00378732  -0.0135187  0.00876643  -0.00537043  -0.000902991  -0.0176276  -0.00164936 
1699890556.766342000  0  0  11.2433  0.0729136  -0.0433673  0.00427933  nan  nan  nan  nan  nan  nan  -1  -2e-07  1  -0.00174091  -0.0183431  3.20319e-05  4e-05  -4e-05  4e-05  0  0  0  0  0  0  0.0149457  -0.00839177  -0.0046703  -0.0102957  0.016474  0.00150682  -0.0131597  0.00943962  -0.00535892  -0.0247579  -0.000109811  9.75456e-05 
1699890556.771429000  0  0  11.2189  0.106719  -0.0393601  0.0040133  nan  nan  nan  nan  nan  nan  -1  -5e-07  1  -0.000886681  -0.0178159  1.59962e-05  7.81e-05  -7.81e-05  7.81e-05  0  0  0  0  0  0  0.0148911  -0.0083062  -0.00465008  -0.0108808  0.0173531  0.00346793  -0.014735  0.00893256  -0.005306  -0.0778757  -0.00345931  0.00289367 
1699890556.776436000  0  0  11.1673  0.0764445  -0.016847  0.00491644  nan  nan  nan  nan  nan  nan  -0.999999  -1e-06  1  -0.00027245  -0.0176229  5.20111e-06  0.000135  -0.000135  0.000135  0  0  0  0  0  0  0.0148831  -0.00830937  -0.00458895  -0.0112048  0.0181273  0.00763671  -0.0150645  0.00829984  -0.00536619  -0.0142951  -0.0426646  -0.00779358 
1699890556.781437000  0  0  11.2357  0.094477  -0.0365781  0.00427975  nan  nan  nan  nan  nan  nan  -0.999998  -1.9e-06  1  -0.00103352  -0.0181147  1.93209e-05  0.0002141  -0.0002144  0.0002134  0  0  0  0  0  0  0.0149408  -0.00838082  -0.00459177  -0.010585  0.017334  0.00194891  -0.0147582  0.00891006  -0.00532758  -0.0531789  -0.00881625  -0.000221061 
1699890556.786444000  0  0  11.233  0.104954  -0.0179072  0.00398015  nan  nan  nan  nan  nan  nan  -0.999997  -3.2e-06  1  -0.000249445  -0.0174144  5.14371e-06  0.0003149  -0.00032  0.0003113  0  0  0  0  0  0  0.0148848  -0.00829311  -0.0045735  -0.01134  0.0181179  0.00211985  -0.0159613  0.00790125  -0.00528266  -0.0630643  -0.0368772  0.0030748 
1699890556.791429000  0  0  11.1869  0.0691136  -0.00142194  0.00437028  nan  nan  nan  nan  nan  nan  -0.999995  -5.1e-06  1.00001  -8.82961e-05  -0.0174764  2.54302e-06  0.0004338  -0.0004556  0.0004249  0  0  0  0  0  0  0.0149237  -0.00835996  -0.0045205  -0.0114388  0.018468  0.00586086  -0.0157457  0.00747516  -0.00530753  0.00663362  -0.0659276  -0.00155318 
1699890556.796256000  0  0  11.2582  0.0842679  -0.0162005  0.00349848  nan  nan  nan  nan  nan  nan  -0.999992  -7.8e-06  1.00001  -0.000672207  -0.0176478  1.30624e-05  0.0005669  -0.000625  0.0005504  0  0  0  0  0  0  0.0149552  -0.00843179  -0.00452867  -0.0111558  0.0178966  -6.0234e-05  -0.0154783  0.00762481  -0.0052093  -0.0261356  -0.0377472  0.00836203 
1699890556.801313000  0  0  11.2885  0.101579  -0.0103698  0.003255  nan  nan  nan  nan  nan  nan  -0.999989  -1.14e-05  1.00001  0.000135846  -0.0171798  -9.33691e-07  0.0007105  -0.0008319  0.0006841  0  0  0  0  0  0  0.0148995  -0.00834122  -0.00453727  -0.0115595  0.0187064  -0.00258781  -0.0167362  0.00694251  -0.00512262  -0.0491844  -0.0431314  0.0105387 
1699890556.806311000  0  0  11.2516  0.0674915  0.00619487  0.00437362  nan  nan  nan  nan  nan  nan  -0.999985  -1.62e-05  1.00001  0.00171176  -0.0163145  -2.63254e-05  0.000861  -0.00108  0.0008222  0  0  0  0  0  0  0.0148364  -0.00823898  -0.00450906  -0.0125711  0.0204487  0.000409073  -0.0176756  0.00559506  -0.00520699  0.0276328  -0.0638643  -0.00260034 
1699890556.811312000  0  0  11.3114  0.084695  -0.0129134  0.0038906  nan  nan  nan  nan  nan  nan  -0.999981  -2.23e-05  1.00002  0.00109263  -0.0165378  -1.63689e-05  0.0010145  -0.0013731  0.000961  0  0  0  0  0  0  0.0148578  -0.00830416  -0.00453069  -0.0122297  0.0198268  -0.00452306  -0.0173016  0.00592782  -0.00512668  -0.0102153  -0.0287092  0.0026343 
1699890556.816313000  0  0  11.3074  0.0828895  -0.0038592  0.00329194  nan  nan  nan  nan  nan  nan  -0.999975  -3e-05  1.00002  0.0010182  -0.0165689  -1.50696e-05  0.0011672  -0.001715  0.0010968  0  0  0  0  0  0  0.0148562  -0.00832243  -0.00453053  -0.0121944  0.0197734  -0.00419084  -0.0172856  0.00566036  -0.00503075  -0.00675108  -0.0443569  0.00915826 
1699890556.821320000  0  0  11.2577  0.0523701  -0.00763706  0.00324353  nan  nan  nan  nan  nan  nan  -0.999969  -3.96e-05  1.00003  0.0025715  -0.015913  -3.92187e-05  0.0013155  -0.0021094  0.0012257  0  0  0  0  0  0  0.0147918  -0.00821535  -0.00451425  -0.0129632  0.0214727  -9.96057e-05  -0.0180461  0.00492241  -0.00497761  0.0612839  -0.0300121  0.00923197 
1699890556.826307000  0  0  11.3285  0.066721  -0.0298043  0.00203891  nan  nan  nan  nan  nan  nan  -0.999962  -5.12e-05  1.00004  0.00199689  -0.0159624  -3.0474e-05  0.0014556  -0.0025587  0.0013441  0  0  0  0  0  0  0.0148146  -0.00827451  -0.00456902  -0.0128266  0.0209011  -0.00587868  -0.0175657  0.00529744  -0.00477613  0.0281625  0.0108721  0.0222749 
1699890556.831312000  0  0  11.3237  0.0627917  -0.0202333  0.00301182  nan  nan  nan  nan  nan  nan  -0.999954  -6.52e-05  1.00004  0.00142819  -0.0166516  -2.28805e-05  0.0015837  -0.0030604  0.0014482  0  0  0  0  0  0  0.0148568  -0.00835576  -0.00460984  -0.0120618  0.0203651  -0.0053743  -0.0167978  0.0058842  -0.00477671  0.0289567  -0.0136681  0.0101193 
1699890556.836311000  0  0  11.2763  0.0471564  -0.0430067  0.00412015  nan  nan  nan  nan  nan  nan  -0.999946  -8.19e-05  1.00005  0.00306189  -0.0161322  -4.93932e-05  0.0016961  -0.0036108  0.0015342  0  0  0  0  0  0  0.014794  -0.0082454  -0.00460109  -0.0126603  0.0221591  -0.00146585  -0.0177857  0.00578018  -0.00486812  0.0693153  0.0328358  -0.00282063 
1699890556.841313000  0  0  11.3388  0.0614537  -0.0635417  0.00420453  nan  nan  nan  nan  nan  nan  -0.999938  -0.0001014  1.00006  0.00253836  -0.0165412  -4.32857e-05  0.001789  -0.0042061  0.0015988  0  0  0  0  0  0  0.0148361  -0.00829426  -0.00468762  -0.0121267  0.0216293  -0.00647942  -0.0172071  0.00678392  -0.00488193  0.0353978  0.0646712  -0.00373732 
1699890556.846312000  0  0  11.3095  0.0619136  -0.0360271  0.00475973  nan  nan  nan  nan  nan  nan  -0.999928  -0.000124  1.00007  0.00378552  -0.0163458  -6.49749e-05  0.0018593  -0.0048425  0.0016434  0  0  0  0  0  0  0.0147754  -0.00818269  -0.00469421  -0.0122908  0.0229402  -0.00404005  -0.0182216  0.00632092  -0.00495621  0.0438112  0.0139018  -0.00993446 
1699890556.851313000  0  0  11.2868  0.0555692  -0.0695369  0.00440139  nan  nan  nan  nan  nan  nan  -0.999919  -0.0001499  1.00007  0.00406781  -0.0165254  -7.27196e-05  0.0019086  -0.0055164  0.0016716  0  0  0  0  0  0  0.0147836  -0.00821007  -0.00466875  -0.0121248  0.0233455  -0.00220285  -0.0181222  0.00722812  -0.00494257  0.0555862  0.072575  -0.00559167 
1699890556.856780000  0  0  11.3327  0.0690799  -0.079382  0.00424701  nan  nan  nan  nan  nan  nan  -0.999909  -0.0001792  1.00008  0.00393446  -0.0170002  -7.55835e-05  0.0019405  -0.0062239  0.0016872  0  0  0  0  0  0  0.0148001  -0.00821888  -0.00470995  -0.0114793  0.0232178  -0.00594098  -0.0179655  0.00827244  -0.00492317  0.0271226  0.0826576  -0.00385589 
1699890556.861312000  0  0  11.2689  0.0674662  -0.0437002  0.00420146  nan  nan  nan  nan  nan  nan  -0.9999  -0.0002122  1.00009  0.00529788  -0.0166965  -0.000101153  0.0019589  -0.0069612  0.0016939  0  0  0  0  0  0  0.0147457  -0.00810618  -0.00469064  -0.0118585  0.0246465  -0.000679604  -0.0190734  0.00757197  -0.00491914  0.0405432  0.0177383  -0.00332683 
1699890556.866311000  0  0  11.2401  0.0718798  -0.067656  0.00350472  nan  nan  nan  nan  nan  nan  -0.99989  -0.0002489  1.0001  0.0057361  -0.0167725  -0.000114005  0.0019674  -0.0077248  0.0016954  0  0  0  0  0  0  0.0147613  -0.00811384  -0.00466415  -0.0118515  0.0251937  0.00166042  -0.0193176  0.00823101  -0.00482024  0.0339626  0.0595867  0.00439341 
1699890556.871315000  0  0  11.2702  0.0810335  -0.0552207  0.0036577  nan  nan  nan  nan  nan  nan  -0.99988  -0.0002895  1.00011  0.00682412  -0.0164981  -0.000136582  0.0019699  -0.0085107  0.0016955  0  0  0  0  0  0  0.0147027  -0.00798717  -0.00468904  -0.0120085  0.0262939  -0.000806144  -0.0203376  0.0080609  -0.00480085  0.0250389  0.0362811  0.00228722 
1699890556.876311000  0  0  11.2118  0.0744618  -0.0312086  0.00353185  nan  nan  nan  nan  nan  nan  -0.99987  -0.000334  1.00012  0.00720963  -0.0171514  -0.000155152  0.0019701  -0.0093153  0.0016955  0  0  0  0  0  0  0.0147395  -0.00800525  -0.00464531  -0.0113829  0.0267697  0.00397314  -0.0204065  0.00832396  -0.00472953  0.0388165  -0.0141633  0.00314712 
1699890556.881311000  0  0  11.2169  0.0824642  -0.0543142  0.0029857  nan  nan  nan  nan  nan  nan  -0.99986  -0.0003826  1.00013  0.00766271  -0.0168543  -0.000169646  0.0019701  -0.0101348  0.0016955  0  0  0  0  0  0  0.0147605  -0.00801685  -0.00462667  -0.01179  0.0273642  0.00350351  -0.0207586  0.00846973  -0.00462369  0.0260508  0.0307069  0.0089156 
1699890556.886310000  0  0  11.2841  0.095072  -0.0453544  0.00375811  nan  nan  nan  nan  nan  nan  -0.99985  -0.0004354  1.00013  0.00868908  -0.016713  -0.000196317  0.0019701  -0.0109655  0.0016955  0  0  0  0  0  0  0.0147055  -0.00788103  -0.00465565  -0.0117182  0.0284064  -0.00205307  -0.0218419  0.00834666  -0.00465905  0.0108018  0.0139196  -0.000385838 
1699890556.891312000  0  0  11.2345  0.0883261  -0.0228332  0.00490329  nan  nan  nan  nan  nan  nan  -0.999841  -0.0004923  1.00014  0.0092244  -0.0170889  -0.000221132  0.0019701  -0.0118035  0.0016955  0  0  0  0  0  0  0.0147342  -0.0078722  -0.00461589  -0.0114044  0.0290067  0.00200293  -0.022114  0.00825223  -0.0047495  0.0267964  -0.0302542  -0.0137961 
1699890556.896313000  0  0  11.2533  0.101412  -0.0425377  0.0044357  nan  nan  nan  nan  nan  nan  -0.999831  -0.0005534  1.00015  0.0106811  -0.0163073  -0.00025218  0.0019701  -0.0126452  0.0016955  0  0  0  0  0  0  0.0146722  -0.00772353  -0.00462207  -0.0122071  0.0305175  0.000419758  -0.0235587  0.00779503  -0.00473609  0.0139152  0.0133612  -0.00808534 
1699890556.901310000  0  0  11.2991  0.0928967  -0.0233289  0.00489017  nan  nan  nan  nan  nan  nan  -0.999821  -0.0006188  1.00016  0.0106416  -0.0166488  -0.00027197  0.0019701  -0.0134869  0.0016955  0  0  0  0  0  0  0.0147046  -0.00770904  -0.00465349  -0.0117671  0.0304894  -0.00331749  -0.0232558  0.00778346  -0.00479179  0.0281605  -0.0249499  -0.0132093 
1699890556.906314000  0  0  11.2497  0.0844935  -0.01382  0.00422639  nan  nan  nan  nan  nan  nan  -0.999811  -0.0006883  1.00017  0.0109912  -0.0173298  -0.000304473  0.0019701  -0.0143246  0.0016955  0  0  0  0  0  0  0.0147523  -0.00771423  -0.00463727  -0.0111128  0.0308787  0.000775595  -0.0232545  0.00802752  -0.00472797  0.0449542  -0.0462132  -0.0055502 
1699890556.911263000  0  0  11.2731  0.0962967  -0.0303071  0.00312349  nan  nan  nan  nan  nan  nan  -0.999801  -0.000762  1.00018  0.0123222  -0.016542  -0.000339635  0.0019701  -0.0151548  0.0016955  0  0  0  0  0  0  0.0146923  -0.00755811  -0.00465426  -0.01192  0.0322279  -0.00116051  -0.024495  0.00743926  -0.00459381  0.0327611  -0.00782705  0.00689448 
1699890556.916310000  0  0  11.3378  0.0805587  -0.012442  0.00417071  nan  nan  nan  nan  nan  nan  -0.999791  -0.0008398  1.00018  0.0120954  -0.0168162  -0.000363999  0.0019701  -0.0159736  0.0016955  0  0  0  0  0  0  0.0147189  -0.00755533  -0.00469574  -0.0115147  0.0320236  -0.00644735  -0.0238062  0.0073068  -0.00465597  0.0578993  -0.0423386  -0.00557421 
1699890556.921313000  0  0  11.2753  0.090089  -0.0122292  0.00476926  nan  nan  nan  nan  nan  nan  -0.999781  -0.0009217  1.00019  0.0137737  -0.0166385  -0.000417778  0.0019701  -0.0167773  0.0016955  0  0  0  0  0  0  0.0146621  -0.00738867  -0.00467341  -0.0117261  0.0336718  -0.00129402  -0.0252496  0.00689047  -0.00471466  0.0521185  -0.0389339  -0.0124691 
1699890556.926312000  0  0  11.2964  0.0895535  -0.0351974  0.00371309  nan  nan  nan  nan  nan  nan  -0.999772  -0.0010076  1.0002  0.0134834  -0.0166683  -0.000444649  0.0019701  -0.0175622  0.0016955  0  0  0  0  0  0  0.0146867  -0.0073943  -0.00469788  -0.011704  0.0333514  -0.00299811  -0.0247248  0.00724999  -0.00458879  0.0483614  0.00369486  -0.000525734 
1699890556.931259000  0  0  11.3303  0.0628727  -0.0176759  0.00360171  nan  nan  nan  nan  nan  nan  -0.999762  -0.0010973  1.00021  0.0130268  -0.0168386  -0.000474255  0.0019701  -0.0183245  0.0016955  0  0  0  0  0  0  0.01472  -0.00740391  -0.00473979  -0.0115011  0.0328473  -0.00571071  -0.023528  0.00709  -0.00453068  0.0907118  -0.0298763  0.000285431 
1699890556.936311000  0  0  11.264  0.0692874  -0.0224422  0.0026865  nan  nan  nan  nan  nan  nan  -0.999752  -0.0011908  1.00022  0.0144301  -0.0168671  -0.000537199  0.0019701  -0.0190604  0.0016955  0  0  0  0  0  0  0.0146652  -0.00723442  -0.00471818  -0.0114659  0.0341305  -0.000229404  -0.0244862  0.00702732  -0.00436766  0.0866982  -0.019767  0.0100953 
1699890556.941308000  0  0  11.2822  0.071537  -0.0496697  0.00265949  nan  nan  nan  nan  nan  nan  -0.999742  -0.0012879  1.00023  0.0142791  -0.0169241  -0.000578465  0.0019701  -0.0197662  0.0016955  0  0  0  0  0  0  0.0146741  -0.0072137  -0.00473703  -0.0113796  0.0339232  -0.0017032  -0.0239973  0.0075623  -0.00426573  0.0777012  0.0297662  0.0094137 
1699890556.946313000  0  0  11.3366  0.0469308  -0.0381717  0.00458231  nan  nan  nan  nan  nan  nan  -0.999732  -0.0013884  1.00024  0.0151523  -0.0165741  -0.000635143  0.0019701  -0.0204382  0.0016955  0  0  0  0  0  0  0.0146171  -0.00704347  -0.00478751  -0.0115899  0.0347303  -0.00612285  -0.0239313  0.0071535  -0.00442104  0.126306  0.0105312  -0.0130685 
1699890556.951311000  0  0  11.2814  0.0544624  -0.0488787  0.00547447  nan  nan  nan  nan  nan  nan  -0.999722  -0.0014922  1.00024  0.0149745  -0.0170175  -0.000690536  0.0019701  -0.0210726  0.0016955  0  0  0  0  0  0  0.0146488  -0.00703056  -0.00476209  -0.0112056  0.0343842  -0.00156123  -0.0232982  0.0077796  -0.0045343  0.105419  0.0261851  -0.0230878 
1699890556.956312000  0  0  11.276  0.0609241  -0.0587089  0.0056918  nan  nan  nan  nan  nan  nan  -0.999712  -0.001599  1.00025  0.0160031  -0.0166046  -0.000757835  0.0019701  -0.0216656  0.0016955  0  0  0  0  0  0  0.0145911  -0.00685619  -0.00477193  -0.0116028  0.0352756  -0.00108809  -0.0239091  0.00773868  -0.00460346  0.0981156  0.046222  -0.0251129 
1699890556.961312000  0  0  11.3123  0.0255789  -0.0414007  0.00600039  nan  nan  nan  nan  nan  nan  -0.999703  -0.0017087  1.00026  0.0154454  -0.0167973  -0.00081265  0.0019701  -0.0222136  0.0016955  0  0  0  0  0  0  0.0146176  -0.00685789  -0.00480329  -0.0113525  0.0346408  -0.00401925  -0.0221778  0.00773153  -0.00470378  0.152878  0.0116713  -0.027967 
1699890556.966311000  0  0  11.262  0.0322626  -0.04571  0.00444712  nan  nan  nan  nan  nan  nan  -0.999693  -0.0018211  1.00027  0.0146435  -0.0176136  -0.000877329  0.0019701  -0.0227126  0.0016955  0  0  0  0  0  0  0.014674  -0.00690109  -0.00477791  -0.0105502  0.0336443  0.000141787  -0.0208237  0.00856926  -0.00458883  0.127053  0.0125829  -0.00970072 
1699890556.971266000  0  0  11.2588  0.0581669  -0.0581788  0.00385046  nan  nan  nan  nan  nan  nan  -0.999683  -0.0019358  1.00028  0.0155648  -0.0172255  -0.000958919  0.0019701  -0.0231591  0.0016955  0  0  0  0  0  0  0.0146198  -0.00673069  -0.00478325  -0.010919  0.0344121  0.000410367  -0.0216208  0.00853083  -0.00448563  0.082578  0.0378739  -0.00327448 
1699890556.976313000  0  0  11.2826  0.0256179  -0.0416443  0.00459142  nan  nan  nan  nan  nan  nan  -0.999673  -0.0020526  1.00029  0.0153359  -0.0173766  -0.00103389  0.0019701  -0.0235507  0.0016955  0  0  0  0  0  0  0.0146465  -0.00672294  -0.00480149  -0.0107425  0.0341467  -0.00150701  -0.0203523  0.0084876  -0.00450929  0.136006  0.00520275  -0.0122999 
1699890556.981313000  0  0  11.2537  0.0519584  -0.039637  0.00440259  nan  nan  nan  nan  nan  nan  -0.999663  -0.0021712  1.0003  0.0158143  -0.0171784  -0.00112107  0.0019701  -0.0238899  0.0016955  0  0  0  0  0  0  0.014593  -0.00655512  -0.0047892  -0.0109252  0.0343212  0.000874072  -0.0206866  0.00826663  -0.00448132  0.0863997  0.00322109  -0.0102192 
1699890556.986296000  0  0  11.2397  0.0602446  -0.0490371  0.00351131  nan  nan  nan  nan  nan  nan  -0.999653  -0.0022914  1.0003  0.0156299  -0.0171736  -0.00120543  0.0019701  -0.0241806  0.0016955  0  0  0  0  0  0  0.0146437  -0.00654389  -0.00478249  -0.0110691  0.0340396  0.00202457  -0.0202688  0.00843827  -0.00431012  0.0659835  0.0204422  -0.000790169 
1699890556.991314000  0  0  11.2459  0.0298965  -0.0260342  0.00311713  nan  nan  nan  nan  nan  nan  -0.999643  -0.0024129  1.00031  0.0150299  -0.0174235  -0.00129218  0.0019701  -0.0244265  0.0016955  0  0  0  0  0  0  0.0146916  -0.00656946  -0.00477965  -0.0108512  0.0333544  0.00152998  -0.0187762  0.00827341  -0.0041609  0.112948  -0.024047  0.00264486 
1699890556.996430000  0  0  11.2338  0.0711477  -0.0267532  0.00170921  nan  nan  nan  nan  nan  nan  -0.999634  -0.0025356  1.00032  0.0156166  -0.0171391  -0.00139696  0.0019701  -0.0246313  0.0016955  0  0  0  0  0  0  0.0146383  -0.00640273  -0.00476667  -0.0111083  0.0336945  0.00250605  -0.0195447  0.00787648  -0.00388436  0.0375161  -0.0189571  0.0174785 
1699890557.001307000  0  0  11.2415  0.0763201  -0.0334332  0.00170994  nan  nan  nan  nan  nan  nan  -0.999624  -0.0026592  1.00033  0.0155945  -0.0167961  -0.00149614  0.0019701  -0.0247989  0.0016955  0  0  0  0  0  0  0.0146412  -0.00636038  -0.00475133  -0.0115266  0.0335847  0.00182591  -0.0194982  0.00759577  -0.00371019  0.026743  -0.00301477  0.0157276 
1699890557.005290000  0  0  11.2372  0.0600935  -0.013324  0.00290688  nan  nan  nan  nan  nan  nan  -0.999614  -0.0027835  1.00034  0.0164689  -0.0164549  -0.00161601  0.0019701  -0.0249328  0.0016955  0  0  0  0  0  0  0.0145934  -0.00619847  -0.00474458  -0.0118506  0.0343074  0.00218047  -0.0198681  0.0068798  -0.00368437  0.0625996  -0.0366462  0.000507647 
1699890557.011258000  0  0  11.2245  0.0800598  -0.00625596  0.00288741  nan  nan  nan  nan  nan  nan  -0.999604  -0.0029085  1.00035  0.0161828  -0.0165636  -0.00172996  0.0019701  -0.025037  0.0016955  0  0  0  0  0  0  0.014601  -0.00612183  -0.00473448  -0.0117534  0.0337544  0.00321749  -0.0196506  0.00657603  -0.00355321  0.0206657  -0.0479875  -0.000560529 
1699890557.016303000  0  0  11.2431  0.0774948  -0.0147154  0.00293802  nan  nan  nan  nan  nan  nan  -0.999594  -0.0030339  1.00035  0.0157104  -0.0164677  -0.00184352  0.0019701  -0.0251151  0.0016955  0  0  0  0  0  0  0.0146642  -0.00613059  -0.00476008  -0.0119782  0.0332148  0.00172191  -0.0190776  0.00640633  -0.00342342  0.0205246  -0.0295075  -0.00249108 
1699890557.021305000  0  0  11.245  0.0632804  0.00453912  0.00339982  nan  nan  nan  nan  nan  nan  -0.999584  -0.0031596  1.00036  0.016455  -0.0161475  -0.00197962  0.0019701  -0.0251709  0.0016955  0  0  0  0  0  0  0.0146062  -0.00596297  -0.00475339  -0.0122418  0.0337738  0.00156243  -0.0193245  0.00558253  -0.00336823  0.0512247  -0.0604375  -0.00881542 
1699890557.026307000  0  0  11.2501  0.0969508  -0.00932929  0.00227815  nan  nan  nan  nan  nan  nan  -0.999575  -0.0032855  1.00037  0.0151477  -0.016705  -0.00210215  0.0019701  -0.0252082  0.0016955  0  0  0  0  0  0  0.01466  -0.00600686  -0.00476881  -0.0116558  0.0322424  0.00116201  -0.018613  0.00607266  -0.00313831  -0.0226625  -0.0372099  0.00290617 
1699890557.031254000  0  0  11.258  0.0933495  -0.0149743  0.00235933  nan  nan  nan  nan  nan  nan  -0.999565  -0.0034116  1.00038  0.0149137  -0.0166327  -0.00223856  0.0019701  -0.0252306  0.0016955  0  0  0  0  0  0  0.0146933  -0.00597633  -0.00479665  -0.0118038  0.0318923  0.000565851  -0.018429  0.00590953  -0.00299274  -0.0171519  -0.0244191  0.000435832 
1699890557.036304000  0  0  11.255  0.0744544  -0.00461247  0.00456509  nan  nan  nan  nan  nan  nan  -0.999555  -0.0035378  1.00039  0.0154878  -0.016437  -0.00239278  0.0019701  -0.025242  0.0016955  0  0  0  0  0  0  0.0146359  -0.00581572  -0.00479134  -0.0119221  0.0322458  0.000809137  -0.0185966  0.0053886  -0.00314469  0.0221799  -0.0403502  -0.0256167 
1699890557.041301000  0  0  11.2585  0.100342  -0.0215081  0.00387759  nan  nan  nan  nan  nan  nan  -0.999545  -0.003664  1.0004  0.0146135  -0.0169994  -0.00254053  0.0019701  -0.0252461  0.0016955  0  0  0  0  0  0  0.0146869  -0.00580208  -0.00481848  -0.0113252  0.0311229  0.000569808  -0.0182237  0.00601475  -0.0030221  -0.0330262  -0.0123195  -0.0182488 
1699890557.046305000  0  0  11.26  0.0855465  -0.0208724  0.00352207  nan  nan  nan  nan  nan  nan  -0.999535  -0.0037903  1.00041  0.0154483  -0.0163921  -0.00270554  0.0019701  -0.0252466  0.0016955  0  0  0  0  0  0  0.0146266  -0.00564172  -0.00481841  -0.0119423  0.0318121  0.000439407  -0.0188578  0.00542266  -0.00291098  0.00239864  -0.00814377  -0.0149162 
1699890557.051307000  0  0  11.2749  0.0656929  -0.0229558  0.00326493  nan  nan  nan  nan  nan  nan  -0.999525  -0.0039165  1.00041  0.0147443  -0.0169646  -0.00286884  0.0019701  -0.0252462  0.0016955  0  0  0  0  0  0  0.0146815  -0.005626  -0.00485341  -0.0113197  0.0309149  -0.000710446  -0.0177552  0.00588689  -0.00278714  0.0319625  -0.00824782  -0.0129402 
1699890557.056305000  0  0  11.3063  0.0910415  -0.0502323  0.00226936  nan  nan  nan  nan  nan  nan  -0.999515  -0.0040427  1.00042  0.0142872  -0.0174498  -0.00304071  0.0019701  -0.0252424  0.0016955  0  0  0  0  0  0  0.0147025  -0.0055671  -0.00489264  -0.0106956  0.0302557  -0.0032513  -0.0177041  0.00679896  -0.00254784  -0.0192057  0.0379141  -0.00288862 
1699890557.061243000  0  0  11.3034  0.0718293  -0.0522943  0.00268813  nan  nan  nan  nan  nan  nan  -0.999506  -0.0041689  1.00043  0.0150344  -0.0170011  -0.00322591  0.0019701  -0.0252316  0.0016955  0  0  0  0  0  0  0.0146475  -0.00541222  -0.00490175  -0.0111365  0.0308431  -0.00298713  -0.0180998  0.00663164  -0.00243832  0.0228591  0.0435774  -0.00921843 
1699890557.066299000  0  0  11.3074  0.0494995  -0.0565335  0.00320382  nan  nan  nan  nan  nan  nan  -0.999496  -0.004295  1.00044  0.0141806  -0.0175672  -0.00340462  0.0019701  -0.02521  0.0016955  0  0  0  0  0  0  0.0146946  -0.00538733  -0.00495022  -0.0105228  0.0297153  -0.00321031  -0.0167256  0.00740615  -0.00237914  0.0548761  0.0449305  -0.0162563 
1699890557.071307000  0  0  11.3193  0.0657496  -0.0676109  0.00255187  nan  nan  nan  nan  nan  nan  -0.999486  -0.004421  1.00045  0.0143699  -0.0174805  -0.0035981  0.0019701  -0.0251737  0.0016955  0  0  0  0  0  0  0.0146435  -0.00523996  -0.00497355  -0.0104905  0.0296408  -0.00415968  -0.0169816  0.00775618  -0.00220136  0.0247311  0.0638649  -0.00988476 
1699890557.076303000  0  0  11.2994  0.0347814  -0.0682324  0.00232635  nan  nan  nan  nan  nan  nan  -0.999476  -0.0045467  1.00046  0.0141159  -0.0177975  -0.00379583  0.0019701  -0.0251192  0.0016955  0  0  0  0  0  0  0.0147109  -0.00522993  -0.00501485  -0.010279  0.0292617  -0.00239574  -0.0159701  0.00832721  -0.00202546  0.077362  0.0598544  -0.0088247 
1699890557.081302000  0  0  11.3132  0.0336669  -0.0730742  0.00213865  nan  nan  nan  nan  nan  nan  -0.999466  -0.0046722  1.00046  0.0130629  -0.0184581  -0.00398962  0.0019701  -0.0250426  0.0016955  0  0  0  0  0  0  0.0147713  -0.00521791  -0.0050656  -0.00955736  0.0279251  -0.00343542  -0.0145708  0.0092956  -0.00185158  0.0667176  0.0606288  -0.00821731 
1699890557.086301000  0  0  11.3218  0.0557474  -0.0760831  0.00248013  nan  nan  nan  nan  nan  nan  -0.999456  -0.0047971  1.00047  0.0132173  -0.0183155  -0.00420068  0.0019701  -0.0249402  0.0016955  0  0  0  0  0  0  0.0147245  -0.00507921  -0.00508962  -0.00961066  0.0278194  -0.00410345  -0.0148895  0.00950238  -0.00173504  0.0254886  0.0647442  -0.0136512 
1699890557.091252000  0  0  11.3094  0.0347876  -0.0752147  0.0035808  nan  nan  nan  nan  nan  nan  -0.999446  -0.0049215  1.00048  0.0128042  -0.0187034  -0.00441448  0.0019701  -0.0248082  0.0016955  0  0  0  0  0  0  0.0147853  -0.00505973  -0.0051332  -0.00928248  0.0272316  -0.00297293  -0.0139384  0.0101258  -0.00173792  0.058658  0.0572724  -0.0273807 
1699890557.096305000  0  0  11.3282  0.0410131  -0.0729112  0.00400072  nan  nan  nan  nan  nan  nan  -0.999437  -0.0050451  1.00049  0.0128302  -0.0182531  -0.00463189  0.0019701  -0.0246429  0.0016955  0  0  0  0  0  0  0.0147373  -0.00492541  -0.00516454  -0.00969972  0.02699  -0.00448161  -0.0137696  0.0099166  -0.00172821  0.0446539  0.0545897  -0.0327269 
1699890557.101301000  0  0  11.3017  0.0553189  -0.0600644  0.00303421  nan  nan  nan  nan  nan  nan  -0.999427  -0.0051679  1.0005  0.0120475  -0.0187929  -0.00485301  0.0019701  -0.0244405  0.0016955  0  0  0  0  0  0  0.0147963  -0.00490837  -0.0051901  -0.00920832  0.0259231  -0.00220971  -0.0131336  0.0104033  -0.00153966  0.0101917  0.0244186  -0.022531 
1699890557.105298000  0  0  11.2684  0.0416289  -0.0516351  0.00259246  nan  nan  nan  nan  nan  nan  -0.999417  -0.0052895  1.00051  0.0124826  -0.0182901  -0.00509011  0.0019701  -0.0241973  0.0016955  0  0  0  0  0  0  0.0147539  -0.00477729  -0.0051828  -0.00980716  0.0261298  0.000549274  -0.0132142  0.00986257  -0.00135336  0.0383131  0.0125345  -0.0188721 
1699890557.111377000  0  0  11.3026  0.0497143  -0.0518645  0.00235659  nan  nan  nan  nan  nan  nan  -0.999407  -0.0054098  1.00052  0.0114618  -0.0185822  -0.00531618  0.0019701  -0.0239095  0.0016955  0  0  0  0  0  0  0.0148145  -0.00479598  -0.0052296  -0.00950851  0.0249293  -0.00220327  -0.0121986  0.0102401  -0.00121639  0.0127986  0.00952041  -0.0172936 
1699890557.116302000  0  0  11.2775  0.0713947  -0.0393105  0.00215491  nan  nan  nan  nan  nan  nan  -0.999397  -0.0055285  1.00052  0.0108325  -0.01898  -0.0055565  0.0019701  -0.0235734  0.0016955  0  0  0  0  0  0  0.0148699  -0.0047936  -0.00522045  -0.00918602  0.0240953  -0.000131593  -0.0119967  0.0104209  -0.00103766  -0.0324194  -0.0172512  -0.0165598 
1699890557.121303000  0  0  11.2202  0.059556  -0.0317696  0.00272075  nan  nan  nan  nan  nan  nan  -0.999387  -0.0056454  1.00053  0.0111527  -0.0182859  -0.00580873  0.0019701  -0.0231852  0.0016955  0  0  0  0  0  0  0.0148192  -0.00467166  -0.00518652  -0.0100542  0.0241542  0.00457133  -0.012176  0.00955027  -0.000960516  -0.00709318  -0.0243232  -0.0244042 
1699890557.126300000  0  0  11.2642  0.0583593  -0.0289339  0.00214342  nan  nan  nan  nan  nan  nan  -0.999378  -0.0057603  1.00054  0.010255  -0.0184898  -0.00605461  0.0019701  -0.0227412  0.0016955  0  0  0  0  0  0  0.0148632  -0.00466744  -0.00522131  -0.00981076  0.0230678  0.000982581  -0.0113744  0.00959593  -0.000757124  -0.0120744  -0.0304147  -0.0192215 
1699890557.130296000  0  0  11.2535  0.0726577  -0.00982393  0.00167246  nan  nan  nan  nan  nan  nan  -0.999368  -0.0058727  1.00055  0.0103825  -0.0180045  -0.00631833  0.0019701  -0.0222377  0.0016955  0  0  0  0  0  0  0.0148202  -0.00455181  -0.00521414  -0.0103397  0.0229558  0.00185692  -0.0117998  0.0086839  -0.000522934  -0.0367571  -0.060244  -0.0156764 
1699890557.136296000  0  0  11.195  0.067823  -0.00636287  0.00148164  nan  nan  nan  nan  nan  nan  -0.999358  -0.0059825  1.00056  0.00970213  -0.0179152  -0.00657781  0.0019701  -0.0216708  0.0016955  0  0  0  0  0  0  0.0148411  -0.00453567  -0.00517897  -0.010617  0.0220018  0.00665643  -0.0112771  0.00817613  -0.000340664  -0.0318965  -0.0624946  -0.0151139 
1699890557.140297000  0  0  11.261  0.0614438  -0.0101656  0.00186764  nan  nan  nan  nan  nan  nan  -0.999348  -0.0060893  1.00057  0.00960244  -0.0174952  -0.00685099  0.0019701  -0.0210368  0.0016955  0  0  0  0  0  0  0.0147973  -0.00442625  -0.00520972  -0.0109108  0.0217016  0.00121772  -0.0111703  0.00764681  -0.000192121  -0.0201204  -0.0500194  -0.0214242 
1699890557.146310000  0  0  11.2693  0.0702676  -0.007111  0.00276872  nan  nan  nan  nan  nan  nan  -0.999338  -0.0061928  1.00057  0.00868197  -0.0177505  -0.0071222  0.0019701  -0.0203326  0.0016955  0  0  0  0  0  0  0.0148344  -0.00444067  -0.00521545  -0.0106624  0.0205815  0.000538699  -0.0106197  0.00752243  -0.000169445  -0.0428337  -0.0549844  -0.0329146 
1699890557.151306000  0  0  11.2134  0.0667547  -0.00904688  0.00319861  nan  nan  nan  nan  nan  nan  -0.999328  -0.0062925  1.00058  0.0075731  -0.0177395  -0.00739384  0.0019701  -0.0195595  0.0016955  0  0  0  0  0  0  0.014861  -0.00445415  -0.00519661  -0.0108533  0.0191706  0.00516269  -0.0097424  0.0073134  -0.000109733  -0.0438794  -0.0491895  -0.0388853 
1699890557.156305000  0  0  11.2939  0.0489888  -0.0113034  0.00311922  nan  nan  nan  nan  nan  nan  -0.999318  -0.0063883  1.00059  0.00646196  -0.0179289  -0.00767305  0.0019701  -0.0187213  0.0016955  0  0  0  0  0  0  0.0148899  -0.00446459  -0.00526507  -0.0105287  0.0178579  -0.00139969  -0.008615  0.00731615  -2.03506e-05  -0.0187197  -0.0447017  -0.0387868 
1699890557.161302000  0  0  11.2986  0.0552986  -0.0123945  0.00190183  nan  nan  nan  nan  nan  nan  -0.999309  -0.0064796  1.0006  0.00620953  -0.0175393  -0.00797001  0.0019701  -0.0178216  0.0016955  0  0  0  0  0  0  0.014838  -0.00437608  -0.00526841  -0.0108932  0.0173448  -0.0017904  -0.00859214  0.0067709  0.000232137  -0.0315495  -0.0375033  -0.0260942 
1699890557.166305000  0  0  11.211  0.0502512  -0.0183726  0.00145198  nan  nan  nan  nan  nan  nan  -0.999299  -0.0065664  1.00061  0.00498768  -0.0176087  -0.00825912  0.0019701  -0.0168643  0.0016955  0  0  0  0  0  0  0.01485  -0.00438893  -0.00522827  -0.0110152  0.0157851  0.00543376  -0.00751654  0.00684131  0.000451082  -0.0313502  -0.0261948  -0.0226606 
1699890557.171330000  0  0  11.2912  0.0420846  -0.0236413  0.00196687  nan  nan  nan  nan  nan  nan  -0.999289  -0.0066482  1.00062  0.0045594  -0.0172315  -0.00856626  0.0019701  -0.0158531  0.0016955  0  0  0  0  0  0  0.014796  -0.00431106  -0.00527197  -0.0112138  0.0151151  -0.00116149  -0.00711253  0.00648708  0.000555703  -0.018734  -0.0123985  -0.030143 
1699890557.176304000  0  0  11.3017  0.0393509  -0.0382872  0.00215536  nan  nan  nan  nan  nan  nan  -0.999279  -0.0067248  1.00063  0.00365403  -0.0177947  -0.00887542  0.0019701  -0.0147918  0.0016955  0  0  0  0  0  0  0.0148458  -0.00432368  -0.00530046  -0.0106054  0.0139984  -0.00197521  -0.00632781  0.00723479  0.00066618  -0.0204859  0.0100143  -0.0336038 
1699890557.181305000  0  0  11.2069  0.0421453  -0.0459817  0.00215815  nan  nan  nan  nan  nan  nan  -0.999269  -0.006796  1.00063  0.00154649  -0.01859  -0.00916805  0.0019701  -0.0136841  0.0016955  0  0  0  0  0  0  0.0149218  -0.00443576  -0.00527002  -0.00999485  0.0115707  0.00587413  -0.00457081  0.00820679  0.00079406  -0.0422392  0.016461  -0.0349174 
1699890557.186303000  0  0  11.2868  0.0284599  -0.0475868  0.00241186  nan  nan  nan  nan  nan  nan  -0.999259  -0.0068616  1.00064  0.001153  -0.0179887  -0.00949524  0.0019701  -0.0125337  0.0016955  0  0  0  0  0  0  0.0148696  -0.00437749  -0.00531353  -0.0104718  0.0109595  -0.000701784  -0.00413821  0.00776861  0.000896218  -0.0188484  0.0237025  -0.0391104 
1699890557.191305000  0  0  11.3162  0.0286604  -0.0641103  0.00211131  nan  nan  nan  nan  nan  nan  -0.999249  -0.0069213  1.00065  -0.000656545  -0.0191947  -0.0098033  0.0019701  -0.0113444  0.0016955  0  0  0  0  0  0  0.0149604  -0.00449664  -0.00537296  -0.0091204  0.00893043  -0.00301011  -0.0026054  0.00931459  0.00104036  -0.033351  0.0425263  -0.036795 
1699890557.196303000  0  0  11.2363  0.0437675  -0.0688362  0.00192909  nan  nan  nan  nan  nan  nan  -0.99924  -0.006975  1.00066  -0.00138714  -0.0187687  -0.0101375  0.0019701  -0.01012  0.0016955  0  0  0  0  0  0  0.0149116  -0.00445541  -0.00532657  -0.00972361  0.00793157  0.00353933  -0.002389  0.00922338  0.00121124  -0.0655561  0.0528173  -0.036226 
1699890557.201305000  0  0  11.3012  0.0264024  -0.0713467  0.00233375  nan  nan  nan  nan  nan  nan  -0.99923  -0.0070225  1.00067  -0.00258124  -0.018917  -0.0104687  0.0019701  -0.0088642  0.0016955  0  0  0  0  0  0  0.014941  -0.0045274  -0.00536943  -0.00948387  0.00657101  -0.00177751  -0.00118796  0.00972756  0.00132379  -0.0418755  0.0531998  -0.0424097 
1699890557.205299000  0  0  11.3246  0.0316463  -0.0682681  0.00230431  nan  nan  nan  nan  nan  nan  -0.99922  -0.0070636  1.00068  -0.00336826  -0.019059  -0.0108134  0.0019701  -0.0075807  0.0016955  0  0  0  0  0  0  0.0149052  -0.0044962  -0.00539106  -0.00918862  0.00549404  -0.00367764  -0.000720244  0.00997626  0.00148453  -0.0566664  0.0447546  -0.0436491 
1699890557.211306000  0  0  11.2513  0.0454371  -0.0737468  0.00145852  nan  nan  nan  nan  nan  nan  -0.99921  -0.0070982  1.00069  -0.00486433  -0.0192793  -0.0110382  0.0019701  -0.0062733  0.0016955  0  0  0  0  0  0  0.0149298  -0.00458697  -0.00535485  -0.00914439  0.00384614  0.00235613  8.45199e-05  0.0106214  0.00160054  -0.0916517  0.0497767  -0.0342369 
1699890557.216303000  0  0  11.2975  0.0293919  -0.061182  0.00240987  nan  nan  nan  nan  nan  nan  -0.9992  -0.0071263  1.00069  -0.00602297  -0.0194066  -0.0110151  0.0019701  -0.0049458  0.0016954  0  0  0  0  0  0  0.0149667  -0.00467244  -0.00538212  -0.00898389  0.00255442  -0.00142761  0.00108335  0.0107731  0.00133922  -0.0687506  0.0232512  -0.0435155 
1699890557.221302000  0  0  11.3112  0.0487545  -0.0557956  0.00226552  nan  nan  nan  nan  nan  nan  -0.99919  -0.0071477  1.0007  -0.00668766  -0.0193003  -0.0110029  0.0019701  -0.0036019  0.0016932  0  0  0  0  0  0  0.0149237  -0.00466238  -0.0053987  -0.00900184  0.00168901  -0.00252949  0.000976342  0.0106474  0.00115469  -0.106491  0.0136355  -0.0398659 
1699890557.226301000  0  0  11.2398  0.0551075  -0.0607187  0.00243437  nan  nan  nan  nan  nan  nan  -0.999181  -0.0071623  1.00071  -0.00874352  -0.019772  -0.0109591  0.0019701  -0.0022454  0.0016853  0  0  0  0  0  0  0.0149755  -0.00483174  -0.00533527  -0.00870817  -0.000452873  0.00329826  0.00221782  0.0114112  0.00096838  -0.130619  0.0164548  -0.0401134 
1699890557.231409000  0  0  11.2719  0.0474984  -0.0500818  0.00304038  nan  nan  nan  nan  nan  nan  -0.999171  -0.0071701  1.00072  -0.00984016  -0.0202188  -0.0109331  0.0019701  -0.0008799  0.001668  0  0  0  0  0  0  0.015031  -0.0049405  -0.00535695  -0.00821681  -0.00162208  0.000682639  0.00280722  0.0117531  0.000722491  -0.120823  -0.00796509  -0.0452296 
1699890557.236402000  0  0  11.2289  0.0772795  -0.0452862  0.00236059  nan  nan  nan  nan  nan  nan  -0.999161  -0.0071711  1.00073  -0.0105683  -0.0198963  -0.0109217  0.0019701  0.0004907  0.0016374  0  0  0  0  0  0  0.0149882  -0.00495153  -0.00532887  -0.00863031  -0.00245312  0.00421781  0.00235235  0.0113221  0.00059917  -0.176201  -0.0135909  -0.0354991 
1699890557.241403000  0  0  11.2073  0.0652793  -0.0413336  0.00265021  nan  nan  nan  nan  nan  nan  -0.999151  -0.0071652  1.00074  -0.0116956  -0.0198165  -0.0109002  0.0019701  0.0018626  0.0015898  0  0  0  0  0  0  0.0150124  -0.00507154  -0.00529284  -0.00884608  -0.00356265  0.00594948  0.00277618  0.0112016  0.000414647  -0.156099  -0.0203877  -0.0372741 
1699890557.245386000  0  0  11.2469  0.0556175  -0.0336214  0.00311064  nan  nan  nan  nan  nan  nan  -0.999141  -0.0071525  1.00074  -0.0121279  -0.01944  -0.0108962  0.0019701  0.0032323  0.0015215  0  0  0  0  0  0  0.0149752  -0.00508838  -0.00529708  -0.00915336  -0.00411243  0.00266599  0.00280144  0.010647  0.00022341  -0.137008  -0.0307095  -0.0411171 
1699890557.251399000  0  0  11.2147  0.0806224  -0.0345407  0.00258366  nan  nan  nan  nan  nan  nan  -0.999131  -0.0071329  1.00075  -0.0136856  -0.0198718  -0.01086  0.0019701  0.0045958  0.0014287  0  0  0  0  0  0  0.0150227  -0.0052559  -0.00525663  -0.00881088  -0.00564203  0.00528243  0.00295997  0.0109802  7.59869e-05  -0.188477  -0.0319366  -0.0330556 
1699890557.256445000  0  0  11.2284  0.0704963  -0.0266344  0.00284363  nan  nan  nan  nan  nan  nan  -0.999121  -0.0071065  1.00076  -0.0146468  -0.0197373  -0.0108429  0.0019701  0.0059495  0.0013081  0  0  0  0  0  0  0.0150541  -0.0053892  -0.00525298  -0.00903163  -0.00656374  0.00414728  0.0030822  0.0105933  -0.000103445  -0.169349  -0.0441895  -0.0345109 
1699890557.261399000  0  0  11.278  0.065732  -0.0209563  0.00328873  nan  nan  nan  nan  nan  nan  -0.999112  -0.0070734  1.00076  -0.0150123  -0.0193808  -0.010841  0.0019701  0.0072895  0.0011611  0  0  0  0  0  0  0.0150115  -0.00542365  -0.00525978  -0.00928092  -0.00702203  3.65552e-05  0.00278481  0.00995929  -0.000323535  -0.157084  -0.0497128  -0.0378738 
1699890557.266258000  0  0  11.2177  0.0855742  -0.0266067  0.00281021  nan  nan  nan  nan  nan  nan  -0.999102  -0.0070336  1.00077  -0.0165161  -0.0198684  -0.0108038  0.0019701  0.0086123  0.0009912  0  0  0  0  0  0  0.0150514  -0.00557055  -0.00522718  -0.00891076  -0.00847346  0.00501998  0.00303959  0.0103158  -0.000441657  -0.199113  -0.0416921  -0.0307111 
1699890557.271341000  0  0  11.2316  0.0747643  -0.0132025  0.0031675  nan  nan  nan  nan  nan  nan  -0.999092  -0.0069873  1.00077  -0.016547  -0.018937  -0.0108186  0.0019701  0.0099139  0.0008024  0  0  0  0  0  0  0.015  -0.00561013  -0.00521094  -0.00992901  -0.0084374  0.00382221  0.00232492  0.00901242  -0.000620042  -0.170918  -0.0565092  -0.0333933 
1699890557.276304000  0  0  11.2925  0.0625749  -0.0117654  0.00372462  nan  nan  nan  nan  nan  nan  -0.999082  -0.0069346  1.00078  -0.0176634  -0.0192918  -0.0107912  0.0019701  0.0111906  0.0005983  0  0  0  0  0  0  0.0150318  -0.00576427  -0.00525094  -0.00944306  -0.00961289  -0.0011427  0.00281827  0.00908382  -0.000853702  -0.151078  -0.0600403  -0.0380207 
1699890557.281319000  0  0  11.2476  0.084288  -0.0241021  0.0035031  nan  nan  nan  nan  nan  nan  -0.999072  -0.0068755  1.00078  -0.0189726  -0.0196737  -0.0107587  0.0019701  0.0124388  0.0003827  0  0  0  0  0  0  0.0150558  -0.00591411  -0.00522642  -0.00913165  -0.0108311  0.00257382  0.00285651  0.0094374  -0.00100716  -0.194856  -0.0386199  -0.0337171 
1699890557.286312000  0  0  11.2546  0.0779499  -0.0173378  0.00372339  nan  nan  nan  nan  nan  nan  -0.999062  -0.0068102  1.00078  -0.0188915  -0.0188791  -0.0107753  0.0019701  0.0136546  0.0001593  0  0  0  0  0  0  0.0150048  -0.00596458  -0.0052187  -0.00999595  -0.010622  0.00196435  0.00199357  0.00840676  -0.00117816  -0.174241  -0.0426666  -0.0347608 
1699890557.291320000  0  0  11.3119  0.0667996  -0.0133115  0.00404126  nan  nan  nan  nan  nan  nan  -0.999052  -0.006739  1.00078  -0.0203477  -0.0193942  -0.0107373  0.0019701  0.0148343  -6.81e-05  0  0  0  0  0  0  0.0150668  -0.00616293  -0.00525413  -0.0093872  -0.0121387  -0.00269844  0.00272356  0.0086222  -0.00140158  -0.158656  -0.0527013  -0.0365 
1699890557.295313000  0  0  11.2669  0.0801407  -0.0219101  0.00349701  nan  nan  nan  nan  nan  nan  -0.999043  -0.0066619  1.00078  -0.0208636  -0.0194542  -0.0107261  0.0019701  0.0159741  -0.0002958  0  0  0  0  0  0  0.0150307  -0.0062277  -0.00522731  -0.0093348  -0.0125381  0.00100867  0.00235451  0.00865022  -0.00146781  -0.181943  -0.0357619  -0.0290345 
1699890557.301319000  0  0  11.2628  0.0641511  -0.031116  0.00319288  nan  nan  nan  nan  nan  nan  -0.999033  -0.0065793  1.00078  -0.0213055  -0.0193201  -0.0107203  0.0019701  0.0170704  -0.00052  0  0  0  0  0  0  0.0150446  -0.00638254  -0.00523308  -0.00954816  -0.0127353  0.00137083  0.00203626  0.00855332  -0.00158147  -0.147036  -0.0164586  -0.0240962 
1699890557.306311000  0  0  11.3218  0.0547979  -0.0270394  0.00353425  nan  nan  nan  nan  nan  nan  -0.999023  -0.0064913  1.00077  -0.0223083  -0.0196624  -0.0106933  0.0019701  0.0181193  -0.000737  0  0  0  0  0  0  0.0150798  -0.00655942  -0.00527578  -0.009084  -0.0137484  -0.0034324  0.00246453  0.00872285  -0.00175787  -0.13227  -0.0261714  -0.0265995 
1699890557.311318000  0  0  11.2721  0.0736291  -0.03777  0.00317608  nan  nan  nan  nan  nan  nan  -0.999013  -0.0063982  1.00077  -0.0226326  -0.0195012  -0.0106906  0.0019701  0.019117  -0.000943  0  0  0  0  0  0  0.0150344  -0.00662924  -0.00525337  -0.00929681  -0.0138727  0.000668973  0.00177407  0.0086705  -0.00182824  -0.16358  -0.0042287  -0.0214186 
1699890557.316317000  0  0  11.2886  0.0499793  -0.0441231  0.00396811  nan  nan  nan  nan  nan  nan  -0.999003  -0.0063002  1.00077  -0.0227678  -0.0193652  -0.010691  0.0019701  0.02006  -0.0011342  0  0  0  0  0  0  0.0150588  -0.00679056  -0.00528465  -0.00948798  -0.013724  -0.000647329  0.00160842  0.00867141  -0.00201712  -0.114756  0.00846929  -0.0294302 
1699890557.321323000  0  0  11.3342  0.049483  -0.039949  0.00396167  nan  nan  nan  nan  nan  nan  -0.998993  -0.0061977  1.00076  -0.0229493  -0.0192654  -0.0106898  0.0019701  0.0209443  -0.001307  0  0  0  0  0  0  0.0150144  -0.00686312  -0.00531594  -0.00942075  -0.0139061  -0.00437241  0.00129998  0.00853388  -0.0021583  -0.110926  0.00138626  -0.0279379 
1699890557.326312000  0  0  11.2789  0.0680193  -0.0485084  0.00362823  nan  nan  nan  nan  nan  nan  -0.998984  -0.0060909  1.00075  -0.0238217  -0.019583  -0.0106654  0.0019701  0.0217663  -0.0014575  0  0  0  0  0  0  0.0150464  -0.00704138  -0.00530636  -0.0092221  -0.0144645  0.000235714  0.00117485  0.00899059  -0.00223954  -0.146847  0.0143032  -0.0229574 
1699890557.331348000  0  0  11.2856  0.0479781  -0.0576818  0.00466195  nan  nan  nan  nan  nan  nan  -0.998974  -0.0059802  1.00074  -0.0243048  -0.0198652  -0.0106491  0.0019703  0.0225221  -0.0015821  0  0  0  0  0  0  0.0151021  -0.00725702  -0.00532132  -0.00898372  -0.0146124  -0.000284438  0.00129335  0.00950779  -0.0024762  -0.107855  0.027892  -0.0335124 
1699890557.336318000  0  0  11.3168  0.0542249  -0.0536462  0.00487018  nan  nan  nan  nan  nan  nan  -0.998964  -0.0058658  1.00074  -0.0241948  -0.0197231  -0.0106547  0.0019731  0.0232082  -0.0016769  0  0  0  0  0  0  0.0150592  -0.00733198  -0.00535405  -0.0089979  -0.0143907  -0.00281772  0.000609362  0.00942298  -0.00265175  -0.114056  0.0206009  -0.0343597 
1699890557.341318000  0  0  11.2673  0.0783715  -0.0652526  0.00493978  nan  nan  nan  nan  nan  nan  -0.998954  -0.0057482  1.00073  -0.0247239  -0.0200333  -0.0106366  0.0019823  0.0238206  -0.0017383  0  0  0  0  0  0  0.0150963  -0.00751937  -0.00533885  -0.00880588  -0.0145061  0.0012859  3.72462e-05  0.0100242  -0.00282341  -0.157086  0.0382826  -0.0335131 
1699890557.346298000  0  0  11.2717  0.0684262  -0.0654848  0.00529374  nan  nan  nan  nan  nan  nan  -0.998944  -0.0056277  1.00072  -0.023841  -0.0194293  -0.0106687  0.0020015  0.0243556  -0.0017624  0  0  0  0  0  0  0.0150489  -0.00758533  -0.0053403  -0.00943587  -0.0132587  0.000900256  -0.00128108  0.00966381  -0.00299501  -0.125066  0.0420625  -0.0362216 
1699890557.351266000  0  0  11.2958  0.0706177  -0.0617988  0.00555286  nan  nan  nan  nan  nan  nan  -0.998934  -0.0055048  1.00071  -0.0246803  -0.0202744  -0.0106316  0.0020346  0.0248096  -0.0017455  0  0  0  0  0  0  0.0151358  -0.00783129  -0.00535846  -0.0085277  -0.0138404  -0.00104568  -0.00114687  0.0105804  -0.003204  -0.130684  0.0262583  -0.0373707 
1699890557.356300000  0  0  11.258  0.101129  -0.0669565  0.00481193  nan  nan  nan  nan  nan  nan  -0.998924  -0.0053798  1.0007  -0.0239562  -0.0200148  -0.0106525  0.0020853  0.0251787  -0.0016839  0  0  0  0  0  0  0.0150927  -0.00789591  -0.005333  -0.0088311  -0.0126839  0.00202653  -0.00304577  0.0105521  -0.00327928  -0.174237  0.0368333  -0.0273563 
1699890557.361298000  0  0  11.2606  0.0933732  -0.0681567  0.00480717  nan  nan  nan  nan  nan  nan  -0.998913  -0.0052531  1.00069  -0.0236537  -0.0198242  -0.010663  0.0021573  0.0254592  -0.0015738  0  0  0  0  0  0  0.0151366  -0.00808552  -0.00533633  -0.00915729  -0.011889  0.00180372  -0.0039858  0.010592  -0.00339556  -0.150077  0.0388667  -0.026134 
1699890557.366317000  0  0  11.2617  0.0956465  -0.0539048  0.00484683  nan  nan  nan  nan  nan  nan  -0.998902  -0.0051253  1.00069  -0.0239511  -0.0205246  -0.0106404  0.0022544  0.0256473  -0.0014115  0  0  0  0  0  0  0.0151883  -0.00828132  -0.00533882  -0.00839694  -0.0118378  0.00172952  -0.00444957  0.0111281  -0.00350058  -0.150357  0.00543097  -0.0255795 
1699890557.371737000  0  0  11.2604  0.114052  -0.0581691  0.00408261  nan  nan  nan  nan  nan  nan  -0.99889  -0.0049968  1.00068  -0.0236695  -0.0206513  -0.0106431  0.0023803  0.0257393  -0.0011932  0  0  0  0  0  0  0.0152425  -0.0084753  -0.00533849  -0.00835797  -0.011053  0.00182363  -0.00585679  0.0113361  -0.00351563  -0.174222  0.0120463  -0.0158763 
1699890557.376312000  0  0  11.2811  0.112645  -0.0533979  0.00391018  nan  nan  nan  nan  nan  nan  -0.998878  -0.0048681  1.00067  -0.0224597  -0.0197844  -0.0106876  0.0025388  0.0257315  -0.0009152  0  0  0  0  0  0  0.0151986  -0.00853203  -0.00534026  -0.00928383  -0.00945544  5.6853e-05  -0.00764401  0.0105175  -0.0035423  -0.154966  0.010035  -0.0134543 
1699890557.381314000  0  0  11.2565  0.107992  -0.0261746  0.0044404  nan  nan  nan  nan  nan  nan  -0.998865  -0.0047397  1.00067  -0.0223917  -0.0203184  -0.010677  0.0027337  0.0256201  -0.0005737  0  0  0  0  0  0  0.0152526  -0.00871567  -0.00532514  -0.00878843  -0.00890737  0.00207945  -0.00832126  0.0104923  -0.00364686  -0.139428  -0.0441798  -0.0190364 
1699890557.386307000  0  0  11.2801  0.124193  -0.0313797  0.00401836  nan  nan  nan  nan  nan  nan  -0.998851  -0.0046121  1.00067  -0.0210027  -0.0197177  -0.0107178  0.0029687  0.0254013  -0.0001649  0  0  0  0  0  0  0.0152072  -0.00875576  -0.00533509  -0.0093688  -0.00713051  7.84728e-05  -0.0105456  0.00983642  -0.00365405  -0.151366  -0.0277356  -0.0136889 
1699890557.391313000  0  0  11.299  0.110259  -0.0286963  0.00479937  nan  nan  nan  nan  nan  nan  -0.998835  -0.0044858  1.00067  -0.0206244  -0.019116  -0.0107377  0.0032475  0.0250714  0.0003148  0  0  0  0  0  0  0.0152373  -0.00894112  -0.00533925  -0.010145  -0.00628078  -0.00150871  -0.0113443  0.00915383  -0.00379547  -0.11615  -0.0268226  -0.0220374 
1699890557.395323000  0  0  11.2742  0.102896  -0.011403  0.00577004  nan  nan  nan  nan  nan  nan  -0.998818  -0.0043615  1.00067  -0.0193986  -0.0187794  -0.0107677  0.0035738  0.0246267  0.0008692  0  0  0  0  0  0  0.0151953  -0.00898733  -0.00532082  -0.0105086  -0.00458185  0.00047751  -0.0127237  0.0083981  -0.00397077  -0.0887335  -0.0544565  -0.0324178 
1699890557.401441000  0  0  11.3167  0.117574  -0.0288005  0.00528652  nan  nan  nan  nan  nan  nan  -0.998799  -0.0042398  1.00068  -0.0195154  -0.0196485  -0.0107485  0.0039516  0.0240634  0.0015022  0  0  0  0  0  0  0.0153723  -0.00930291  -0.00536559  -0.00972257  -0.00413161  -0.00296843  -0.0135958  0.00919154  -0.00414814  -0.110067  -0.0269611  -0.0246001 
1699890557.405319000  0  0  11.3451  0.108673  -0.0291029  0.00507172  nan  nan  nan  nan  nan  nan  -0.998779  -0.0041211  1.00069  -0.0181463  -0.0185061  -0.0107962  0.0043844  0.0233777  0.0022173  0  0  0  0  0  0  0.015325  -0.00934299  -0.00539092  -0.0109777  -0.00236487  -0.00533167  -0.0150679  0.00805944  -0.00419713  -0.0787222  -0.0159411  -0.0214252 
1699890557.411270000  0  0  11.3241  0.0923881  -0.0122099  0.00587156  nan  nan  nan  nan  nan  nan  -0.998755  -0.0040062  1.0007  -0.017849  -0.0188682  -0.0107952  0.004876  0.0225659  0.0030185  0  0  0  0  0  0  0.0154191  -0.00957237  -0.00539399  -0.0107694  -0.00144347  -0.0035858  -0.0155153  0.00792967  -0.0044508  -0.0420357  -0.0485331  -0.0288864 
1699890557.416269000  0  0  11.3691  0.105071  -0.0311644  0.00526269  nan  nan  nan  nan  nan  nan  -0.99873  -0.0038957  1.00072  -0.0175252  -0.0190752  -0.0107977  0.0054303  0.0216242  0.0039094  0  0  0  0  0  0  0.0155178  -0.00980476  -0.00544485  -0.0106291  -0.000611591  -0.00724465  -0.0163805  0.00824358  -0.00454369  -0.0594416  -0.0135122  -0.0203467 
1699890557.421273000  0  0  11.3963  0.090106  -0.0353552  0.00588205  nan  nan  nan  nan  nan  nan  -0.998701  -0.0037902  1.00074  -0.0157012  -0.0177646  -0.0108531  0.0060509  0.020549  0.0048937  0  0  0  0  0  0  0.0154579  -0.00980327  -0.00548774  -0.0120735  0.00165753  -0.00948611  -0.0180171  0.00710403  -0.00470354  -0.0144549  0.00535324  -0.0264902 
1699890557.426405000  0  0  11.3838  0.0767014  -0.0212492  0.00593901  nan  nan  nan  nan  nan  nan  -0.998669  -0.0036904  1.00077  -0.0151302  -0.0179744  -0.01086  0.0067415  0.0193364  0.0059753  0  0  0  0  0  0  0.015534  -0.0100066  -0.00551968  -0.0119934  0.00285037  -0.00839296  -0.0184316  0.00695918  -0.00489125  0.0161682  -0.0215261  -0.0253251 
1699890557.431324000  0  0  11.4318  0.0914001  -0.0364185  0.00551162  nan  nan  nan  nan  nan  nan  -0.998633  -0.0035971  1.0008  -0.0143017  -0.017777  -0.0108778  0.0075047  0.0179827  0.0071579  0  0  0  0  0  0  0.0155896  -0.0101878  -0.00560102  -0.012261  0.00422569  -0.0122552  -0.01947  0.00691129  -0.00498749  -0.00367654  0.00925317  -0.0190203 
1699890557.436294000  0  0  11.441  0.08041  -0.0352518  0.00569996  nan  nan  nan  nan  nan  nan  -0.998594  -0.0035108  1.00084  -0.0120632  -0.0165289  -0.0109326  0.0083378  0.0164841  0.0084452  0  0  0  0  0  0  0.0155242  -0.0101606  -0.00565687  -0.0136527  0.00701196  -0.0129809  -0.0212921  0.0058066  -0.00507315  0.0350672  0.0170829  -0.0205181 
1699890557.441306000  0  0  11.4494  0.0629525  -0.0231514  0.00611594  nan  nan  nan  nan  nan  nan  -0.99855  -0.0034325  1.00088  -0.010992  -0.0160964  -0.0109551  0.009237  0.0148369  0.009841  0  0  0  0  0  0  0.0155462  -0.0102943  -0.00569223  -0.0142214  0.00866579  -0.0136379  -0.0217544  0.00521142  -0.00522647  0.0742355  -0.00164217  -0.0241846 
1699890557.446309000  0  0  11.4869  0.0962597  -0.0328183  0.00583832  nan  nan  nan  nan  nan  nan  -0.998501  -0.0033627  1.00094  -0.0085634  -0.0151381  -0.0110024  0.0101986  0.0130374  0.011349  0  0  0  0  0  0  0.0154746  -0.0102441  -0.00578349  -0.0151837  0.0116197  -0.0166627  -0.0243102  0.00451788  -0.00528175  0.0311342  0.024072  -0.0201615 
1699890557.451306000  0  0  11.4667  0.079252  -0.0239744  0.00665191  nan  nan  nan  nan  nan  nan  -0.998448  -0.0033023  1.001  -0.00678351  -0.0143386  -0.0110347  0.0112189  0.0110818  0.012973  0  0  0  0  0  0  0.0154736  -0.0103396  -0.00582711  -0.0162087  0.0141302  -0.0149381  -0.0255193  0.00369621  -0.00548518  0.0762738  0.0139438  -0.0282971 
1699890557.455298000  0  0  11.5057  0.0765343  -0.0147374  0.00684963  nan  nan  nan  nan  nan  nan  -0.998389  -0.0032522  1.00107  -0.00434171  -0.0130902  -0.0110752  0.012294  0.0089663  0.0147168  0  0  0  0  0  0  0.0153943  -0.0102885  -0.00592038  -0.0175318  0.0171258  -0.0180642  -0.0273847  0.00240587  -0.00560695  0.0988708  0.00734093  -0.0295509 
1699890557.461304000  0  0  11.5493  0.109712  -0.0276422  0.00629691  nan  nan  nan  nan  nan  nan  -0.998325  -0.003213  1.00115  -0.00261783  -0.0126395  -0.0110989  0.0134203  0.0066872  0.016584  0  0  0  0  0  0  0.0154002  -0.0103582  -0.00600724  -0.0180349  0.0194776  -0.0215797  -0.0292175  0.00229285  -0.0057177  0.049377  0.0341901  -0.0215343 
1699890557.466313000  0  0  11.5039  0.0950971  -0.0200837  0.00634813  nan  nan  nan  nan  nan  nan  -0.998255  -0.0031856  1.00123  -0.000465707  -0.011913  -0.0111265  0.0145941  0.0042408  0.0185784  0  0  0  0  0  0  0.015394  -0.0104279  -0.00603098  -0.0189823  0.0224081  -0.017798  -0.0306754  0.00160472  -0.00584039  0.092019  0.025404  -0.0209478 
1699890557.471820000  0  0  11.569  0.109175  -0.0370169  0.00498714  nan  nan  nan  nan  nan  nan  -0.998179  -0.0031708  1.00133  0.00128415  -0.0112713  -0.0111465  0.0158114  0.0016233  0.0207039  0  0  0  0  0  0  0.0153719  -0.0104645  -0.00611552  -0.0196466  0.0247442  -0.023093  -0.0320341  0.00146263  -0.00580363  0.076364  0.0605777  -0.00430293 
1699890557.476320000  0  0  11.5925  0.131372  -0.0315234  0.00440644  nan  nan  nan  nan  nan  nan  -0.998097  -0.0031696  1.00144  0.00425628  -0.00993404  -0.0111743  0.0170687  -0.0011691  0.022964  0  0  0  0  0  0  0.0152719  -0.0103465  -0.00623057  -0.0210741  0.0283345  -0.0249116  -0.0348788  0.000375915  -0.00574432  0.0581413  0.0595883  0.00236269 
1699890557.481459000  0  0  11.5225  0.105166  -0.0277665  0.00549337  nan  nan  nan  nan  nan  nan  -0.998008  -0.0031828  1.00156  0.00709831  -0.0092333  -0.0111975  0.0183621  -0.0041401  0.0253627  0  0  0  0  0  0  0.0152507  -0.0103667  -0.00624177  -0.0219606  0.031998  -0.0191086  -0.0366433  -8.07826e-05  -0.00586563  0.126787  0.0562762  -0.0100107 
1699890557.486324000  0  0  11.6214  0.119433  -0.0426006  0.00521886  nan  nan  nan  nan  nan  nan  -0.997913  -0.0032113  1.00169  0.0102782  -0.00778549  -0.011212  0.0196879  -0.0072916  0.0279036  0  0  0  0  0  0  0.015138  -0.0102049  -0.00640326  -0.0234315  0.0358458  -0.0270951  -0.0392341  -0.000861702  -0.00589434  0.122087  0.0931288  -0.00629237 
1699890557.491312000  0  0  11.618  0.126153  -0.0288198  0.00527151  nan  nan  nan  nan  nan  nan  -0.997811  -0.003256  1.00184  0.0125761  -0.00716226  -0.0112221  0.0210424  -0.0106205  0.0305904  0  0  0  0  0  0  0.0151101  -0.0101949  -0.00647285  -0.0241436  0.038798  -0.0267131  -0.0409279  -0.00128516  -0.00593953  0.124231  0.0694631  -0.00649852 
1699890557.496308000  0  0  11.5459  0.120063  -0.0277529  0.00607723  nan  nan  nan  nan  nan  nan  -0.997703  -0.0033178  1.002  0.0169922  -0.00581367  -0.0112308  0.0224217  -0.0141232  0.033427  0  0  0  0  0  0  0.0149868  -0.00998505  -0.00654203  -0.025595  0.0439231  -0.0206413  -0.0442119  -0.00227716  -0.00608053  0.166623  0.0764557  -0.0151601 
1699890557.501318000  0  0  11.6731  0.128977  -0.0573002  0.0059385  nan  nan  nan  nan  nan  nan  -0.997587  -0.0033976  1.00217  0.0189756  -0.00511989  -0.0112292  0.0238222  -0.0177958  0.0364171  0  0  0  0  0  0  0.0149528  -0.0099828  -0.00665624  -0.026306  0.0467433  -0.0310311  -0.0454503  -0.00192407  -0.00617403  0.160189  0.132302  -0.0124909 
1699890557.506305000  0  0  11.6607  0.135093  -0.03072  0.00631188  nan  nan  nan  nan  nan  nan  -0.997464  -0.0034961  1.00236  0.02149  -0.00456303  -0.0112301  0.0252401  -0.0216346  0.0395644  0  0  0  0  0  0  0.0148987  -0.00990371  -0.00672601  -0.0268783  0.0498122  -0.0298838  -0.0471614  -0.00237237  -0.00630407  0.163699  0.0832657  -0.0158578 
