ts fx fy fz tx ty tz exfx exfy exfz extx exty extz xd yd zd rolld pitchd yawd vxd vyd vzd wxd wyd wzd axd ayd azd e_x e_y e_z e_vx e_vy e_vz e_rx e_ry e_rz e_wx e_wy e_wz
1699966292.801272000  0  0  11.6481  0.099892  -0.123628  0.00287726  nan  nan  nan  nan  nan  nan  -1  0  1  0.0156622  -0.0298389  -0.00046731  0  0  0  0  0  0  0  0  0  0.0222403  -6.58149e-06  -0.0170359  -0.010783  0.020278  -0.00651557  -0.0247902  0.0235326  -0.00346147  0.0282864  0.0307561  -0.00135099 
1699966292.805246000  0  0  11.6164  0.0960647  -0.110618  0.00333982  nan  nan  nan  nan  nan  nan  -1  0  1  0.0153312  -0.0303761  -0.000465668  0  0  0  0  0  0  0  0  0  0.0222634  -6.21948e-05  -0.0170227  -0.010246  0.0199188  -0.00389013  -0.0243085  0.0238608  -0.0035269  0.0315088  0.00171738  -0.00647877 
1699966292.810052000  0  0  11.6052  0.0935833  -0.121132  0.00324403  nan  nan  nan  nan  nan  nan  -1  0  1  0.0149783  -0.030529  -0.000457234  0  0  0  0  0  0  0  0  0  0.0222868  -0.000122332  -0.0170336  -0.010139  0.0195783  -0.00293411  -0.0237998  0.0242295  -0.00355567  0.0317913  0.0193528  -0.0049937 
1699966292.815612000  0  0  11.6537  0.079911  -0.132006  0.00370309  nan  nan  nan  nan  nan  nan  -1  0  1  0.0145686  -0.0303845  -0.000442622  0  0  0  0  0  0  0  0  0  0.0223113  -0.000181383  -0.0170839  -0.0102168  0.0192598  -0.00686628  -0.0230111  0.0244693  -0.00365828  0.0518796  0.0388942  -0.00970584 
1699966292.820086000  0  0  11.6201  0.085072  -0.115092  0.0037774  nan  nan  nan  nan  nan  nan  -1  0  1  0.0148479  -0.0306202  -0.000454609  0  0  0  0  0  0  0  0  0  0.0222698  -9.74267e-05  -0.0170853  -0.00993355  0.0193791  -0.00405243  -0.0231586  0.024474  -0.00370144  0.0429148  0.00502236  -0.0102031 
1699966292.825032000  0  0  11.5778  0.0884259  -0.125083  0.00338238  nan  nan  nan  nan  nan  nan  -1  0  1  0.0143143  -0.031028  -0.000444103  0  0  0  0  0  0  0  0  0  0.0223048  -0.000182655  -0.0170651  -0.00963068  0.0188122  -0.000570729  -0.02257  0.0250784  -0.00370428  0.0307924  0.0194447  -0.00523692 
1699966292.830130000  0  0  11.6375  0.0851042  -0.13678  0.00316734  nan  nan  nan  nan  nan  nan  -1  0  1  0.0150723  -0.0301623  -0.000454582  0  0  0  0  0  0  0  0  0  0.0222494  -8.19964e-05  -0.0171215  -0.0104206  0.0196643  -0.00544625  -0.0230341  0.0246919  -0.00369709  0.0417055  0.0463952  -0.0026208 
1699966292.836059000  0  0  11.5841  0.0938889  -0.107004  0.00274212  nan  nan  nan  nan  nan  nan  -1  0  1  0.0156034  -0.0302093  -0.000471336  0  0  0  0  0  0  0  0  0  0.0221905  3.33378e-05  -0.0171107  -0.0104081  0.0200017  -0.00100596  -0.0234784  0.0242655  -0.00364025  0.0282239  -0.00923447  0.00212596 
1699966292.841048000  0  0  11.5494  0.104605  -0.119978  0.00229178  nan  nan  nan  nan  nan  nan  -1  0  1  0.0154218  -0.030395  -0.000468712  0  0  0  0  0  0  0  0  0  0.0222286  -3.66585e-05  -0.0170935  -0.0103706  0.0198642  0.00184067  -0.0234689  0.024687  -0.00356261  0.0067044  0.012835  0.00697886 
1699966292.846107000  0  0  11.6398  0.0895362  -0.111883  0.00293578  nan  nan  nan  nan  nan  nan  -1  0  1  0.0147193  -0.0302798  -0.000445662  0  0  0  0  0  0  0  0  0  0.0222621  -0.000120803  -0.0171474  -0.0102903  0.0192975  -0.00556399  -0.0224488  0.0244846  -0.00363146  0.0274565  -0.00149215  -0.00038268 
1699966292.851044000  0  0  11.5676  0.100228  -0.0974009  0.00308931  nan  nan  nan  nan  nan  nan  -1  0  1  0.0142177  -0.0308571  -0.000438676  0  0  0  0  0  0  0  0  0  0.0222884  -0.000182922  -0.0171042  -0.00984975  0.0186724  0.000370927  -0.0221286  0.0246347  -0.00366092  0.00312736  -0.0318374  -0.00200717 
1699966292.856104000  0  0  11.5916  0.12011  -0.109477  0.00231078  nan  nan  nan  nan  nan  nan  -1  0  1  0.015505  -0.029954  -0.000464405  0  0  0  0  0  0  0  0  0  0.0222318  -7.85801e-05  -0.0171227  -0.0108037  0.0201371  -0.00161728  -0.0237439  0.0239168  -0.00354219  -0.0217761  -0.0010798  0.0065371 
1699966292.861170000  0  0  11.635  0.115318  -0.0950791  0.00332621  nan  nan  nan  nan  nan  nan  -1  -0  1  0.0148414  -0.0302008  -0.000448186  6e-07  -6e-07  6e-07  0  0  0  0  0  0  0.0222732  -0.000164867  -0.0171694  -0.0104331  0.0195454  -0.00512214  -0.0231472  0.0238894  -0.00365727  -0.0176816  -0.0296239  -0.00500493 
1699966292.865088000  0  0  11.5525  0.124001  -0.0801833  0.003309  nan  nan  nan  nan  nan  nan  -1  -0  1  0.0153198  -0.0302434  -0.00046329  5e-06  -5e-06  5e-06  0  0  0  0  0  0  0.0222331  -8.91953e-05  -0.0171261  -0.0105656  0.0198553  0.00166165  -0.0238185  0.0235141  -0.00365966  -0.0288728  -0.0559629  -0.00476585 
1699966292.871157000  0  0  11.5874  0.133285  -0.104072  0.00345041  nan  nan  nan  nan  nan  nan  -1  -1e-07  1  0.015782  -0.0296994  -0.000468688  1.69e-05  -1.69e-05  1.69e-05  0  0  0  0  0  0  0.0222193  -8.50181e-05  -0.0171376  -0.0111176  0.0205009  -0.00123661  -0.0246495  0.0231931  -0.00369353  -0.0397958  -0.00523161  -0.00619481 
1699966292.876160000  0  0  11.6202  0.123511  -0.0871465  0.00394218  nan  nan  nan  nan  nan  nan  -1  -2e-07  1  0.0153497  -0.0297002  -0.000455756  4e-05  -4e-05  4e-05  0  0  0  0  0  0  0.0222214  -0.000116573  -0.0171511  -0.011014  0.0200702  -0.00393097  -0.0242471  0.0228478  -0.00379146  -0.0239483  -0.0359072  -0.0113627 
1699966292.881159000  0  0  11.5499  0.136405  -0.07959  0.00380243  nan  nan  nan  nan  nan  nan  -1  -5e-07  1  0.0160655  -0.0295391  -0.000474331  7.81e-05  -7.81e-05  7.81e-05  0  0  0  0  0  0  0.0221667  -1.55396e-05  -0.0171118  -0.0113302  0.0206445  0.00183535  -0.0252531  0.0223448  -0.00381557  -0.0404804  -0.0463923  -0.00937474 
1699966292.886098000  0  0  11.5901  0.139553  -0.102767  0.00318312  nan  nan  nan  nan  nan  nan  -0.999999  -1e-06  1  0.015924  -0.0294502  -0.000468538  0.000135  -0.000135  0.000135  0  0  0  0  0  0  0.0221885  -8.62177e-05  -0.017133  -0.0113608  0.0206916  -0.00148578  -0.0253815  0.0225462  -0.00378344  -0.045597  -0.00189095  -0.00195457 
1699966292.891522000  0  0  11.6318  0.122555  -0.101437  0.00310992  nan  nan  nan  nan  nan  nan  -0.999998  -1.9e-06  1  0.0151357  -0.0295482  -0.000446604  0.0002141  -0.0002144  0.0002134  0  0  0  0  0  0  0.0222169  -0.000168801  -0.0171661  -0.0111619  0.01993  -0.00488271  -0.024529  0.022644  -0.00379833  -0.0194436  -0.00545072  -0.00089074 
1699966292.896090000  0  0  11.5597  0.128212  -0.0879447  0.00352209  nan  nan  nan  nan  nan  nan  -0.999997  -3.2e-06  1  0.0157669  -0.0297043  -0.000467514  0.0003149  -0.00032  0.0003113  0  0  0  0  0  0  0.0221695  -7.7563e-05  -0.0171283  -0.0110922  0.0204164  0.00105057  -0.0252884  0.0224405  -0.00384563  -0.0237706  -0.0305636  -0.00556985 
1699966292.901172000  0  0  11.6242  0.127495  -0.118368  0.00287559  nan  nan  nan  nan  nan  nan  -0.999995  -5.1e-06  1.00001  0.0154737  -0.0293712  -0.000453452  0.0004338  -0.0004556  0.0004249  0  0  0  0  0  0  0.0221971  -0.00015462  -0.0171977  -0.011371  0.0203225  -0.00419433  -0.0251578  0.0226368  -0.00379086  -0.0235374  0.0284775  0.00196377 
1699966292.906176000  0  0  11.644  0.106904  -0.107803  0.00341704  nan  nan  nan  nan  nan  nan  -0.999992  -7.8e-06  1.00001  0.0158632  -0.0291498  -0.00046118  0.0005669  -0.000625  0.0005504  0  0  0  0  0  0  0.0221419  -5.52298e-05  -0.017223  -0.0114701  0.0206395  -0.00578872  -0.0251911  0.0223827  -0.00383835  0.01795  0.00968606  -0.00432948 
1699966292.911169000  0  0  11.6062  0.108537  -0.11078  0.0031328  nan  nan  nan  nan  nan  nan  -0.999989  -1.14e-05  1.00001  0.0155703  -0.0295472  -0.00045863  0.0007105  -0.0008319  0.0006841  0  0  0  0  0  0  0.0221701  -0.000117129  -0.017213  -0.011143  0.0203325  -0.00265153  -0.0248684  0.0228183  -0.00382824  0.0117162  0.0116319  -0.000877592 
1699966292.916167000  0  0  11.6664  0.110703  -0.132983  0.00260215  nan  nan  nan  nan  nan  nan  -0.999985  -1.62e-05  1.00001  0.0164597  -0.0288191  -0.000472731  0.000861  -0.00108  0.0008222  0  0  0  0  0  0  0.022111  -1.11172e-05  -0.0172663  -0.0117564  0.0213548  -0.0075844  -0.0256838  0.0226615  -0.00376523  0.014886  0.0574803  0.00512541 
1699966292.921176000  0  0  11.6772  0.0906121  -0.123161  0.00422182  nan  nan  nan  nan  nan  nan  -0.999981  -2.23e-05  1.00002  0.0161423  -0.0288408  -0.000463834  0.0010145  -0.0013731  0.000961  0  0  0  0  0  0  0.0221081  -3.6962e-05  -0.0172937  -0.011688  0.02102  -0.0084156  -0.0249312  0.0227513  -0.00395171  0.0481432  0.037011  -0.0132557 
1699966292.926177000  0  0  11.6452  0.0910648  -0.117801  0.00451478  nan  nan  nan  nan  nan  nan  -0.999975  -3e-05  1.00002  0.0161112  -0.029253  -0.000469474  0.0011672  -0.001715  0.0010968  0  0  0  0  0  0  0.0221339  -8.14881e-05  -0.0172959  -0.0113146  0.0210207  -0.00573319  -0.0247039  0.023141  -0.00406689  0.0451464  0.0227043  -0.0157658 
1699966292.931102000  0  0  11.6598  0.105664  -0.12967  0.0042699  nan  nan  nan  nan  nan  nan  -0.999969  -3.96e-05  1.00003  0.0169542  -0.0287344  -0.000485447  0.0013155  -0.0021094  0.0012257  0  0  0  0  0  0  0.0220757  2.45727e-05  -0.0173403  -0.0118084  0.021904  -0.00688085  -0.0255706  0.0230056  -0.00410541  0.0239224  0.0476888  -0.0123197 
1699966292.936085000  0  0  11.663  0.0929172  -0.123981  0.00469139  nan  nan  nan  nan  nan  nan  -0.999962  -5.12e-05  1.00004  0.0167842  -0.0286972  -0.000480237  0.0014556  -0.0025587  0.0013441  0  0  0  0  0  0  0.0220947  -4.27003e-05  -0.0173591  -0.0118893  0.0218391  -0.00710068  -0.0250417  0.0230929  -0.00422163  0.0445496  0.0355084  -0.016426 
1699966292.941563000  0  0  11.6315  0.0930466  -0.109329  0.00421057  nan  nan  nan  nan  nan  nan  -0.999954  -6.52e-05  1.00004  0.0166747  -0.0289398  -0.000481638  0.0015837  -0.0030604  0.0014482  0  0  0  0  0  0  0.0221163  -0.000101782  -0.0173523  -0.0117247  0.0217696  -0.00447179  -0.0246901  0.023148  -0.00424525  0.0410562  0.00569752  -0.0101797 
1699966292.946092000  0  0  11.6131  0.117881  -0.117656  0.00312014  nan  nan  nan  nan  nan  nan  -0.999946  -8.19e-05  1.00005  0.0176198  -0.0285417  -0.000502883  0.0016961  -0.0036108  0.0015342  0  0  0  0  0  0  0.022061  2.13817e-07  -0.0173668  -0.0121731  0.0227291  -0.00293519  -0.0259356  0.0229808  -0.00413095  0.0028448  0.0238896  0.00230774 
1699966292.951105000  0  0  11.6422  0.102735  -0.109572  0.00307881  nan  nan  nan  nan  nan  nan  -0.999938  -0.0001014  1.00006  0.017792  -0.0284068  -0.0005067  0.001789  -0.0042061  0.0015988  0  0  0  0  0  0  0.0220724  -2.87135e-05  -0.0174003  -0.0122805  0.0230731  -0.00528613  -0.0257748  0.022809  -0.00411132  0.0316585  0.00930151  0.00262813 
1699966292.956096000  0  0  11.6409  0.109319  -0.0908758  0.00324047  nan  nan  nan  nan  nan  nan  -0.999928  -0.000124  1.00007  0.0187722  -0.0282923  -0.000534202  0.0018593  -0.0048425  0.0016434  0  0  0  0  0  0  0.0220126  8.8054e-05  -0.0174268  -0.012299  0.0240786  -0.00511314  -0.0266047  0.0223349  -0.00410126  0.0261259  -0.0237296  0.000506761 
1699966292.961187000  0  0  11.5957  0.132567  -0.101583  0.00312949  nan  nan  nan  nan  nan  nan  -0.999919  -0.0001499  1.00007  0.0190095  -0.0283078  -0.000543609  0.0019086  -0.0055164  0.0016716  0  0  0  0  0  0  0.0220273  4.04352e-05  -0.0173998  -0.0124528  0.0243962  -0.00142309  -0.0272293  0.0224577  -0.00406984  -0.0146242  -0.0034456  0.00157984 
1699966292.966097000  0  0  11.6395  0.124503  -0.0922476  0.00341592  nan  nan  nan  nan  nan  nan  -0.999909  -0.0001792  1.00008  0.0202077  -0.0276315  -0.000567074  0.0019405  -0.0062239  0.0016872  0  0  0  0  0  0  0.0219629  0.000164683  -0.0174474  -0.0130456  0.0257626  -0.00497253  -0.028217  0.021637  -0.00408555  0.0105899  -0.0145655  -0.00184352 
1699966292.971103000  0  0  11.6458  0.129217  -0.0832717  0.00365266  nan  nan  nan  nan  nan  nan  -0.9999  -0.0002122  1.00009  0.0202641  -0.0279638  -0.000579366  0.0019589  -0.0069612  0.0016939  0  0  0  0  0  0  0.021983  0.000132121  -0.0174771  -0.0126406  0.0259216  -0.00543007  -0.028307  0.0216758  -0.00411149  0.00199015  -0.0328744  -0.00454336 
1699966292.976109000  0  0  11.5868  0.149671  -0.0898246  0.0030488  nan  nan  nan  nan  nan  nan  -0.99989  -0.0002489  1.0001  0.0207352  -0.0279825  -0.000598031  0.0019674  -0.0077248  0.0016954  0  0  0  0  0  0  0.0219871  0.000114639  -0.0174471  -0.0128078  0.0264343  -0.000587405  -0.0291807  0.0216532  -0.00403404  -0.0308788  -0.0195602  0.00223038 
1699966292.981100000  0  0  11.6313  0.136559  -0.0862961  0.00403153  nan  nan  nan  nan  nan  nan  -0.99988  -0.0002895  1.00011  0.0222396  -0.0274013  -0.000633419  0.0019699  -0.0085107  0.0016955  0  0  0  0  0  0  0.0219215  0.000253287  -0.0174911  -0.0132725  0.0281738  -0.00421556  -0.0303966  0.0209661  -0.00413406  0.00653079  -0.020296  -0.0090535 
1699966292.986099000  0  0  11.6432  0.133589  -0.0813045  0.00444736  nan  nan  nan  nan  nan  nan  -0.99987  -0.000334  1.00012  0.0221443  -0.0277172  -0.0006453  0.0019701  -0.0093153  0.0016955  0  0  0  0  0  0  0.0219201  0.000243571  -0.0174967  -0.0128244  0.0281004  -0.00517977  -0.0301983  0.0210342  -0.00422624  0.0106466  -0.0309061  -0.0133296 
1699966292.991095000  0  0  11.5968  0.147261  -0.0949692  0.00418798  nan  nan  nan  nan  nan  nan  -0.99986  -0.0003826  1.00013  0.0236605  -0.0273504  -0.000687665  0.0019701  -0.0101348  0.0016955  0  0  0  0  0  0  0.0218536  0.000389196  -0.017486  -0.0132894  0.0296175  -0.00135835  -0.0318261  0.0208312  -0.00422306  -0.00172158  -0.00170849  -0.0101191 
1699966292.996090000  0  0  11.6468  0.124211  -0.099477  0.00415007  nan  nan  nan  nan  nan  nan  -0.99985  -0.0004354  1.00013  0.0234961  -0.0273104  -0.000692825  0.0019701  -0.0109655  0.0016955  0  0  0  0  0  0  0.0218867  0.000318102  -0.0175141  -0.0132631  0.0296933  -0.00545437  -0.031212  0.0208696  -0.00427108  0.038729  0.00695354  -0.00916512 
1699966293.001091000  0  0  11.6446  0.122251  -0.0965161  0.00405174  nan  nan  nan  nan  nan  nan  -0.999841  -0.0004923  1.00014  0.0233066  -0.0279554  -0.00071508  0.0019701  -0.0118035  0.0016955  0  0  0  0  0  0  0.0219053  0.00028952  -0.0175148  -0.0124761  0.0295043  -0.00524982  -0.0307839  0.0214174  -0.00428758  0.0387094  -0.00400777  -0.00777101 
1699966293.006099000  0  0  11.5888  0.134129  -0.114173  0.00368413  nan  nan  nan  nan  nan  nan  -0.999831  -0.0005534  1.00015  0.0247473  -0.0277646  -0.000765151  0.0019701  -0.0126452  0.0016955  0  0  0  0  0  0  0.0218415  0.000441432  -0.0174996  -0.0127502  0.0308781  -0.000652654  -0.0321936  0.0215893  -0.00424196  0.027923  0.0297239  -0.00363204 
1699966293.011657000  0  0  11.648  0.10906  -0.11943  0.00398034  nan  nan  nan  nan  nan  nan  -0.999821  -0.0006188  1.00016  0.0248308  -0.0277144  -0.000783022  0.0019701  -0.0134869  0.0016955  0  0  0  0  0  0  0.0218544  0.000422285  -0.0175355  -0.0126606  0.0311905  -0.00549963  -0.0316062  0.021814  -0.00429191  0.0726562  0.0381707  -0.00683522 
1699966293.016091000  0  0  11.6311  0.108389  -0.107162  0.00329894  nan  nan  nan  nan  nan  nan  -0.999811  -0.0006883  1.00017  0.0255398  -0.0281057  -0.000831875  0.0019701  -0.0143246  0.0016955  0  0  0  0  0  0  0.0218036  0.000565039  -0.0175459  -0.0120919  0.0317417  -0.00405845  -0.0318979  0.0220515  -0.00419677  0.0766828  0.01145  0.000730893 
1699966293.020093000  0  0  11.5891  0.123212  -0.117765  0.00250952  nan  nan  nan  nan  nan  nan  -0.999801  -0.000762  1.00018  0.0268706  -0.0278249  -0.000883555  0.0019701  -0.0151548  0.0016955  0  0  0  0  0  0  0.0217499  0.000710915  -0.0175343  -0.0124622  0.0330125  -0.000592033  -0.0331463  0.0220474  -0.00405964  0.0585212  0.0326936  0.00922742 
1699966293.026090000  0  0  11.637  0.0977031  -0.124826  0.00271307  nan  nan  nan  nan  nan  nan  -0.999791  -0.0008398  1.00018  0.0260954  -0.0280965  -0.00089386  0.0019701  -0.0159736  0.0016955  0  0  0  0  0  0  0.0218193  0.000580257  -0.0175225  -0.0121181  0.032441  -0.00458203  -0.0316106  0.0226477  -0.0040218  0.0954111  0.0412924  0.00630455 
1699966293.031108000  0  0  11.6065  0.104507  -0.113521  0.00301014  nan  nan  nan  nan  nan  nan  -0.999781  -0.0009217  1.00019  0.0270401  -0.0283658  -0.000955698  0.0019701  -0.0167773  0.0016955  0  0  0  0  0  0  0.021763  0.000742341  -0.017522  -0.0117378  0.0332095  -0.00203298  -0.0321361  0.0228338  -0.00399092  0.0866377  0.0169711  0.00228242 
1699966293.036099000  0  0  11.571  0.114029  -0.135565  0.00347202  nan  nan  nan  nan  nan  nan  -0.999772  -0.0010076  1.0002  0.0270956  -0.028812  -0.00100066  0.0019701  -0.0175622  0.0016955  0  0  0  0  0  0  0.0218039  0.000717246  -0.0174907  -0.0113649  0.0332284  0.000857333  -0.0319973  0.0237848  -0.00399997  0.0663164  0.0523099  -0.00340055 
1699966293.041581000  0  0  11.6202  0.0949338  -0.138224  0.00421467  nan  nan  nan  nan  nan  nan  -0.999762  -0.0010973  1.00021  0.0270443  -0.0286891  -0.00103086  0.0019701  -0.0183245  0.0016955  0  0  0  0  0  0  0.0218331  0.000707141  -0.017505  -0.0114304  0.0333311  -0.00320252  -0.0312195  0.024022  -0.00409483  0.0973518  0.0554446  -0.011735 
1699966293.046106000  0  0  11.5969  0.100793  -0.121022  0.00474317  nan  nan  nan  nan  nan  nan  -0.999752  -0.0011908  1.00022  0.0278259  -0.0290219  -0.00110146  0.0019701  -0.0190604  0.0016955  0  0  0  0  0  0  0.021786  0.000865161  -0.0175015  -0.0109678  0.033915  -0.00125242  -0.0316124  0.0241716  -0.00416947  0.0892472  0.0196644  -0.0175949 
1699966293.051112000  0  0  11.5627  0.112383  -0.139264  0.0042017  nan  nan  nan  nan  nan  nan  -0.999742  -0.0012879  1.00023  0.027969  -0.0293322  -0.00115729  0.0019701  -0.0197662  0.0016955  0  0  0  0  0  0  0.0218236  0.000847142  -0.0174591  -0.0107604  0.0340313  0.00150553  -0.0316227  0.0249008  -0.00414169  0.0661638  0.0494395  -0.0111043 
1699966293.056109000  0  0  11.6017  0.0960655  -0.133581  0.00465231  nan  nan  nan  nan  nan  nan  -0.999732  -0.0013884  1.00024  0.028904  -0.0286727  -0.00121287  0.0019701  -0.0204382  0.0016955  0  0  0  0  0  0  0.0217654  0.00101924  -0.017487  -0.0113519  0.0349744  -0.00167114  -0.0318283  0.0244259  -0.00421243  0.100689  0.0424434  -0.0160295 
1699966293.061196000  0  0  11.5737  0.104818  -0.11496  0.00437908  nan  nan  nan  nan  nan  nan  -0.999722  -0.0014922  1.00024  0.0286675  -0.0294268  -0.0012794  0.0019701  -0.0210726  0.0016955  0  0  0  0  0  0  0.0217956  0.00103098  -0.0174357  -0.0105365  0.0345502  0.000574217  -0.031344  0.0248791  -0.00421137  0.0787301  0.00103295  -0.0126247 
1699966293.066679000  0  0  11.5482  0.117273  -0.127877  0.00383755  nan  nan  nan  nan  nan  nan  -0.999712  -0.001599  1.00025  0.0289842  -0.0295069  -0.00134745  0.0019701  -0.0216656  0.0016955  0  0  0  0  0  0  0.0218078  0.00106175  -0.0173856  -0.0105409  0.0348053  0.00258726  -0.0315155  0.0252387  -0.00414057  0.0553972  0.0235576  -0.00656376 
1699966293.071100000  0  0  11.5687  0.111478  -0.116948  0.00374637  nan  nan  nan  nan  nan  nan  -0.999703  -0.0017087  1.00026  0.0298515  -0.029014  -0.00141945  0.0019701  -0.0222136  0.0016955  0  0  0  0  0  0  0.0217581  0.00122994  -0.0173974  -0.0109933  0.0356109  0.000913955  -0.0319555  0.024654  -0.00409462  0.0710348  0.00707946  -0.00588341 
1699966293.076081000  0  0  11.5733  0.11011  -0.102765  0.00330612  nan  nan  nan  nan  nan  nan  -0.999693  -0.0018211  1.00027  0.0294107  -0.0294507  -0.00148569  0.0019701  -0.0227126  0.0016955  0  0  0  0  0  0  0.0217956  0.00121459  -0.0173751  -0.0104991  0.035089  0.000507167  -0.0312195  0.024791  -0.00399314  0.0669986  -0.0225478  -0.00139503 
1699966293.081098000  0  0  11.5565  0.136584  -0.112929  0.00260158  nan  nan  nan  nan  nan  nan  -0.999683  -0.0019358  1.00028  0.0303028  -0.0292336  -0.0015768  0.0019701  -0.0231591  0.0016955  0  0  0  0  0  0  0.0217426  0.00139204  -0.0173614  -0.0107095  0.0357838  0.0018685  -0.0323055  0.0247161  -0.00382572  0.0240425  -0.00152959  0.00573751 
1699966293.086097000  0  0  11.5546  0.118407  -0.103106  0.00315656  nan  nan  nan  nan  nan  nan  -0.999673  -0.0020526  1.00029  0.0301351  -0.029092  -0.00164423  0.0019701  -0.0235507  0.0016955  0  0  0  0  0  0  0.0217624  0.0013972  -0.0173332  -0.01094  0.0355475  0.00198065  -0.0317114  0.0243895  -0.00378679  0.054932  -0.0181704  -0.00158907 
1699966293.091100000  0  0  11.5831  0.12073  -0.0904739  0.00324061  nan  nan  nan  nan  nan  nan  -0.999663  -0.0021712  1.0003  0.0306974  -0.0288433  -0.00173497  0.0019701  -0.0238899  0.0016955  0  0  0  0  0  0  0.021709  0.00157462  -0.0173468  -0.0110452  0.0359695  -0.000352876  -0.0319774  0.0238094  -0.00373387  0.0527316  -0.0380985  -0.003169 
1699966293.096099000  0  0  11.5604  0.135045  -0.0976931  0.00235489  nan  nan  nan  nan  nan  nan  -0.999653  -0.0022914  1.0003  0.0303681  -0.0289915  -0.00181756  0.0019701  -0.0241806  0.0016955  0  0  0  0  0  0  0.0217249  0.00158894  -0.0172912  -0.0109601  0.0354337  0.00142131  -0.0317979  0.0239453  -0.00353782  0.0224513  -0.0249104  0.00594216 
1699966293.101098000  0  0  11.5583  0.11956  -0.0841285  0.00278779  nan  nan  nan  nan  nan  nan  -0.999643  -0.0024129  1.00031  0.0311277  -0.0284099  -0.0019148  0.0019701  -0.0244265  0.0016955  0  0  0  0  0  0  0.0216665  0.00176817  -0.0172838  -0.0115797  0.0360016  0.00159907  -0.0320516  0.0230192  -0.00347635  0.0557543  -0.0435199  -8.38948e-05 
1699966293.106101000  0  0  11.6042  0.110926  -0.0816992  0.0029088  nan  nan  nan  nan  nan  nan  -0.999634  -0.0025356  1.00032  0.0303122  -0.0287911  -0.00200217  0.0019701  -0.0246313  0.0016955  0  0  0  0  0  0  0.021713  0.00174976  -0.0172999  -0.0110457  0.0351434  -0.00216541  -0.0308646  0.0230994  -0.00339668  0.0621031  -0.0491157  -0.00239315 
1699966293.111101000  0  0  11.5686  0.121815  -0.0883486  0.00277558  nan  nan  nan  nan  nan  nan  -0.999624  -0.0026592  1.00033  0.0296351  -0.0292012  -0.00209971  0.0019701  -0.0247989  0.0016955  0  0  0  0  0  0  0.0217439  0.0017431  -0.017272  -0.0106992  0.0341627  0.000746706  -0.0302361  0.0233841  -0.0032922  0.0345421  -0.0384362  -0.00177281 
1699966293.116517000  0  0  11.5853  0.0959539  -0.0880846  0.00340928  nan  nan  nan  nan  nan  nan  -0.999614  -0.0027835  1.00034  0.0297343  -0.0288427  -0.00220275  0.0019701  -0.0249328  0.0016955  0  0  0  0  0  0  0.0217422  0.00179258  -0.0172758  -0.0110994  0.0342315  -0.000619184  -0.0296257  0.0228614  -0.00328657  0.0806488  -0.0341554  -0.00975031 
1699966293.121097000  0  0  11.6503  0.0873055  -0.0900218  0.00309029  nan  nan  nan  nan  nan  nan  -0.999604  -0.0029085  1.00035  0.0297051  -0.0287365  -0.00231565  0.0019701  -0.025037  0.0016955  0  0  0  0  0  0  0.0216945  0.00195566  -0.0173257  -0.0109185  0.0340408  -0.00591196  -0.0290317  0.0226736  -0.00319055  0.0924802  -0.0285531  -0.00672321 
1699966293.126104000  0  0  11.5962  0.0989982  -0.0930789  0.00256119  nan  nan  nan  nan  nan  nan  -0.999594  -0.0030339  1.00035  0.0289523  -0.0290885  -0.0024271  0.0019701  -0.0251151  0.0016955  0  0  0  0  0  0  0.0217014  0.00198053  -0.0172897  -0.0106514  0.0328315  -0.00147936  -0.0282378  0.0229312  -0.00305071  0.0617912  -0.024809  -0.0015078 
1699966293.131104000  0  0  11.6084  0.0832947  -0.0962717  0.00296194  nan  nan  nan  nan  nan  nan  -0.999584  -0.0031596  1.00036  0.0295723  -0.0286066  -0.00256  0.0019701  -0.0251709  0.0016955  0  0  0  0  0  0  0.0216452  0.00214883  -0.0173071  -0.0111027  0.0332924  -0.00243642  -0.0281906  0.0224435  -0.00300044  0.0927641  -0.0139367  -0.00701991 
1699966293.136101000  0  0  11.6842  0.0709081  -0.104455  0.00336064  nan  nan  nan  nan  nan  nan  -0.999575  -0.0032855  1.00037  0.0283818  -0.0288717  -0.00266864  0.0019701  -0.0252082  0.0016955  0  0  0  0  0  0  0.0216557  0.00215929  -0.0173505  -0.0105405  0.0319655  -0.00865185  -0.0264087  0.0228034  -0.00297776  0.101144  -0.000882559  -0.0122304 
1699966293.141100000  0  0  11.5806  0.0863951  -0.105356  0.00304632  nan  nan  nan  nan  nan  nan  -0.999565  -0.0034116  1.00038  0.0286904  -0.0290061  -0.00282281  0.0019701  -0.0252306  0.0016955  0  0  0  0  0  0  0.0216033  0.00231682  -0.0173062  -0.0105775  0.0316808  -0.000111501  -0.026581  0.0229459  -0.00285587  0.0717553  -0.000390666  -0.00952024 
1699966293.146099000  0  0  11.5823  0.0663782  -0.113441  0.00307698  nan  nan  nan  nan  nan  nan  -0.999555  -0.0035378  1.00039  0.0282142  -0.0289142  -0.00295409  0.0019701  -0.025242  0.0016955  0  0  0  0  0  0  0.0216236  0.00230347  -0.0172934  -0.010733  0.0310972  -0.000265873  -0.0254197  0.0230185  -0.00279056  0.101105  0.0151111  -0.0105566 
1699966293.151100000  0  0  11.6309  0.0642451  -0.117609  0.002815  nan  nan  nan  nan  nan  nan  -0.999545  -0.003664  1.0004  0.0272337  -0.0290401  -0.00308305  0.0019701  -0.0252461  0.0016955  0  0  0  0  0  0  0.0216314  0.00231645  -0.0173201  -0.0104306  0.0299464  -0.00424903  -0.024021  0.0233079  -0.00269623  0.0925029  0.0207859  -0.00822521 
1699966293.156100000  0  0  11.4986  0.0849203  -0.115139  0.00184513  nan  nan  nan  nan  nan  nan  -0.999535  -0.0037903  1.00041  0.0276192  -0.0294248  -0.00326508  0.0019701  -0.0252466  0.0016955  0  0  0  0  0  0  0.021582  0.00246431  -0.0172465  -0.0102493  0.0297037  0.00661965  -0.0244029  0.0237051  -0.0024481  0.0546665  0.0121916  0.00141684 
1699966293.161107000  0  0  11.5222  0.0658451  -0.127373  0.00193692  nan  nan  nan  nan  nan  nan  -0.999525  -0.0039165  1.00041  0.027092  -0.0293005  -0.00341259  0.0019701  -0.0252462  0.0016955  0  0  0  0  0  0  0.0216174  0.00242593  -0.0172307  -0.0104069  0.0291803  0.00462323  -0.0232526  0.0239241  -0.00233064  0.0822337  0.0346456  -0.00090506 
1699966293.166587000  0  0  11.5839  0.0627071  -0.132015  0.00250028  nan  nan  nan  nan  nan  nan  -0.999515  -0.0040427  1.00042  0.0258888  -0.029784  -0.00356253  0.0019701  -0.0252424  0.0016955  0  0  0  0  0  0  0.0216617  0.00239888  -0.0172593  -0.00968148  0.027868  -0.000456377  -0.0216821  0.0246646  -0.00227735  0.0740609  0.037115  -0.00847995 
1699966293.171248000  0  0  11.4891  0.0847296  -0.122103  0.00300347  nan  nan  nan  nan  nan  nan  -0.999506  -0.0041689  1.00043  0.0265142  -0.029854  -0.00376192  0.0019701  -0.0252316  0.0016955  0  0  0  0  0  0  0.0216174  0.00253861  -0.0171909  -0.00979888  0.0280769  0.00730387  -0.0223979  0.024669  -0.0022022  0.0366019  0.0172507  -0.0155214 
1699966293.176101000  0  0  11.5198  0.0753156  -0.131721  0.00315908  nan  nan  nan  nan  nan  nan  -0.999496  -0.004295  1.00044  0.0259909  -0.0296559  -0.00392635  0.0019701  -0.02521  0.0016955  0  0  0  0  0  0  0.0216503  0.00251764  -0.0171853  -0.0100203  0.027538  0.00472688  -0.0215849  0.0247829  -0.00214049  0.0479499  0.0354388  -0.0180837 
1699966293.181114000  0  0  11.5615  0.0841154  -0.11972  0.00307361  nan  nan  nan  nan  nan  nan  -0.999486  -0.004421  1.00045  0.0258178  -0.029584  -0.00411075  0.0019701  -0.0251737  0.0016955  0  0  0  0  0  0  0.0216039  0.00265028  -0.0171989  -0.00986663  0.0271339  0.00127973  -0.0213835  0.0246358  -0.00204659  0.0284974  0.0127897  -0.0179542 
1699966293.186098000  0  0  11.47  0.0991134  -0.116561  0.00291337  nan  nan  nan  nan  nan  nan  -0.999476  -0.0045467  1.00046  0.0250841  -0.0302919  -0.00430449  0.0019701  -0.0251192  0.0016955  0  0  0  0  0  0  0.0216556  0.00259781  -0.0171085  -0.00937798  0.0260429  0.00871047  -0.0209292  0.0252582  -0.00194065  -0.00567805  0.000745958  -0.0170107 
1699966293.191116000  0  0  11.4938  0.0978394  -0.119623  0.00280528  nan  nan  nan  nan  nan  nan  -0.999466  -0.0046722  1.00046  0.0255303  -0.029646  -0.00450543  0.0019701  -0.0250426  0.0016955  0  0  0  0  0  0  0.0216041  0.00273117  -0.0170859  -0.00999944  0.0263783  0.00667701  -0.0213327  0.0247574  -0.00182089  0.000581926  0.0114783  -0.0168571 
1699966293.196101000  0  0  11.54  0.099124  -0.104845  0.00279811  nan  nan  nan  nan  nan  nan  -0.999456  -0.0047971  1.00047  0.0243068  -0.0302134  -0.00469302  0.0019701  -0.0249402  0.0016955  0  0  0  0  0  0  0.0216704  0.00266833  -0.0170925  -0.00926741  0.025068  0.00284677  -0.0202471  0.0250165  -0.00173997  -0.011975  -0.0204614  -0.0175767 
1699966293.201107000  0  0  11.4678  0.121751  -0.102238  0.00226936  nan  nan  nan  nan  nan  nan  -0.999446  -0.0049215  1.00048  0.0247856  -0.0300525  -0.00491991  0.0019701  -0.0248082  0.0016955  0  0  0  0  0  0  0.0216224  0.00279485  -0.0170215  -0.00959923  0.0251957  0.00871277  -0.0212249  0.0247094  -0.00154336  -0.0482336  -0.0228498  -0.0129334 
1699966293.206099000  0  0  11.5111  0.118326  -0.108462  0.00198824  nan  nan  nan  nan  nan  nan  -0.999437  -0.0050451  1.00049  0.0241292  -0.0297854  -0.00511643  0.0019701  -0.0246429  0.0016955  0  0  0  0  0  0  0.0216502  0.00275909  -0.0170056  -0.00985525  0.024548  0.00505629  -0.0207618  0.0245651  -0.00136598  -0.0456429  -0.00907467  -0.0111931 
1699966293.211099000  0  0  11.5315  0.112033  -0.09347  0.00161142  nan  nan  nan  nan  nan  nan  -0.999427  -0.0051679  1.0005  0.0231558  -0.0302414  -0.00532688  0.0019701  -0.0244405  0.0016955  0  0  0  0  0  0  0.0217042  0.00271646  -0.0169986  -0.00932329  0.0234378  0.00334927  -0.0199605  0.0246356  -0.00118937  -0.0404289  -0.039708  -0.00824897 
1699966293.216100000  0  0  11.4902  0.131204  -0.090689  0.000654807  nan  nan  nan  nan  nan  nan  -0.999417  -0.0052895  1.00051  0.023347  -0.0300807  -0.00556412  0.0019701  -0.0241973  0.0016955  0  0  0  0  0  0  0.0216574  0.00283268  -0.0169489  -0.00955515  0.0233103  0.00668062  -0.0207326  0.0242469  -0.000873762  -0.0716673  -0.0416936  0.000552539 
1699966293.221115000  0  0  11.5485  0.123552  -0.0952028  0.000237976  nan  nan  nan  nan  nan  nan  -0.999407  -0.0054098  1.00052  0.022795  -0.0296534  -0.00577917  0.0019701  -0.0239095  0.0016955  0  0  0  0  0  0  0.0216624  0.00284786  -0.0169684  -0.00991663  0.0227127  0.00185615  -0.0204417  0.0237894  -0.000611287  -0.0590408  -0.0284571  0.00313816 
1699966293.226097000  0  0  11.5755  0.106585  -0.0864623  0.00128563  nan  nan  nan  nan  nan  nan  -0.999397  -0.0055285  1.00052  0.0217356  -0.0302532  -0.00600848  0.0019701  -0.0235734  0.0016955  0  0  0  0  0  0  0.0217249  0.00279028  -0.0169695  -0.00919622  0.0215318  -0.000381298  -0.0193938  0.023991  -0.000534909  -0.0347464  -0.0477929  -0.0107213 
1699966293.231112000  0  0  11.5479  0.124913  -0.094028  0.00109437  nan  nan  nan  nan  nan  nan  -0.999387  -0.0056454  1.00053  0.0217578  -0.0300435  -0.00625849  0.0019701  -0.0231852  0.0016955  0  0  0  0  0  0  0.0216781  0.00289655  -0.0169431  -0.00944722  0.02125  0.00185572  -0.0199376  0.0237428  -0.000324897  -0.0664  -0.0303775  -0.0104307 
1699966293.236100000  0  0  11.5642  0.116811  -0.0934387  0.00141038  nan  nan  nan  nan  nan  nan  -0.999378  -0.0057603  1.00054  0.0217334  -0.0293795  -0.00650353  0.0019701  -0.0227412  0.0016955  0  0  0  0  0  0  0.0216274  0.00300253  -0.016946  -0.0101267  0.0210179  0.000495035  -0.0200547  0.0230096  -0.000185506  -0.0491195  -0.024811  -0.0157747 
1699966293.241523000  0  0  11.6071  0.0856353  -0.090747  0.00237179  nan  nan  nan  nan  nan  nan  -0.999368  -0.0058727  1.00055  0.0197082  -0.0305369  -0.00673321  0.0019701  -0.0222377  0.0016955  0  0  0  0  0  0  0.02176  0.00280556  -0.0170106  -0.00879868  0.0189265  -0.00293114  -0.0178485  0.023832  -0.000189746  -0.00706449  -0.0377599  -0.0277499 
1699966293.246100000  0  0  11.586  0.10668  -0.100515  0.0010867  nan  nan  nan  nan  nan  nan  -0.999358  -0.0059825  1.00056  0.0193797  -0.0304467  -0.00699403  0.0019701  -0.0216708  0.0016955  0  0  0  0  0  0  0.021719  0.00289793  -0.0170025  -0.0088916  0.0182432  -0.00120132  -0.0180242  0.0238113  0.000113638  -0.0475381  -0.0180336  -0.0147201 
1699966293.251055000  0  0  11.5838  0.0846187  -0.101326  0.000983018  nan  nan  nan  nan  nan  nan  -0.999348  -0.0060893  1.00057  0.0185193  -0.0303932  -0.00724584  0.0019701  -0.0210368  0.0016955  0  0  0  0  0  0  0.0217398  0.00286804  -0.0170191  -0.0090164  0.0171873  -0.000979467  -0.017087  0.0237244  0.000295419  -0.0120365  -0.0156134  -0.0152419 
1699966293.256190000  0  0  11.6225  0.0722042  -0.0982262  0.00141844  nan  nan  nan  nan  nan  nan  -0.999338  -0.0061928  1.00057  0.018173  -0.0303257  -0.00751919  0.0019701  -0.0203326  0.0016955  0  0  0  0  0  0  0.0216968  0.0029519  -0.0170422  -0.00887352  0.0166219  -0.00415286  -0.0165292  0.0235123  0.000409485  0.00766024  -0.0198607  -0.0218253 
1699966293.261062000  0  0  11.6048  0.088861  -0.118115  0.000986841  nan  nan  nan  nan  nan  nan  -0.999328  -0.0062925  1.00058  0.0167582  -0.0308042  -0.00777569  0.0019701  -0.0195595  0.0016955  0  0  0  0  0  0  0.021739  0.00289056  -0.0170707  -0.00841767  0.0148834  -0.00263228  -0.0156214  0.024272  0.000614641  -0.0340051  0.0129279  -0.0184819 
1699966293.266525000  0  0  11.5928  0.0684183  -0.116097  0.00062107  nan  nan  nan  nan  nan  nan  -0.999318  -0.0063883  1.00059  0.0155379  -0.030767  -0.00803522  0.0019701  -0.0187213  0.0016955  0  0  0  0  0  0  0.0217588  0.00281434  -0.0171078  -0.00855795  0.0134482  -0.00155837  -0.0142641  0.0243208  0.000814443  -0.0056074  0.00844241  -0.0159078 
1699966293.271103000  0  0  11.6408  0.0656692  -0.114662  2.7544e-05  nan  nan  nan  nan  nan  nan  -0.999309  -0.0064796  1.0006  0.0150762  -0.0304603  -0.00832029  0.0019701  -0.0178216  0.0016955  0  0  0  0  0  0  0.02172  0.00288264  -0.0171527  -0.00870331  0.0127722  -0.00546231  -0.0137741  0.0240346  0.00108259  -0.00461656  0.00820578  -0.0111702 
1699966293.276104000  0  0  11.6115  0.0870228  -0.121163  -0.000315686  nan  nan  nan  nan  nan  nan  -0.999299  -0.0065664  1.00061  0.0130402  -0.0311183  -0.00857705  0.0019701  -0.0168643  0.0016955  0  0  0  0  0  0  0.021755  0.00277976  -0.0172001  -0.00804834  0.0103078  -0.00293169  -0.0124081  0.0248583  0.00131415  -0.0598913  0.0136293  -0.00919539 
1699966293.281104000  0  0  11.5753  0.069425  -0.117949  0.000481139  nan  nan  nan  nan  nan  nan  -0.999289  -0.0066482  1.00062  0.0131631  -0.0307872  -0.00889291  0.0019701  -0.0158531  0.0016955  0  0  0  0  0  0  0.0217115  0.0028375  -0.0171906  -0.00849674  0.0102771  6.44435e-05  -0.0124259  0.0245603  0.00144642  -0.0245321  0.00994302  -0.0204784 
1699966293.286192000  0  0  11.6431  0.0653833  -0.122318  0.000470087  nan  nan  nan  nan  nan  nan  -0.999279  -0.0067248  1.00063  0.0113941  -0.0308211  -0.00916154  0.0019701  -0.0147918  0.0016955  0  0  0  0  0  0  0.0217281  0.00273205  -0.0172602  -0.00827287  0.00830818  -0.00545141  -0.0108272  0.0248053  0.0015962  -0.0311561  0.0164284  -0.0218381 
1699966293.291520000  0  0  11.5922  0.0780885  -0.117153  0.000144817  nan  nan  nan  nan  nan  nan  -0.999269  -0.006796  1.00063  0.00984796  -0.0310882  -0.00944542  0.0019701  -0.0136841  0.0016955  0  0  0  0  0  0  0.0217344  0.00264501  -0.0172458  -0.00813192  0.00643221  -0.00124834  -0.00986658  0.0250812  0.00179402  -0.0654044  0.00355955  -0.0197504 
1699966293.296104000  0  0  11.5609  0.064809  -0.113979  0.000565974  nan  nan  nan  nan  nan  nan  -0.999259  -0.0068616  1.00064  0.00976062  -0.0308069  -0.00977516  0.0019701  -0.0125337  0.0016955  0  0  0  0  0  0  0.0216942  0.00268428  -0.0172353  -0.00850978  0.00618967  0.00133815  -0.0097755  0.0247705  0.00195066  -0.0396834  6.94122e-05  -0.0265813 
1699966293.301240000  0  0  11.6464  0.0726507  -0.119093  2.17653e-06  nan  nan  nan  nan  nan  nan  -0.999249  -0.0069213  1.00065  0.00816718  -0.0308865  -0.0100681  0.0019701  -0.0113444  0.0016955  0  0  0  0  0  0  0.021725  0.00256896  -0.0173231  -0.0081988  0.00446044  -0.0056051  -0.00868329  0.025016  0.00217708  -0.0654151  0.00803912  -0.021798 
1699966293.306098000  0  0  11.5734  0.0907369  -0.107542  0.00012497  nan  nan  nan  nan  nan  nan  -0.99924  -0.006975  1.00066  0.00741136  -0.0308851  -0.0103924  0.0019701  -0.01012  0.0016955  0  0  0  0  0  0  0.0216859  0.00258793  -0.0172918  -0.00837146  0.00336945  0.000407356  -0.0086678  0.0248164  0.00237548  -0.10173  -0.0132259  -0.025317 
1699966293.311182000  0  0  11.5766  0.0788144  -0.103744  0.000462476  nan  nan  nan  nan  nan  nan  -0.99923  -0.0070225  1.00067  0.00675299  -0.0306011  -0.0107241  0.0019701  -0.0088642  0.0016955  0  0  0  0  0  0  0.0216903  0.00251668  -0.0172895  -0.00874171  0.00267384  0.000132588  -0.00832828  0.0244117  0.00251794  -0.0810086  -0.0170998  -0.0309603 
1699966293.316571000  0  0  11.6485  0.0878834  -0.109258  -0.000135087  nan  nan  nan  nan  nan  nan  -0.99922  -0.0070636  1.00068  0.0055296  -0.0305208  -0.0110463  0.0019701  -0.0075807  0.0016955  0  0  0  0  0  0  0.0216921  0.00243161  -0.0173346  -0.00861951  0.00131868  -0.00576259  -0.00782099  0.0243896  0.00274593  -0.103814  -0.00586873  -0.0257707 
1699966293.321101000  0  0  11.5457  0.108833  -0.0917482  -0.000498988  nan  nan  nan  nan  nan  nan  -0.99921  -0.0070982  1.00069  0.00477386  -0.03055  -0.0112778  0.0019701  -0.0062733  0.0016955  0  0  0  0  0  0  0.0216521  0.00243646  -0.0172779  -0.00885179  0.000269326  0.00268554  -0.0080265  0.0240216  0.00292063  -0.143823  -0.0375021  -0.022969 
1699966293.326097000  0  0  11.5291  0.102524  -0.0881558  2.53798e-05  nan  nan  nan  nan  nan  nan  -0.9992  -0.0071263  1.00069  0.00470149  -0.0298105  -0.0112721  0.0019701  -0.0049458  0.0016954  0  0  0  0  0  0  0.0216019  0.00244227  -0.0172535  -0.00974571  0.000166293  0.00401317  -0.00848145  0.0230898  0.00274812  -0.12702  -0.0361147  -0.0277985 
1699966293.331090000  0  0  11.6064  0.110725  -0.0935117  0.000508165  nan  nan  nan  nan  nan  nan  -0.99919  -0.0071477  1.0007  0.00341172  -0.0297371  -0.0112334  0.0019701  -0.0036019  0.0016932  0  0  0  0  0  0  0.0216107  0.0023388  -0.0172986  -0.00962257  -0.00122742  -0.00233091  -0.00808514  0.0229826  0.00252827  -0.147068  -0.0244164  -0.0316347 
1699966293.336088000  0  0  11.4827  0.126184  -0.0798907  0.000854316  nan  nan  nan  nan  nan  nan  -0.999181  -0.0071623  1.00071  0.00195865  -0.0303092  -0.0111914  0.0019701  -0.0022454  0.0016853  0  0  0  0  0  0  0.0216265  0.00221552  -0.0172117  -0.00935764  -0.00285666  0.00779939  -0.00780571  0.0231083  0.00231984  -0.180556  -0.0528153  -0.0338773 
1699966293.341556000  0  0  11.4892  0.118712  -0.0807529  0.00154982  nan  nan  nan  nan  nan  nan  -0.999171  -0.0071701  1.00072  0.00135198  -0.0298239  -0.0111723  0.0019701  -0.0008799  0.001668  0  0  0  0  0  0  0.0216166  0.00211587  -0.0171892  -0.00994231  -0.00340106  0.00721167  -0.00799887  0.0224313  0.00203849  -0.163835  -0.0448623  -0.0397576 
1699966293.346094000  0  0  11.6027  0.117657  -0.0878612  0.00153041  nan  nan  nan  nan  nan  nan  -0.999161  -0.0071711  1.00073  0.000553006  -0.029407  -0.0111483  0.0019701  0.0004907  0.0016374  0  0  0  0  0  0  0.021573  0.00209577  -0.017252  -0.0100181  -0.00436687  -0.00211994  -0.00792119  0.0220362  0.00187741  -0.16244  -0.0270106  -0.0379043 
1699966293.351608000  0  0  11.5192  0.121674  -0.0795204  0.0018728  nan  nan  nan  nan  nan  nan  -0.999151  -0.0071652  1.00074  -0.00077795  -0.0298257  -0.0111088  0.0019701  0.0018626  0.0015898  0  0  0  0  0  0  0.0215891  0.00192913  -0.0172006  -0.00980997  -0.00570699  0.0047425  -0.00763793  0.0221274  0.00162234  -0.173079  -0.0445316  -0.0396334 
1699966293.356088000  0  0  11.5379  0.115909  -0.0865928  0.00196947  nan  nan  nan  nan  nan  nan  -0.999141  -0.0071525  1.00074  -0.00110302  -0.0291678  -0.0110998  0.0019701  0.0032323  0.0015215  0  0  0  0  0  0  0.02154  0.00190346  -0.0171919  -0.0104872  -0.00605935  0.00315782  -0.00792114  0.0215123  0.00144543  -0.158944  -0.0247273  -0.0390728 
1699966293.361093000  0  0  11.6519  0.106264  -0.0994078  0.00179984  nan  nan  nan  nan  nan  nan  -0.999131  -0.0071329  1.00075  -0.00267647  -0.0293822  -0.0110534  0.0019701  0.0045958  0.0014287  0  0  0  0  0  0  0.0215568  0.00175261  -0.0172617  -0.00990032  -0.00778099  -0.0061826  -0.00702715  0.0218858  0.00126655  -0.147878  -0.0025336  -0.0351635 
1699966293.366600000  0  0  11.5682  0.109007  -0.0992073  0.00143157  nan  nan  nan  nan  nan  nan  -0.999121  -0.0071065  1.00076  -0.00402485  -0.0300979  -0.0110109  0.0019701  0.0059495  0.0013081  0  0  0  0  0  0  0.0215832  0.00157976  -0.0172255  -0.0093309  -0.00911106  0.000726597  -0.00662104  0.0225264  0.0011346  -0.1571  -0.00882857  -0.0292406 
1699966293.371113000  0  0  11.5836  0.105485  -0.10761  0.00140969  nan  nan  nan  nan  nan  nan  -0.999112  -0.0070734  1.00076  -0.00445322  -0.0296756  -0.0109999  0.0019701  0.0072895  0.0011611  0  0  0  0  0  0  0.0215381  0.00153589  -0.0172287  -0.00972893  -0.00956606  -0.000555084  -0.00679718  0.0223026  0.00102364  -0.148437  0.0100368  -0.0278576 
1699966293.376090000  0  0  11.6634  0.0927591  -0.110946  0.0018569  nan  nan  nan  nan  nan  nan  -0.999102  -0.0070336  1.00077  -0.00613874  -0.0301131  -0.0109472  0.0019701  0.0086123  0.0009912  0  0  0  0  0  0  0.0215708  0.00135044  -0.0172947  -0.00899603  -0.0113853  -0.00704549  -0.0056745  0.0228115  0.000808689  -0.133313  0.0120263  -0.0312982 
1699966293.381104000  0  0  11.5828  0.0956095  -0.119745  0.00171544  nan  nan  nan  nan  nan  nan  -0.999092  -0.0069873  1.00077  -0.00655453  -0.0302222  -0.0109339  0.0019701  0.0099139  0.0008024  0  0  0  0  0  0  0.0215259  0.00129431  -0.0172517  -0.00903032  -0.0117389  -0.000423453  -0.00596277  0.0231467  0.000696648  -0.136361  0.0265399  -0.0284095 
1699966293.386231000  0  0  11.6095  0.0842272  -0.126716  0.00141314  nan  nan  nan  nan  nan  nan  -0.999082  -0.0069346  1.00078  -0.00776248  -0.0300705  -0.0108986  0.0019701  0.0111906  0.0005983  0  0  0  0  0  0  0.0215449  0.00111016  -0.0172829  -0.00919563  -0.0129051  -0.00258109  -0.00527471  0.0232979  0.000571234  -0.119927  0.0390922  -0.0233766 
1699966293.391599000  0  0  11.6217  0.0788935  -0.123519  0.00172522  nan  nan  nan  nan  nan  nan  -0.999072  -0.0068755  1.00078  -0.00906407  -0.0306202  -0.0108545  0.0019701  0.0124388  0.0003827  0  0  0  0  0  0  0.0215748  0.000914226  -0.0173043  -0.00852935  -0.0141679  -0.00354076  -0.00456357  0.0239143  0.000384193  -0.115802  0.0270259  -0.0254072 
1699966293.396089000  0  0  11.5675  0.0837113  -0.129029  0.00151033  nan  nan  nan  nan  nan  nan  -0.999062  -0.0068102  1.00078  -0.00952435  -0.0306098  -0.0108405  0.0019701  0.0136546  0.0001593  0  0  0  0  0  0  0.0215349  0.000843873  -0.0172787  -0.0086444  -0.014546  0.000926177  -0.004721  0.0241201  0.000309126  -0.123989  0.0361529  -0.0219703 
1699966293.401092000  0  0  11.5744  0.0734007  -0.137203  0.00147667  nan  nan  nan  nan  nan  nan  -0.999052  -0.006739  1.00078  -0.0106246  -0.0305632  -0.0108073  0.0019701  0.0148343  -6.81e-05  0  0  0  0  0  0  0.021568  0.000634646  -0.0172871  -0.00876954  -0.015502  0.000371746  -0.00404864  0.0244274  0.000197063  -0.109554  0.0496737  -0.0204291 
1699966293.406096000  0  0  11.5917  0.0703444  -0.125193  0.00217009  nan  nan  nan  nan  nan  nan  -0.999043  -0.0066619  1.00078  -0.0108973  -0.0304633  -0.0108001  0.0019701  0.0159741  -0.0002958  0  0  0  0  0  0  0.0215268  0.000556735  -0.0173037  -0.00875221  -0.0156995  -0.00103019  -0.00422463  0.0242995  1.09585e-05  -0.101822  0.026831  -0.0272358 
1699966293.411090000  0  0  11.5649  0.0864718  -0.130252  0.00206638  nan  nan  nan  nan  nan  nan  -0.999033  -0.0065793  1.00078  -0.0117782  -0.0307792  -0.0107695  0.0019701  0.0170704  -0.00052  0  0  0  0  0  0  0.0215463  0.000373336  -0.0172929  -0.00849148  -0.016394  0.00118317  -0.004249  0.0248075  -0.000102461  -0.133853  0.0322746  -0.0248051 
1699966293.416510000  0  0  11.5603  0.0838933  -0.135476  0.00265366  nan  nan  nan  nan  nan  nan  -0.999023  -0.0064913  1.00077  -0.0126398  -0.0306944  -0.0107441  0.0019701  0.0181193  -0.000737  0  0  0  0  0  0  0.0215688  0.000157614  -0.0172977  -0.00867778  -0.0170133  0.00157708  -0.00406758  0.0250502  -0.000318634  -0.130365  0.0404905  -0.0299844 
1699966293.421091000  0  0  11.5766  0.0815891  -0.117289  0.00279013  nan  nan  nan  nan  nan  nan  -0.999013  -0.0063982  1.00077  -0.0125913  -0.0306844  -0.0107457  0.0019701  0.019117  -0.000943  0  0  0  0  0  0  0.021531  7.3926e-05  -0.0173097  -0.00855075  -0.0167882  0.000249377  -0.00459022  0.0248063  -0.00046156  -0.120948  0.00636119  -0.030261 
1699966293.426096000  0  0  11.5583  0.11021  -0.11995  0.00171859  nan  nan  nan  nan  nan  nan  -0.999003  -0.0063002  1.00077  -0.0126288  -0.0303531  -0.0107487  0.0019701  0.02006  -0.0011342  0  0  0  0  0  0  0.0214858  -9.94138e-06  -0.0172995  -0.00893841  -0.0166193  0.00174286  -0.00572491  0.0245852  -0.00043666  -0.167751  0.0137172  -0.0171158 
1699966293.431170000  0  0  11.5427  0.107331  -0.111847  0.00208797  nan  nan  nan  nan  nan  nan  -0.998993  -0.0061977  1.00076  -0.01302  -0.0301954  -0.0107389  0.0019701  0.0209443  -0.001307  0  0  0  0  0  0  0.0214994  -0.000200456  -0.0172767  -0.00922862  -0.0166727  0.00299468  -0.00609032  0.0243584  -0.000558982  -0.158631  -0.000403265  -0.0205098 
1699966293.436089000  0  0  11.5591  0.10748  -0.107587  0.00313042  nan  nan  nan  nan  nan  nan  -0.998984  -0.0060909  1.00075  -0.0137832  -0.0305414  -0.0107111  0.0019701  0.0217663  -0.0014575  0  0  0  0  0  0  0.021547  -0.000440266  -0.017276  -0.00884571  -0.0171482  0.00164436  -0.00609121  0.0245928  -0.000791508  -0.15892  -0.0110796  -0.0312152 
1699966293.441098000  0  0  11.5499  0.142702  -0.106386  0.00240531  nan  nan  nan  nan  nan  nan  -0.998974  -0.0059802  1.00074  -0.0136736  -0.0301618  -0.0107196  0.0019703  0.0225221  -0.0015821  0  0  0  0  0  0  0.021501  -0.000526256  -0.0172582  -0.00926009  -0.0167971  0.00236456  -0.00768208  0.0241705  -0.000812558  -0.214728  -0.00959553  -0.0219408 
1699966293.446090000  0  0  11.5384  0.136785  -0.0968347  0.00225676  nan  nan  nan  nan  nan  nan  -0.998964  -0.0058658  1.00074  -0.0136839  -0.0300232  -0.0107212  0.0019731  0.0232082  -0.0016769  0  0  0  0  0  0  0.021517  -0.000722668  -0.0172508  -0.00951182  -0.0163542  0.00330014  -0.00851134  0.0238065  -0.000881262  -0.195266  -0.0253507  -0.0193969 
1699966293.451036000  0  0  11.5639  0.137547  -0.0927877  0.00158557  nan  nan  nan  nan  nan  nan  -0.998954  -0.0057482  1.00073  -0.0140893  -0.0301894  -0.0107067  0.0019823  0.0238206  -0.0017383  0  0  0  0  0  0  0.0215475  -0.000941364  -0.0172543  -0.00928707  -0.0164307  0.00119247  -0.00899772  0.0237435  -0.000877015  -0.192315  -0.0328653  -0.0110495 
1699966293.456088000  0  0  11.557  0.164662  -0.0931672  0.000686834  nan  nan  nan  nan  nan  nan  -0.998944  -0.0056277  1.00072  -0.0136654  -0.0299019  -0.0107234  0.0020015  0.0243556  -0.0017624  0  0  0  0  0  0  0.0215008  -0.00102241  -0.0172397  -0.00956937  -0.0156919  0.00171684  -0.0108478  0.0233446  -0.000778987  -0.229523  -0.0284361  -0.000795555 
1699966293.461092000  0  0  11.5424  0.146391  -0.0894384  0.00102232  nan  nan  nan  nan  nan  nan  -0.998934  -0.0055048  1.00071  -0.0135493  -0.0298496  -0.0107276  0.0020346  0.0248096  -0.0017455  0  0  0  0  0  0  0.0215206  -0.00123328  -0.0172182  -0.0097269  -0.0150512  0.0028805  -0.0115774  0.0231052  -0.000821217  -0.18627  -0.0336906  -0.00456684 
1699966293.466088000  0  0  11.5875  0.150095  -0.0900995  0.00136584  nan  nan  nan  nan  nan  nan  -0.998924  -0.0053798  1.0007  -0.0129792  -0.0293322  -0.0107513  0.0020853  0.0251787  -0.0016839  0  0  0  0  0  0  0.0214716  -0.0013088  -0.0172377  -0.0101273  -0.0142125  -0.000862497  -0.0129841  0.022482  -0.000879345  -0.180736  -0.0266356  -0.00827949 
1699966293.471224000  0  0  11.5728  0.153465  -0.0969184  0.00173241  nan  nan  nan  nan  nan  nan  -0.998913  -0.0052531  1.00069  -0.0132884  -0.0296261  -0.0107384  0.0021573  0.0254592  -0.0015738  0  0  0  0  0  0  0.0215003  -0.00152849  -0.0172263  -0.00986445  -0.0141041  0.000337347  -0.0136564  0.02278  -0.000958388  -0.181292  -0.0157396  -0.0120712 
1699966293.476088000  0  0  11.574  0.132478  -0.0987653  0.00243289  nan  nan  nan  nan  nan  nan  -0.998902  -0.0051253  1.00069  -0.0132047  -0.0295745  -0.0107415  0.0022544  0.0256473  -0.0014115  0  0  0  0  0  0  0.0215317  -0.00176047  -0.0172324  -0.00999537  -0.0134823  0.000244248  -0.0140562  0.0227078  -0.00109846  -0.135638  -0.0113812  -0.0194265 
1699966293.481091000  0  0  11.638  0.133464  -0.110642  0.0028719  nan  nan  nan  nan  nan  nan  -0.99889  -0.0049968  1.00068  -0.0124202  -0.0291973  -0.0107694  0.0023803  0.0257393  -0.0011932  0  0  0  0  0  0  0.021483  -0.00182767  -0.0172736  -0.010154  -0.0124106  -0.00504394  -0.015376  0.0225757  -0.00123724  -0.125469  0.0135871  -0.0235264 
1699966293.486095000  0  0  11.5999  0.138008  -0.106866  0.00301593  nan  nan  nan  nan  nan  nan  -0.998878  -0.0048681  1.00067  -0.0127546  -0.0296298  -0.0107541  0.0025388  0.0257315  -0.0009152  0  0  0  0  0  0  0.0215125  -0.00203724  -0.017252  -0.00978939  -0.0123276  -0.00190669  -0.0157312  0.0229536  -0.00135624  -0.13129  0.00255765  -0.0241368 
1699966293.490094000  0  0  11.6053  0.120034  -0.113064  0.00356975  nan  nan  nan  nan  nan  nan  -0.998865  -0.0047397  1.00067  -0.0115751  -0.0291638  -0.0107945  0.0027337  0.0256201  -0.0005737  0  0  0  0  0  0  0.0214689  -0.00210526  -0.0172641  -0.0102589  -0.0106581  -0.00236859  -0.0169003  0.0226594  -0.00150264  -0.0845846  0.0176612  -0.0295955 
1699966293.496088000  0  0  11.6894  0.11601  -0.127191  0.00340612  nan  nan  nan  nan  nan  nan  -0.998851  -0.0046121  1.00067  -0.0113594  -0.0290035  -0.0108026  0.0029687  0.0254013  -0.0001649  0  0  0  0  0  0  0.0214872  -0.0022915  -0.0173376  -0.0102325  -0.0100736  -0.00925073  -0.0174014  0.022956  -0.00164385  -0.0719269  0.0431865  -0.026138 
1699966293.501172000  0  0  11.6032  0.121193  -0.116924  0.00242084  nan  nan  nan  nan  nan  nan  -0.998835  -0.0044858  1.00067  -0.0111191  -0.029427  -0.0108048  0.0032475  0.0250714  0.0003148  0  0  0  0  0  0  0.02152  -0.00249925  -0.0172909  -0.0100321  -0.00919653  -0.00217563  -0.0180362  0.0233056  -0.00162999  -0.0764527  0.019436  -0.0139606 
1699966293.506221000  0  0  11.6493  0.114107  -0.130309  0.00186455  nan  nan  nan  nan  nan  nan  -0.998818  -0.0043615  1.00067  -0.00962567  -0.028567  -0.0108571  0.0035738  0.0246267  0.0008692  0  0  0  0  0  0  0.0214654  -0.00253886  -0.017335  -0.0108522  -0.00722349  -0.00597819  -0.0195793  0.0228746  -0.00160939  -0.0480849  0.0501727  -0.00721299 
1699966293.511092000  0  0  11.7026  0.113114  -0.133773  0.00162366  nan  nan  nan  nan  nan  nan  -0.998799  -0.0042398  1.00068  -0.00960078  -0.0285734  -0.0108577  0.0039516  0.0240634  0.0015022  0  0  0  0  0  0  0.0215079  -0.0027563  -0.0174001  -0.010769  -0.00676706  -0.010296  -0.0197334  0.0231923  -0.00161211  -0.0446813  0.0541767  -0.00417463 
1699966293.516037000  0  0  11.6127  0.121748  -0.1131  0.00138169  nan  nan  nan  nan  nan  nan  -0.998779  -0.0041211  1.00069  -0.00797651  -0.0285042  -0.0109047  0.0043844  0.0233777  0.0022173  0  0  0  0  0  0  0.0214573  -0.00278419  -0.0173747  -0.0110063  -0.00451058  -0.00290465  -0.0215866  0.0229139  -0.00156908  -0.0448986  0.0153927  -0.00158028 
1699966293.521220000  0  0  11.6656  0.117499  -0.137671  0.00159627  nan  nan  nan  nan  nan  nan  -0.998755  -0.0040062  1.0007  -0.00739671  -0.0280268  -0.0109247  0.004876  0.0225659  0.0030185  0  0  0  0  0  0  0.0215076  -0.00302143  -0.017409  -0.011561  -0.0032744  -0.00727163  -0.022137  0.0230837  -0.00161095  -0.0313367  0.0629718  -0.00384388 
1699966293.526095000  0  0  11.7211  0.116022  -0.130768  0.00194525  nan  nan  nan  nan  nan  nan  -0.99873  -0.0038957  1.00072  -0.00723789  -0.0278934  -0.0109301  0.0054303  0.0216242  0.0039094  0  0  0  0  0  0  0.0215599  -0.00325232  -0.017451  -0.0116762  -0.00260029  -0.0118238  -0.0223243  0.0231185  -0.00167258  -0.0266605  0.0488446  -0.00758975 
1699966293.531092000  0  0  11.6466  0.131937  -0.107938  0.00203621  nan  nan  nan  nan  nan  nan  -0.998701  -0.0037902  1.00074  -0.00526022  -0.0275893  -0.0109869  0.0060509  0.020549  0.0048937  0  0  0  0  0  0  0.0215028  -0.00325755  -0.0174359  -0.0121436  3.61508e-05  -0.00570539  -0.0245701  0.0225428  -0.00169322  -0.0378286  0.00848126  -0.00852039 
1699966293.536095000  0  0  11.6816  0.135339  -0.123236  0.00205353  nan  nan  nan  nan  nan  nan  -0.998669  -0.0036904  1.00077  -0.00421346  -0.0269613  -0.0110184  0.0067415  0.0193364  0.0059753  0  0  0  0  0  0  0.0215424  -0.00346906  -0.0174599  -0.0129242  0.00185158  -0.00861285  -0.0256929  0.022319  -0.00173076  -0.0343022  0.0411365  -0.00836147 
1699966293.541553000  0  0  11.7493  0.133627  -0.110303  0.0028648  nan  nan  nan  nan  nan  nan  -0.998633  -0.0035971  1.0008  -0.00360204  -0.0266757  -0.0110359  0.0075047  0.0179827  0.0071579  0  0  0  0  0  0  0.0215873  -0.00367969  -0.017511  -0.013185  0.00308774  -0.0141687  -0.0263018  0.0220113  -0.00187836  -0.0252777  0.0181016  -0.0170263 
1699966293.546086000  0  0  11.6847  0.15241  -0.0869638  0.00305157  nan  nan  nan  nan  nan  nan  -0.998594  -0.0035108  1.00084  -0.00131337  -0.0260766  -0.0110978  0.0083378  0.0164841  0.0084452  0  0  0  0  0  0  0.0215245  -0.00366616  -0.0175154  -0.0139803  0.00606499  -0.00884449  -0.0288683  0.021003  -0.00194507  -0.0392312  -0.0192997  -0.018694 
1699966293.551102000  0  0  11.7198  0.157099  -0.100659  0.00308902  nan  nan  nan  nan  nan  nan  -0.99855  -0.0034325  1.00088  -0.000341806  -0.0253545  -0.0111233  0.009237  0.0148369  0.009841  0  0  0  0  0  0  0.0215709  -0.00389842  -0.0175485  -0.0149074  0.00785035  -0.0117448  -0.0299444  0.0205462  -0.00203823  -0.0387106  0.0122941  -0.0182304 
1699966293.556097000  0  0  11.7792  0.158368  -0.0857213  0.00387089  nan  nan  nan  nan  nan  nan  -0.998501  -0.0033627  1.00094  0.00208019  -0.0242615  -0.0111825  0.0101986  0.0130374  0.011349  0  0  0  0  0  0  0.0214948  -0.00385342  -0.0176493  -0.015965  0.0109322  -0.0165544  -0.032334  0.0193287  -0.00220352  -0.019263  -0.00638148  -0.026351 
1699966293.561103000  0  0  11.7335  0.174445  -0.0738169  0.00332202  nan  nan  nan  nan  nan  nan  -0.998448  -0.0033023  1.001  0.00319181  -0.0241301  -0.011209  0.0112189  0.0110818  0.012973  0  0  0  0  0  0  0.0215368  -0.00405843  -0.0176403  -0.0163356  0.01283  -0.0128006  -0.0337151  0.0188844  -0.00222626  -0.0387097  -0.0261029  -0.0192626 
1699966293.566644000  0  0  11.771  0.181174  -0.0889096  0.00281275  nan  nan  nan  nan  nan  nan  -0.998389  -0.0032522  1.00107  0.00498307  -0.0232364  -0.0112478  0.012294  0.0089663  0.0147168  0  0  0  0  0  0  0.0215431  -0.00419023  -0.0176904  -0.0173902  0.0154917  -0.0158921  -0.0356154  0.0182715  -0.00224575  -0.0346871  0.00972161  -0.0127019 
1699966293.571099000  0  0  11.8201  0.178505  -0.0821344  0.00298652  nan  nan  nan  nan  nan  nan  -0.998325  -0.003213  1.00115  0.00764895  -0.0220415  -0.0113006  0.0134203  0.0066872  0.016584  0  0  0  0  0  0  0.0214573  -0.0041196  -0.0177962  -0.0186007  0.0188811  -0.019847  -0.0380801  0.0170883  -0.00230847  -0.00667345  0.00705617  -0.0142468 
1699966293.576094000  0  0  11.7982  0.189888  -0.0775409  0.00275986  nan  nan  nan  nan  nan  nan  -0.998255  -0.0031856  1.00123  0.00927167  -0.0217161  -0.0113333  0.0145941  0.0042408  0.0185784  0  0  0  0  0  0  0.0214642  -0.00424649  -0.017824  -0.0190713  0.0212784  -0.0180092  -0.0397572  0.0166922  -0.00232423  -0.0140089  0.00151322  -0.011256 
1699966293.581104000  0  0  11.8409  0.194306  -0.0874013  0.00258429  nan  nan  nan  nan  nan  nan  -0.998179  -0.0031708  1.00133  0.0125012  -0.0203347  -0.0113862  0.0158114  0.0016233  0.0207039  0  0  0  0  0  0  0.0213643  -0.0041294  -0.0179377  -0.020513  0.0253345  -0.0214365  -0.0428321  0.015668  -0.00234153  0.00544309  0.0306574  -0.00888825 
1699966293.586095000  0  0  11.8938  0.174162  -0.092607  0.00337111  nan  nan  nan  nan  nan  nan  -0.998097  -0.0031696  1.00144  0.0142612  -0.0196479  -0.0114122  0.0170687  -0.0011691  0.022964  0  0  0  0  0  0  0.0213452  -0.00420283  -0.0180327  -0.0212312  0.0279082  -0.0256783  -0.0439021  0.0152814  -0.00248416  0.0555745  0.0446251  -0.0172973 
1699966293.591524000  0  0  11.9064  0.178913  -0.0913762  0.00404629  nan  nan  nan  nan  nan  nan  -0.998008  -0.0031828  1.00156  0.0163753  -0.0191854  -0.0114462  0.0183621  -0.0041401  0.0253627  0  0  0  0  0  0  0.0213205  -0.00425136  -0.0181114  -0.021727  0.0308427  -0.0266181  -0.0455719  0.0150267  -0.00266318  0.0614357  0.0445071  -0.0239468 
1699966293.596109000  0  0  11.9288  0.180819  -0.105142  0.00474666  nan  nan  nan  nan  nan  nan  -0.997913  -0.0032113  1.00169  0.0196918  -0.017913  -0.0114848  0.0196879  -0.0072916  0.0279036  0  0  0  0  0  0  0.0212095  -0.0040989  -0.0182389  -0.023067  0.0349655  -0.0283063  -0.0483598  0.0143369  -0.00286796  0.0832726  0.0783848  -0.0306537 
1699966293.601112000  0  0  11.9853  0.160364  -0.114168  0.00534441  nan  nan  nan  nan  nan  nan  -0.997811  -0.003256  1.00184  0.0219794  -0.017079  -0.0115074  0.0210424  -0.0106205  0.0305904  0  0  0  0  0  0  0.0211703  -0.00411354  -0.018366  -0.0239418  0.0381837  -0.0327696  -0.0495502  0.0141231  -0.00311073  0.135133  0.0984044  -0.0356978 
1699966293.606047000  0  0  12.0246  0.168187  -0.111201  0.00529893  nan  nan  nan  nan  nan  nan  -0.997703  -0.0033178  1.002  0.02508  -0.0162146  -0.0115387  0.0224217  -0.0141232  0.033427  0  0  0  0  0  0  0.0210532  -0.00391999  -0.018535  -0.0247119  0.042012  -0.0357536  -0.0518962  0.0137005  -0.00326791  0.141071  0.0963581  -0.0335575 
1699966293.611111000  0  0  12.0204  0.165329  -0.125588  0.0046595  nan  nan  nan  nan  nan  nan  -0.997587  -0.0033976  1.00217  0.0275802  -0.0156153  -0.0115628  0.0238222  -0.0177958  0.0364171  0  0  0  0  0  0  0.0210241  -0.00393102  -0.0186331  -0.0254163  0.0453792  -0.0352238  -0.0533834  0.0138874  -0.00335777  0.160469  0.123412  -0.0246661 
1699966293.616532000  0  0  12.0929  0.147965  -0.135032  0.0045999  nan  nan  nan  nan  nan  nan  -0.997464  -0.0034961  1.00236  0.0300453  -0.014716  -0.0115743  0.0252401  -0.0216346  0.0395644  0  0  0  0  0  0  0.0209723  -0.0038742  -0.0187992  -0.0263438  0.0488055  -0.040919  -0.054364  0.0139007  -0.00350459  0.204218  0.142178  -0.0224528 
1699966293.621247000  0  0  12.0863  0.156735  -0.116048  0.00462584  nan  nan  nan  nan  nan  nan  -0.997335  -0.0036142  1.00257  0.0335254  -0.0139836  -0.011601  0.0266717  -0.0256359  0.0428717  0  0  0  0  0  0  0.0208442  -0.00363219  -0.0189785  -0.0269989  0.0529409  -0.0400267  -0.0568244  0.0134202  -0.00361893  0.209315  0.10863  -0.0216337 
1699966293.626104000  0  0  12.0933  0.152947  -0.130136  0.00454703  nan  nan  nan  nan  nan  nan  -0.997198  -0.0037527  1.00279  0.0357056  -0.0137992  -0.0116249  0.0281131  -0.029796  0.0463367  0  0  0  0  0  0  0.0208697  -0.00371579  -0.0190888  -0.0272576  0.0560903  -0.0403658  -0.0577272  0.013953  -0.00375163  0.225196  0.131903  -0.0193215 
1699966293.631113000  0  0  12.1733  0.155187  -0.139945  0.00508377  nan  nan  nan  nan  nan  nan  -0.997053  -0.0039124  1.00303  0.0394103  -0.0122826  -0.0116163  0.0295607  -0.034111  0.0499558  0  0  0  0  0  0  0.0207258  -0.00342585  -0.0193336  -0.0288067  0.0608094  -0.046541  -0.0600775  0.0134022  -0.00396044  0.24234  0.15659  -0.0239427 
