ts x y z roll pitch yaw vx vy vz wx wy wz ax ay az dwx dwy dwz jx jy jz ddwx ddwy ddwz
1701273567.172467000  -1.5  -0  1  0  0  0  6e-07  -6e-07  6e-07  0  0  0  0.000375  -0.000375  0.000375  0  0  0  0  0  0  0  0  0 
1701273567.176729000  -1.5  -0  1  0  0  0  5e-06  -5e-06  5e-06  0  0  0  0.0015  -0.0015  0.0015  0  0  0  0  0  0  0  0  0 
1701273567.181725000  -1.5  -1e-07  1  0  0  0  1.69e-05  -1.69e-05  1.69e-05  0  0  0  0.003375  -0.003375  0.003375  0  0  0  0  0  0  0  0  0 
1701273567.186724000  -1.5  -2e-07  1  0  0  -1e-07  4e-05  -4e-05  4e-05  0  0  0  0.006  -0.006  0.006  0  0  0  0  0  0  0  0  0 
1701273567.191734000  -1.5  -5e-07  1  0  0  -3e-07  7.81e-05  -7.81e-05  7.81e-05  0  0  0  0.009375  -0.009375  0.009375  0  0  0  0  0  0  0  0  0 
1701273567.196724000  -1.5  -1e-06  1  0  0  -5e-07  0.000135  -0.000135  0.000135  0  0  0  0.0135  -0.0135  0.0135  0  0  0  0  0  0  0  0  0 
1701273567.201733000  -1.5  -1.9e-06  1  0  0  -1e-06  0.0002144  -0.0002144  0.0002144  0  0  0  0.018375  -0.018375  0.018375  0  0  0  0  0  0  0  0  0 
1701273567.206735000  -1.5  -3.2e-06  1  0  0  -1.7e-06  0.00032  -0.00032  0.00032  0  0  0  0.024  -0.024  0.024  0  0  0  0  0  0  0  0  0 
1701273567.211733000  -1.49999  -5.1e-06  1.00001  0  0  -2.7e-06  0.0004556  -0.0004556  0.0004556  0  0  0  0.030375  -0.030375  0.030375  0  0  0  0  0  0  0  0  0 
1701273567.216726000  -1.49999  -7.8e-06  1.00001  0  0  -4.2e-06  0.000625  -0.000625  0.000625  0  0  0  0.0375  -0.0375  0.0375  0  0  0  0  0  0  0  0  0 
1701273567.221734000  -1.49999  -1.14e-05  1.00001  0  0  -6.1e-06  0.0008319  -0.0008319  0.0008319  0  0  0  0.045375  -0.045375  0.045375  0  0  0  0  0  0  0  0  0 
1701273567.226725000  -1.49998  -1.62e-05  1.00002  0  0  -8.6e-06  0.00108  -0.00108  0.00108  0  0  0  0.054  -0.054  0.054  0  0  0  0  0  0  0  0  0 
1701273567.231733000  -1.49998  -2.23e-05  1.00002  0  0  -1.19e-05  0.0013731  -0.0013731  0.0013731  0  0  0  0.063375  -0.063375  0.063375  0  0  0  0  0  0  0  0  0 
1701273567.236728000  -1.49997  -3e-05  1.00003  0  0  -1.6e-05  0.001715  -0.001715  0.001715  0  0  0  0.0735  -0.0735  0.0735  0  0  0  0  0  0  0  0  0 
1701273567.241725000  -1.49996  -3.96e-05  1.00004  0  0  -2.11e-05  0.0021094  -0.0021094  0.0021094  0  0  0  0.084375  -0.084375  0.084375  0  0  0  0  0  0  0  0  0 
1701273567.246733000  -1.49995  -5.12e-05  1.00005  0  0  -2.73e-05  0.00256  -0.00256  0.00256  0  0  0  0.096  -0.096  0.096  0  0  0  0  0  0  0  0  0 
1701273567.251731000  -1.49993  -6.53e-05  1.00007  0  0  -3.48e-05  0.0030706  -0.0030706  0.0030706  0  0  0  0.108375  -0.108375  0.108375  0  0  0  0  0  0  0  0  0 
1701273567.256729000  -1.49992  -8.2e-05  1.00008  0  0  -4.37e-05  0.003645  -0.003645  0.003645  0  0  0  0.1215  -0.1215  0.1215  0  0  0  0  0  0  0  0  0 
1701273567.261721000  -1.4999  -0.0001018  1.0001  0  0  -5.43e-05  0.0042869  -0.0042869  0.0042869  0  0  0  0.135375  -0.135375  0.135375  0  0  0  0  0  0  0  0  0 
1701273567.266731000  -1.49988  -0.000125  1.00012  0  0  -6.67e-05  0.005  -0.005  0.005  0  0  0  0.15  -0.15  0.15  0  0  0  0  0  0  0  0  0 
1701273567.271725000  -1.49985  -0.0001519  1.00015  0  0  -8.1e-05  0.0057881  -0.0057881  0.0057881  0  0  0  0.165375  -0.165375  0.165375  0  0  0  0  0  0  0  0  0 
1701273567.276741000  -1.49982  -0.000183  1.00018  0  0  -9.76e-05  0.006655  -0.006655  0.006655  0  0  0  0.1815  -0.1815  0.1815  0  0  0  0  0  0  0  0  0 
1701273567.281739000  -1.49978  -0.0002186  1.00022  0  0  -0.0001166  0.0076044  -0.0076044  0.0076044  0  0  0  0.198375  -0.198375  0.198375  0  0  0  0  0  0  0  0  0 
1701273567.286738000  -1.49974  -0.0002592  1.00026  0  0  -0.0001382  0.00864  -0.00864  0.00864  0  0  0  0.216  -0.216  0.216  0  0  0  0  0  0  0  0  0 
1701273567.291746000  -1.49969  -0.0003052  1.00031  0  0  -0.0001628  0.0097656  -0.0097656  0.0097656  0  0  0  0.234375  -0.234375  0.234375  0  0  0  0  0  0  0  0  0 
1701273567.296734000  -1.49964  -0.000357  1.00036  0  0  -0.0001904  0.010985  -0.010985  0.010985  0  0  0  0.2535  -0.2535  0.2535  0  0  0  0  0  0  0  0  0 
1701273567.301733000  -1.49958  -0.0004152  1.00042  0  0  -0.0002214  0.0123019  -0.0123019  0.0123019  0  0  0  0.273375  -0.273375  0.273375  0  0  0  0  0  0  0  0  0 
1701273567.306733000  -1.49952  -0.0004802  1.00048  0  0  -0.000256  0.01372  -0.01372  0.01372  0  0  0  0.294  -0.294  0.294  0  0  0  0  0  0  0  0  0 
1701273567.311740000  -1.49945  -0.0005526  1.00055  0  0  -0.0002945  0.0152431  -0.0152431  0.0152431  0  0  0  0.315375  -0.315375  0.315375  0  0  0  0  0  0  0  0  0 
1701273567.316733000  -1.49937  -0.0006328  1.00063  0  0  -0.000337  0.016875  -0.016875  0.016875  0  0  0  0.3375  -0.3375  0.3375  0  0  0  0  0  0  0  0  0 
1701273567.321732000  -1.49928  -0.0007215  1.00072  0  0  -0.0003837  0.0186194  -0.0186194  0.0186194  0  0  0  0.360375  -0.360375  0.360375  0  0  0  0  0  0  0  0  0 
1701273567.326734000  -1.49918  -0.0008192  1.00082  0  0  -0.0004349  0.02048  -0.02048  0.02048  0  0  0  0.384  -0.384  0.384  0  0  0  0  0  0  0  0  0 
1701273567.331735000  -1.49907  -0.0009265  1.00093  0  0  -0.0004907  0.0224606  -0.0224606  0.0224606  0  0  0  0.408375  -0.408375  0.408375  0  0  0  0  0  0  0  0  0 
1701273567.336733000  -1.49896  -0.001044  1.00104  0  0  -0.0005513  0.024565  -0.024565  0.024565  0  0  0  0.4335  -0.4335  0.4335  0  0  0  0  0  0  0  0  0 
1701273567.341743000  -1.49883  -0.0011724  1.00117  0  0  -0.0006169  0.0267969  -0.0267969  0.0267969  0  0  0  0.459375  -0.459375  0.459375  0  0  0  0  0  0  0  0  0 
1701273567.346736000  -1.49869  -0.0013122  1.00131  0  0  -0.0006876  0.02916  -0.02916  0.02916  0  0  0  0.486  -0.486  0.485993  0  0  0  0  0  0  0  0  0 
1701273567.351736000  -1.49854  -0.0014642  1.00146  0  0  -0.0007636  0.031658  -0.0316581  0.0316565  0  0  0  0.513223  -0.513371  0.512473  0  0  0  0  0  0  0  0  0 
1701273567.356736000  -1.49837  -0.001629  1.00163  0  0  -0.000845  0.0342912  -0.0342935  0.0342835  0  0  0  0.539924  -0.54064  0.538204  0  0  0  0  0  0  0  0  0 
1701273567.361740000  -1.49819  -0.0018074  1.00181  0  0  -0.0009319  0.037056  -0.0370633  0.0370373  0  0  0  0.565875  -0.567159  0.563184  0  0  0  0  0  0  0  0  0 
1701273567.366733000  -1.498  -0.0019999  1.002  0  0  -0.0010245  0.0399487  -0.0399638  0.0399141  0  0  0  0.591076  -0.592928  0.587414  0  0  0  0  0  0  0  0  0 
1701273567.371746000  -1.49779  -0.0022072  1.00221  0  0  -0.0011228  0.0429655  -0.0429913  0.0429102  0  0  0  0.615526  -0.617947  0.610894  0  0  0  0  0  0  0  0  0 
1701273567.376740000  -1.49757  -0.00243  1.00243  0  0  -0.0012269  0.0461027  -0.046142  0.0460218  0  0  0  0.639227  -0.642216  0.633625  0  0  0  0  0  0  0  0  0 
1701273567.381739000  -1.49733  -0.0026688  1.00267  0  0  -0.001337  0.0493565  -0.0494122  0.0492452  0  0  0  0.662178  -0.665734  0.655605  0  0  0  0  0  0  0  0  0 
1701273567.386739000  -1.49708  -0.0029243  1.00292  0  0  -0.0014531  0.0527232  -0.0527981  0.0525766  0  0  0  0.684378  -0.688503  0.676835  0  0  0  0  0  0  0  0  0 
1701273567.391737000  -1.4968  -0.003197  1.00319  0  0  -0.0015753  0.0561991  -0.056296  0.0560123  0  0  0  0.705829  -0.710522  0.697315  0  0  0  0  0  0  0  0  0 
1701273567.396736000  -1.49651  -0.0034874  1.00348  0  0  -0.0017035  0.0597803  -0.0599021  0.0595485  0  0  0  0.72653  -0.731791  0.717046  0  0  0  0  0  0  0  0  0 
1701273567.401728000  -1.49621  -0.0037962  1.00379  0  0  -0.001838  0.0634631  -0.0636127  0.0631815  0  0  0  0.746481  -0.75231  0.736026  0  0  0  0  0  0  0  0  0 
1701273567.406735000  -1.49588  -0.0041237  1.00411  0  0  -0.0019786  0.0672438  -0.0674239  0.0669075  0  0  0  0.765681  -0.772079  0.754256  0  0  0  0  0  0  0  0  0 
1701273567.411734000  -1.49553  -0.0044706  1.00446  0  0  -0.0021255  0.0711187  -0.0713322  0.0707228  0  0  0  0.784132  -0.791098  0.771737  0  0  0  0  0  0  0  0  0 
1701273567.416737000  -1.49517  -0.0048372  1.00482  0  0  -0.0022787  0.0750839  -0.0753337  0.0746236  0  0  0  0.801833  -0.809367  0.788467  0  0  0  0  0  0  0  0  0 
1701273567.421735000  -1.49478  -0.0052241  1.0052  0  0  -0.002438  0.0791358  -0.0794246  0.0786062  0  0  0  0.818784  -0.826886  0.804447  0  0  0  0  0  0  0  0  0 
1701273567.426735000  -1.49438  -0.0056316  1.00561  0  0  -0.0026036  0.0832705  -0.0836013  0.0826668  0  0  0  0.834984  -0.843654  0.819677  0  0  0  0  0  0  0  0  0 
1701273567.431734000  -1.49395  -0.0060602  1.00603  0  0  -0.0027755  0.0874843  -0.0878599  0.0868017  0  0  0  0.850435  -0.859673  0.834158  0  0  0  0  0  0  0  0  0 
1701273567.436737000  -1.4935  -0.0065103  1.00648  0  0  -0.0029536  0.0917736  -0.0921968  0.0910071  0  0  0  0.865136  -0.874942  0.847888  0  0  0  0  0  0  0  0  0 
1701273567.441737000  -1.49303  -0.0069823  1.00694  0  0  -0.003138  0.0961345  -0.0966081  0.0952793  0  0  0  0.879086  -0.889461  0.860868  0  0  0  0  0  0  0  0  0 
1701273567.446744000  -1.49254  -0.0074765  1.00743  0  0  -0.0033286  0.100563  -0.10109  0.0996146  0  0  0  0.892287  -0.90323  0.873099  0  0  0  0  0  0  0  0  0 
1701273567.451742000  -1.49203  -0.0079933  1.00794  0  0  -0.0035255  0.105056  -0.105639  0.104009  0  0  0  0.904738  -0.916249  0.884579  0  0  0  0  0  0  0  0  0 
1701273567.456741000  -1.49149  -0.008533  1.00847  0  0  -0.0037287  0.109609  -0.110251  0.108459  0  0  0  0.916439  -0.928518  0.895309  0  0  0  0  0  0  0  0  0 
1701273567.461745000  -1.49093  -0.0090959  1.00902  0  0  -0.003938  0.114219  -0.114923  0.112961  0  0  0  0.927389  -0.940037  0.905289  0  0  0  0  0  0  0  0  0 
1701273567.466734000  -1.49035  -0.0096823  1.0096  0  0  -0.0041537  0.118882  -0.11965  0.117511  0  0  0  0.93759  -0.950805  0.91452  0  0  0  0  0  0  0  0  0 
1701273567.471734000  -1.48974  -0.0102925  1.0102  0  0  -0.0043755  0.123594  -0.12443  0.122105  0  0  0  0.947041  -0.960824  0.923  0  0  0  0  0  0  0  0  0 
1701273567.476735000  -1.48911  -0.0109267  1.01082  0  0  -0.0046036  0.128351  -0.129257  0.12674  0  0  0  0.955741  -0.970093  0.93073  0  0  0  0  0  0  0  0  0 
1701273567.481733000  -1.48846  -0.0115852  1.01146  0  0  -0.004838  0.13315  -0.13413  0.131411  0  0  0  0.963692  -0.978612  0.93771  0  0  0  0  0  0  0  0  0 
1701273567.486734000  -1.48778  -0.0122681  1.01213  0  0  -0.0050786  0.137987  -0.139042  0.136115  0  0  0  0.970893  -0.986381  0.943941  0  0  0  0  0  0  0  0  0 
1701273567.491734000  -1.48708  -0.0129757  1.01283  0  0  -0.0053255  0.142858  -0.143992  0.140849  0  0  0  0.977344  -0.9934  0.949421  0  0  0  0  0  0  0  0  0 
1701273567.496740000  -1.48635  -0.0137081  1.01354  0  0  -0.0055787  0.147759  -0.148975  0.145608  0  0  0  0.983044  -0.999669  0.954151  0  0  0  0  0  0  0  0  0 
1701273567.501733000  -1.4856  -0.0144655  1.01428  0  0  -0.005838  0.152687  -0.153988  0.150389  0  0  0  0.987995  -1.00519  0.958132  0  0  0  0  0  0  0  0  0 
1701273567.506734000  -1.48482  -0.015248  1.01505  0  0  -0.0061037  0.157638  -0.159026  0.155188  0  0  0  0.992196  -1.00996  0.961362  0  0  0  0  0  0  0  0  0 
1701273567.511735000  -1.48402  -0.0160558  1.01583  0  0  -0.0063755  0.162608  -0.164086  0.160002  0  0  0  0.995646  -1.01398  0.963842  0  0  0  0  0  0  0  0  0 
1701273567.516736000  -1.4832  -0.0168889  1.01665  0  0  -0.0066536  0.167593  -0.169164  0.164826  0  0  0  0.998347  -1.01724  0.965572  0  0  0  0  0  0  0  0  0 
1701273567.521734000  -1.48235  -0.0177474  1.01748  0  0  -0.006938  0.17259  -0.174257  0.169656  0  0  0  1.0003  -1.01976  0.966553  0  0  0  0  0  0  0  0  0 
1701273567.526735000  -1.48147  -0.0186315  1.01834  0  0  -0.0072286  0.177595  -0.179361  0.17449  0  0  0  1.0015  -1.02153  0.966783  0  0  0  0  0  0  0  0  0 
1701273567.531737000  -1.48057  -0.019541  1.01923  0  0  -0.0075255  0.182604  -0.184471  0.179323  0  0  0  1.00195  -1.02255  0.966263  0  0  0  0  0  0  0  0  0 
1701273567.536735000  -1.47965  -0.0204762  1.02014  0  0  -0.0078286  0.187613  -0.189585  0.184151  0  0  0  1.00165  -1.02282  0.964993  0  0  0  0  0  0  0  0  0 
1701273567.541735000  -1.4787  -0.0214369  1.02107  0  0  -0.008138  0.192619  -0.194698  0.188971  0  0  0  1.0006  -1.02234  0.962974  0  0  0  0  0  0  0  0  0 
1701273567.546735000  -1.47772  -0.0224231  1.02203  0  0  -0.0084537  0.197618  -0.199807  0.19378  0  0  0  0.998801  -1.02111  0.960204  0  0  0  0  0  0  0  0  0 
1701273567.551734000  -1.47672  -0.0234349  1.02301  0  0  -0.0087755  0.202606  -0.204908  0.198572  0  0  0  0.996252  -1.01913  0.956684  0  0  0  0  0  0  0  0  0 
1701273567.556733000  -1.47569  -0.0244722  1.02401  0  0  -0.0091036  0.207579  -0.209997  0.203345  0  0  0  0.992953  -1.0164  0.952415  0  0  0  0  0  0  0  0  0 
1701273567.561735000  -1.47464  -0.0255349  1.02504  0  0  -0.009438  0.212534  -0.215071  0.208095  0  0  0  0.988904  -1.01291  0.947395  0  0  0  0  0  0  0  0  0 
1701273567.566728000  -1.47357  -0.0266229  1.02609  0  0  -0.0097786  0.217467  -0.220125  0.212818  0  0  0  0.984104  -1.00868  0.941625  0  0  0  0  0  0  0  0  0 
1701273567.571732000  -1.47247  -0.0277361  1.02717  0  0  -0.0101255  0.222374  -0.225156  0.21751  0  0  0  0.978555  -1.0037  0.935105  0  0  0  0  0  0  0  0  0 
1701273567.576732000  -1.47135  -0.0288744  1.02827  0  0  -0.0104786  0.227251  -0.230161  0.222168  0  0  0  0.972256  -0.997971  0.927836  0  0  0  0  0  0  0  0  0 
1701273567.581734000  -1.4702  -0.0300376  1.02939  0  0  -0.010838  0.232095  -0.235135  0.226787  0  0  0  0.965206  -0.99149  0.919816  0  0  0  0  0  0  0  0  0 
1701273567.586734000  -1.46902  -0.0312257  1.03053  0  0  -0.0112036  0.236902  -0.240074  0.231365  0  0  0  0.957407  -0.984258  0.911046  0  0  0  0  0  0  0  0  0 
1701273567.591741000  -1.46783  -0.0324383  1.0317  0  0  -0.0115755  0.241668  -0.244976  0.235896  0  0  0  0.948858  -0.976277  0.901526  0  0  0  0  0  0  0  0  0 
1701273567.596732000  -1.46661  -0.0336754  1.03289  0  0  -0.0119536  0.246389  -0.249836  0.240379  0  0  0  0.939559  -0.967546  0.891257  0  0  0  0  0  0  0  0  0 
1701273567.601733000  -1.46536  -0.0349366  1.03411  0  0  -0.012338  0.251062  -0.25465  0.244808  0  0  0  0.929509  -0.958065  0.880237  0  0  0  0  0  0  0  0  0 
1701273567.606732000  -1.4641  -0.0362218  1.03534  0  0  -0.0127286  0.255683  -0.259415  0.24918  0  0  0  0.91871  -0.947834  0.868467  0  0  0  0  0  0  0  0  0 
1701273567.611733000  -1.46281  -0.0375307  1.0366  0  0  -0.0131255  0.260248  -0.264127  0.253491  0  0  0  0.907161  -0.936853  0.855948  0  0  0  0  0  0  0  0  0 
1701273567.616735000  -1.46149  -0.038863  1.03788  0  0  -0.0135286  0.264753  -0.268782  0.257738  0  0  0  0.894862  -0.925122  0.842678  0  0  0  0  0  0  0  0  0 
1701273567.621735000  -1.46016  -0.0402184  1.03918  0  0  -0.013938  0.269195  -0.273377  0.261917  0  0  0  0.881812  -0.912641  0.828658  0  0  0  0  0  0  0  0  0 
1701273567.626725000  -1.4588  -0.0415966  1.0405  0  0  -0.0143536  0.27357  -0.277908  0.266023  0  0  0  0.868013  -0.899409  0.813888  0  0  0  0  0  0  0  0  0 
1701273567.631736000  -1.45742  -0.0429974  1.04184  0  0  -0.0147755  0.277874  -0.28237  0.270054  0  0  0  0.853464  -0.885428  0.798369  0  0  0  0  0  0  0  0  0 
1701273567.636728000  -1.45602  -0.0444202  1.0432  0  0  -0.0152036  0.282104  -0.286761  0.274006  0  0  0  0.838164  -0.870697  0.782099  0  0  0  0  0  0  0  0  0 
1701273567.641728000  -1.4546  -0.0458648  1.04458  0  0  -0.015638  0.286255  -0.291076  0.277874  0  0  0  0.822115  -0.855216  0.765079  0  0  0  0  0  0  0  0  0 
1701273567.646732000  -1.45316  -0.0473308  1.04597  0  0  -0.0160786  0.290323  -0.295312  0.281655  0  0  0  0.805316  -0.838985  0.74731  0  0  0  0  0  0  0  0  0 
1701273567.651738000  -1.4517  -0.0488178  1.04739  0  0  -0.0165255  0.294307  -0.299464  0.285346  0  0  0  0.787767  -0.822004  0.72879  0  0  0  0  0  0  0  0  0 
1701273567.656733000  -1.45022  -0.0503253  1.04883  0  0  -0.0169786  0.2982  -0.30353  0.288942  0  0  0  0.769467  -0.804273  0.70952  0  0  0  0  0  0  0  0  0 
1701273567.661732000  -1.44872  -0.051853  1.05028  0  0  -0.017438  0.302  -0.307506  0.29244  0  0  0  0.750418  -0.785792  0.6895  0  0  0  0  0  0  0  0  0 
1701273567.666733000  -1.4472  -0.0534002  1.05175  0  0  -0.0179036  0.305703  -0.311387  0.295836  0  0  0  0.730619  -0.76656  0.668731  0  0  0  0  0  0  0  0  0 
1701273567.671735000  -1.44566  -0.0549667  1.05324  0  0  -0.0183755  0.309305  -0.31517  0.299126  0  0  0  0.710069  -0.746579  0.647211  0  0  0  0  0  0  0  0  0 
1701273567.676733000  -1.44411  -0.0565518  1.05474  0  0  -0.0188536  0.312802  -0.318852  0.302307  0  0  0  0.68877  -0.725848  0.624941  0  0  0  0  0  0  0  0  0 
1701273567.681733000  -1.44253  -0.058155  1.05626  0  0  -0.019338  0.316191  -0.322427  0.305374  0  0  0  0.666721  -0.704367  0.601921  0  0  0  0  0  0  0  0  0 
1701273567.686735000  -1.44094  -0.0597759  1.0578  0  0  -0.0198286  0.319468  -0.325894  0.308325  0  0  0  0.643922  -0.682136  0.578152  0  0  0  0  0  0  0  0  0 
1701273567.691735000  -1.43934  -0.0614138  1.05935  0  0  -0.0203255  0.322629  -0.329248  0.311154  0  0  0  0.620372  -0.659155  0.553632  0  0  0  0  0  0  0  0  0 
1701273567.696735000  -1.43772  -0.0630682  1.06091  0  0  -0.0208286  0.325671  -0.332484  0.31386  0  0  0  0.596073  -0.635424  0.528362  0  0  0  0  0  0  0  0  0 
1701273567.701737000  -1.43608  -0.0647384  1.06248  0  0  -0.021338  0.328589  -0.335601  0.316437  0  0  0  0.571024  -0.610943  0.502343  0  0  0  0  0  0  0  0  0 
1701273567.706737000  -1.43443  -0.0664239  1.06407  0  0  -0.0218536  0.33138  -0.338592  0.318882  0  0  0  0.545224  -0.585711  0.475636  0  0  0  0  0  0  0  0  0 
1701273567.711742000  -1.43277  -0.0681241  1.06567  0  0  -0.0223755  0.33404  -0.341456  0.321194  0  0  0  0.518675  -0.55973  0.4493  0  0  0  0  0  0  0  0  0 
1701273567.716734000  -1.43109  -0.0698383  1.06728  0  0  -0.0229036  0.336565  -0.344189  0.323376  0  0  0  0.491467  -0.532999  0.423715  0  0  0  0  0  0  0  0  0 
1701273567.721731000  -1.4294  -0.0715658  1.06891  0  0  -0.023438  0.338955  -0.346785  0.325432  0  0  0  0.464691  -0.505552  0.398879  0  0  0  0  0  0  0  0  0 
1701273567.726742000  -1.4277  -0.0733059  1.07054  0  0  -0.0239786  0.341213  -0.349245  0.327366  0  0  0  0.438664  -0.478389  0.374793  0  0  0  0  0  0  0  0  0 
1701273567.731741000  -1.42599  -0.075058  1.07218  0  0  -0.0245255  0.343343  -0.35157  0.329181  0  0  0  0.413388  -0.451976  0.351458  0  0  0  0  0  0  0  0  0 
1701273567.736739000  -1.42427  -0.0768214  1.07383  0  0  -0.0250786  0.345349  -0.353766  0.330882  0  0  0  0.388861  -0.426314  0.328872  0  0  0  0  0  0  0  0  0 
1701273567.741747000  -1.42254  -0.0785955  1.07549  0  0  -0.025638  0.347233  -0.355835  0.332471  0  0  0  0.365085  -0.401401  0.307037  0  0  0  0  0  0  0  0  0 
1701273567.746733000  -1.4208  -0.0803795  1.07715  0  0  -0.0262036  0.349001  -0.357781  0.333954  0  0  0  0.342058  -0.377238  0.285951  0  0  0  0  0  0  0  0  0 
1701273567.751741000  -1.41905  -0.0821731  1.07883  0  0  -0.0267755  0.350655  -0.359608  0.335332  0  0  0  0.319782  -0.353825  0.265616  0  0  0  0  0  0  0  0  0 
1701273567.756732000  -1.41729  -0.0839754  1.08051  0  0  -0.0273536  0.3522  -0.36132  0.336611  0  0  0  0.298256  -0.331163  0.24603  0  0  0  0  0  0  0  0  0 
1701273567.761732000  -1.41553  -0.0857861  1.08219  0  0  -0.027938  0.353639  -0.362921  0.337794  0  0  0  0.277479  -0.30925  0.227195  0  0  0  0  0  0  0  0  0 
1701273567.766748000  -1.41376  -0.0876045  1.08389  0  0  -0.0285286  0.354976  -0.364414  0.338884  0  0  0  0.257453  -0.288087  0.209109  0  0  0  0  0  0  0  0  0 
1701273567.771749000  -1.41198  -0.0894301  1.08558  0  0  -0.0291255  0.356215  -0.365803  0.339886  0  0  0  0.238176  -0.267674  0.191773  0  0  0  0  0  0  0  0  0 
1701273567.776741000  -1.41019  -0.0912623  1.08728  0  0  -0.0297286  0.357359  -0.367092  0.340803  0  0  0  0.21965  -0.248012  0.175188  0  0  0  0  0  0  0  0  0 
1701273567.781728000  -1.4084  -0.0931008  1.08899  0  0  -0.030338  0.358412  -0.368285  0.341639  0  0  0  0.201873  -0.229099  0.159352  0  0  0  0  0  0  0  0  0 
1701273567.786728000  -1.40661  -0.094945  1.0907  0  0  -0.0309536  0.359379  -0.369384  0.342398  0  0  0  0.184847  -0.210936  0.144267  0  0  0  0  0  0  0  0  0 
1701273567.791729000  -1.40481  -0.0967945  1.09241  0  0  -0.0315755  0.360262  -0.370395  0.343083  0  0  0  0.16857  -0.193523  0.129931  0  0  0  0  0  0  0  0  0 
1701273567.796731000  -1.40301  -0.0986488  1.09413  0  0  -0.0322036  0.361066  -0.371321  0.343699  0  0  0  0.153044  -0.176861  0.116346  0  0  0  0  0  0  0  0  0 
1701273567.801731000  -1.4012  -0.100508  1.09585  0  0  -0.032838  0.361794  -0.372165  0.344248  0  0  0  0.138268  -0.160948  0.10351  0  0  0  0  0  0  0  0  0 
1701273567.806730000  -1.39939  -0.10237  1.09757  0  0  -0.0334786  0.36245  -0.372932  0.344735  0  0  0  0.124241  -0.145785  0.0914246  0  0  0  0  0  0  0  0  0 
1701273567.811732000  -1.39758  -0.104237  1.0993  0  0  -0.0341255  0.363037  -0.373624  0.345163  0  0  0  0.110965  -0.131372  0.0800891  0  0  0  0  0  0  0  0  0 
1701273567.816732000  -1.39576  -0.106106  1.10102  0  0  -0.0347786  0.363561  -0.374247  0.345537  0  0  0  0.0984383  -0.11771  0.0695035  0  0  0  0  0  0  0  0  0 
1701273567.821732000  -1.39394  -0.107979  1.10275  0  0  -0.035438  0.364023  -0.374803  0.34586  0  0  0  0.0866618  -0.104797  0.059668  0  0  0  0  0  0  0  0  0 
1701273567.826733000  -1.39212  -0.109854  1.10448  0  0  -0.0361036  0.364428  -0.375296  0.346135  0  0  0  0.0756354  -0.092634  0.0505824  0  0  0  0  0  0  0  0  0 
1701273567.831735000  -1.3903  -0.111732  1.10621  0  0  -0.0367755  0.364781  -0.37573  0.346367  0  0  0  0.065359  -0.0812213  0.0422469  0  0  0  0  0  0  0  0  0 
1701273567.836733000  -1.38847  -0.113612  1.10795  0  0  -0.0374536  0.365083  -0.376109  0.346559  0  0  0  0.0558325  -0.0705585  0.0346614  0  0  0  0  0  0  0  0  0 
1701273567.841732000  -1.38664  -0.115493  1.10968  0  0  -0.038138  0.36534  -0.376437  0.346715  0  0  0  0.0470561  -0.0606458  0.0278258  0  0  0  0  0  0  0  0  0 
1701273567.846732000  -1.38482  -0.117376  1.11141  0  0  -0.0388286  0.365555  -0.376717  0.346838  0  0  0  0.0390297  -0.051483  0.0217403  0  0  0  0  0  0  0  0  0 
1701273567.851735000  -1.38299  -0.11926  1.11315  0  0  -0.0395255  0.365732  -0.376953  0.346933  0  0  0  0.0317532  -0.0430703  0.0164047  0  0  0  0  0  0  0  0  0 
1701273567.856748000  -1.38116  -0.121145  1.11488  0  0  -0.0402286  0.365874  -0.377149  0.347003  0  0  0  0.0252268  -0.0354075  0.0118192  0  0  0  0  0  0  0  0  0 
1701273567.861725000  -1.37933  -0.123032  1.11662  0  0  -0.040938  0.365985  -0.377308  0.347053  0  0  0  0.0194503  -0.0284948  0.0079836  0  0  0  0  0  0  0  0  0 
1701273567.866734000  -1.3775  -0.124918  1.11835  0  0  -0.0416536  0.36607  -0.377435  0.347085  0  0  0  0.0144239  -0.022332  0.0048981  0  0  0  0  0  0  0  0  0 
1701273567.871733000  -1.37567  -0.126806  1.12009  0  0  -0.0423755  0.366131  -0.377533  0.347103  0  0  0  0.0101475  -0.0169193  0.0025625  0  0  0  0  0  0  0  0  0 
1701273567.876725000  -1.37384  -0.128694  1.12182  0  0  -0.0431036  0.366172  -0.377606  0.347111  0  0  0  0.006621  -0.0122565  0.000977  0  0  0  0  0  0  0  0  0 
1701273567.881726000  -1.37201  -0.130582  1.12356  0  0  -0.043838  0.366198  -0.377657  0.347114  0  0  0  0.0038446  -0.0083438  0.0001414  0  0  0  0  0  0  0  0  0 
1701273567.886725000  -1.37018  -0.13247  1.1253  0  0  -0.0445786  0.366212  -0.37769  0.347114  0  0  0  0.0018182  -0.005181  0  0  0  0  0  0  0  0  0  0 
1701273567.891742000  -1.36835  -0.134359  1.12703  0  0  -0.0453255  0.366218  -0.37771  0.347114  0  0  0  0.0005417  -0.0027683  0  0  0  0  0  0  0  0  0  0 
1701273567.896740000  -1.36652  -0.136247  1.12877  0  0  -0.0460786  0.366219  -0.377719  0.347114  0  0  0  1.53e-05  -0.0011055  0  0  0  0  0  0  0  0  0  0 
1701273567.901739000  -1.36468  -0.138136  1.1305  0  0  -0.046838  0.366219  -0.377722  0.347114  0  0  0  0  -0.0001928  0  0  0  0  0  0  0  0  0  0 
1701273567.906737000  -1.36285  -0.140025  1.13224  0  0  -0.0476036  0.366219  -0.377722  0.347114  0  0  0  0  -0  0  0  0  0  0  0  0  0  0  0 
1701273567.911738000  -1.36102  -0.141913  1.13397  0  0  -0.0483755  0.366219  -0.377722  0.347114  0  0  0  0  -0  0  0  0  0  0  0  0  0  0  0 
1701273567.916727000  -1.35919  -0.143802  1.13571  0  0  -0.0491536  0.366219  -0.377722  0.347114  0  0  0  0  -0  0  0  0  0  0  0  0  0  0  0 
1701273567.921725000  -1.35736  -0.14569  1.13744  0  0  -0.049938  0.366219  -0.377722  0.347114  0  0  0  0  -0  0  0  0  0  0  0  0  0  0  0 
1701273567.926725000  -1.35553  -0.147579  1.13918  0  0  -0.0507286  0.366219  -0.377722  0.347114  0  0  0  0  -0  0  0  0  0  0  0  0  0  0  0 
1701273567.931733000  -1.3537  -0.149468  1.14092  0  0  -0.0515255  0.366219  -0.377722  0.347114  0  0  0  0  -0  0  0  0  0  0  0  0  0  0  0 
1701273567.936726000  -1.35187  -0.151356  1.14265  0  0  -0.0523286  0.366219  -0.377722  0.347114  0  0  0  0  -0  0  0  0  0  0  0  0  0  0  0 
1701273567.941751000  -1.35004  -0.153245  1.14439  0  0  -0.053138  0.366219  -0.377722  0.347114  0  0  0  0  -0  0  0  0  0  0  0  0  0  0  0 
1701273567.946736000  -1.3482  -0.155133  1.14612  0  0  -0.0539536  0.366219  -0.377722  0.347114  0  0  0  0  -0  0  0  0  0  0  0  0  0  0  0 
1701273567.951734000  -1.34637  -0.157022  1.14786  0  0  -0.0547755  0.366219  -0.377722  0.347114  0  0  0  0  -0  0  0  0  0  0  0  0  0  0  0 
1701273567.956737000  -1.34454  -0.158911  1.14959  0  0  -0.0556036  0.366219  -0.377722  0.347114  0  0  0  0  -0  0  0  0  0  0  0  0  0  0  0 
1701273567.961735000  -1.34271  -0.160799  1.15133  0  0  -0.056438  0.366219  -0.377722  0.347114  0  0  0  0  -0  0  0  0  0  0  0  0  0  0  0 
1701273567.966736000  -1.34088  -0.162688  1.15307  0  0  -0.0572786  0.366219  -0.377722  0.347114  0  0  0  0  -0  0  0  0  0  0  0  0  0  0  0 
1701273567.971738000  -1.33905  -0.164576  1.1548  0  0  -0.0581255  0.366219  -0.377722  0.347114  0  0  0  0  -0  0  0  0  0  0  0  0  0  0  0 
1701273567.976735000  -1.33722  -0.166465  1.15654  0  0  -0.0589786  0.366219  -0.377722  0.347114  0  0  0  0  -0  0  0  0  0  0  0  0  0  0  0 
1701273567.981726000  -1.33539  -0.168354  1.15827  0  0  -0.059838  0.366219  -0.377722  0.347114  0  0  0  0  -0  0  0  0  0  0  0  0  0  0  0 
1701273567.986727000  -1.33356  -0.170242  1.16001  0  0  -0.0607036  0.366219  -0.377722  0.347114  0  0  0  0  -0  0  0  0  0  0  0  0  0  0  0 
1701273567.991741000  -1.33172  -0.172131  1.16174  0  0  -0.0615755  0.366219  -0.377722  0.347114  0  0  0  0  -0  0  0  0  0  0  0  0  0  0  0 
1701273567.996740000  -1.32989  -0.17402  1.16348  0  0  -0.0624536  0.366219  -0.377722  0.347114  0  0  0  0  -0  0  0  0  0  0  0  0  0  0  0 
1701273568.001742000  -1.32806  -0.175908  1.16521  0  0  -0.063338  0.366219  -0.377722  0.347114  0  0  0  0  -0  0  0  0  0  0  0  0  0  0  0 
1701273568.006722000  -1.32623  -0.177797  1.16695  0  0  -0.0642286  0.366219  -0.377722  0.347114  0  0  0  0  -0  0  0  0  0  0  0  0  0  0  0 
1701273568.011732000  -1.3244  -0.179685  1.16869  0  0  -0.0651255  0.366219  -0.377722  0.347114  0  0  0  0  -0  0  0  0  0  0  0  0  0  0  0 
1701273568.016756000  -1.32257  -0.181574  1.17042  0  0  -0.0660286  0.366219  -0.377722  0.347114  0  0  0  0  -0  0  0  0  0  0  0  0  0  0  0 
1701273568.021733000  -1.32074  -0.183463  1.17216  0  0  -0.066938  0.366219  -0.377722  0.347114  0  0  0  0  -0  0  0  0  0  0  0  0  0  0  0 
1701273568.026732000  -1.31891  -0.185351  1.17389  0  0  -0.0678536  0.366219  -0.377722  0.347114  0  0  0  0  -0  0  0  0  0  0  0  0  0  0  0 
1701273568.031734000  -1.31708  -0.18724  1.17563  0  0  -0.0687755  0.366219  -0.377722  0.347114  0  0  0  0  -0  0  0  0  0  0  0  0  0  0  0 
1701273568.036733000  -1.31524  -0.189128  1.17736  0  0  -0.0697036  0.366219  -0.377722  0.347114  0  0  0  0  -0  0  0  0  0  0  0  0  0  0  0 
1701273568.041733000  -1.31341  -0.191017  1.1791  0  0  -0.070638  0.366219  -0.377722  0.347114  0  0  0  0  -0  0  0  0  0  0  0  0  0  0  0 
1701273568.046728000  -1.31158  -0.192906  1.18083  0  0  -0.0715786  0.366219  -0.377722  0.347114  0  0  0  0  -0  0  0  0  0  0  0  0  0  0  0 
1701273568.051733000  -1.30975  -0.194794  1.18257  0  0  -0.0725255  0.366219  -0.377722  0.347114  0  0  0  0  -0  0  0  0  0  0  0  0  0  0  0 
1701273568.056730000  -1.30792  -0.196683  1.18431  0  0  -0.0734786  0.366219  -0.377722  0.347114  0  0  0  0  -0  0  0  0  0  0  0  0  0  0  0 
1701273568.061729000  -1.30609  -0.198571  1.18604  0  0  -0.074438  0.366219  -0.377722  0.347114  0  0  0  0  -0  0  0  0  0  0  0  0  0  0  0 
1701273568.066728000  -1.30426  -0.20046  1.18778  0  0  -0.0754036  0.366219  -0.377722  0.347114  0  0  0  0  -0  0  0  0  0  0  0  0  0  0  0 
1701273568.071729000  -1.30243  -0.202349  1.18951  0  0  -0.0763755  0.366219  -0.377722  0.347114  0  0  0  0  -0  0  0  0  0  0  0  0  0  0  0 
1701273568.076730000  -1.3006  -0.204237  1.19125  0  0  -0.0773536  0.366219  -0.377722  0.347114  0  0  0  0  -0  0  0  0  0  0  0  0  0  0  0 
1701273568.081732000  -1.29876  -0.206126  1.19298  0  0  -0.078338  0.366219  -0.377722  0.347114  0  0  0  0  -0  0  0  0  0  0  0  0  0  0  0 
1701273568.086727000  -1.29693  -0.208015  1.19472  0  0  -0.0793286  0.366219  -0.377722  0.347114  0  0  0  0  -0  0  0  0  0  0  0  0  0  0  0 
1701273568.091736000  -1.2951  -0.209903  1.19645  0  0  -0.0803255  0.366219  -0.377722  0.347114  0  0  0  0  -0  0  0  0  0  0  0  0  0  0  0 
1701273568.096738000  -1.29327  -0.211792  1.19819  0  0  -0.0813286  0.366219  -0.377722  0.347114  0  0  0  0  -0  0  0  0  0  0  0  0  0  0  0 
1701273568.101740000  -1.29144  -0.21368  1.19993  0  0  -0.082338  0.366219  -0.377722  0.347114  0  0  0  0  -0  0  0  0  0  0  0  0  0  0  0 
1701273568.106739000  -1.28961  -0.215569  1.20166  0  0  -0.0833536  0.366219  -0.377722  0.347114  0  0  0  0  -0  0  0  0  0  0  0  0  0  0  0 
1701273568.111748000  -1.28778  -0.217458  1.2034  0  0  -0.0843755  0.366219  -0.377722  0.347114  0  0  0  0  -0  0  0  0  0  0  0  0  0  0  0 
1701273568.116739000  -1.28595  -0.219346  1.20513  0  0  -0.0854036  0.366219  -0.377722  0.347114  0  0  0  0  -0  0  0  0  0  0  0  0  0  0  0 
1701273568.121728000  -1.28412  -0.221235  1.20687  0  0  -0.086438  0.366219  -0.377722  0.347114  0  0  0  0  -0  0  0  0  0  0  0  0  0  0  0 
1701273568.126729000  -1.28228  -0.223123  1.2086  0  0  -0.0874786  0.366219  -0.377722  0.347114  0  0  0  0  -0  0  0  0  0  0  0  0  0  0  0 
1701273568.131728000  -1.28045  -0.225012  1.21034  0  0  -0.0885255  0.366219  -0.377722  0.347114  0  0  0  0  -0  0  0  0  0  0  0  0  0  0  0 
1701273568.136733000  -1.27862  -0.226901  1.21207  0  0  -0.0895786  0.366219  -0.377722  0.347114  0  0  0  0  -0  0  0  0  0  0  0  0  0  0  0 
1701273568.141736000  -1.27679  -0.228789  1.21381  0  0  -0.090638  0.366219  -0.377722  0.347114  0  0  0  0  -0  0  0  0  0  0  0  0  0  0  0 
1701273568.146734000  -1.27496  -0.230678  1.21555  0  0  -0.0917036  0.366219  -0.377722  0.347114  0  0  0  0  -0  0  0  0  0  0  0  0  0  0  0 
1701273568.151736000  -1.27313  -0.232567  1.21728  0  0  -0.0927755  0.366219  -0.377722  0.347114  0  0  0  0  -0  0  0  0  0  0  0  0  0  0  0 
1701273568.156740000  -1.2713  -0.234455  1.21902  0  0  -0.0938536  0.366219  -0.377722  0.347114  0  0  0  0  -0  0  0  0  0  0  0  0  0  0  0 
1701273568.161739000  -1.26947  -0.236344  1.22075  0  0  -0.094938  0.366219  -0.377722  0.347114  0  0  0  0  -0  0  0  0  0  0  0  0  0  0  0 
1701273568.166734000  -1.26764  -0.238232  1.22249  0  0  -0.0960286  0.366219  -0.377722  0.347114  0  0  0  0  -0  0  0  0  0  0  0  0  0  0  0 
1701273568.171735000  -1.2658  -0.240121  1.22422  0  0  -0.0971255  0.366219  -0.377722  0.347114  0  0  0  0  -0  0  0  0  0  0  0  0  0  0  0 
1701273568.176722000  -1.26397  -0.24201  1.22596  0  0  -0.0982286  0.366219  -0.377722  0.347114  0  0  0  0  -0  0  0  0  0  0  0  0  0  0  0 
1701273568.181722000  -1.26214  -0.243898  1.22769  0  0  -0.099338  0.366219  -0.377722  0.347114  0  0  0  0  -0  0  0  0  0  0  0  0  0  0  0 
1701273568.186724000  -1.26031  -0.245787  1.22943  0  0  -0.100454  0.366219  -0.377722  0.347114  0  0  0  0  -0  0  0  0  0  0  0  0  0  0  0 
1701273568.191738000  -1.25848  -0.247675  1.23117  0  0  -0.101576  0.366219  -0.377722  0.347114  0  0  0  0  -0  0  0  0  0  0  0  0  0  0  0 
1701273568.196738000  -1.25665  -0.249564  1.2329  0  0  -0.102704  0.366219  -0.377722  0.347114  0  0  0  0  -0  0  0  0  0  0  0  0  0  0  0 
1701273568.201736000  -1.25482  -0.251453  1.23464  0  0  -0.103838  0.366219  -0.377722  0.347114  0  0  0  0  -0  0  0  0  0  0  0  0  0  0  0 
1701273568.206737000  -1.25299  -0.253341  1.23637  0  0  -0.104979  0.366219  -0.377722  0.347114  0  0  0  0  -0  0  0  0  0  0  0  0  0  0  0 
1701273568.211737000  -1.25116  -0.25523  1.23811  0  0  -0.106126  0.366219  -0.377722  0.347114  0  0  0  0  -0  0  0  0  0  0  0  0  0  0  0 
1701273568.216735000  -1.24933  -0.257118  1.23984  0  0  -0.107279  0.366219  -0.377722  0.347114  0  0  0  0  -0  0  0  0  0  0  0  0  0  0  0 
1701273568.221725000  -1.24749  -0.259007  1.24158  0  0  -0.108438  0.366219  -0.377722  0.347114  0  0  0  0  -0  0  0  0  0  0  0  0  0  0  0 
1701273568.226734000  -1.24566  -0.260896  1.24331  0  0  -0.109604  0.366219  -0.377722  0.347114  0  0  0  0  -0  0  0  0  0  0  0  0  0  0  0 
1701273568.231742000  -1.24383  -0.262784  1.24505  0  0  -0.110776  0.366219  -0.377722  0.347114  0  0  0  0  -0  0  0  0  0  0  0  0  0  0  0 
1701273568.236731000  -1.242  -0.264673  1.24679  0  0  -0.111954  0.366219  -0.377722  0.347114  0  0  0  0  -0  0  0  0  0  0  0  0  0  0  0 
1701273568.241727000  -1.24017  -0.266562  1.24852  0  0  -0.113138  0.366219  -0.377722  0.347114  0  0  0  0  -0  0  0  0  0  0  0  0  0  0  0 
1701273568.246725000  -1.23834  -0.26845  1.25026  0  0  -0.114328  0.366219  -0.377722  0.347114  0  0  0  0  -0  0  0  0  0  0  0  0  0  0  0 
1701273568.251743000  -1.23651  -0.270339  1.25199  0  0  -0.115525  0.366219  -0.377722  0.347114  0  0  0  0  -0  0  0  0  0  0  0  0  0  0  0 
1701273568.256735000  -1.23468  -0.272227  1.25373  0  0  -0.116728  0.366219  -0.377722  0.347114  0  0  0  0  -0  0  0  0  0  0  0  0  0  0  0 
1701273568.261732000  -1.23285  -0.274116  1.25546  0  0  -0.117936  0.366219  -0.377722  0.347114  0  0  0  0  0.0001283  0  0  0  0  0  0  0  0  0  0 
1701273568.266732000  -1.23101  -0.276005  1.2572  0  0  -0.119151  0.366219  -0.37772  0.347114  0  0  0  0  0.000942  -1.48e-05  0  0  0  0  0  0  0  0  0 
1701273568.271742000  -1.22918  -0.277893  1.25893  0  0  -0.120372  0.366219  -0.377712  0.347113  0  0  0  0  0.0025058  -0.0005386  0  0  0  0  0  0  0  0  0 
1701273568.276733000  -1.22735  -0.279782  1.26067  0  0  -0.121598  0.366219  -0.377694  0.347107  0  0  0  0  0.0048195  -0.0018125  0  0  0  0  0  0  0  0  0 
1701273568.281740000  -1.22552  -0.28167  1.26241  0  0  -0.12283  0.366219  -0.377662  0.347094  0  0  0  0  0.0078832  -0.0038364  0  0  0  0  0  0  0  0  0 
1701273568.286726000  -1.22369  -0.283558  1.26414  0  0  -0.124067  0.366219  -0.377614  0.347068  0  0  0  0  0.0116969  -0.0066102  0  0  0  0  0  0  0  0  0 
1701273568.291734000  -1.22186  -0.285446  1.26588  0  0  -0.12531  0.366219  -0.377544  0.347026  0  0  0  0  0.0162606  -0.0101341  0  0  0  0  0  0  0  0  0 
1701273568.296726000  -1.22003  -0.287334  1.26761  0  0  -0.126559  0.366219  -0.37745  0.346965  0  0  0  0  0.0215743  -0.014408  0  0  0  0  0  0  0  0  0 
1701273568.301734000  -1.2182  -0.289221  1.26935  0  0  -0.127812  0.366219  -0.377327  0.346881  0  0  0  0  0.027638  -0.0194319  0  0  0  0  0  0  0  0  0 
1701273568.306727000  -1.21637  -0.291107  1.27108  0  0  -0.12907  0.366219  -0.377172  0.34677  0  0  0  0  0.0344518  -0.0252057  0  0  0  0  0  0  0  0  0 
1701273568.311742000  -1.21453  -0.292992  1.27281  0  0  -0.130334  0.366219  -0.376981  0.346628  0  0  0  0  0.0420155  -0.0317296  0  0  0  0  0  0  0  0  0 
1701273568.316739000  -1.2127  -0.294877  1.27455  0  0  -0.131602  0.366219  -0.376751  0.346451  0  0  0  0  0.0503292  -0.0390035  0  0  0  0  0  0  0  0  0 
1701273568.321724000  -1.21087  -0.29676  1.27628  0  0  -0.132874  0.366219  -0.376498  0.346255  0  0  0  0.000375  0.0507042  -0.0393785  0  0  0  0  0  0  0  0  0 
1701273568.326728000  -1.20904  -0.298642  1.27801  0  0  -0.134151  0.366224  -0.376242  0.346056  0  0  0  0.0015  0.0518292  -0.0405035  0  0  0  0  0  0  0  0  0 
1701273568.331741000  -1.20721  -0.300522  1.27974  0  0  -0.135432  0.366236  -0.375979  0.345849  0  0  0  0.003375  0.0537042  -0.0423785  0  0  0  0  0  0  0  0  0 
1701273568.336724000  -1.20538  -0.302401  1.28147  0  0  -0.136718  0.366259  -0.375704  0.345631  0  0  0  0.006  0.0563292  -0.0450035  0  0  0  0  0  0  0  0  0 
1701273568.341739000  -1.20355  -0.304279  1.2832  0  0  -0.138008  0.366297  -0.375414  0.345398  0  0  0  0.009375  0.0597042  -0.0483785  0  0  0  0  0  0  0  0  0 
1701273568.346725000  -1.20172  -0.306155  1.28492  0  0  -0.139303  0.366354  -0.375106  0.345146  0  0  0  0.0135  0.0638292  -0.0525035  0  0  0  0  0  0  0  0  0 
1701273568.351736000  -1.19988  -0.30803  1.28665  0  0  -0.140601  0.366433  -0.374775  0.344872  0  0  0  0.018375  0.0687042  -0.0573785  0  0  0  0  0  0  0  0  0 
1701273568.356733000  -1.19805  -0.309903  1.28837  0  0  -0.141905  0.366539  -0.374417  0.344571  0  0  0  0.024  0.0743292  -0.0630035  0  0  0  0  0  0  0  0  0 
1701273568.361726000  -1.19622  -0.311774  1.29009  0  0  -0.143212  0.366674  -0.37403  0.34424  0  0  0  0.030375  0.0807042  -0.0693785  0  0  0  0  0  0  0  0  0 
1701273568.366726000  -1.19438  -0.313643  1.29181  0  0  -0.144523  0.366844  -0.373609  0.343876  0  0  0  0.0375  0.0878292  -0.0765035  0  0  0  0  0  0  0  0  0 
1701273568.371736000  -1.19255  -0.31551  1.29353  0  0  -0.145838  0.367051  -0.373151  0.343474  0  0  0  0.045375  0.0957042  -0.0843785  0  0  0  0  0  0  0  0  0 
1701273568.376733000  -1.19071  -0.317375  1.29525  0  0  -0.147157  0.367299  -0.372651  0.343031  0  0  0  0.054  0.104329  -0.0930035  0  0  0  0  0  0  0  0  0 
1701273568.381731000  -1.18888  -0.319237  1.29696  0  0  -0.14848  0.367592  -0.372106  0.342543  0  0  0  0.063375  0.113704  -0.102378  0  0  0  0  0  0  0  0  0 
1701273568.386734000  -1.18704  -0.321096  1.29867  0  0  -0.149807  0.367934  -0.371513  0.342006  0  0  0  0.0735  0.123829  -0.112503  0  0  0  0  0  0  0  0  0 
1701273568.391734000  -1.1852  -0.322952  1.30038  0  0  -0.151137  0.368328  -0.370867  0.341416  0  0  0  0.084375  0.134704  -0.123378  0  0  0  0  0  0  0  0  0 
1701273568.396731000  -1.18335  -0.324804  1.30209  0  0  -0.15247  0.368779  -0.370164  0.340771  0  0  0  0.096  0.146329  -0.135003  0  0  0  0  0  0  0  0  0 
1701273568.401723000  -1.18151  -0.326653  1.30379  0  0  -0.153807  0.369289  -0.369402  0.340065  0  0  0  0.108375  0.158704  -0.147378  0  0  0  0  0  0  0  0  0 
1701273568.406739000  -1.17966  -0.328498  1.30549  0  0  -0.155147  0.369864  -0.368576  0.339296  0  0  0  0.1215  0.171829  -0.160503  0  0  0  0  0  0  0  0  0 
1701273568.411735000  -1.17781  -0.330339  1.30718  0  0  -0.156489  0.370506  -0.367682  0.338459  0  0  0  0.135375  0.185704  -0.174378  0  0  0  0  0  0  0  0  0 
1701273568.416729000  -1.17596  -0.332175  1.30887  0  0  -0.157834  0.371219  -0.366718  0.337551  0  0  0  0.15  0.200329  -0.189003  0  0  0  0  0  0  0  0  0 
1701273568.421725000  -1.1741  -0.334006  1.31056  0  0  -0.159182  0.372007  -0.365678  0.336568  0  0  0  0.165375  0.215704  -0.204378  0  0  0  0  0  0  0  0  0 
1701273568.426737000  -1.17224  -0.335832  1.31224  0  0  -0.160532  0.372874  -0.364559  0.335506  0  0  0  0.1815  0.231829  -0.220503  0  0  0  0  0  0  0  0  0 
1701273568.431734000  -1.17037  -0.337652  1.31391  0  0  -0.161884  0.373823  -0.363358  0.334361  0  0  0  0.198375  0.248704  -0.237378  0  0  0  0  0  0  0  0  0 
1701273568.436725000  -1.1685  -0.339465  1.31558  0  0  -0.163238  0.374859  -0.362071  0.333131  0  0  0  0.216  0.266329  -0.255003  0  0  0  0  0  0  0  0  0 
1701273568.441733000  -1.16662  -0.341272  1.31724  0  0  -0.164593  0.375984  -0.360694  0.33181  0  0  0  0.234375  0.284704  -0.273378  0  0  0  0  0  0  0  0  0 
1701273568.446726000  -1.16474  -0.343072  1.3189  0  0  -0.16595  0.377204  -0.359223  0.330396  0  0  0  0.2535  0.303829  -0.292503  0  0  0  0  0  0  0  0  0 
1701273568.451734000  -1.16285  -0.344864  1.32055  0  0  -0.167308  0.378521  -0.357654  0.328884  0  0  0  0.273375  0.323704  -0.312378  0  0  0  0  0  0  0  0  0 
1701273568.456736000  -1.16095  -0.346648  1.32219  0  0  -0.168667  0.379939  -0.355985  0.327271  0  0  0  0.294  0.344329  -0.333003  0  0  0  0  0  0  0  0  0 
1701273568.461744000  -1.15905  -0.348424  1.32382  0  0  -0.170026  0.381462  -0.35421  0.325552  0  0  0  0.315375  0.365704  -0.354378  0  0  0  0  0  0  0  0  0 
1701273568.466741000  -1.15714  -0.35019  1.32544  0  0  -0.171386  0.383094  -0.352326  0.323726  0  0  0  0.3375  0.387829  -0.376503  0  0  0  0  0  0  0  0  0 
1701273568.471741000  -1.15522  -0.351947  1.32706  0  0  -0.172745  0.384838  -0.35033  0.321786  0  0  0  0.360375  0.410704  -0.399378  0  0  0  0  0  0  0  0  0 
1701273568.476742000  -1.15329  -0.353693  1.32866  0  0  -0.174104  0.386699  -0.348219  0.319731  0  0  0  0.384  0.43383  -0.423003  0  0  0  0  0  0  0  0  0 
1701273568.481742000  -1.15135  -0.355429  1.33025  0  0  -0.175463  0.388679  -0.345993  0.317555  0  0  0  0.408375  0.456232  -0.447378  0  0  0  0  0  0  0  0  0 
1701273568.486742000  -1.1494  -0.357153  1.33184  0  0  -0.176821  0.390783  -0.343658  0.315256  0  0  0  0.433198  0.477884  -0.472503  0  0  0  0  0  0  0  0  0 
1701273568.491752000  -1.14744  -0.358865  1.33341  0  0  -0.178177  0.39301  -0.341216  0.312829  0  0  0  0.457372  0.498786  -0.498378  0  0  0  0  0  0  0  0  0 
1701273568.496741000  -1.14547  -0.360565  1.33496  0  0  -0.179532  0.395356  -0.338671  0.310271  0  0  0  0.480796  0.518938  -0.524943  0  0  0  0  0  0  0  0  0 
1701273568.501743000  -1.14349  -0.362252  1.33651  0  0  -0.180884  0.397817  -0.336027  0.30758  0  0  0  0.50347  0.538339  -0.551142  0  0  0  0  0  0  0  0  0 
1701273568.506748000  -1.14149  -0.363925  1.33804  0  0  -0.182235  0.400389  -0.333289  0.30476  0  0  0  0.525394  0.556991  -0.57659  0  0  0  0  0  0  0  0  0 
1701273568.511741000  -1.13948  -0.365585  1.33956  0  0  -0.183583  0.403069  -0.330459  0.301815  0  0  0  0.546567  0.574893  -0.601289  0  0  0  0  0  0  0  0  0 
1701273568.516728000  -1.13746  -0.36723  1.34106  0  0  -0.184929  0.405854  -0.327541  0.298749  0  0  0  0.566991  0.592045  -0.625238  0  0  0  0  0  0  0  0  0 
1701273568.521733000  -1.13543  -0.36886  1.34254  0  0  -0.186271  0.408738  -0.32454  0.295564  0  0  0  0.586665  0.608446  -0.648436  0  0  0  0  0  0  0  0  0 
1701273568.526740000  -1.13337  -0.370475  1.34401  0  0  -0.187611  0.411719  -0.321458  0.292266  0  0  0  0.605589  0.624098  -0.670885  0  0  0  0  0  0  0  0  0 
1701273568.531732000  -1.13131  -0.372074  1.34547  0  0  -0.188946  0.414793  -0.3183  0.288857  0  0  0  0.623763  0.639  -0.692583  0  0  0  0  0  0  0  0  0 
1701273568.536739000  -1.12923  -0.373658  1.3469  0  0  -0.190278  0.417955  -0.315069  0.285341  0  0  0  0.641186  0.653152  -0.713532  0  0  0  0  0  0  0  0  0 
1701273568.541733000  -1.12713  -0.375225  1.34832  0  0  -0.191606  0.421203  -0.31177  0.281723  0  0  0  0.65786  0.666554  -0.733731  0  0  0  0  0  0  0  0  0 
1701273568.546723000  -1.12501  -0.376775  1.34972  0  0  -0.19293  0.424533  -0.308405  0.278005  0  0  0  0.673784  0.679205  -0.753179  0  0  0  0  0  0  0  0  0 
1701273568.551734000  -1.12288  -0.378309  1.3511  0  0  -0.19425  0.42794  -0.304979  0.274192  0  0  0  0.688958  0.691107  -0.771878  0  0  0  0  0  0  0  0  0 
1701273568.556726000  -1.12074  -0.379825  1.35246  0  0  -0.195565  0.431421  -0.301495  0.270287  0  0  0  0.703382  0.702259  -0.789827  0  0  0  0  0  0  0  0  0 
1701273568.561726000  -1.11857  -0.381324  1.3538  0  0  -0.196875  0.434973  -0.297957  0.266295  0  0  0  0.717055  0.712661  -0.807025  0  0  0  0  0  0  0  0  0 
1701273568.566726000  -1.11639  -0.382805  1.35512  0  0  -0.198181  0.43859  -0.29437  0.262218  0  0  0  0.729979  0.722313  -0.823474  0  0  0  0  0  0  0  0  0 
1701273568.571734000  -1.11418  -0.384267  1.35642  0  0  -0.199481  0.442271  -0.290736  0.258061  0  0  0  0.742153  0.731214  -0.839173  0  0  0  0  0  0  0  0  0 
1701273568.576726000  -1.11196  -0.385712  1.3577  0  0  -0.200777  0.446011  -0.287059  0.253828  0  0  0  0.753577  0.739366  -0.854121  0  0  0  0  0  0  0  0  0 
1701273568.581726000  -1.10972  -0.387138  1.35896  0  0  -0.202067  0.449779  -0.283361  0.249557  0  0  0  0.753952  0.739741  -0.854496  0  0  0  0  0  0  0  0  0 
1701273568.586727000  -1.10746  -0.388545  1.3602  0  0  -0.203351  0.453552  -0.27966  0.245282  0  0  0  0.755077  0.740866  -0.855621  0  0  0  0  0  0  0  0  0 
1701273568.591735000  -1.10519  -0.389934  1.36141  0  0  -0.20463  0.457331  -0.275951  0.240999  0  0  0  0.756952  0.742741  -0.857496  0  0  0  0  0  0  0  0  0 
1701273568.596729000  -1.10289  -0.391305  1.36261  0  0  -0.205904  0.461122  -0.272231  0.236706  0  0  0  0.759577  0.745366  -0.860121  0  0  0  0  0  0  0  0  0 
1701273568.601733000  -1.10058  -0.392657  1.36378  0  0  -0.207173  0.464928  -0.268497  0.232397  0  0  0  0.762952  0.748741  -0.863496  0  0  0  0  0  0  0  0  0 
1701273568.606735000  -1.09824  -0.39399  1.36493  0  0  -0.208436  0.468753  -0.264743  0.228069  0  0  0  0.767077  0.752846  -0.867621  0  0  0  0  0  0  0  0  0 
1701273568.611729000  -1.09589  -0.395304  1.36606  0  0  -0.209693  0.4726  -0.260969  0.223719  0  0  0  0.771952  0.756725  -0.872496  0  0  0  0  0  0  0  0  0 
1701273568.616727000  -1.09352  -0.3966  1.36717  0  0  -0.210945  0.476474  -0.257177  0.219343  0  0  0  0.777577  0.759854  -0.878121  0  0  0  0  0  0  0  0  0 
1701273568.621725000  -1.09112  -0.397876  1.36826  0  0  -0.212191  0.480377  -0.253371  0.214937  0  0  0  0.7836  0.762232  -0.884496  0  0  0  0  0  0  0  0  0 
1701273568.626727000  -1.08871  -0.399133  1.36932  0  0  -0.213432  0.484309  -0.249556  0.210497  0  0  0  0.788948  0.763861  -0.891621  0  0  0  0  0  0  0  0  0 
1701273568.631737000  -1.08628  -0.400371  1.37036  0  0  -0.214666  0.488265  -0.245734  0.206019  0  0  0  0.793547  0.76474  -0.899496  0  0  0  0  0  0  0  0  0 
1701273568.636726000  -1.08383  -0.401591  1.37138  0  0  -0.215895  0.492243  -0.24191  0.201501  0  0  0  0.797395  0.764869  -0.907993  0  0  0  0  0  0  0  0  0 
1701273568.641726000  -1.08136  -0.402791  1.37238  0  0  -0.217118  0.496238  -0.238087  0.19694  0  0  0  0.800493  0.764248  -0.915997  0  0  0  0  0  0  0  0  0 
1701273568.646727000  -1.07887  -0.403971  1.37335  0  0  -0.218334  0.500246  -0.234268  0.192342  0  0  0  0.802841  0.762877  -0.923251  0  0  0  0  0  0  0  0  0 
1701273568.651736000  -1.07636  -0.405133  1.3743  0  0  -0.219545  0.504265  -0.230459  0.187709  0  0  0  0.804439  0.760756  -0.929755  0  0  0  0  0  0  0  0  0 
1701273568.656725000  -1.07382  -0.406276  1.37523  0  0  -0.220749  0.50829  -0.226662  0.183046  0  0  0  0.805287  0.757884  -0.935509  0  0  0  0  0  0  0  0  0 
1701273568.661725000  -1.07127  -0.4074  1.37613  0  0  -0.221947  0.512317  -0.222881  0.178355  0  0  0  0.805385  0.754263  -0.940513  0  0  0  0  0  0  0  0  0 
1701273568.666726000  -1.0687  -0.408505  1.37701  0  0  -0.223139  0.516342  -0.219121  0.173642  0  0  0  0.804733  0.749892  -0.944767  0  0  0  0  0  0  0  0  0 
1701273568.671735000  -1.06611  -0.409591  1.37787  0  0  -0.224325  0.520363  -0.215384  0.168909  0  0  0  0.803331  0.744771  -0.948271  0  0  0  0  0  0  0  0  0 
1701273568.676726000  -1.0635  -0.410659  1.3787  0  0  -0.225504  0.524374  -0.211674  0.16416  0  0  0  0.801179  0.7389  -0.951025  0  0  0  0  0  0  0  0  0 
1701273568.681726000  -1.06087  -0.411708  1.37951  0  0  -0.226678  0.528373  -0.207996  0.1594  0  0  0  0.798277  0.732279  -0.953029  0  0  0  0  0  0  0  0  0 
1701273568.686742000  -1.05821  -0.412739  1.38029  0  0  -0.227845  0.532356  -0.204353  0.154631  0  0  0  0.794625  0.724907  -0.954283  0  0  0  0  0  0  0  0  0 
1701273568.691745000  -1.05554  -0.413752  1.38105  0  0  -0.229005  0.536318  -0.200748  0.149858  0  0  0  0.790223  0.716786  -0.954788  0  0  0  0  0  0  0  0  0 
1701273568.696734000  -1.05285  -0.414746  1.38179  0  0  -0.23016  0.540257  -0.197186  0.145085  0  0  0  0.785072  0.707915  -0.954542  0  0  0  0  0  0  0  0  0 
1701273568.701733000  -1.05014  -0.415723  1.3825  0  0  -0.231308  0.544168  -0.19367  0.140314  0  0  0  0.77917  0.698294  -0.953546  0  0  0  0  0  0  0  0  0 
1701273568.706748000  -1.04741  -0.416683  1.38319  0  0  -0.23245  0.548063  -0.190178  0.135546  0  0  0  0.778795  0.698669  -0.953913  0  0  0  0  0  0  0  0  0 
1701273568.711729000  -1.04466  -0.417625  1.38386  0  0  -0.233586  0.551954  -0.186682  0.130775  0  0  0  0.77767  0.699794  -0.954136  0  0  0  0  0  0  0  0  0 
1701273568.716744000  -1.04189  -0.41855  1.3845  0  0  -0.234715  0.555838  -0.183179  0.126006  0  0  0  0.775795  0.701669  -0.953609  0  0  0  0  0  0  0  0  0 
1701273568.721742000  -1.0391  -0.419457  1.38512  0  0  -0.235838  0.559711  -0.179664  0.121241  0  0  0  0.77317  0.704294  -0.952332  0  0  0  0  0  0  0  0  0 
1701273568.726748000  -1.03629  -0.420346  1.38571  0  0  -0.236955  0.563569  -0.176135  0.116484  0  0  0  0.769795  0.707669  -0.950305  0  0  0  0  0  0  0  0  0 
1701273568.731749000  -1.03347  -0.421218  1.38628  0  0  -0.238066  0.567408  -0.172586  0.111739  0  0  0  0.76567  0.711794  -0.947528  0  0  0  0  0  0  0  0  0 
1701273568.736734000  -1.03062  -0.422072  1.38683  0  0  -0.23917  0.571224  -0.169016  0.10701  0  0  0  0.760795  0.716669  -0.944001  0  0  0  0  0  0  0  0  0 
1701273568.741733000  -1.02775  -0.422908  1.38735  0  0  -0.240269  0.575015  -0.165418  0.1023  0  0  0  0.75517  0.722294  -0.939724  0  0  0  0  0  0  0  0  0 
1701273568.746731000  -1.02487  -0.423726  1.38785  0  0  -0.241361  0.578775  -0.161791  0.0976136  0  0  0  0.748795  0.728669  -0.934697  0  0  0  0  0  0  0  0  0 
1701273568.751733000  -1.02197  -0.424526  1.38833  0  0  -0.242446  0.582501  -0.158131  0.0929543  0  0  0  0.74167  0.735794  -0.92892  0  0  0  0  0  0  0  0  0 
1701273568.756732000  -1.01904  -0.425308  1.38878  0  0  -0.243526  0.58619  -0.154432  0.0883257  0  0  0  0.733795  0.743669  -0.922393  0  0  0  0  0  0  0  0  0 
1701273568.761732000  -1.0161  -0.426071  1.38921  0  0  -0.244599  0.589838  -0.150693  0.0837316  0  0  0  0.72517  0.752294  -0.915115  0  0  0  0  0  0  0  0  0 
1701273568.766732000  -1.01315  -0.426815  1.38962  0  0  -0.245666  0.593441  -0.146908  0.0791758  0  0  0  0.715795  0.761658  -0.907088  0  0  0  0  0  0  0  0  0 
1701273568.771732000  -1.01017  -0.42754  1.39001  0  0  -0.246727  0.596995  -0.143076  0.074662  0  0  0  0.70567  0.770847  -0.898311  0  0  0  0  0  0  0  0  0 
1701273568.776735000  -1.00718  -0.428245  1.39037  0  0  -0.247781  0.600496  -0.139201  0.0701939  0  0  0  0.694795  0.779287  -0.888784  0  0  0  0  0  0  0  0  0 
1701273568.781733000  -1.00416  -0.428931  1.39071  0  0  -0.248829  0.603941  -0.135285  0.0657754  0  0  0  0.68317  0.786977  -0.878507  0  0  0  0  0  0  0  0  0 
1701273568.786731000  -1.00114  -0.429598  1.39103  0  0  -0.249871  0.607327  -0.131332  0.0614101  0  0  0  0.670795  0.793917  -0.86748  0  0  0  0  0  0  0  0  0 
1701273568.791734000  -0.998091  -0.430245  1.39132  0  0  -0.250907  0.610648  -0.127347  0.0571018  0  0  0  0.65767  0.800107  -0.855703  0  0  0  0  0  0  0  0  0 
1701273568.796733000  -0.99503  -0.430871  1.3916  0  0  -0.251936  0.613902  -0.123332  0.0528543  0  0  0  0.643795  0.805547  -0.843176  0  0  0  0  0  0  0  0  0 
1701273568.801739000  -0.991952  -0.431478  1.39185  0  0  -0.25296  0.617085  -0.119293  0.0486713  0  0  0  0.62917  0.810237  -0.829899  0  0  0  0  0  0  0  0  0 
1701273568.806739000  -0.988859  -0.432064  1.39208  0  0  -0.253977  0.620192  -0.115231  0.0445566  0  0  0  0.613795  0.814177  -0.815872  0  0  0  0  0  0  0  0  0 
1701273568.811740000  -0.98575  -0.43263  1.3923  0  0  -0.254987  0.623221  -0.111152  0.0405139  0  0  0  0.59767  0.817367  -0.801095  0  0  0  0  0  0  0  0  0 
1701273568.816739000  -0.982627  -0.433176  1.39249  0  0  -0.255992  0.626168  -0.107059  0.0365469  0  0  0  0.580795  0.819807  -0.785568  0  0  0  0  0  0  0  0  0 
1701273568.821739000  -0.979489  -0.433701  1.39266  0  0  -0.25699  0.629028  -0.102955  0.0326594  0  0  0  0.56317  0.821497  -0.769291  0  0  0  0  0  0  0  0  0 
1701273568.826739000  -0.976337  -0.434205  1.39282  0  0  -0.257982  0.631798  -0.0988452  0.0288552  0  0  0  0.544795  0.822437  -0.752264  0  0  0  0  0  0  0  0  0 
1701273568.831740000  -0.973171  -0.434689  1.39295  0  0  -0.258968  0.634475  -0.0947322  0.025138  0  0  0  0.52567  0.822627  -0.734487  0  0  0  0  0  0  0  0  0 
1701273568.836725000  -0.969992  -0.435153  1.39307  0  0  -0.259947  0.637054  -0.0906202  0.0215116  0  0  0  0.505795  0.822067  -0.71596  0  0  0  0  0  0  0  0  0 
1701273568.841740000  -0.966801  -0.435596  1.39317  0  0  -0.26092  0.639531  -0.0865128  0.0179797  0  0  0  0.48517  0.820757  -0.696683  0  0  0  0  0  0  0  0  0 
1701273568.846738000  -0.963597  -0.436018  1.39325  0  0  -0.261887  0.641904  -0.0824139  0.014546  0  0  0  0.463795  0.818697  -0.676656  0  0  0  0  0  0  0  0  0 
1701273568.851740000  -0.960382  -0.43642  1.39331  0  0  -0.262848  0.644168  -0.0783271  0.0112144  0  0  0  0.44167  0.815887  -0.655879  0  0  0  0  0  0  0  0  0 
1701273568.856739000  -0.957156  -0.436801  1.39336  0  0  -0.263802  0.64632  -0.0742562  0.0079885  0  0  0  0.418795  0.812326  -0.634352  0  0  0  0  0  0  0  0  0 
1701273568.861739000  -0.953919  -0.437162  1.39339  0  0  -0.26475  0.648355  -0.0702051  0.0048721  0  0  0  0.39517  0.808016  -0.612075  0  0  0  0  0  0  0  0  0 
1701273568.866733000  -0.950672  -0.437503  1.39341  0  0  -0.265692  0.65027  -0.0661773  0.001869  0  0  0  0.370795  0.802956  -0.589048  0  0  0  0  0  0  0  0  0 
1701273568.871744000  -0.947416  -0.437824  1.39341  0  0  -0.266628  0.652062  -0.0621768  -0.0010171  0  0  0  0.34567  0.797146  -0.565271  0  0  0  0  0  0  0  0  0 
1701273568.876725000  -0.944152  -0.438125  1.3934  0  0  -0.267558  0.653726  -0.0582071  -0.0037825  0  0  0  0.319795  0.790586  -0.540744  0  0  0  0  0  0  0  0  0 
1701273568.881726000  -0.940879  -0.438406  1.39337  0  0  -0.268481  0.655258  -0.0542721  -0.0064233  0  0  0  0.29317  0.783276  -0.515466  0  0  0  0  0  0  0  0  0 
1701273568.886727000  -0.937599  -0.438668  1.39333  0  0  -0.269398  0.656656  -0.0503756  -0.0089359  0  0  0  0.265795  0.775216  -0.489439  0  0  0  0  0  0  0  0  0 
1701273568.891734000  -0.934313  -0.43891  1.39328  0  0  -0.270308  0.657915  -0.0465212  -0.0113166  0  0  0  0.23767  0.766406  -0.462877  0  0  0  0  0  0  0  0  0 
1701273568.896728000  -0.931021  -0.439133  1.39322  0  0  -0.271213  0.659031  -0.0427128  -0.0135658  0  0  0  0.208795  0.756846  -0.436902  0  0  0  0  0  0  0  0  0 
1701273568.901729000  -0.927723  -0.439337  1.39315  0  0  -0.272111  0.660002  -0.038954  -0.0156869  0  0  0  0.17917  0.746536  -0.411677  0  0  0  0  0  0  0  0  0 
1701273568.906726000  -0.924421  -0.439523  1.39307  0  0  -0.273003  0.660822  -0.0352487  -0.0176838  0  0  0  0.148795  0.735476  -0.387202  0  0  0  0  0  0  0  0  0 
1701273568.911742000  -0.921115  -0.43969  1.39297  0  0  -0.273889  0.661488  -0.0316005  -0.0195602  0  0  0  0.11767  0.723666  -0.363477  0  0  0  0  0  0  0  0  0 
1701273568.916728000  -0.917806  -0.439839  1.39287  0  0  -0.274768  0.661997  -0.0280133  -0.0213198  0  0  0  0.0857946  0.711106  -0.340503  0  0  0  0  0  0  0  0  0 
1701273568.921728000  -0.914495  -0.43997  1.39276  0  0  -0.275641  0.662345  -0.0244907  -0.0229664  0  0  0  0.0531696  0.697796  -0.318278  0  0  0  0  0  0  0  0  0 
1701273568.926727000  -0.911183  -0.440084  1.39264  0  0  -0.276508  0.662528  -0.0210366  -0.0245038  0  0  0  0.0197946  0.683736  -0.296803  0  0  0  0  0  0  0  0  0 
1701273568.931744000  -0.90787  -0.440181  1.39251  0  0  -0.277369  0.662542  -0.0176546  -0.0259357  0  0  0  -0.0143304  0.668926  -0.276078  0  0  0  0  0  0  0  0  0 
1701273568.936730000  -0.904558  -0.440261  1.39238  0  0  -0.278224  0.662383  -0.0143486  -0.0272659  0  0  0  -0.0492054  0.653365  -0.256103  0  0  0  0  0  0  0  0  0 
1701273568.941729000  -0.901247  -0.440324  1.39224  0  0  -0.279072  0.662048  -0.0111222  -0.028498  0  0  0  -0.0848304  0.637055  -0.236878  0  0  0  0  0  0  0  0  0 
1701273568.946725000  -0.897938  -0.440372  1.3921  0  0  -0.279914  0.661534  -0.0079793  -0.0296359  0  0  0  -0.121205  0.619995  -0.218403  0  0  0  0  0  0  0  0  0 
1701273568.951735000  -0.894632  -0.440404  1.39195  0  0  -0.280749  0.660835  -0.0049235  -0.0306833  0  0  0  -0.15833  0.602185  -0.200679  0  0  0  0  0  0  0  0  0 
1701273568.956732000  -0.89133  -0.440421  1.39179  0  0  -0.281579  0.659949  -0.0019587  -0.0316439  0  0  0  -0.196205  0.583625  -0.183704  0  0  0  0  0  0  0  0  0 
1701273568.961728000  -0.888032  -0.440424  1.39163  0  0  -0.282402  0.658872  0.0009115  -0.0325216  0  0  0  -0.23483  0.564315  -0.167479  0  0  0  0  0  0  0  0  0 
1701273568.966726000  -0.884741  -0.440412  1.39146  0  0  -0.283219  0.6576  0.0036832  -0.03332  0  0  0  -0.274205  0.544255  -0.152004  0  0  0  0  0  0  0  0  0 
1701273568.971736000  -0.881457  -0.440387  1.3913  0  0  -0.28403  0.656129  0.0063528  -0.0340429  0  0  0  -0.31433  0.523445  -0.137279  0  0  0  0  0  0  0  0  0 
1701273568.976730000  -0.87818  -0.440349  1.39112  0  0  -0.284834  0.654455  0.0089164  -0.034694  0  0  0  -0.355205  0.501885  -0.123304  0  0  0  0  0  0  0  0  0 
1701273568.981728000  -0.874913  -0.440298  1.39095  0  0  -0.285632  0.652576  0.0113704  -0.0352772  0  0  0  -0.396258  0.479575  -0.110079  0  0  0  0  0  0  0  0  0 
1701273568.986729000  -0.871655  -0.440235  1.39077  0  0  -0.286424  0.650494  0.0137109  -0.0357961  0  0  0  -0.436572  0.456515  -0.0976045  0  0  0  0  0  0  0  0  0 
1701273568.991736000  -0.868408  -0.440161  1.39059  0  0  -0.28721  0.648212  0.0159343  -0.0362545  0  0  0  -0.476136  0.432705  -0.0858796  0  0  0  0  0  0  0  0  0 
1701273568.996724000  -0.865173  -0.440076  1.39041  0  0  -0.287989  0.645734  0.0180367  -0.0366561  0  0  0  -0.51495  0.408157  -0.0749047  0  0  0  0  0  0  0  0  0 
1701273569.001726000  -0.861951  -0.439981  1.39022  0  0  -0.288763  0.643063  0.0200163  -0.0370048  0  0  0  -0.553015  0.383789  -0.0646799  0  0  0  0  0  0  0  0  0 
1701273569.006726000  -0.858743  -0.439876  1.39004  0  0  -0.28953  0.640205  0.0218759  -0.0373042  0  0  0  -0.590329  0.36017  -0.055205  0  0  0  0  0  0  0  0  0 
1701273569.011736000  -0.855549  -0.439763  1.38985  0  0  -0.29029  0.637161  0.0236193  -0.0375581  0  0  0  -0.626893  0.337302  -0.0464801  0  0  0  0  0  0  0  0  0 
