ts fx fy fz tx ty tz exfx exfy exfz extx exty extz xd yd zd rolld pitchd yawd vxd vyd vzd wxd wyd wzd axd ayd azd e_x e_y e_z e_vx e_vy e_vz e_rx e_ry e_rz e_wx e_wy e_wz
1701273567.041756000  0  0  15.2697  0.0511817  0.0651646  0.00154353  nan  nan  nan  nan  nan  nan  -1.5  0  1  -0.00703006  -0.000950472  6.68199e-06  0  0  0  0  0  0  0  0  0  0.00201265  -0.00801611  -0.0210832  -0.00361812  0.0102427  0.000647889  -0.0037703  -0.00697066  -0.00173678  -0.0476576  -0.0357223  0.00771948 
1701273567.044739000  0  0  15.275  0.0484694  0.0676298  0.00129549  nan  nan  nan  nan  nan  nan  -1.5  0  1  -0.00684549  -0.000796353  5.45151e-06  0  0  0  0  0  0  0  0  0  0.00200111  -0.00798452  -0.0210815  -0.00378802  0.0104008  0.000305853  -0.00401357  -0.00724644  -0.00167701  -0.0400374  -0.0369348  0.0107077 
1701273567.049738000  0  0  15.2756  0.0242161  0.0695294  0.00150815  nan  nan  nan  nan  nan  nan  -1.5  0  1  -0.00677452  -0.000561451  3.80362e-06  0  0  0  0  0  0  0  0  0  0.00199755  -0.00795407  -0.0210802  -0.00408129  0.0104184  0.000260712  -0.0037904  -0.00771884  -0.00167052  0.000523315  -0.0348808  0.00703246 
1701273567.054735000  0  0  15.2973  0.0234909  0.0663993  0.00180926  nan  nan  nan  nan  nan  nan  -1.5  0  1  -0.00722938  -0.000691392  4.99842e-06  0  0  0  0  0  0  0  0  0  0.0019807  -0.00790929  -0.0210886  -0.00387251  0.00971304  -0.00109075  -0.00336239  -0.00768182  -0.00169629  -0.00310852  -0.0297406  0.00250296 
1701273567.059745000  0  0  15.2907  0.00420195  0.0610731  0.00179455  nan  nan  nan  nan  nan  nan  -1.5  0  1  -0.00722128  -0.000760344  5.49075e-06  0  0  0  0  0  0  0  0  0  0.00198025  -0.00787885  -0.0210951  -0.00378313  0.00965428  -0.000658856  -0.00301111  -0.00771182  -0.00168952  0.0271516  -0.0199247  0.00261799 
1701273567.064738000  0  0  15.3188  -0.0177408  0.0460184  0.00147268  nan  nan  nan  nan  nan  nan  -1.5  0  1  -0.00745095  -0.000585908  4.36565e-06  0  0  0  0  0  0  0  0  0  0.00196012  -0.00783383  -0.0211125  -0.00395773  0.00923301  -0.00239488  -0.00224191  -0.00764682  -0.00162978  0.0573252  0.00609818  0.00683921 
1701273567.069737000  0  0  15.3263  -0.0235139  0.0491688  0.00103862  nan  nan  nan  nan  nan  nan  -1.5  0  1  -0.00817851  -0.000935468  7.6509e-06  0  0  0  0  0  0  0  0  0  0.00196046  -0.00782845  -0.0211393  -0.00350746  0.00827739  -0.00279541  -0.00124624  -0.00741627  -0.00153677  0.0561421  -0.00215486  0.0122919 
1701273567.074744000  0  0  15.3144  -0.0403026  0.0336523  0.00113008  nan  nan  nan  nan  nan  nan  -1.5  0  1  -0.00809367  -0.000644392  5.21561e-06  0  0  0  0  0  0  0  0  0  0.00193973  -0.00778448  -0.0211416  -0.00383359  0.00828911  -0.00204023  -0.000739828  -0.00739317  -0.00149902  0.0801725  0.0251707  0.0100371 
1701273567.079733000  0  0  15.3149  -0.0509303  0.0264345  0.00165988  nan  nan  nan  nan  nan  nan  -1.5  0  1  -0.00923871  -0.00102167  9.43917e-06  0  0  0  0  0  0  0  0  0  0.00194795  -0.00779707  -0.0211562  -0.00336719  0.00684389  -0.00202163  0.000830966  -0.00683254  -0.00154809  0.0810088  0.031559  0.00213934 
1701273567.084749000  0  0  15.284  -0.0612847  0.0343407  0.00239157  nan  nan  nan  nan  nan  nan  -1.5  0  1  -0.00948586  -0.00114106  1.08242e-05  0  0  0  0  0  0  0  0  0  0.00195564  -0.00780889  -0.0211498  -0.00323481  0.00657846  -8.16957e-05  0.0016087  -0.00680142  -0.00167372  0.0904781  0.0171423  -0.00765271 
1701273567.089756000  0  0  15.2908  -0.0655623  0.0115725  0.00225187  nan  nan  nan  nan  nan  nan  -1.5  0  1  -0.00973096  -0.00101732  9.89976e-06  0  0  0  0  0  0  0  0  0  0.00193809  -0.00777724  -0.0211583  -0.00335116  0.00618169  -0.000489204  0.0023142  -0.00637974  -0.00168052  0.0899721  0.0527798  -0.0051897 
1701273567.094757000  0  0  15.2808  -0.06696  0.0255028  0.00192537  nan  nan  nan  nan  nan  nan  -1.5  0  1  -0.010649  -0.0017482  1.86172e-05  0  0  0  0  0  0  0  0  0  0.00195941  -0.00781088  -0.0211578  -0.00246362  0.00509074  0.000157215  0.00353984  -0.00581074  -0.00165778  0.0783645  0.0214665  -0.000177773 
1701273567.099744000  0  0  15.2781  -0.0760298  0.0195743  0.00140265  nan  nan  nan  nan  nan  nan  -1.5  0  1  -0.0108299  -0.00159487  1.72729e-05  0  0  0  0  0  0  0  0  0  0.00197456  -0.00784067  -0.0211528  -0.00269752  0.00493221  0.000311729  0.0042359  -0.00579452  -0.00156884  0.0864887  0.0318218  0.00683325 
1701273567.104745000  0  0  15.2768  -0.0646051  0.00813796  0.00166975  nan  nan  nan  nan  nan  nan  -1.5  0  1  -0.011223  -0.00165693  1.85964e-05  0  0  0  0  0  0  0  0  0  0.00196201  -0.00781979  -0.0211527  -0.00258775  0.00437797  0.000399527  0.0047356  -0.0053415  -0.00157869  0.0604275  0.0469488  0.00256439 
1701273567.109751000  0  0  15.2585  -0.0679226  0.0233972  0.00210238  nan  nan  nan  nan  nan  nan  -1.5  0  1  -0.0114216  -0.00215333  2.45955e-05  0  0  0  0  0  0  0  0  0  0.00199434  -0.00785483  -0.0211374  -0.00203075  0.00422458  0.00152375  0.00523795  -0.00503675  -0.00164973  0.0605504  0.0163107  -0.00328788 
1701273567.114753000  0  0  15.2743  -0.0521924  -0.0016267  0.00176169  nan  nan  nan  nan  nan  nan  -1.5  0  1  -0.0112657  -0.00191623  2.15886e-05  0  0  0  0  0  0  0  0  0  0.001981  -0.00783173  -0.0211426  -0.00230051  0.00435417  0.000535328  0.00507207  -0.0046916  -0.00160147  0.0344864  0.0568393  0.00146889 
1701273567.119745000  0  0  15.2641  -0.0401264  0.00453474  0.00167939  nan  nan  nan  nan  nan  nan  -1.5  0  1  -0.0116604  -0.00239419  2.79184e-05  0  0  0  0  0  0  0  0  0  0.00201225  -0.00787234  -0.0211304  -0.0017635  0.00395478  0.00116221  0.00532136  -0.00414386  -0.00158365  0.0101643  0.0395848  0.00249915 
1701273567.124749000  0  0  15.2433  -0.0421542  0.012113  0.00181294  nan  nan  nan  nan  nan  nan  -1.5  0  1  -0.011511  -0.00252324  2.90463e-05  0  0  0  0  0  0  0  0  0  0.00204404  -0.00790076  -0.0211094  -0.00167864  0.00423507  0.0024339  0.00528726  -0.00406818  -0.00159526  0.0141622  0.0252391  0.000493709 
1701273567.129874000  0  0  15.2485  -0.0118518  -2.64266e-06  0.00163701  nan  nan  nan  nan  nan  nan  -1.5  0  1  -0.0114024  -0.00246354  2.80914e-05  0  0  0  0  0  0  0  0  0  0.00203511  -0.00788005  -0.0211043  -0.00173266  0.00431969  0.00209613  0.00466584  -0.00374102  -0.00155258  -0.0325757  0.043021  0.00260762 
1701273567.134750000  0  0  15.2236  -0.0192501  0.0174908  0.00240905  nan  nan  nan  nan  nan  nan  -1.5  0  1  -0.0111599  -0.00268869  3.00068e-05  0  0  0  0  0  0  0  0  0  0.0020685  -0.00790282  -0.0210764  -0.00152973  0.00470877  0.00360381  0.00443823  -0.00371446  -0.00167389  -0.0168029  0.011609  -0.00794135 
1701273567.139746000  0  0  15.2511  0.00130257  0.0136914  0.00237319  nan  nan  nan  nan  nan  nan  -1.5  0  1  -0.0108512  -0.00243393  2.6412e-05  0  0  0  0  0  0  0  0  0  0.00205857  -0.00787884  -0.0210786  -0.00182655  0.0050215  0.00187029  0.00373124  -0.00383371  -0.00169829  -0.0452201  0.0197364  -0.00687231 
1701273567.144760000  0  0  15.2423  0.0226807  0.0165023  0.00232001  nan  nan  nan  nan  nan  nan  -1.5  0  1  -0.0106937  -0.00263192  2.81459e-05  0  0  0  0  0  0  0  0  0  0.00208703  -0.00789022  -0.0210779  -0.0016429  0.0052589  0.00242659  0.00297173  -0.00360909  -0.00170397  -0.0745013  0.0121553  -0.00587509 
1701273567.149736000  0  0  15.2215  0.0117462  0.0333193  0.00220565  nan  nan  nan  nan  nan  nan  -1.5  0  1  -0.0101429  -0.00267515  2.71346e-05  0  0  0  0  0  0  0  0  0  0.00211496  -0.00789516  -0.0210594  -0.00165932  0.00599471  0.00369325  0.00236682  -0.00386466  -0.00170843  -0.048102  -0.0148099  -0.00388004 
1701273567.154740000  0  0  15.2443  0.0427224  0.0297823  0.00210517  nan  nan  nan  nan  nan  nan  -1.5  0  1  -0.0100242  -0.00249396  2.50009e-05  0  0  0  0  0  0  0  0  0  0.00210607  -0.00786865  -0.0210575  -0.00186519  0.00606367  0.00224388  0.00146194  -0.00402349  -0.00169649  -0.0927787  -0.00669419  -0.00243299 
1701273567.159749000  0  0  15.2209  0.0371351  0.0473034  0.00269566  nan  nan  nan  nan  nan  nan  -1.5  0  1  -0.00929758  -0.00235254  2.18735e-05  0  0  0  0  0  0  0  0  0  0.00212885  -0.00785706  -0.0210333  -0.00210601  0.006986  0.00366654  0.000486958  -0.0045394  -0.00181349  -0.0716325  -0.0319178  -0.0100341 
1701273567.164758000  0  0  15.2379  0.0369877  0.0511889  0.00282876  nan  nan  nan  nan  nan  nan  -1.5  0  1  -0.00915035  -0.00208032  1.90361e-05  0  0  0  0  0  0  0  0  0  0.0021173  -0.00782519  -0.0210272  -0.00242384  0.00708475  0.00256971  8.73532e-05  -0.00500367  -0.00187927  -0.0667756  -0.0334885  -0.0109878 
1701273567.169769000  0  0  15.2389  0.0566923  0.055058  0.00235697  nan  nan  nan  nan  nan  nan  -1.5  0  1  -0.0089423  -0.00190289  1.70166e-05  0  0  0  0  0  0  0  0  0  0.00213277  -0.00781899  -0.0210312  -0.00268834  0.00733576  0.00251209  -0.000850871  -0.00537959  -0.00184192  -0.0910257  -0.0360459  -0.00383228 
1701273567.174752000  0  0  15.2047  0.0383545  0.0637545  0.0017046  nan  nan  nan  nan  nan  nan  -1.5  -0  1  -0.00841902  -0.00145014  1.22091e-05  6e-07  -6e-07  6e-07  0  0  0  0.000375  -0.000375  0.000375  0.00212959  -0.00779436  -0.0209904  -0.00321863  0.00792484  0.00461309  -0.0013314  -0.00607907  -0.00174215  -0.0528923  -0.0434669  0.00513425 
1701273567.179740000  0  0  15.2098  0.0555072  0.0683757  0.000919602  nan  nan  nan  nan  nan  nan  -1.5  -0  1  -0.00850731  -0.00125923  1.07129e-05  5e-06  -5e-06  5e-06  0  0  0  0.0015  -0.0015  0.0015  0.00211595  -0.00776149  -0.0209741  -0.00328942  0.00758907  0.00435123  -0.00180569  -0.00652981  -0.00158511  -0.0779393  -0.0465013  0.0152106 
1701273567.184736000  0  0  15.2033  0.0495675  0.0696694  0.00107803  nan  nan  nan  nan  nan  nan  -1.5  -1e-07  1  -0.00773544  -0.000785466  6.07604e-06  1.69e-05  -1.69e-05  1.69e-05  0  0  0  0.003375  -0.003375  0.003375  0.00211482  -0.00772982  -0.0209571  -0.00365992  0.00827129  0.00488747  -0.00273327  -0.00723106  -0.00153831  -0.0567116  -0.0407384  0.0116636 
1701273567.189742000  0  0  15.2319  0.0396994  0.0729356  0.00192285  nan  nan  nan  nan  nan  nan  -1.5  -2e-07  1  -0.00757247  -4.36566e-05  2.30594e-07  4e-05  -4e-05  4e-05  0  0  0  0.006  -0.006  0.006  0.00209396  -0.00769314  -0.0209497  -0.00423167  0.0080464  0.00329608  -0.00290175  -0.00811367  -0.00163707  -0.037227  -0.0363977  -0.000535046 
1701273567.194736000  0  0  15.2487  0.0458854  0.0831971  0.00259987  nan  nan  nan  nan  nan  nan  -1.5  -5e-07  1  -0.00748152  3.09571e-05  -5.3161e-07  7.81e-05  -7.81e-05  7.81e-05  0  0  0  0.009375  -0.009375  0.009375  0.00209652  -0.00767951  -0.0209503  -0.00391327  0.00769932  0.00254315  -0.00327064  -0.008581  -0.00176257  -0.0439852  -0.0492708  -0.00941698 
1701273567.199736000  0  0  15.268  0.0254788  0.0658384  0.00258264  nan  nan  nan  nan  nan  nan  -1.5  -1e-06  1  -0.00679966  0.000776173  -5.77779e-06  0.000135  -0.000135  0.000135  0  0  0  0.0135  -0.0135  0.0135  0.00209498  -0.00767349  -0.0209585  -0.00435329  0.00803491  0.00171826  -0.00367037  -0.00917127  -0.00181579  -0.00310207  -0.0116167  -0.0081032 
1701273567.204745000  0  0  15.3062  0.0221667  0.0636926  0.00238118  nan  nan  nan  nan  nan  nan  -1.5  -1.9e-06  1  -0.00677989  0.00116382  -8.89066e-06  0.0002144  -0.0002144  0.0002144  0  0  0  0.018375  -0.018375  0.018375  0.00207779  -0.00764123  -0.0209632  -0.00420669  0.00735394  -0.000237853  -0.00362021  -0.00948558  -0.00180984  0.00221057  -0.00418693  -0.00485493 
1701273567.209737000  0  0  15.3055  0.0117152  0.0828557  0.00254763  nan  nan  nan  nan  nan  nan  -1.5  -3.2e-06  1  -0.00623974  0.00179449  -1.28973e-05  0.00032  -0.00032  0.00032  0  0  0  0.024  -0.024  0.024  0.00208443  -0.00763326  -0.0209411  -0.00433436  0.00733026  0.000267737  -0.00382572  -0.0105362  -0.00188102  0.0231584  -0.0261819  -0.00626105 
1701273567.214736000  0  0  15.3545  0.00212799  0.0615141  0.00243952  nan  nan  nan  nan  nan  nan  -1.49999  -5.1e-06  1.00001  -0.00577256  0.00277503  -1.87192e-05  0.0004556  -0.0004556  0.0004556  0  0  0  0.030375  -0.030375  0.030375  0.00205287  -0.00759986  -0.0209658  -0.00473884  0.00703398  -0.00218898  -0.00393455  -0.0110839  -0.00188417  0.0414577  0.0180651  -0.00439567 
1701273567.219728000  0  0  15.3849  -0.00910683  0.0791706  0.00297917  nan  nan  nan  nan  nan  nan  -1.49999  -7.8e-06  1.00001  -0.00591436  0.00312116  -2.26599e-05  0.000625  -0.000625  0.000625  0  0  0  0.0375  -0.0375  0.0375  0.00205992  -0.00761962  -0.0209948  -0.00432383  0.00599607  -0.0033812  -0.00339195  -0.0116698  -0.00199924  0.0551963  -0.00659457  -0.0111856 
1701273567.224738000  0  0  15.399  -0.0261435  0.0794136  0.00262046  nan  nan  nan  nan  nan  nan  -1.49999  -1.14e-05  1.00001  -0.00528172  0.00422335  -2.84067e-05  0.0008319  -0.0008319  0.0008319  0  0  0  0.045375  -0.045375  0.045375  0.0020652  -0.0076397  -0.0210234  -0.00478778  0.00587642  -0.00348242  -0.00333783  -0.0127165  -0.00199507  0.0848684  0.00500932  -0.00527792 
1701273567.229736000  0  0  15.4252  -0.0238916  0.0730491  0.00222907  nan  nan  nan  nan  nan  nan  -1.49998  -1.62e-05  1.00002  -0.00495533  0.00527039  -3.47166e-05  0.00108  -0.00108  0.00108  0  0  0  0.054  -0.054  0.054  0.00203632  -0.00761686  -0.0210485  -0.00501264  0.0051596  -0.00428054  -0.00329645  -0.0134574  -0.00194667  0.0803882  0.0248453  0.000322396 
1701273567.234736000  0  0  15.4273  -0.0399356  0.092219  0.00210015  nan  nan  nan  nan  nan  nan  -1.49998  -2.23e-05  1.00002  -0.00452874  0.00590017  -3.86203e-05  0.0013731  -0.0013731  0.0013731  0  0  0  0.063375  -0.063375  0.063375  0.00205257  -0.00765347  -0.0210665  -0.00470291  0.00463318  -0.00350198  -0.00299107  -0.0142942  -0.00193215  0.105406  0.000379669  0.00219456 
1701273567.239745000  0  0  15.4689  -0.0363966  0.0652126  0.00217657  nan  nan  nan  nan  nan  nan  -1.49997  -3e-05  1.00003  -0.0035186  0.00728677  -4.16391e-05  0.001715  -0.001715  0.001715  0  0  0  0.0735  -0.0735  0.0735  0.00202405  -0.00762977  -0.0210989  -0.00519906  0.00461442  -0.00512201  -0.0034645  -0.0149915  -0.00193395  0.104557  0.0564202  0.000953518 
1701273567.244735000  0  0  15.4584  -0.0376351  0.0738479  0.00231131  nan  nan  nan  nan  nan  nan  -1.49996  -3.96e-05  1.00004  -0.00334928  0.00791549  -4.7611e-05  0.0021094  -0.0021094  0.0021094  0  0  0  0.084375  -0.084375  0.084375  0.00204483  -0.00768257  -0.021121  -0.00470633  0.00361076  -0.00338751  -0.00312304  -0.015454  -0.00195044  0.102833  0.0463832  -0.000977776 
1701273567.249734000  0  0  15.4736  -0.0435305  0.0771052  0.00232646  nan  nan  nan  nan  nan  nan  -1.49995  -5.12e-05  1.00005  -0.00240201  0.00908572  -4.91237e-05  0.00256  -0.00256  0.00256  0  0  0  0.096  -0.096  0.096  0.002045  -0.00771829  -0.0211156  -0.00479305  0.00347824  -0.00327901  -0.00330213  -0.0163236  -0.00195609  0.115375  0.0505902  -0.00112166 
1701273567.254746000  0  0  15.5123  -0.0269418  0.0552574  0.00183574  nan  nan  nan  nan  nan  nan  -1.49993  -6.53e-05  1.00007  -0.00125694  0.0103928  -4.78629e-05  0.0030706  -0.0030706  0.0030706  0  0  0  0.108375  -0.108375  0.108375  0.00201597  -0.00770227  -0.0211495  -0.00491804  0.00338568  -0.00449423  -0.0041209  -0.0167993  -0.00187494  0.095292  0.0949094  0.00550528 
1701273567.259738000  0  0  15.4953  -0.0225678  0.0769013  0.00165113  nan  nan  nan  nan  nan  nan  -1.49992  -8.2e-05  1.00008  1.64951e-05  0.0113826  -4.35122e-05  0.003645  -0.003645  0.003645  0  0  0  0.1215  -0.1215  0.1215  0.00203364  -0.00773785  -0.0211464  -0.00460215  0.00349913  -0.00220137  -0.00484622  -0.017554  -0.00180693  0.0958544  0.0651005  0.00727594 
1701273567.265220000  0  0  15.5369  -0.0118987  0.0666688  0.00128197  nan  nan  nan  nan  nan  nan  -1.4999  -0.0001018  1.0001  0.00116169  0.0125626  -3.97065e-05  0.0042869  -0.0042869  0.0042869  0  0  0  0.135375  -0.135375  0.135375  0.00207011  -0.00779606  -0.0211997  -0.00454478  0.00340871  -0.0034142  -0.00555546  -0.0180497  -0.00170587  0.085038  0.088996  0.0114898 
1701273567.269730000  0  0  15.5591  0.00457153  0.0671838  0.00186033  nan  nan  nan  nan  nan  nan  -1.49988  -0.000125  1.00012  0.00283461  0.0140267  -2.6941e-05  0.005  -0.005  0.005  0  0  0  0.15  -0.15  0.15  0.00205276  -0.00777886  -0.0212131  -0.00462248  0.00373868  -0.00342014  -0.0070135  -0.0189677  -0.00175175  0.0725162  0.0986356  0.00271967 
1701273567.274731000  0  0  15.5762  0.00577208  0.0741584  0.00183386  nan  nan  nan  nan  nan  nan  -1.49985  -0.0001519  1.00015  0.00441432  0.0152431  -1.37141e-05  0.0057881  -0.0057881  0.0057881  0  0  0  0.165375  -0.165375  0.165375  0.00209092  -0.00782964  -0.0212439  -0.00441465  0.00402088  -0.00299209  -0.00808868  -0.0196641  -0.00174538  0.0827444  0.094241  0.00303868 
1701273567.279735000  0  0  15.6247  0.0353531  0.0656964  0.00167923  nan  nan  nan  nan  nan  nan  -1.49982  -0.000183  1.00018  0.00636701  0.017012  1.07121e-05  0.006655  -0.006655  0.006655  0  0  0  0.1815  -0.1815  0.1815  0.00206962  -0.00780919  -0.0212719  -0.00474406  0.00454911  -0.00448577  -0.0100002  -0.0206308  -0.00171227  0.0521238  0.120404  0.00498166 
1701273567.284730000  0  0  15.6356  0.042376  0.067778  0.00173819  nan  nan  nan  nan  nan  nan  -1.49978  -0.0002186  1.00022  0.00828911  0.0182523  3.46903e-05  0.0076044  -0.0076044  0.0076044  0  0  0  0.198375  -0.198375  0.198375  0.00211386  -0.0078481  -0.0213016  -0.00439713  0.00507605  -0.00351899  -0.0116048  -0.0211578  -0.00171013  0.0580859  0.122763  0.00395607 
1701273567.289728000  0  0  15.6935  0.0575037  0.0615227  0.00146859  nan  nan  nan  nan  nan  nan  -1.49974  -0.0002592  1.00026  0.0107007  0.0202236  7.81993e-05  0.00864  -0.00864  0.00864  0  0  0  0.216  -0.216  0.216  0.0020915  -0.00781983  -0.0213352  -0.0048421  0.00603813  -0.00544883  -0.0137352  -0.0222375  -0.00165952  0.0556828  0.1463  0.0074808 
1701273567.294733000  0  0  15.6994  0.0824152  0.0642799  0.00185633  nan  nan  nan  nan  nan  nan  -1.49969  -0.0003052  1.00031  0.0127593  0.0214448  0.000110815  0.0097656  -0.0097656  0.0097656  0  0  0  0.234375  -0.234375  0.234375  0.00215189  -0.00784392  -0.0213475  -0.00432368  0.00653283  -0.00406111  -0.0157672  -0.0226755  -0.00171722  0.0347503  0.146434  0.00212077 
1701273567.299736000  0  0  15.7196  0.0919414  0.0655774  0.00226027  nan  nan  nan  nan  nan  nan  -1.49964  -0.000357  1.00036  0.0153413  0.0232126  0.000165707  0.010985  -0.010985  0.010985  0  0  0  0.2535  -0.2535  0.2535  0.00218435  -0.00783701  -0.0213325  -0.00439694  0.00757132  -0.00356013  -0.0179838  -0.0235368  -0.001801  0.0432989  0.154031  -0.00300697 
1701273567.304742000  0  0  15.7821  0.109456  0.0617863  0.00245773  nan  nan  nan  nan  nan  nan  -1.49958  -0.0004152  1.00042  0.0177412  0.0253502  0.000228342  0.0123019  -0.0123019  0.0123019  0  0  0  0.273375  -0.273375  0.273375  0.00216061  -0.00780083  -0.0213697  -0.00482874  0.00827683  -0.00555304  -0.0202244  -0.0246588  -0.00186576  0.0379189  0.173674  -0.00505466 
1701273567.309743000  0  0  15.7969  0.116637  0.06504  0.00224621  nan  nan  nan  nan  nan  nan  -1.49952  -0.0004802  1.00048  0.0203385  0.027062  0.00029441  0.01372  -0.01372  0.01372  0  0  0  0.294  -0.294  0.294  0.00222528  -0.0078071  -0.0213455  -0.00472599  0.0091979  -0.00458759  -0.0225306  -0.0254807  -0.00187123  0.0516679  0.177338  -0.00141829 
1701273567.314744000  0  0  15.8487  0.12211  0.0662748  0.0016762  nan  nan  nan  nan  nan  nan  -1.49945  -0.0005526  1.00055  0.023244  0.0296078  0.000393728  0.0152431  -0.0152431  0.0152431  0  0  0  0.315375  -0.315375  0.315375  0.00220139  -0.00775881  -0.0213734  -0.00552486  0.0103823  -0.00575962  -0.0249405  -0.0269553  -0.00181476  0.0696451  0.192098  0.00700821 
1701273567.319741000  0  0  15.8788  0.130985  0.0738417  0.00132715  nan  nan  nan  nan  nan  nan  -1.49937  -0.0006328  1.00063  0.0254486  0.0312931  0.000459408  0.016875  -0.016875  0.016875  0  0  0  0.3375  -0.3375  0.3375  0.00226293  -0.00777176  -0.0213615  -0.00524825  0.0106624  -0.0055825  -0.0268168  -0.0277293  -0.00174827  0.0754393  0.187543  0.0115532 
1701273567.324734000  0  0  15.924  0.124426  0.0797363  0.00161706  nan  nan  nan  nan  nan  nan  -1.49928  -0.0007215  1.00072  0.0283263  0.0341588  0.000583963  0.0186194  -0.0186194  0.0186194  0  0  0  0.360375  -0.360375  0.360375  0.00223109  -0.00771781  -0.0213912  -0.00628905  0.0116345  -0.00616872  -0.0288792  -0.0295457  -0.00178476  0.110816  0.197947  0.00741711 
1701273567.329734000  0  0  15.9774  0.116384  0.0781458  0.00174285  nan  nan  nan  nan  nan  nan  -1.49918  -0.0008192  1.00082  0.0304759  0.036147  0.000666816  0.02048  -0.02048  0.02048  0  0  0  0.384  -0.384  0.384  0.00229842  -0.00773541  -0.0213897  -0.00634045  0.0117503  -0.00727488  -0.0301869  -0.0303684  -0.00180595  0.140154  0.210235  0.00572578 
1701273567.334735000  0  0  16.0144  0.119908  0.092606  0.00192632  nan  nan  nan  nan  nan  nan  -1.49907  -0.0009265  1.00093  0.0327706  0.0384488  0.000769427  0.0224606  -0.0224606  0.0224606  0  0  0  0.408375  -0.408375  0.408375  0.00234496  -0.00773916  -0.0213867  -0.00663775  0.0119086  -0.00727021  -0.0317122  -0.0317397  -0.0018448  0.151426  0.20029  0.0034122 
1701273567.339739000  0  0  16.0954  0.10581  0.0864056  0.00183108  nan  nan  nan  nan  nan  nan  -1.49896  -0.001044  1.00104  0.0357406  0.0415659  0.000934493  0.024565  -0.024565  0.024565  0  0  0  0.4335  -0.4335  0.4335  0.00231507  -0.00767788  -0.0214318  -0.00793058  0.0128722  -0.009819  -0.0333733  -0.0334845  -0.00186144  0.195594  0.231378  0.00532282 
1701273567.344737000  0  0  16.1351  0.0925362  0.100361  0.000797875  nan  nan  nan  nan  nan  nan  -1.49883  -0.0011724  1.00117  0.0375837  0.0434764  0.00101736  0.0267969  -0.0267969  0.0267969  0  0  0  0.459375  -0.459375  0.459375  0.00238618  -0.00770144  -0.021435  -0.00761684  0.0123248  -0.00980113  -0.0339342  -0.0343839  -0.00167754  0.225648  0.216904  0.0190246 
1701273567.350252000  0  0  16.1901  0.0876567  0.0989156  2.8903e-05  nan  nan  nan  nan  nan  nan  -1.49869  -0.0013122  1.00131  0.0402727  0.0462635  0.0011759  0.02916  -0.02916  0.02916  0  0  0  0.486  -0.486  0.485993  0.00240217  -0.00765637  -0.0214717  -0.00834643  0.0127299  -0.0105499  -0.0350301  -0.0356379  -0.0014711  0.246926  0.233894  0.027881 
1701273567.354734000  0  0  16.2667  0.0662762  0.0981395  -0.00018727  nan  nan  nan  nan  nan  nan  -1.49854  -0.0014642  1.00146  0.0430737  0.049483  0.00136826  0.031658  -0.0316581  0.0316565  0  0  0  0.513223  -0.513371  0.512473  0.00234985  -0.00758624  -0.0215424  -0.00954769  0.0132356  -0.0125892  -0.0361058  -0.0375049  -0.00137064  0.297313  0.256742  0.0295527 
1701273567.359735000  0  0  16.3147  0.0569379  0.104821  -0.000133613  nan  nan  nan  nan  nan  nan  -1.49837  -0.001629  1.00163  0.0452545  0.0518545  0.0015022  0.0342912  -0.0342935  0.0342835  0  0  0  0.539924  -0.54064  0.538204  0.00236784  -0.00755969  -0.0215805  -0.00972746  0.0129335  -0.0129511  -0.0364345  -0.0384542  -0.00123736  0.317699  0.255777  0.0260872 
1701273567.364731000  0  0  16.3736  0.0463847  0.0964365  -0.000320715  nan  nan  nan  nan  nan  nan  -1.49819  -0.0018074  1.00181  0.0483937  0.055363  0.00174804  0.037056  -0.0370633  0.0370373  0  0  0  0.565875  -0.567159  0.563184  0.00231024  -0.00748998  -0.0216467  -0.011463  0.0139951  -0.013954  -0.0375956  -0.0402424  -0.00115336  0.349815  0.291248  0.027591 
1701273567.369735000  0  0  16.3963  0.036477  0.109284  -0.000122056  nan  nan  nan  nan  nan  nan  -1.498  -0.0019999  1.002  0.0504601  0.0575673  0.00188121  0.0399487  -0.0399638  0.0399141  0  0  0  0.591076  -0.592928  0.587414  0.00229193  -0.00745858  -0.0216957  -0.0114323  0.0136407  -0.0128011  -0.0375879  -0.0409796  -0.00103944  0.367344  0.276879  0.0220784 
1701273567.374728000  0  0  16.4589  0.0338166  0.100295  0.000133216  nan  nan  nan  nan  nan  nan  -1.49779  -0.0022072  1.00221  0.0529045  0.0606383  0.00208626  0.0429655  -0.0429913  0.0429102  0  0  0  0.615526  -0.617947  0.610894  0.00225638  -0.00743998  -0.0217499  -0.0128688  0.0141117  -0.0141888  -0.0380132  -0.0422016  -0.00100627  0.376966  0.306913  0.0171775 
1701273567.379735000  0  0  16.4932  0.0104059  0.100598  0.000450554  nan  nan  nan  nan  nan  nan  -1.49757  -0.00243  1.00243  0.0555695  0.0637062  0.00231446  0.0461027  -0.046142  0.0460218  0  0  0  0.639227  -0.642216  0.633625  0.00219256  -0.00736943  -0.021809  -0.0142073  0.014747  -0.013809  -0.0382351  -0.0435221  -0.00100803  0.421145  0.32156  0.0119142 
1701273567.384730000  0  0  16.5323  0.00815079  0.11418  0.000616418  nan  nan  nan  nan  nan  nan  -1.49733  -0.0026688  1.00267  0.0566772  0.0652199  0.00236081  0.0493565  -0.0494122  0.0492452  0  0  0  0.662178  -0.665734  0.655605  0.00227688  -0.00747835  -0.0217076  -0.013862  0.0137924  -0.01425  -0.0372078  -0.0436891  -0.0009493  0.413343  0.299328  0.00801295 
1701273567.389729000  0  0  16.5999  -0.000657386  0.0894633  0.000481765  nan  nan  nan  nan  nan  nan  -1.49708  -0.0029243  1.00292  0.0597597  0.0682833  0.00262916  0.0527232  -0.0527981  0.0525766  0  0  0  0.684378  -0.688503  0.676835  0.00220625  -0.00740064  -0.0217824  -0.0155902  0.015367  -0.0160319  -0.0379386  -0.0445981  -0.000937101  0.437409  0.353732  0.0100255 
1701273567.394735000  0  0  16.5926  -0.0172223  0.0981596  0.000522197  nan  nan  nan  nan  nan  nan  -1.4968  -0.003197  1.00319  0.0602427  0.0695956  0.00261899  0.0561991  -0.056296  0.0560123  0  0  0  0.705829  -0.710522  0.697315  0.00229914  -0.00753881  -0.0216462  -0.0149179  0.0135842  -0.0137471  -0.0359849  -0.0443413  -0.000838172  0.4444  0.335315  0.00744321 
1701273567.400334000  0  0  16.6092  -0.028978  0.0889882  0.000246919  nan  nan  nan  nan  nan  nan  -1.49651  -0.0034874  1.00348  0.0617949  0.0715349  0.00271882  0.0597803  -0.0599021  0.0595485  0  0  0  0.72653  -0.731791  0.717046  0.00237333  -0.00765323  -0.0215576  -0.015319  0.0134425  -0.0128574  -0.0348558  -0.0441898  -0.000734351  0.45232  0.349881  0.0100368 
1701273567.404738000  0  0  16.6468  -0.0331553  0.0721894  0.000540736  nan  nan  nan  nan  nan  nan  -1.49621  -0.0037962  1.00379  0.0644291  0.0739757  0.0029304  0.0634631  -0.0636127  0.0631815  0  0  0  0.746481  -0.75231  0.736026  0.0022805  -0.00755672  -0.0216492  -0.0162616  0.0145102  -0.0129174  -0.0353047  -0.04465  -0.000762581  0.46491  0.385045  0.00567631 
1701273567.409729000  0  0  16.663  -0.0260444  0.0723551  0.000455971  nan  nan  nan  nan  nan  nan  -1.49588  -0.0041237  1.00411  0.0656595  0.0756012  0.0029877  0.0672438  -0.0674239  0.0669075  0  0  0  0.765681  -0.772079  0.754256  0.00231398  -0.00763651  -0.0215765  -0.0163208  0.0140352  -0.0121376  -0.0343842  -0.0443319  -0.000684969  0.441681  0.381092  0.00559491 
1701273567.414730000  0  0  16.7032  -0.0309343  0.0589096  0.000502342  nan  nan  nan  nan  nan  nan  -1.49553  -0.0044706  1.00446  0.0685152  0.0781645  0.00323284  0.0711187  -0.0713322  0.0707228  0  0  0  0.784132  -0.791098  0.771737  0.00222427  -0.00755804  -0.0216438  -0.017671  0.0156757  -0.012507  -0.0348478  -0.0446583  -0.000694654  0.455707  0.408754  0.00500755 
1701273567.419749000  0  0  16.6915  -0.0208918  0.0502377  0.000209953  nan  nan  nan  nan  nan  nan  -1.49517  -0.0048372  1.00482  0.0696135  0.0793121  0.00324558  0.0750839  -0.0753337  0.0746236  0  0  0  0.801833  -0.809367  0.788467  0.00225247  -0.00762538  -0.0215884  -0.0170519  0.0150223  -0.0100656  -0.0339612  -0.0435708  -0.00057151  0.427654  0.41167  0.00751419 
1701273567.424749000  0  0  16.7057  -0.0275289  0.0323808  -3.03401e-05  nan  nan  nan  nan  nan  nan  -1.49478  -0.0052241  1.0052  0.0719599  0.0813053  0.00341632  0.0791358  -0.0794246  0.0786062  0  0  0  0.818784  -0.826886  0.804447  0.00224629  -0.00767021  -0.0215349  -0.0178181  0.0162959  -0.00922399  -0.0340359  -0.0430622  -0.000514008  0.440316  0.437575  0.0104168 
1701273567.429733000  0  0  16.709  -0.02268  0.0268004  -8.51663e-05  nan  nan  nan  nan  nan  nan  -1.49438  -0.0056316  1.00561  0.0740157  0.0832104  0.00355936  0.0832705  -0.0836013  0.0826668  0  0  0  0.834984  -0.843654  0.819677  0.00216588  -0.00759197  -0.0215759  -0.018301  0.0168985  -0.00756415  -0.0339675  -0.0426987  -0.000457006  0.430907  0.443318  0.010233 
1701273567.434751000  0  0  16.7256  -0.00616252  0.0201318  -5.95046e-05  nan  nan  nan  nan  nan  nan  -1.49395  -0.0060602  1.00603  0.0757588  0.0846152  0.00363939  0.0874843  -0.0878599  0.0868017  0  0  0  0.850435  -0.859673  0.834158  0.00220314  -0.00764009  -0.0214697  -0.0185477  0.0175517  -0.00719498  -0.0339112  -0.0417798  -0.000421097  0.400888  0.44461  0.00911227 
1701273567.439752000  0  0  16.7556  -0.0168214  0.0143425  7.41901e-06  nan  nan  nan  nan  nan  nan  -1.4935  -0.0065103  1.00648  0.0784133  0.0865985  0.00384222  0.0917736  -0.0921968  0.0910071  0  0  0  0.865136  -0.874942  0.847888  0.00210762  -0.00754593  -0.0215129  -0.0194932  0.0193154  -0.00729904  -0.0342466  -0.0414464  -0.000407755  0.423698  0.451071  0.00773786 
1701273567.444751000  0  0  16.7462  0.00771014  0.0163406  -0.000218289  nan  nan  nan  nan  nan  nan  -1.49303  -0.0069823  1.00694  0.0795166  0.0872207  0.00380323  0.0961345  -0.0966081  0.0952793  0  0  0  0.879086  -0.889461  0.860868  0.00217855  -0.00758726  -0.0213669  -0.0187114  0.0190897  -0.00559155  -0.0336847  -0.0399433  -0.000332699  0.373615  0.430234  0.0100585 
1701273567.450274000  0  0  16.725  0.00786871  0.00332392  5.27032e-05  nan  nan  nan  nan  nan  nan  -1.49254  -0.0074765  1.00743  0.0818535  0.0889245  0.00395673  0.100563  -0.10109  0.0996146  0  0  0  0.892287  -0.90323  0.873099  0.00221337  -0.00760878  -0.0212742  -0.0193824  0.0205362  -0.00293358  -0.0340155  -0.0390512  -0.00036031  0.377137  0.443122  0.00606715 
1701273567.454753000  0  0  16.7219  0.0228734  0.0166102  0.000522462  nan  nan  nan  nan  nan  nan  -1.49203  -0.0079933  1.00794  0.0839644  0.0906594  0.00409401  0.105056  -0.105639  0.104009  0  0  0  0.904738  -0.916249  0.884579  0.00208265  -0.00746811  -0.0213266  -0.0199291  0.0214947  -0.00121689  -0.0346205  -0.0390884  -0.000411205  0.357413  0.419924  -0.000793329 
1701273567.459748000  0  0  16.7447  0.0462555  0.00923775  0.000767651  nan  nan  nan  nan  nan  nan  -1.49149  -0.008533  1.00847  0.0865062  0.0923365  0.00426742  0.109609  -0.110251  0.108459  0  0  0  0.916439  -0.928518  0.895309  0.00204565  -0.00740645  -0.0212588  -0.0209142  0.0235216  -0.0014271  -0.0357475  -0.0385006  -0.000518023  0.328793  0.426276  -0.00282682 
1701273567.464754000  0  0  16.7454  0.0448707  0.0108906  0.00149358  nan  nan  nan  nan  nan  nan  -1.49093  -0.0090959  1.00902  0.0888261  0.0941752  0.00443669  0.114219  -0.114923  0.112961  0  0  0  0.927389  -0.940037  0.905289  0.00194005  -0.00728729  -0.0212539  -0.021885  0.0250342  -0.00016391  -0.0362764  -0.0382612  -0.000654697  0.337338  0.420583  -0.0123098 
1701273567.469730000  0  0  16.7318  0.0655915  0.0252408  0.00200908  nan  nan  nan  nan  nan  nan  -1.49035  -0.0096823  1.0096  0.0907036  0.0950799  0.00448088  0.118882  -0.11965  0.117511  0  0  0  0.93759  -0.950805  0.91452  0.00198818  -0.00724326  -0.0210735  -0.0218807  0.0261095  0.00142379  -0.0368718  -0.0374199  -0.00078847  0.307339  0.385392  -0.018336 
1701273567.474734000  0  0  16.7149  0.0641189  0.0087497  0.0020226  nan  nan  nan  nan  nan  nan  -1.48974  -0.0102925  1.0102  0.093453  0.096509  0.00465563  0.123594  -0.12443  0.122105  0  0  0  0.947041  -0.960824  0.923  0.00200431  -0.00715066  -0.0208827  -0.0226098  0.0283351  0.00324475  -0.0379057  -0.0366051  -0.000929332  0.321846  0.405348  -0.0158457 
1701273567.479738000  0  0  16.7038  0.0795859  0.0299549  0.00248433  nan  nan  nan  nan  nan  nan  -1.48911  -0.0109267  1.01082  0.0950511  0.0980008  0.00472442  0.128351  -0.129257  0.12674  0  0  0  0.955741  -0.970093  0.93073  0.00189491  -0.00701684  -0.0208516  -0.0232529  0.0289925  0.00490438  -0.0381576  -0.0365386  -0.00102092  0.297239  0.366876  -0.0217877 
1701273567.484735000  0  0  16.7246  0.0852776  0.0346763  0.00268319  nan  nan  nan  nan  nan  nan  -1.48846  -0.0115852  1.01146  0.0979596  0.0998404  0.00495713  0.13315  -0.13413  0.131411  0  0  0  0.963692  -0.978612  0.93771  0.00181119  -0.00683869  -0.0207742  -0.0248196  0.0317101  0.00450969  -0.0394832  -0.0365007  -0.00118037  0.30236  0.358045  -0.0220329 
1701273567.489735000  0  0  16.722  0.0858159  0.0381181  0.00234715  nan  nan  nan  nan  nan  nan  -1.48778  -0.0122681  1.01213  0.0993433  0.101222  0.00499274  0.137987  -0.139042  0.136115  0  0  0  0.970893  -0.986381  0.943941  0.0016881  -0.0066877  -0.0207461  -0.0255246  0.0322814  0.00550121  -0.039347  -0.0361924  -0.0011447  0.299837  0.34838  -0.0171111 
1701273567.494732000  0  0  16.7441  0.0909251  0.0485833  0.00205212  nan  nan  nan  nan  nan  nan  -1.48708  -0.0129757  1.01283  0.101283  0.102852  0.00510863  0.142858  -0.143992  0.140849  0  0  0  0.977344  -0.9934  0.949421  0.00159234  -0.00651255  -0.0206599  -0.0269613  0.0338683  0.00478389  -0.0398514  -0.0362186  -0.00112317  0.296552  0.330072  -0.0126012 
1701273567.499741000  0  0  16.7408  0.0721953  0.0445457  0.00216245  nan  nan  nan  nan  nan  nan  -1.48635  -0.0137081  1.01354  0.103001  0.104035  0.00515533  0.147759  -0.148975  0.145608  0  0  0  0.983044  -0.999669  0.954151  0.00150589  -0.00632313  -0.020522  -0.0276566  0.0349961  0.00546057  -0.0396612  -0.0357027  -0.00112616  0.32767  0.33132  -0.0143853 
1701273567.504732000  0  0  16.7557  0.081545  0.0562368  0.0018119  nan  nan  nan  nan  nan  nan  -1.4856  -0.0144655  1.01428  0.104196  0.105383  0.00516153  0.152687  -0.153988  0.150389  0  0  0  0.987995  -1.00519  0.958132  0.00136738  -0.00615034  -0.0204979  -0.0287089  0.0356866  0.00513412  -0.0394695  -0.0356656  -0.00101508  0.30884  0.310104  -0.0106751 
1701273567.509730000  0  0  16.7831  0.0573172  0.0574267  0.00204621  nan  nan  nan  nan  nan  nan  -1.48482  -0.015248  1.01505  0.106011  0.106455  0.0052024  0.157638  -0.159026  0.155188  0  0  0  0.992196  -1.00996  0.961362  0.0012815  -0.00596587  -0.020402  -0.0297094  0.0374244  0.00384108  -0.0393956  -0.0352584  -0.00101015  0.351072  0.303306  -0.0146817 
1701273567.514731000  0  0  16.7904  0.059833  0.0725895  0.00155838  nan  nan  nan  nan  nan  nan  -1.48402  -0.0160558  1.01583  0.106511  0.107516  0.00509701  0.162608  -0.164086  0.160002  0  0  0  0.995646  -1.01398  0.963842  0.00113552  -0.00578841  -0.02037  -0.0304509  0.0372662  0.00376489  -0.0383387  -0.0351265  -0.00079102  0.334446  0.274827  -0.0107631 
1701273567.519738000  0  0  16.7757  0.0406828  0.0650329  0.00153208  nan  nan  nan  nan  nan  nan  -1.4832  -0.0168889  1.01665  0.108706  0.109597  0.0052829  0.167593  -0.169164  0.164826  0  0  0  0.998347  -1.01724  0.965572  0.000998107  -0.00555651  -0.0201306  -0.0325684  0.0392165  0.00476635  -0.0384374  -0.0356801  -0.00088962  0.369633  0.29463  -0.00842293 
1701273567.524750000  0  0  16.7758  0.0227025  0.0764414  0.00155318  nan  nan  nan  nan  nan  nan  -1.48235  -0.0177474  1.01748  0.109141  0.110328  0.00512626  0.17259  -0.174257  0.169656  0  0  0  1.0003  -1.01976  0.966553  0.000824941  -0.00532389  -0.0200701  -0.0328904  0.0389624  0.00493078  -0.0368193  -0.035099  -0.000676095  0.382999  0.267661  -0.0128921 
1701273567.529750000  0  0  16.8017  0.0205858  0.0758641  0.00143037  nan  nan  nan  nan  nan  nan  -1.48147  -0.0186315  1.01834  0.110094  0.111572  0.00507855  0.177595  -0.179361  0.17449  0  0  0  1.0015  -1.02153  0.966783  0.000650668  -0.00512491  -0.0200555  -0.0342801  0.0398336  0.00358866  -0.0359693  -0.0350253  -0.000521883  0.37699  0.26784  -0.0138153 
1701273567.534754000  0  0  16.806  -0.013538  0.064779  0.00179738  nan  nan  nan  nan  nan  nan  -1.48057  -0.019541  1.01923  0.110955  0.112605  0.00499295  0.182604  -0.184471  0.179323  0  0  0  1.00195  -1.02255  0.966263  0.000450208  -0.00489688  -0.02001  -0.0351914  0.0404039  0.00346925  -0.0344234  -0.0344641  -0.000473789  0.419893  0.281098  -0.0208691 
1701273567.539734000  0  0  16.8249  -0.0124926  0.0741533  0.00172828  nan  nan  nan  nan  nan  nan  -1.47965  -0.0204762  1.02014  0.110778  0.113063  0.00472032  0.187613  -0.189585  0.184151  0  0  0  1.00165  -1.02282  0.964993  0.000280139  -0.00470077  -0.0200039  -0.0355857  0.0398515  0.00227536  -0.0324649  -0.0338075  -0.000235453  0.395514  0.25688  -0.0243108 
1701273567.544754000  0  0  16.8235  -0.0384724  0.0590824  0.0015571  nan  nan  nan  nan  nan  nan  -1.4787  -0.0214369  1.02107  0.111714  0.114273  0.00465278  0.192619  -0.194698  0.188971  0  0  0  1.0006  -1.02234  0.962974  0.000101008  -0.00447672  -0.0198692  -0.0369354  0.0406723  0.00218263  -0.0310824  -0.0334823  -0.000141325  0.425814  0.279939  -0.0232681 
1701273567.549751000  0  0  16.8289  -0.0451241  0.0643289  0.00146672  nan  nan  nan  nan  nan  nan  -1.47772  -0.0224231  1.02203  0.111622  0.114479  0.00434921  0.197618  -0.199807  0.19378  0  0  0  0.998801  -1.02111  0.960204  -0.0001234  -0.00422811  -0.0198771  -0.0368959  0.0401792  0.00172241  -0.0289657  -0.0323931  9.61437e-05  0.413303  0.258085  -0.026338 
1701273567.554755000  0  0  16.8418  -0.0550255  0.0533416  0.00118682  nan  nan  nan  nan  nan  nan  -1.47672  -0.0234349  1.02301  0.112277  0.115116  0.0041746  0.202606  -0.204908  0.198572  0  0  0  0.996252  -1.01913  0.956684  -0.000310752  -0.00402019  -0.0198714  -0.0377335  0.0409836  0.000795993  -0.027566  -0.0316228  0.000286659  0.414815  0.268766  -0.0253388 
1701273567.559747000  0  0  16.8258  -0.0696942  0.0377646  0.00119483  nan  nan  nan  nan  nan  nan  -1.47569  -0.0244722  1.02401  0.112291  0.115318  0.0038708  0.207579  -0.209997  0.203345  0  0  0  0.992953  -1.0164  0.952415  -0.000520716  -0.00380397  -0.0197712  -0.0377034  0.0407076  0.00129338  -0.0254479  -0.0303109  0.000472153  0.416544  0.281379  -0.0290488 
1701273567.564750000  0  0  16.8187  -0.0623431  0.0348252  0.000993003  nan  nan  nan  nan  nan  nan  -1.47464  -0.0255349  1.02504  0.112345  0.115584  0.00357249  0.212534  -0.215071  0.208095  0  0  0  0.988904  -1.01291  0.947395  -0.000708846  -0.00360125  -0.0197613  -0.0379989  0.0407001  0.00135704  -0.0238376  -0.0292485  0.000680893  0.384956  0.27439  -0.0297043 
1701273567.569750000  0  0  16.7986  -0.0730635  0.0179924  0.000912551  nan  nan  nan  nan  nan  nan  -1.47357  -0.0266229  1.02609  0.113057  0.115892  0.00334973  0.217467  -0.220125  0.212818  0  0  0  0.984104  -1.00868  0.941625  -0.000933131  -0.00338103  -0.0197113  -0.0382381  0.0415328  0.00214699  -0.0227292  -0.0280236  0.000777211  0.391274  0.290237  -0.0302184 
1701273567.574757000  0  0  16.7636  -0.0491811  0.00673851  0.000540691  nan  nan  nan  nan  nan  nan  -1.47247  -0.0277361  1.02717  0.112744  0.115721  0.00294695  0.222374  -0.225156  0.21751  0  0  0  0.978555  -1.0037  0.935105  -0.00114433  -0.00315717  -0.0196227  -0.0377699  0.0408991  0.00354802  -0.0212118  -0.0263802  0.000957281  0.331359  0.291353  -0.0274827 
1701273567.579746000  0  0  16.7672  -0.0602975  -0.0102634  0.000734709  nan  nan  nan  nan  nan  nan  -1.47135  -0.0288744  1.02827  0.11332  0.115788  0.00266874  0.227251  -0.230161  0.222168  0  0  0  0.972256  -0.997971  0.927836  -0.00133592  -0.00293998  -0.0196178  -0.0381594  0.0419665  0.00277175  -0.0200901  -0.0248322  0.00106439  0.338228  0.303785  -0.0327865 
1701273567.584755000  0  0  16.7241  -0.0511954  -0.0194059  0.00091984  nan  nan  nan  nan  nan  nan  -1.4702  -0.0300376  1.02939  0.11299  0.115044  0.00218688  0.232095  -0.235135  0.226787  0  0  0  0.965206  -0.99149  0.919816  -0.00152251  -0.00270195  -0.0195214  -0.0370532  0.0413968  0.00445287  -0.0184553  -0.0226604  0.00116705  0.303245  0.295069  -0.0378563 
1701273567.589739000  0  0  16.7123  -0.0321333  -0.0336009  0.0010153  nan  nan  nan  nan  nan  nan  -1.46902  -0.0312257  1.03053  0.113231  0.114857  0.00182822  0.236902  -0.240074  0.231365  0  0  0  0.957407  -0.984258  0.911046  -0.00172149  -0.00248516  -0.0195009  -0.0371041  0.0420515  0.00438154  -0.0177449  -0.0209337  0.00123109  0.26118  0.300457  -0.0406846 
1701273567.594748000  0  0  16.6867  -0.0396099  -0.0362092  0.00169608  nan  nan  nan  nan  nan  nan  -1.46783  -0.0324383  1.0317  0.113639  0.114715  0.00148756  0.241668  -0.244976  0.235896  0  0  0  0.948858  -0.976277  0.901526  -0.00198032  -0.00219383  -0.0194153  -0.0370353  0.0427196  0.00497134  -0.0168851  -0.019412  0.00112166  0.264589  0.287597  -0.0499392 
1701273567.600341000  0  0  16.6429  -0.0101096  -0.0348858  0.00165916  nan  nan  nan  nan  nan  nan  -1.46661  -0.0336754  1.03289  0.112953  0.113539  0.000897475  0.246389  -0.249836  0.240379  0  0  0  0.939559  -0.967546  0.891257  -0.00205152  -0.00205144  -0.019201  -0.0358845  0.0421777  0.00610375  -0.0156393  -0.0169908  0.00118006  0.197806  0.257403  -0.0504489 
1701273567.604750000  0  0  16.6357  -0.012673  -0.0402375  0.00176137  nan  nan  nan  nan  nan  nan  -1.46536  -0.0349366  1.03411  0.113974  0.113729  0.000651733  0.251062  -0.25465  0.244808  0  0  0  0.929509  -0.958065  0.880237  -0.00236855  -0.00170383  -0.0193248  -0.0365087  0.0439096  0.00596414  -0.0157396  -0.0160483  0.00119349  0.203518  0.256083  -0.0524139 
1701273567.609749000  0  0  16.5909  0.00337272  -0.0303311  0.00177489  nan  nan  nan  nan  nan  nan  -1.4641  -0.0362218  1.03534  0.113787  0.112893  0.000144808  0.255683  -0.259415  0.24918  0  0  0  0.91871  -0.947834  0.868467  -0.00257337  -0.0014176  -0.0193111  -0.0357011  0.0438829  0.00754515  -0.0151153  -0.0143092  0.0012561  0.167807  0.21847  -0.0538468 
1701273567.614752000  0  0  16.5552  0.0143927  -0.0286566  0.00136109  nan  nan  nan  nan  nan  nan  -1.46281  -0.0375307  1.0366  0.113825  0.112546  -0.000287172  0.260248  -0.264127  0.253491  0  0  0  0.907161  -0.936853  0.855948  -0.00275677  -0.0011928  -0.0192743  -0.035811  0.0444839  0.00851362  -0.0146664  -0.0130579  0.00139365  0.14305  0.201104  -0.0495912 
1701273567.619751000  0  0  16.5137  0.0123311  -0.0191234  0.00164472  nan  nan  nan  nan  nan  nan  -1.46149  -0.038863  1.03788  0.113808  0.111728  -0.000785045  0.264753  -0.268782  0.257738  0  0  0  0.894862  -0.925122  0.842678  -0.00295833  -0.000895425  -0.0192041  -0.0352658  0.0448824  0.00962725  -0.0141762  -0.0117127  0.00142523  0.141079  0.168684  -0.0549346 
1701273567.624751000  0  0  16.4993  0.0350728  -0.0113865  0.00102304  nan  nan  nan  nan  nan  nan  -1.46016  -0.0402184  1.03918  0.113816  0.111502  -0.00121933  0.269195  -0.273377  0.261917  0  0  0  0.881812  -0.912641  0.828658  -0.00319438  -0.000606341  -0.0191539  -0.0358078  0.0456789  0.00908469  -0.0141257  -0.0108656  0.00154578  0.100059  0.145186  -0.0468812 
1701273567.629749000  0  0  16.4599  0.0277899  -0.00452045  0.000854676  nan  nan  nan  nan  nan  nan  -1.4588  -0.0415966  1.0405  0.113309  0.110732  -0.00177908  0.27357  -0.277908  0.266023  0  0  0  0.868013  -0.899409  0.813888  -0.0033779  -0.000376021  -0.0191052  -0.0355836  0.0457778  0.0099336  -0.0131321  -0.00962891  0.00177864  0.101584  0.118757  -0.0485603 
1701273567.634701000  0  0  16.427  0.0402439  0.0140535  0.000397438  nan  nan  nan  nan  nan  nan  -1.45742  -0.0429974  1.04184  0.112761  0.11009  -0.0023346  0.277874  -0.28237  0.270054  0  0  0  0.853464  -0.885428  0.798369  -0.00365597  -3.29835e-05  -0.0190453  -0.0354678  0.0457068  0.0102815  -0.0125771  -0.00880096  0.00199605  0.0730577  0.0762087  -0.0451192 
1701273567.639753000  0  0  16.4208  0.0271045  0.00197222  -0.000424193  nan  nan  nan  nan  nan  nan  -1.45602  -0.0444202  1.0432  0.112192  0.109339  -0.00291006  0.282104  -0.286761  0.274006  0  0  0  0.838164  -0.870697  0.782099  -0.00382791  0.000191057  -0.0189952  -0.0357979  0.0462425  0.00889844  -0.0115602  -0.00754143  0.00234553  0.084729  0.0832087  -0.0381417 
1701273567.644899000  0  0  16.3672  0.0415886  0.0175081  8.36571e-05  nan  nan  nan  nan  nan  nan  -1.4546  -0.0458648  1.04458  0.111167  0.108142  -0.00359048  0.286255  -0.291076  0.277874  0  0  0  0.822115  -0.855216  0.765079  -0.00405881  0.000523619  -0.0189339  -0.0350381  0.0455543  0.0102881  -0.0105316  -0.00624515  0.0025687  0.0471459  0.0406775  -0.0509221 
1701273567.649742000  0  0  16.354  0.036166  0.0170417  0.000816052  nan  nan  nan  nan  nan  nan  -1.45316  -0.0473308  1.04597  0.111573  0.108318  -0.00396709  0.290323  -0.295312  0.281655  0  0  0  0.805316  -0.838985  0.74731  -0.00440901  0.000942293  -0.0188983  -0.036343  0.0470572  0.00942657  -0.010781  -0.00627091  0.00253177  0.0596562  0.0418031  -0.0624361 
1701273567.654742000  0  0  16.3431  0.0106058  0.00671417  0.00170954  nan  nan  nan  nan  nan  nan  -1.4517  -0.0488178  1.04739  0.109869  0.106563  -0.00479299  0.294307  -0.299464  0.285346  0  0  0  0.787767  -0.822004  0.72879  -0.00458517  0.00117429  -0.018868  -0.0355292  0.0462866  0.00794899  -0.00854589  -0.00431138  0.00267443  0.0794064  0.0376357  -0.080102 
1701273567.659749000  0  0  16.3138  0.0222363  0.0240564  0.00111665  nan  nan  nan  nan  nan  nan  -1.45022  -0.0503253  1.04883  0.109148  0.105826  -0.00540396  0.2982  -0.30353  0.288942  0  0  0  0.769467  -0.804273  0.70952  -0.00490045  0.00157366  -0.0188593  -0.0357137  0.0463604  0.00780587  -0.00781996  -0.00369476  0.00289697  0.0503779  -0.000292339  -0.0744953 
1701273567.664741000  0  0  16.2967  -0.00500375  0.0151621  0.00046573  nan  nan  nan  nan  nan  nan  -1.44872  -0.051853  1.05028  0.107729  0.104366  -0.00617199  0.302  -0.307506  0.29244  0  0  0  0.750418  -0.785792  0.6895  -0.00508335  0.00181137  -0.0188287  -0.0354326  0.0460937  0.00663368  -0.00588045  -0.00221093  0.00324898  0.0765144  -0.0015385  -0.0704164 
1701273567.669743000  0  0  16.2802  0.00438564  0.0246275  0.00013758  nan  nan  nan  nan  nan  nan  -1.4472  -0.0534002  1.05175  0.106543  0.103395  -0.00686593  0.305703  -0.311387  0.295836  0  0  0  0.730619  -0.76656  0.668731  -0.00544831  0.00225352  -0.0188513  -0.0354867  0.0457476  0.00554489  -0.00493342  -0.00158641  0.00342233  0.0489287  -0.025551  -0.0682808 
1701273567.675306000  0  0  16.241  -0.0172113  0.0184641  0.000280442  nan  nan  nan  nan  nan  nan  -1.44566  -0.0549667  1.05324  0.104999  0.102035  -0.00764146  0.309305  -0.31517  0.299126  0  0  0  0.710069  -0.746579  0.647211  -0.0055853  0.00243871  -0.0186926  -0.0354667  0.0454331  0.00531643  -0.00303396  -0.000377675  0.00361439  0.0654912  -0.0284899  -0.0743687 
1701273567.679747000  0  0  16.2147  -0.0372976  0.0142844  0.000151307  nan  nan  nan  nan  nan  nan  -1.44411  -0.0565518  1.05474  0.102745  0.100093  -0.00855078  0.312802  -0.318852  0.302307  0  0  0  0.68877  -0.725848  0.624941  -0.00590494  0.00280878  -0.0188345  -0.0344339  0.0439347  0.00476576  -0.000423448  0.00135166  0.0039874  0.0711912  -0.0409426  -0.0794047 
1701273567.684766000  0  0  16.1934  -0.0354245  0.0135975  -0.000661782  nan  nan  nan  nan  nan  nan  -1.44253  -0.058155  1.05626  0.100826  0.0989275  -0.00934625  0.316191  -0.322427  0.305374  0  0  0  0.666721  -0.704367  0.601921  -0.00623001  0.00314939  -0.0188544  -0.0345877  0.0430968  0.00367118  0.00137095  0.00222074  0.00429663  0.0472275  -0.0497142  -0.0717938 
1701273567.689763000  0  0  16.1619  -0.0790167  0.00420497  -0.00100699  nan  nan  nan  nan  nan  nan  -1.44094  -0.0597759  1.0578  0.0983055  0.0964874  -0.0103277  0.319468  -0.325894  0.308325  0  0  0  0.643922  -0.682136  0.578152  -0.00640197  0.00336554  -0.0188482  -0.0334045  0.0417642  0.00289083  0.00456835  0.00437714  0.0047459  0.0879771  -0.0578081  -0.0746933 
1701273567.694764000  0  0  16.126  -0.0740389  0.00476053  -0.00197437  nan  nan  nan  nan  nan  nan  -1.43934  -0.0614138  1.05935  0.0958169  0.0943256  -0.0112734  0.322629  -0.329248  0.311154  0  0  0  0.620372  -0.659155  0.553632  -0.00666232  0.00369605  -0.018903  -0.0324632  0.0402636  0.00249373  0.00697135  0.00608181  0.00522482  0.0514947  -0.0783972  -0.0677784 
1701273567.699741000  0  0  16.087  -0.0806874  -0.00271215  -0.00196293  nan  nan  nan  nan  nan  nan  -1.43772  -0.0630682  1.06091  0.0943845  0.0928907  -0.0120479  0.325671  -0.332484  0.31386  0  0  0  0.596073  -0.635424  0.528362  -0.00695258  0.00403118  -0.0189496  -0.0325035  0.0402421  0.00238482  0.00841226  0.00710758  0.00547799  0.0467484  -0.0769043  -0.0728506 
1701273567.704764000  0  0  16.0165  -0.101257  -0.00266997  -0.00160563  nan  nan  nan  nan  nan  nan  -1.43608  -0.0647384  1.06248  0.0908428  0.0895899  -0.013188  0.328589  -0.335601  0.316437  0  0  0  0.571024  -0.610943  0.502343  -0.00710223  0.0042143  -0.0189151  -0.0302752  0.0376227  0.00359706  0.0121183  0.00969405  0.00586403  0.0407105  -0.10672  -0.0862581 
1701273567.709765000  0  0  15.9952  -0.0860588  -0.0123225  -0.00110206  nan  nan  nan  nan  nan  nan  -1.43443  -0.0664239  1.06407  0.0891745  0.0881369  -0.0139835  0.33138  -0.338592  0.318882  0  0  0  0.545224  -0.585711  0.475636  -0.00744432  0.00457417  -0.018991  -0.0305216  0.0375688  0.0022981  0.0134135  0.0107303  0.00595292  -0.00120745  -0.101471  -0.0963782 
1701273567.715185000  0  0  15.9233  -0.102399  -0.0149119  -0.000453996  nan  nan  nan  nan  nan  nan  -1.43277  -0.0681241  1.06567  0.0865631  0.0853718  -0.0149761  0.33404  -0.341456  0.321194  0  0  0  0.518675  -0.55973  0.4493  -0.00759297  0.00476631  -0.0189182  -0.0292364  0.036378  0.00365065  0.0159756  0.0128124  0.00607071  -0.00161176  -0.120809  -0.109467 
1701273567.719698000  0  0  15.8686  -0.0890798  -0.0135053  -0.00077565  nan  nan  nan  nan  nan  nan  -1.43109  -0.0698383  1.06728  0.0834313  0.082352  -0.0160248  0.336565  -0.344189  0.323376  0  0  0  0.491467  -0.532999  0.423715  -0.00788568  0.00509034  -0.0190542  -0.0275142  0.0344195  0.00440602  0.0184668  0.0149455  0.00638339  -0.0539415  -0.147837  -0.110127 
1701273567.724735000  0  0  15.8401  -0.0971284  -0.0345627  -0.00108134  nan  nan  nan  nan  nan  nan  -1.4294  -0.0715658  1.06891  0.0812639  0.0802142  -0.0169122  0.338955  -0.346785  0.325432  0  0  0  0.464691  -0.505552  0.398879  -0.00814966  0.0053601  -0.0190867  -0.0271637  0.0341607  0.00353493  0.0201854  0.0165817  0.00653089  -0.0593901  -0.129207  -0.107867 
1701273567.729728000  0  0  15.759  -0.0933113  -0.0298032  -0.00154447  nan  nan  nan  nan  nan  nan  -1.4277  -0.0733059  1.07054  0.0774049  0.0764857  -0.0180522  0.341213  -0.349245  0.327366  0  0  0  0.438664  -0.478389  0.374793  -0.00827725  0.00552225  -0.0190546  -0.0246587  0.0315308  0.00560395  0.0232658  0.0192181  0.00687666  -0.101599  -0.167984  -0.106803 
1701273567.734731000  0  0  15.7273  -0.0769276  -0.0312775  -0.00185467  nan  nan  nan  nan  nan  nan  -1.42599  -0.075058  1.07218  0.0753769  0.0744146  -0.018911  0.343343  -0.35157  0.329181  0  0  0  0.413388  -0.451976  0.351458  -0.00852885  0.00576478  -0.0190699  -0.024257  0.0313887  0.00509276  0.0241951  0.02031  0.00701263  -0.141417  -0.177919  -0.104246 
1701273567.739737000  0  0  15.6426  -0.0747629  -0.043423  -0.00164272  nan  nan  nan  nan  nan  nan  -1.42427  -0.0768214  1.07383  0.0721327  0.0708914  -0.0199605  0.345349  -0.353766  0.330882  0  0  0  0.388861  -0.426314  0.328872  -0.00863874  0.00591481  -0.0190255  -0.021927  0.0294365  0.00761685  0.0264078  0.0228523  0.00718129  -0.17071  -0.185554  -0.111036 
1701273567.744729000  0  0  15.6016  -0.0471635  -0.0287968  -0.00125215  nan  nan  nan  nan  nan  nan  -1.42254  -0.0785955  1.07549  0.0699484  0.0685976  -0.0208357  0.347233  -0.355835  0.332471  0  0  0  0.365085  -0.401401  0.307037  -0.00888081  0.00616897  -0.0190048  -0.0210618  0.0288332  0.00776577  0.0268786  0.0236497  0.00715894  -0.2252  -0.220732  -0.117125 
1701273567.749735000  0  0  15.5713  -0.0343822  -0.0337058  -0.000612261  nan  nan  nan  nan  nan  nan  -1.4208  -0.0803795  1.07715  0.068808  0.0666573  -0.0216132  0.349001  -0.357781  0.333954  0  0  0  0.342058  -0.377238  0.285951  -0.00912713  0.00648664  -0.0190074  -0.0206023  0.0294197  0.0074899  0.0265863  0.0244307  0.00703852  -0.244567  -0.220983  -0.125485 
1701273567.754731000  0  0  15.4922  -0.00433222  -0.0258754  -0.000677163  nan  nan  nan  nan  nan  nan  -1.41905  -0.0821731  1.07883  0.0654642  0.0630841  -0.0226426  0.350655  -0.359608  0.335332  0  0  0  0.319782  -0.353825  0.265616  -0.00922329  0.00662526  -0.0189618  -0.0181042  0.0271748  0.00993425  0.0279224  0.0264326  0.00715257  -0.313364  -0.257926  -0.126601 
1701273567.759735000  0  0  15.4808  0.0115598  -0.0116466  -0.000410524  nan  nan  nan  nan  nan  nan  -1.41729  -0.0839754  1.08051  0.0646227  0.061622  -0.0233684  0.3522  -0.36132  0.336611  0  0  0  0.298256  -0.331163  0.24603  -0.00949209  0.00695036  -0.018943  -0.0181453  0.0280667  0.00867206  0.0268289  0.026131  0.00700511  -0.32905  -0.279759  -0.128209 
1701273567.764732000  0  0  15.4432  0.0182343  -0.0142352  -0.000816846  nan  nan  nan  nan  nan  nan  -1.41553  -0.0857861  1.08219  0.0615002  0.0584049  -0.0243436  0.353639  -0.362921  0.337794  0  0  0  0.277479  -0.30925  0.227195  -0.00957505  0.00708493  -0.0188982  -0.0162134  0.0261934  0.00872361  0.0280619  0.0277551  0.0071579  -0.355095  -0.293831  -0.124372 
1701273567.769728000  0  0  15.4221  0.0423996  0.00784434  -0.000985076  nan  nan  nan  nan  nan  nan  -1.41376  -0.0876045  1.08389  0.0599484  0.0566731  -0.0251289  0.354976  -0.364414  0.338884  0  0  0  0.257453  -0.288087  0.209109  -0.00979701  0.00738079  -0.0189218  -0.0158239  0.0259944  0.00825016  0.0273254  0.0274524  0.00717931  -0.389597  -0.329612  -0.121976 
1701273567.774732000  0  0  15.398  0.0352023  0.0159899  -0.000935362  nan  nan  nan  nan  nan  nan  -1.41198  -0.0894301  1.08558  0.0577307  0.0539908  -0.0260066  0.356215  -0.365803  0.339886  0  0  0  0.238176  -0.267674  0.191773  -0.00987704  0.00751333  -0.0188787  -0.0144714  0.0251988  0.00774952  0.0277425  0.028165  0.00726875  -0.381595  -0.35229  -0.124531 
1701273567.779737000  0  0  15.3917  0.0631468  0.0287834  -0.000836689  nan  nan  nan  nan  nan  nan  -1.41019  -0.0912623  1.08728  0.0558208  0.0517521  -0.026838  0.357359  -0.367092  0.340803  0  0  0  0.21965  -0.248012  0.175188  -0.0100599  0.00778749  -0.0189006  -0.0134284  0.0244644  0.00643392  0.0271351  0.0281818  0.00727138  -0.424301  -0.375233  -0.126228 
1701273567.784746000  0  0  15.4035  0.0623675  0.0463945  -0.000265262  nan  nan  nan  nan  nan  nan  -1.4084  -0.0931008  1.08899  0.0549616  0.0503031  -0.0275716  0.358412  -0.368285  0.341639  0  0  0  0.201873  -0.229099  0.159352  -0.0102671  0.0080994  -0.0189895  -0.0132962  0.0250058  0.00434497  0.0259377  0.0272573  0.0071565  -0.409148  -0.395919  -0.133553 
1701273567.789744000  0  0  15.3853  0.0576711  0.0560375  -0.000191958  nan  nan  nan  nan  nan  nan  -1.40661  -0.094945  1.0907  0.0517629  0.0475247  -0.0284923  0.359379  -0.369384  0.342398  0  0  0  0.184847  -0.210936  0.144267  -0.0103265  0.00821442  -0.0189707  -0.0116748  0.0227278  0.00369944  0.0271174  0.0277259  0.00725327  -0.414362  -0.418454  -0.136642 
1701273567.794742000  0  0  15.4203  0.0711603  0.0649408  -3.76854e-05  nan  nan  nan  nan  nan  nan  -1.40481  -0.0967945  1.09241  0.0502006  0.0461181  -0.0292592  0.360262  -0.370395  0.343083  0  0  0  0.16857  -0.193523  0.129931  -0.0105367  0.00850489  -0.0190868  -0.0115191  0.0223187  0.000308966  0.0263333  0.0267832  0.00722259  -0.429332  -0.423446  -0.138626 
1701273567.799741000  0  0  15.4293  0.0563174  0.0730758  0.000273534  nan  nan  nan  nan  nan  nan  -1.40301  -0.0986488  1.09413  0.0486469  0.0445829  -0.0300338  0.361066  -0.371321  0.343699  0  0  0  0.153044  -0.176861  0.116346  -0.0107543  0.00878341  -0.0191856  -0.0109858  0.0217312  -0.00142424  0.0261311  0.0260182  0.00716831  -0.400613  -0.429114  -0.142774 
1701273567.804743000  0  0  15.4183  0.0592768  0.0768053  -0.000153831  nan  nan  nan  nan  nan  nan  -1.4012  -0.100508  1.09585  0.0452397  0.0417594  -0.0309481  0.361794  -0.372165  0.344248  0  0  0  0.138268  -0.160948  0.10351  -0.0108057  0.00887953  -0.0191923  -0.00909541  0.0189607  -0.0022397  0.0273717  0.026475  0.00731674  -0.420141  -0.440999  -0.138502 
1701273567.809742000  0  0  15.4466  0.0471117  0.0775875  6.31297e-06  nan  nan  nan  nan  nan  nan  -1.39939  -0.10237  1.09757  0.0437282  0.040491  -0.0317074  0.36245  -0.372932  0.344735  0  0  0  0.124241  -0.145785  0.0914246  -0.0109704  0.0090934  -0.0193578  -0.00891372  0.0184676  -0.00485653  0.0268907  0.0253823  0.00730093  -0.392978  -0.429825  -0.140871 
1701273567.814743000  0  0  15.4411  0.0263934  0.077534  0.000285254  nan  nan  nan  nan  nan  nan  -1.39758  -0.104237  1.0993  0.0403419  0.0376457  -0.0326063  0.363037  -0.373624  0.345163  0  0  0  0.110965  -0.131372  0.0800891  -0.0110036  0.00917364  -0.0193883  -0.00687944  0.0155817  -0.00581326  0.0286214  0.0259449  0.00735199  -0.376037  -0.436199  -0.146511 
1701273567.819737000  0  0  15.4313  0.0297651  0.0836063  0.000230302  nan  nan  nan  nan  nan  nan  -1.39576  -0.106106  1.10102  0.0379544  0.0360333  -0.0334106  0.363561  -0.374247  0.345537  0  0  0  0.0984383  -0.11771  0.0695035  -0.0111332  0.00934806  -0.0194751  -0.00607114  0.0136992  -0.00612743  0.0289924  0.0250653  0.00735792  -0.386299  -0.436883  -0.145709 
1701273567.824742000  0  0  15.4959  -0.00130468  0.0881609  2.50722e-05  nan  nan  nan  nan  nan  nan  -1.39394  -0.107979  1.10275  0.0364045  0.0347232  -0.0341736  0.364023  -0.374803  0.34586  0  0  0  0.0866618  -0.104797  0.059668  -0.0113049  0.00956056  -0.0197786  -0.0056392  0.0129644  -0.0105223  0.0291843  0.0240073  0.0073256  -0.333258  -0.432817  -0.141659 
1701273567.829743000  0  0  15.4954  0.00457562  0.0904169  -0.000448387  nan  nan  nan  nan  nan  nan  -1.39212  -0.109854  1.10448  0.0329656  0.032068  -0.0350463  0.364428  -0.375296  0.346135  0  0  0  0.0756354  -0.092634  0.0505824  -0.0113249  0.00961171  -0.0198315  -0.00362655  0.00979311  -0.0114786  0.0307184  0.0243271  0.00749162  -0.361354  -0.440505  -0.136957 
1701273567.834743000  0  0  15.5076  -0.0130432  0.0918914  -0.000137596  nan  nan  nan  nan  nan  nan  -1.3903  -0.111732  1.10621  0.0312378  0.0307254  -0.0358155  0.364781  -0.37573  0.346367  0  0  0  0.065359  -0.0812213  0.0422469  -0.0114194  0.0097249  -0.0199851  -0.00300863  0.00869122  -0.0127597  0.0309121  0.0231687  0.00745025  -0.332252  -0.429807  -0.141347 
1701273567.839738000  0  0  15.506  -0.033827  0.090706  0.000204827  nan  nan  nan  nan  nan  nan  -1.38847  -0.113612  1.10795  0.0279041  0.0280199  -0.0366716  0.365083  -0.376109  0.346559  0  0  0  0.0558325  -0.0705585  0.0346614  -0.011433  0.00975747  -0.0200585  -0.000761242  0.00549561  -0.0134476  0.0328856  0.0236234  0.00748367  -0.317987  -0.432927  -0.147708 
1701273567.844743000  0  0  15.5191  -0.0190939  0.0876825  0.000324053  nan  nan  nan  nan  nan  nan  -1.38664  -0.115493  1.10968  0.0256061  0.0267011  -0.0374542  0.36534  -0.376437  0.346715  0  0  0  0.0470561  -0.0606458  0.0278258  -0.0115222  0.00984972  -0.0202843  -3.32717e-05  0.00350311  -0.0144861  0.0331378  0.0226478  0.00748016  -0.347085  -0.416333  -0.14963 
