ts fx fy fz tx ty tz exfx exfy exfz extx exty extz xd yd zd rolld pitchd yawd vxd vyd vzd wxd wyd wzd axd ayd azd e_x e_y e_z e_vx e_vy e_vz e_rx e_ry e_rz e_wx e_wy e_wz
1703170018.062239000  0  0  11.649  0.0640517  -0.176873  0.0256684  nan  nan  nan  nan  nan  nan  -2.5  -0.3  1  0.00895827  -0.0264364  -0.000236803  0  0  0  0  0  0  0  0  0  0.0110274  0.00710679  -0.0193645  0.00439441  -0.0080586  0.00741154  -0.00912891  0.0410685  -0.0272891  -0.0323208  -0.0932053  0.0059735 
1703170018.066083000  0  0  11.6188  0.0577338  -0.178975  0.0260026  nan  nan  nan  nan  nan  nan  -2.5  -0.3  1  0.00885377  -0.0268376  -0.000237591  0  0  0  0  0  0  0  0  0  0.0110478  0.00707417  -0.0193264  0.0047831  -0.00813806  0.00948637  -0.00902493  0.0411384  -0.0273072  -0.0199698  -0.0895033  0.00198741 
1703170018.071080000  0  0  11.6836  0.0741876  -0.186005  0.0254608  nan  nan  nan  nan  nan  nan  -2.5  -0.3  1  0.00882212  -0.026668  -0.000235247  0  0  0  0  0  0  0  0  0  0.011002  0.00702734  -0.0191659  0.00488447  -0.00798195  0.00455283  -0.00917304  0.0406783  -0.0273348  -0.053547  -0.0691349  0.00913708 
1703170018.076078000  0  0  11.633  0.0828831  -0.189857  0.0240291  nan  nan  nan  nan  nan  nan  -2.5  -0.3  1  0.00934314  -0.026771  -0.000250103  0  0  0  0  0  0  0  0  0  0.011024  0.00699295  -0.0191076  0.00480493  -0.00723582  0.0080317  -0.0100553  0.0405616  -0.0270796  -0.0620422  -0.0595336  0.0240741 
1703170018.081074000  0  0  11.5718  0.0867752  -0.191834  0.0252008  nan  nan  nan  nan  nan  nan  -2.5  -0.3  1  0.00936739  -0.0265426  -0.000248613  0  0  0  0  0  0  0  0  0  0.0109845  0.00695917  -0.0189213  0.00442115  -0.00717389  0.0120039  -0.0102519  0.0400568  -0.0272114  -0.0681264  -0.049487  0.0109204 
1703170018.086092000  0  0  11.63  0.0970023  -0.18818  0.0257729  nan  nan  nan  nan  nan  nan  -2.5  -0.3  1  0.00949548  -0.0266935  -0.000253446  0  0  0  0  0  0  0  0  0  0.0110091  0.00692368  -0.0189092  0.0047331  -0.00683848  0.00785142  -0.0108978  0.0398987  -0.0272267  -0.0826254  -0.0555024  0.00390638 
1703170018.091082000  0  0  11.5998  0.100759  -0.196577  0.0261152  nan  nan  nan  nan  nan  nan  -2.5  -0.3  1  0.0100487  -0.0270726  -0.000272022  0  0  0  0  0  0  0  0  0  0.0109686  0.00691106  -0.0187531  0.00526343  -0.00609434  0.00967279  -0.011645  0.0400984  -0.0273345  -0.082084  -0.0397952  0.000899516 
1703170018.098094000  0  0  11.586  0.0976737  -0.188151  0.0260169  nan  nan  nan  nan  nan  nan  -2.5  -0.3  1  0.00989528  -0.0262353  -0.000259585  0  0  0  0  0  0  0  0  0  0.0109279  0.0068861  -0.0185943  0.00421269  -0.00624506  0.0103361  -0.0118405  0.0389618  -0.0273581  -0.0732198  -0.0447855  0.00241958 
1703170018.102246000  0  0  11.6363  0.0850552  -0.199572  0.0289722  nan  nan  nan  nan  nan  nan  -2.5  -0.3  1  0.010143  -0.0278748  -0.000282708  0  0  0  0  0  0  0  0  0  0.0109634  0.00686308  -0.0185798  0.00647231  -0.00578964  0.00672057  -0.0121082  0.0404344  -0.0277326  -0.0430826  -0.037237  -0.0302494 
1703170018.108091000  0  0  11.6305  0.117165  -0.23646  0.0254607  nan  nan  nan  nan  nan  nan  -2.5  -0.3  1  0.0110782  -0.0274957  -0.000304578  0  0  0  0  0  0  0  0  0  0.0109271  0.00687109  -0.0184578  0.00604856  -0.00456147  0.0068485  -0.0137081  0.0407128  -0.0275058  -0.0935276  0.0386559  0.0111989 
1703170018.113093000  0  0  11.5675  0.0967934  -0.209901  0.0252603  nan  nan  nan  nan  nan  nan  -2.5  -0.3  1  0.0101119  -0.026321  -0.000266132  0  0  0  0  0  0  0  0  0  0.0108724  0.00686054  -0.0183195  0.00442892  -0.00590413  0.0110659  -0.012681  0.0392514  -0.0274718  -0.0616627  -0.00148064  0.0133111 
1703170018.118094000  0  0  11.6469  0.0765633  -0.222865  0.0188226  nan  nan  nan  nan  nan  nan  -2.5  -0.3  1  0.0108297  -0.0282219  -0.0103056  2e-07  2e-07  2e-07  0  0  0  0.000125  0.000125  0.000125  0.0109198  0.00683896  -0.0183193  0.00725969  -0.00514888  0.00541431  -0.0128874  0.0412085  -0.0178559  -0.0159098  0.00380173  -0.0215966 
1703170018.123163000  0  0  11.6077  0.114133  -0.251548  0.0122027  nan  nan  nan  nan  nan  nan  -2.5  -0.3  1  0.0115925  -0.0266971  -0.0103095  1.7e-06  1.7e-06  1.7e-06  0  0  0  0.0005  0.0005  0.0005  0.0108608  0.00686662  -0.0182152  0.00531188  -0.00418071  0.00799293  -0.0143113  0.0405296  -0.0171935  -0.0800875  0.0731149  0.0537114 
1703170018.128192000  0  0  11.5948  0.0560514  -0.201576  0.0170084  nan  nan  nan  nan  nan  nan  -2.5  -0.3  1  0.010622  -0.0261307  -0.0102775  5.6e-06  5.6e-06  5.6e-06  0  0  0  0.001125  0.001125  0.001125  0.0108293  0.00686851  -0.0180942  0.00466783  -0.00541394  0.00875333  -0.0125157  0.0392284  -0.0175985  0.0237971  -0.0190664  -0.00187351 
1703170018.133179000  0  0  11.6751  0.0700705  -0.232379  0.0182062  nan  nan  nan  nan  nan  nan  -2.5  -0.3  1  0.0116897  -0.027716  -0.0103241  1.33e-05  1.33e-05  1.33e-05  0  0  0  0.002  0.002  0.002  0.0108732  0.00685853  -0.0180995  0.00706045  -0.00375515  0.00309749  -0.0136187  0.0411185  -0.0178071  0.00642578  0.0252392  -0.0144292 
1703170018.138189000  0  0  11.6353  0.102094  -0.246906  0.013217  nan  nan  nan  nan  nan  nan  -2.5  -0.3  1  0.0117616  -0.0266873  -0.0103142  2.6e-05  2.6e-05  2.6e-05  0  0  0  0.003125  0.003125  0.003125  0.0108108  0.00687574  -0.0180134  0.00587408  -0.00359699  0.00583067  -0.0141867  0.0406158  -0.017304  -0.0557075  0.0621712  0.0422816 
1703170018.143191000  0  0  11.6464  0.0477508  -0.200354  0.0208729  nan  nan  nan  nan  nan  nan  -2.5  -0.3  1  0.0107453  -0.0260184  -0.0102801  4.5e-05  4.5e-05  4.5e-05  0  0  0  0.0045  0.0045  0.0045  0.0108322  0.00684709  -0.0179877  0.00511204  -0.004679  0.00513172  -0.0124292  0.0393266  -0.0180526  0.0405998  -0.0228182  -0.0450242 
1703170018.148100000  0  0  11.6861  0.0565741  -0.208264  0.0241834  nan  nan  nan  nan  nan  nan  -2.5  -0.299999  1  0.0121589  -0.0264694  -0.0103228  7.15e-05  7.15e-05  7.15e-05  0  0  0  0.006125  0.006125  0.006125  0.010774  0.00692997  -0.0179909  0.00624094  -0.0027485  0.00244904  -0.0135565  0.039727  -0.0187265  0.03465  -0.0104616  -0.0785541 
1703170018.152117000  0  0  11.6599  0.0913  -0.237554  0.0212091  nan  nan  nan  nan  nan  nan  -2.5  -0.299999  1  0.0126431  -0.0272789  -0.0103466  0.0001067  0.0001067  0.0001067  0  0  0  0.008  0.008  0.008  0.0108067  0.00692551  -0.0179572  0.0074151  -0.00188292  0.00436224  -0.0146474  0.0410345  -0.018615  -0.0272614  0.0373005  -0.0424753 
1703170018.158189000  0  0  11.6908  0.0476945  -0.196679  0.0242027  nan  nan  nan  nan  nan  nan  -2.5  -0.299998  1  0.0113599  -0.0250079  -0.0102868  0.0001519  0.0001519  0.0001519  0  0  0  0.010125  0.010125  0.010125  0.0108075  0.00689333  -0.0179139  0.00469911  -0.00317049  0.00229555  -0.0127498  0.0383359  -0.0191852  0.044409  -0.0193001  -0.0732679 
1703170018.163176000  0  0  11.6578  0.0577955  -0.205871  0.0246906  nan  nan  nan  nan  nan  nan  -2.5  -0.299997  1  0.011786  -0.026671  -0.0103185  0.0002083  0.0002083  0.0002083  0  0  0  0.0125  0.0125  0.0125  0.0108437  0.00689107  -0.0178443  0.00706311  -0.00234234  0.00467895  -0.013143  0.0397834  -0.0196098  0.0272729  -0.0162424  -0.0742895 
1703170018.168191000  0  0  11.6722  0.0769018  -0.242172  0.0194608  nan  nan  nan  nan  nan  nan  -2.5  -0.299996  1  0.0114661  -0.0270587  -0.0103163  0.0002773  0.0002773  0.0002773  0  0  0  0.015125  0.015125  0.015125  0.0108831  0.00687801  -0.0178283  0.0078629  -0.00237645  0.00380402  -0.0131627  0.0408412  -0.0192696  -0.013469  0.0494267  -0.0125861 
1703170018.173183000  0  0  11.6918  0.0472586  -0.196019  0.0212844  nan  nan  nan  nan  nan  nan  -2.49999  -0.299995  1.00001  0.0106197  -0.0242841  -0.0102665  0.00036  0.00036  0.00036  0  0  0  0.018  0.018  0.018  0.0108484  0.00686802  -0.0177996  0.00463482  -0.00304982  0.00263623  -0.0118536  0.0376086  -0.0195434  0.0350333  -0.0123479  -0.032232 
1703170018.178187000  0  0  11.6319  0.0322189  -0.18649  0.0242328  nan  nan  nan  nan  nan  nan  -2.49999  -0.299993  1.00001  0.0105838  -0.0264427  -0.0102917  0.0004577  0.0004577  0.0004577  0  0  0  0.021125  0.021125  0.021125  0.0108729  0.00687093  -0.0177161  0.00771233  -0.00279613  0.00697578  -0.0113775  0.0391074  -0.0200832  0.0618055  -0.0500233  -0.0628228 
1703170018.183182000  0  0  11.6909  0.0675252  -0.24611  0.0188726  nan  nan  nan  nan  nan  nan  -2.49999  -0.29999  1.00001  0.0108746  -0.026734  -0.0103067  0.0005717  0.0005717  0.0005717  0  0  0  0.0245  0.0245  0.0245  0.0109153  0.00686513  -0.0177198  0.00861805  -0.00187513  0.0030237  -0.0120966  0.0403941  -0.0197138  -0.00562725  0.0630139  0.000168032 
1703170018.188048000  0  0  11.6838  0.0515044  -0.207929  0.018175  nan  nan  nan  nan  nan  nan  -2.49999  -0.299987  1.00001  0.00975702  -0.0237604  -0.0102529  0.0007031  0.0007031  0.0007031  0  0  0  0.028125  0.028125  0.028125  0.0108814  0.00686078  -0.0176658  0.0051336  -0.0028621  0.00374964  -0.0107938  0.0371829  -0.0196332  0.0137376  0.0180874  0.00797404 
1703170018.193082000  0  0  11.6499  0.00274568  -0.172592  0.0251364  nan  nan  nan  nan  nan  nan  -2.49998  -0.299983  1.00002  0.00910451  -0.0255833  -0.0102602  0.0008533  0.0008533  0.0008533  0  0  0  0.032  0.032  0.032  0.0109264  0.00684522  -0.0176269  0.00786978  -0.00324873  0.0064189  -0.00910049  0.0379887  -0.0205283  0.0988075  -0.0669546  -0.0688268 
1703170018.198090000  0  0  11.6976  0.063517  -0.240168  0.0215556  nan  nan  nan  nan  nan  nan  -2.49998  -0.299978  1.00002  0.0101971  -0.0261222  -0.0103011  0.0010235  0.0010235  0.0010235  0  0  0  0.036125  0.036125  0.036125  0.010932  0.00687437  -0.0175947  0.0092862  -0.00126883  0.00324725  -0.0110227  0.0395588  -0.0204093  -0.00938788  0.0598833  -0.0252058 
1703170018.203629000  0  0  11.6655  0.0524416  -0.194252  0.0194185  nan  nan  nan  nan  nan  nan  -2.49997  -0.299973  1.00003  0.00896228  -0.0225701  -0.010246  0.001215  0.001215  0.001215  0  0  0  0.0405  0.0405  0.0405  0.0108963  0.00687465  -0.017523  0.00505444  -0.00234611  0.00578564  -0.00975984  0.0356821  -0.0202131  -0.000167574  0.00602622  -0.000681834 
1703170018.208090000  0  0  11.6749  0.00982313  -0.169098  0.02661  nan  nan  nan  nan  nan  nan  -2.49997  -0.299966  1.00003  0.00815669  -0.0240035  -0.0102501  0.001429  0.001429  0.001429  0  0  0  0.045125  0.045125  0.045125  0.0109487  0.00686208  -0.0174954  0.0074643  -0.0027985  0.00544898  -0.00808764  0.0363138  -0.0211963  0.0719795  -0.0551768  -0.0793158 
1703170018.213084000  0  0  11.7086  0.0602222  -0.223143  0.0205418  nan  nan  nan  nan  nan  nan  -2.49996  -0.299958  1.00004  0.00889837  -0.0238328  -0.0102788  0.0016667  0.0016667  0.0016667  0  0  0  0.05  0.05  0.05  0.0109193  0.00690283  -0.0174683  0.00806437  -0.00123451  0.00336743  -0.00950286  0.0369926  -0.0208067  -0.0198073  0.0528989  -0.00766097 
1703170018.218255000  0  0  11.6941  0.0296336  -0.174322  0.0214977  nan  nan  nan  nan  nan  nan  -2.49995  -0.299949  1.00005  0.00752695  -0.0213653  -0.0102418  0.0019294  0.0019294  0.0019294  0  0  0  0.055125  0.055125  0.055125  0.0109312  0.00688765  -0.0174343  0.00530859  -0.0023504  0.00478237  -0.0077748  0.0340728  -0.0208795  0.0259021  -0.0181957  -0.0188099 
1703170018.223090000  0  0  11.6888  0.0106403  -0.168098  0.0267598  nan  nan  nan  nan  nan  nan  -2.49994  -0.299939  1.00006  0.00703657  -0.0215449  -0.0102492  0.0022183  0.0022183  0.0022183  0  0  0  0.0605  0.0605  0.0605  0.0109108  0.00691565  -0.0173832  0.00629721  -0.00239102  0.00550346  -0.00684893  0.0338854  -0.0216674  0.0559768  -0.0293852  -0.0755217 
1703170018.228607000  0  0  11.7143  0.0570348  -0.204453  0.0223841  nan  nan  nan  nan  nan  nan  -2.49993  -0.299927  1.00007  0.00754959  -0.021777  -0.010281  0.0025348  0.0025348  0.0025348  0  0  0  0.066125  0.066125  0.066125  0.0108943  0.00695415  -0.0173372  0.00747218  -0.00104734  0.00402308  -0.00814671  0.0347015  -0.0214452  -0.0285743  0.0391798  -0.0231446 
1703170018.233087000  0  0  11.7246  0.0500363  -0.184663  0.0216742  nan  nan  nan  nan  nan  nan  -2.49991  -0.299914  1.00009  0.00693022  -0.0196704  -0.0102745  0.00288  0.00288  0.00288  0  0  0  0.072  0.072  0.072  0.010898  0.00694867  -0.0173263  0.00539675  -0.00105931  0.00377182  -0.00755161  0.0325982  -0.0214009  -0.020414  0.0209424  -0.0147466 
1703170018.238095000  0  0  11.7233  0.0328013  -0.173751  0.0253494  nan  nan  nan  nan  nan  nan  -2.4999  -0.299898  1.0001  0.00586769  -0.0189399  -0.0102739  0.0032552  0.0032552  0.003255  0  0  0  0.078125  0.078125  0.0779792  0.0108723  0.00698286  -0.0172736  0.0052686  -0.00177968  0.00425332  -0.00633572  0.0316915  -0.021966  0.0025541  0.00797631  -0.0541766 
1703170018.243088000  0  0  11.7297  0.0520387  -0.202742  0.0239686  nan  nan  nan  nan  nan  nan  -2.49988  -0.299881  1.00012  0.00594622  -0.0199206  -0.0103088  0.0036617  0.0036617  0.0036594  0  0  0  0.0845  0.0845  0.0837224  0.0109147  0.00698462  -0.0172536  0.00733544  -0.000847674  0.00418888  -0.00684103  0.0332296  -0.0220097  -0.0328825  0.0524444  -0.0362756 
1703170018.248095000  0  0  11.7777  0.0644965  -0.201714  0.0218958  nan  nan  nan  nan  nan  nan  -2.49986  -0.299862  1.00014  0.0058416  -0.0170641  -0.0103211  0.0041006  0.0041006  0.0040918  0  0  0  0.091125  0.091125  0.0892156  0.0108314  0.00704049  -0.0172466  0.00466396  -0.000203834  0.00122945  -0.00717503  0.0308639  -0.0218766  -0.0557526  0.0774569  -0.0118001 
1703170018.253606000  0  0  11.7242  0.0435741  -0.174015  0.0255523  nan  nan  nan  nan  nan  nan  -2.49984  -0.29984  1.00016  0.00443359  -0.0159584  -0.0103268  0.0045733  0.0045733  0.0045511  0  0  0  0.098  0.098  0.0944588  0.0107881  0.0070856  -0.0171713  0.00406805  -0.00135331  0.00531835  -0.00576365  0.0295219  -0.0224174  -0.0271268  0.0335019  -0.0512886 
1703170018.258093000  0  0  11.7591  0.0569127  -0.198553  0.026298  nan  nan  nan  nan  nan  nan  -2.49982  -0.299816  1.00018  0.0044206  -0.0168075  -0.0103688  0.005081  0.005081  0.005036  0  0  0  0.105125  0.105125  0.099452  0.0108271  0.00708878  -0.0171672  0.00611665  -0.000436062  0.00321198  -0.00614367  0.0309138  -0.0227209  -0.0513562  0.0701045  -0.0570121 
1703170018.263089000  0  0  11.8148  0.0812046  -0.200545  0.0220409  nan  nan  nan  nan  nan  nan  -2.49979  -0.299789  1.00021  0.00478632  -0.013696  -0.0104026  0.005625  0.005625  0.0055452  0  0  0  0.1125  0.1125  0.104195  0.0107403  0.00715722  -0.0171621  0.0031985  0.000912302  -0.000359856  -0.00723728  0.0284686  -0.0223847  -0.0908629  0.102506  -0.00750131 
1703170018.268096000  0  0  11.7802  0.0498432  -0.177003  0.0262402  nan  nan  nan  nan  nan  nan  -2.49976  -0.299759  1.00024  0.00274423  -0.0133398  -0.0104203  0.0062065  0.0062065  0.0060775  0  0  0  0.120125  0.120125  0.108688  0.0107612  0.00714422  -0.01713  0.00357534  -0.000840152  0.00240651  -0.00516228  0.0280882  -0.0229145  -0.0474877  0.0564028  -0.0539526 
1703170018.273092000  0  0  11.8384  0.0711455  -0.188424  0.0273291  nan  nan  nan  nan  nan  nan  -2.49973  -0.299727  1.00027  0.00427834  -0.0112038  -0.0104828  0.0068267  0.0068267  0.0066317  0  0  0  0.128  0.128  0.112932  0.0103862  0.00750177  -0.0173138  0.00286411  0.00133187  -0.000992091  -0.00717136  0.0264859  -0.0233501  -0.0700519  0.0993252  -0.0624021 
1703170018.278082000  0  0  11.8707  0.0950609  -0.185126  0.0232435  nan  nan  nan  nan  nan  nan  -2.49969  -0.299691  1.00031  0.00416304  -0.00887591  -0.0105277  0.0074869  0.0074869  0.0072064  0  0  0  0.136125  0.136125  0.116925  0.0103748  0.00751896  -0.017336  0.000813981  0.00224442  -0.00290727  -0.00789882  0.0248528  -0.0230157  -0.112963  0.111042  -0.0150266 
1703170018.283089000  0  0  11.8222  0.0679113  -0.154299  0.0266758  nan  nan  nan  nan  nan  nan  -2.49965  -0.299652  1.00034  0.00317754  -0.00645395  -0.0105718  0.0081883  0.0081883  0.0078005  0  0  0  0.1445  0.1445  0.120668  0.0100597  0.00774766  -0.0173808  -0.000563714  0.00136595  0.000973851  -0.00693895  0.0222959  -0.023541  -0.0657907  0.0743566  -0.0518806 
1703170018.288093000  0  0  11.91  0.0855089  -0.169349  0.0266933  nan  nan  nan  nan  nan  nan  -2.49961  -0.299609  1.00038  0.00420428  -0.00432355  -0.0106351  0.0089323  0.0089323  0.0084127  0  0  0  0.153125  0.153125  0.124161  0.00977331  0.00803171  -0.0175629  -0.001467  0.00317426  -0.00460277  -0.00846527  0.0209697  -0.0238136  -0.085965  0.121883  -0.0488142 
1703170018.293091000  0  0  11.8971  0.095276  -0.169332  0.0235863  nan  nan  nan  nan  nan  nan  -2.49956  -0.299563  1.00043  0.00368152  -0.00280533  -0.0106979  0.00972  0.00972  0.0090417  0  0  0  0.162  0.162  0.127404  0.00975495  0.00805458  -0.0175734  -0.00234628  0.00357644  -0.00338965  -0.0086061  0.0202062  -0.0235344  -0.105288  0.130631  -0.0130874 
1703170018.298092000  0  0  11.8778  0.0739995  -0.164373  0.0258416  nan  nan  nan  nan  nan  nan  -2.49951  -0.299512  1.00047  0.00257327  -0.00112533  -0.0107665  0.0105527  0.0105527  0.0096863  0  0  0  0.171125  0.171125  0.130398  0.00960396  0.0081939  -0.0175076  -0.00304431  0.00288011  -0.00189029  -0.00764399  0.0189578  -0.0238839  -0.0707343  0.13436  -0.0372507 
1703170018.303092000  0  0  11.89  0.0724744  -0.170303  0.0253985  nan  nan  nan  nan  nan  nan  -2.49946  -0.299457  1.00052  0.00157362  -0.000273149  -0.0108454  0.0114317  0.0114317  0.0103453  0  0  0  0.1805  0.1805  0.133141  0.00959572  0.00821034  -0.0175231  -0.00296894  0.00271219  -0.00250435  -0.00702022  0.0189675  -0.0239188  -0.0746401  0.146964  -0.0312554 
1703170018.308096000  0  0  11.9249  0.0732668  -0.16929  0.0240026  nan  nan  nan  nan  nan  nan  -2.4994  -0.299398  1.00058  0.00164786  0.00160827  -0.0109292  0.0123581  0.0123581  0.0110173  0  0  0  0.190125  0.190125  0.135634  0.00936087  0.00843175  -0.0176746  -0.00362536  0.00349123  -0.00444927  -0.00737131  0.0178667  -0.0238228  -0.0723002  0.157456  -0.0148493 
1703170018.313090000  0  0  11.9226  0.063539  -0.17305  0.0240999  nan  nan  nan  nan  nan  nan  -2.49933  -0.299333  1.00063  0.00065334  0.00438229  -0.0110216  0.0133333  0.0133333  0.0117012  0  0  0  0.2  0.2  0.137877  0.00914209  0.00861418  -0.0177811  -0.00554034  0.00294833  -0.00385309  -0.00651799  0.0162044  -0.0238498  -0.0612582  0.184643  -0.0157489 
1703170018.318095000  0  0  11.9053  0.0317772  -0.159498  0.0262243  nan  nan  nan  nan  nan  nan  -2.49926  -0.299264  1.00069  -0.00115525  0.00515075  -0.0111288  0.0143585  0.0143585  0.0123957  0  0  0  0.210125  0.210125  0.13987  0.00911861  0.00862326  -0.0177861  -0.0052149  0.00178041  -0.00243306  -0.00448063  0.0160531  -0.0240953  -0.0165917  0.157323  -0.0395194 
1703170018.323089000  0  0  11.9908  0.0437516  -0.182443  0.0250216  nan  nan  nan  nan  nan  nan  -2.49919  -0.29919  1.00076  -0.00120355  0.00641621  -0.0112346  0.015435  0.015435  0.0130995  0  0  0  0.2205  0.2205  0.141613  0.00894556  0.00879794  -0.017944  -0.00516254  0.00259638  -0.00803492  -0.00467581  0.0161095  -0.0240812  -0.0400223  0.205874  -0.0245565 
1703170018.328561000  0  0  11.9654  0.0319602  -0.180044  0.0235634  nan  nan  nan  nan  nan  nan  -2.49911  -0.29911  1.00083  -0.00274534  0.00926344  -0.0113624  0.016564  0.016564  0.0138114  0  0  0  0.231125  0.231125  0.143107  0.00877244  0.00893834  -0.0180221  -0.00721337  0.00151727  -0.00589969  -0.00316268  0.014617  -0.0238972  -0.032146  0.217901  -0.00842611 
1703170018.333081000  0  0  11.9563  -0.0055707  -0.164323  0.0279696  nan  nan  nan  nan  nan  nan  -2.49902  -0.299024  1.0009  -0.00489317  0.00991063  -0.0115016  0.0177467  0.0177467  0.0145301  0  0  0  0.242  0.242  0.14435  0.00873552  0.00893022  -0.0180442  -0.0065939  2.15583e-05  -0.00508882  -0.000554131  0.0145605  -0.0243802  0.0183199  0.18484  -0.0580448 
1703170018.338089000  0  0  12.0398  0.0223883  -0.196401  0.0263533  nan  nan  nan  nan  nan  nan  -2.49893  -0.298932  1.00097  -0.00490658  0.0114357  -0.0116314  0.0189844  0.0189844  0.0152545  0  0  0  0.253125  0.253125  0.145343  0.00858104  0.00906852  -0.0181731  -0.00690883  0.00105837  -0.0106669  -0.000980571  0.0147325  -0.0243932  -0.0367252  0.251645  -0.0375508 
1703170018.343082000  0  0  11.9611  0.00860537  -0.187506  0.0249426  nan  nan  nan  nan  nan  nan  -2.49883  -0.298834  1.00105  -0.00762979  0.0132346  -0.0118045  0.0202783  0.0202783  0.0159831  0  0  0  0.2645  0.2645  0.146086  0.00853738  0.00906018  -0.0181674  -0.00771205  -0.00110637  -0.00498174  0.00155644  0.0141596  -0.0241719  -0.0363578  0.239163  -0.0224683 
1703170018.348088000  0  0  11.9802  -0.0164808  -0.180416  0.0284692  nan  nan  nan  nan  nan  nan  -2.49873  -0.298729  1.00113  -0.00866534  0.0145431  -0.011964  0.0216298  0.0216298  0.0167149  0  0  0  0.276125  0.276125  0.146579  0.0084169  0.00916905  -0.0182452  -0.00769753  -0.00130732  -0.00611605  0.00296439  0.0138752  -0.024634  0.00123552  0.227233  -0.0612703 
1703170018.353040000  0  0  12.0141  0.021857  -0.209805  0.024804  nan  nan  nan  nan  nan  nan  -2.49862  -0.298618  1.00122  -0.00975539  0.0154173  -0.012129  0.02304  0.02304  0.0174485  0  0  0  0.288  0.288  0.146823  0.00838331  0.00917057  -0.0183043  -0.0073281  -0.00127464  -0.00837672  0.00310094  0.0147795  -0.0242931  -0.0825411  0.279845  -0.019264 
1703170018.358090000  0  0  11.9317  0.0075604  -0.203993  0.0251217  nan  nan  nan  nan  nan  nan  -2.4985  -0.298499  1.00131  -0.0121778  0.017176  -0.0123347  0.0245102  0.0245102  0.0181827  0  0  0  0.300125  0.300125  0.146816  0.00830325  0.00918966  -0.0181275  -0.00782259  -0.00294434  -0.00284158  0.00501331  0.014347  -0.0241759  -0.0738861  0.272359  -0.0246738 
1703170018.363082000  0  0  11.9411  0.00188895  -0.201569  0.0283386  nan  nan  nan  nan  nan  nan  -2.49837  -0.298372  1.0014  -0.0128155  0.0192156  -0.012525  0.0260417  0.0260417  0.0189163  0  0  0  0.3125  0.3125  0.146559  0.00822801  0.00925173  -0.0180152  -0.00882404  -0.00234141  -0.00371487  0.00520469  0.0135957  -0.024555  -0.0639268  0.275805  -0.0605794 
1703170018.368090000  0  0  11.9341  0.0357571  -0.220079  0.025458  nan  nan  nan  nan  nan  nan  -2.49824  -0.298238  1.00149  -0.0144465  0.0196017  -0.0127212  0.0276356  0.0276356  0.0196479  0  0  0  0.325125  0.325125  0.146052  0.00820179  0.00924155  -0.0180258  -0.00763401  -0.00287516  -0.00322948  0.0055961  0.0149189  -0.0242499  -0.141051  0.300272  -0.0280135 
1703170018.373088000  0  0  11.8957  0.0270583  -0.2271  0.025585  nan  nan  nan  nan  nan  nan  -2.4981  -0.298096  1.00159  -0.0164739  0.0211943  -0.0129529  0.0292933  0.0292933  0.0203764  0  0  0  0.338  0.338  0.145295  0.00813098  0.00926108  -0.0178956  -0.00787692  -0.00392213  -0.000791797  0.00678821  0.0149777  -0.0241436  -0.136113  0.31465  -0.0308925 
1703170018.378604000  0  0  11.8973  0.0319361  -0.216545  0.0259047  nan  nan  nan  nan  nan  nan  -2.49795  -0.297945  1.0017  -0.0169177  0.0236471  -0.0131756  0.031016  0.031016  0.0211004  0  0  0  0.351125  0.351125  0.144289  0.00804352  0.0093381  -0.0179804  -0.00928574  -0.00297161  -0.000744168  0.00625073  0.0141896  -0.02411  -0.140389  0.301085  -0.03532 
1703170018.383083000  0  0  11.9143  0.0492272  -0.228413  0.0249557  nan  nan  nan  nan  nan  nan  -2.49779  -0.297786  1.00181  -0.0190299  0.0237142  -0.013405  0.032805  0.032805  0.0218188  0  0  0  0.3645  0.3645  0.143032  0.00800464  0.00930438  -0.0180121  -0.00759551  -0.00404459  -0.00197654  0.00714792  0.0155989  -0.0238983  -0.187787  0.310319  -0.0259309 
1703170018.388097000  0  0  11.931  0.0595655  -0.231597  0.0249576  nan  nan  nan  nan  nan  nan  -2.49762  -0.297617  1.00192  -0.0200127  0.0261434  -0.0136612  0.0346615  0.0346615  0.0225303  0  0  0  0.378125  0.378125  0.141525  0.00788531  0.00939058  -0.0181286  -0.00887908  -0.00382881  -0.00296798  0.00678478  0.0150617  -0.0237301  -0.205777  0.323327  -0.0279825 
1703170018.393096000  0  0  11.8513  0.0488873  -0.20534  0.0261107  nan  nan  nan  nan  nan  nan  -2.49744  -0.297439  1.00203  -0.0217836  0.028319  -0.0139456  0.0365867  0.0365867  0.0232337  0  0  0  0.392  0.392  0.139768  0.00783299  0.009374  -0.018089  -0.00967573  -0.00414401  0.0025585  0.00770767  0.0140008  -0.0237681  -0.193498  0.279231  -0.0420337 
1703170018.398096000  0  0  11.9274  0.0671831  -0.230694  0.0267146  nan  nan  nan  nan  nan  nan  -2.49725  -0.297251  1.00215  -0.0227661  0.028445  -0.0141731  0.0385819  0.0385819  0.0239276  0  0  0  0.406125  0.406125  0.137761  0.00774422  0.0094647  -0.0182346  -0.00801334  -0.00406959  -0.00270358  0.00708571  0.015764  -0.0237488  -0.225574  0.313312  -0.0498645 
1703170018.403555000  0  0  11.9095  0.0764519  -0.236089  0.0251725  nan  nan  nan  nan  nan  nan  -2.49705  -0.297053  1.00227  -0.0242645  0.0313086  -0.0144884  0.0406483  0.0406483  0.0246109  0  0  0  0.4205  0.4205  0.135505  0.00768219  0.0094878  -0.0182504  -0.00985848  -0.00418519  -0.00146954  0.00696906  0.0149016  -0.0235011  -0.244106  0.3348  -0.0334476 
1703170018.408096000  0  0  11.8408  0.049143  -0.201334  0.0271055  nan  nan  nan  nan  nan  nan  -2.49684  -0.296844  1.00239  -0.0264908  0.0332121  -0.0148179  0.0427873  0.0427873  0.0252822  0  0  0  0.435125  0.435125  0.132998  0.00761781  0.00944855  -0.0182214  -0.0101522  -0.00494894  0.00324844  0.00858713  0.0137875  -0.023616  -0.204164  0.273094  -0.0563833 
1703170018.413094000  0  0  11.9335  0.0686182  -0.228854  0.0262075  nan  nan  nan  nan  nan  nan  -2.49662  -0.296625  1.00252  -0.0280952  0.0338698  -0.0151053  0.045  0.045  0.0259404  0  0  0  0.45  0.45  0.130241  0.00755705  0.00945407  -0.0182737  -0.00932738  -0.00546704  -0.00340664  0.00856915  0.0150118  -0.0234917  -0.245717  0.318019  -0.0465826 
1703170018.418161000  0  0  11.8817  0.0608191  -0.210595  0.0247483  nan  nan  nan  nan  nan  nan  -2.49639  -0.296394  1.00265  -0.0304781  0.0364327  -0.015486  0.0472877  0.0472877  0.0265842  0  0  0  0.465125  0.465125  0.127234  0.00750236  0.00942616  -0.0182496  -0.0105497  -0.00642648  0.0001176  0.00975034  0.0138668  -0.023174  -0.242582  0.29204  -0.0320527 
1703170018.423090000  0  0  11.8646  0.0460635  -0.191246  0.0268676  nan  nan  nan  nan  nan  nan  -2.49615  -0.296152  1.00279  -0.0315609  0.038727  -0.015826  0.0496517  0.0496517  0.0272124  0  0  0  0.4805  0.4805  0.123977  0.00734475  0.00955379  -0.0184122  -0.0111802  -0.00611802  0.00151673  0.00994223  0.012699  -0.0233202  -0.21315  0.263986  -0.0569557 
1703170018.428603000  0  0  11.9568  0.0685461  -0.207455  0.0242034  nan  nan  nan  nan  nan  nan  -2.4959  -0.295898  1.00293  -0.0326652  0.0403204  -0.0161552  0.0520931  0.0520931  0.0278236  0  0  0  0.496125  0.496125  0.120471  0.00718996  0.00971971  -0.0186284  -0.0113348  -0.00632878  -0.00477621  0.00926788  0.0130198  -0.0229466  -0.2536  0.295051  -0.0279374 
1703170018.433095000  0  0  11.9123  0.0481074  -0.189862  0.024084  nan  nan  nan  nan  nan  nan  -2.49563  -0.295631  1.00307  -0.0350906  0.0426571  -0.0165756  0.0546133  0.0546133  0.0284166  0  0  0  0.512  0.512  0.116714  0.0071057  0.0096648  -0.0186299  -0.0120741  -0.00717543  -0.00176732  0.0108663  0.0117937  -0.0226894  -0.228164  0.271432  -0.0295346 
1703170018.438096000  0  0  11.9205  0.0500363  -0.182506  0.0245785  nan  nan  nan  nan  nan  nan  -2.49535  -0.295351  1.00321  -0.036149  0.0454901  -0.0169701  0.0572135  0.0572135  0.0289903  0  0  0  0.528125  0.528125  0.112707  0.00692237  0.0098068  -0.0187697  -0.0134063  -0.00685086  -0.00223631  0.0107896  0.0104586  -0.0225901  -0.231418  0.27102  -0.0369545 
1703170018.443073000  0  0  11.9413  0.0423539  -0.185017  0.0239995  nan  nan  nan  nan  nan  nan  -2.49506  -0.295059  1.00336  -0.0392919  0.0465755  -0.0174089  0.059895  0.059895  0.0295433  0  0  0  0.5445  0.5445  0.10845  0.00686693  0.00975996  -0.0188015  -0.0127867  -0.00892479  -0.00386491  0.0126984  0.0108093  -0.0222839  -0.236904  0.272368  -0.03336 
1703170018.448096000  0  0  11.9136  0.0312592  -0.18098  0.0242126  nan  nan  nan  nan  nan  nan  -2.49475  -0.294752  1.00351  -0.0403439  0.0491353  -0.0178206  0.062659  0.062659  0.0300744  0  0  0  0.561125  0.561125  0.103943  0.00673049  0.00989051  -0.018651  -0.013619  -0.00833679  -0.00243521  0.0128514  0.00948587  -0.0222431  -0.214874  0.278939  -0.0365334 
1703170018.453602000  0  0  11.9087  0.0404423  -0.174284  0.0220941  nan  nan  nan  nan  nan  nan  -2.49443  -0.294432  1.00366  -0.0418728  0.0524763  -0.0183013  0.0655067  0.0655067  0.0305823  0  0  0  0.578  0.578  0.0991865  0.00655752  0.0100342  -0.0187701  -0.0155227  -0.00848089  -0.00201935  0.0129758  0.00793007  -0.0217661  -0.235996  0.282479  -0.0156277 
1703170018.458045000  0  0  11.9263  0.0139394  -0.163599  0.0235602  nan  nan  nan  nan  nan  nan  -2.4941  -0.294097  1.00381  -0.0455373  0.0538309  -0.0188273  0.0684394  0.068439  0.0310658  0  0  0  0.595125  0.594911  0.0941797  0.0064672  0.00994573  -0.0188057  -0.0150952  -0.0110575  -0.00343352  0.0158707  0.00764453  -0.0215831  -0.212471  0.262852  -0.0362801 
1703170018.463088000  0  0  11.9493  0.0274468  -0.188123  0.0226464  nan  nan  nan  nan  nan  nan  -2.49375  -0.293747  1.00397  -0.045993  0.05659  -0.0192568  0.0714583  0.0714554  0.0315237  0  0  0  0.6125  0.611572  0.0889229  0.0062847  0.0100614  -0.0189337  -0.0162686  -0.00982905  -0.00506682  0.0151009  0.00705716  -0.0213497  -0.232578  0.322195  -0.0275956 
1703170018.468095000  0  0  11.8716  0.017984  -0.167545  0.0216189  nan  nan  nan  nan  nan  nan  -2.49338  -0.293382  1.00413  -0.0493419  0.059691  -0.0198839  0.0745648  0.0745544  0.0319546  0  0  0  0.630125  0.627984  0.0834161  0.00619163  0.0100052  -0.0189108  -0.0175265  -0.0115591  0.000215062  0.0172098  0.00535324  -0.0208496  -0.236549  0.297673  -0.0206956 
1703170018.473091000  0  0  11.8892  -0.0129137  -0.166898  0.026244  nan  nan  nan  nan  nan  nan  -2.493  -0.293002  1.00429  -0.0519637  0.0607043  -0.0203839  0.07776  0.0777348  0.0323574  0  0  0  0.647955  0.644146  0.0776593  0.0060609  0.0100882  -0.0186959  -0.0164153  -0.0132913  -0.001814  0.0192132  0.00558137  -0.0212394  -0.193345  0.293661  -0.0741915 
1703170018.477106000  0  0  11.9073  -0.00324144  -0.182944  0.0249169  nan  nan  nan  nan  nan  nan  -2.4926  -0.292605  1.00445  -0.0540814  0.0635187  -0.0209617  0.081044  0.0809954  0.0327308  0  0  0  0.665619  0.660058  0.0716736  0.00590676  0.00996785  -0.0187444  -0.0177312  -0.0137397  -0.00325144  0.0202095  0.00450021  -0.0209379  -0.225546  0.340505  -0.0611283 
1703170018.483088000  0  0  11.8043  -0.00474085  -0.165426  0.0236433  nan  nan  nan  nan  nan  nan  -2.49219  -0.292192  1.00461  -0.0563981  0.0668616  -0.0216007  0.0844157  0.0843349  0.0330744  0  0  0  0.683032  0.67572  0.0658122  0.00578011  0.0101053  -0.018485  -0.0189553  -0.0144378  0.00331308  0.0210885  0.00284567  -0.0206908  -0.232443  0.321977  -0.0480816 
1703170018.488095000  0  0  11.851  -0.018846  -0.1749  0.027169  nan  nan  nan  nan  nan  nan  -2.49176  -0.291761  1.00478  -0.0585714  0.0680129  -0.0221231  0.0878739  0.0877522  0.0333894  0  0  0  0.700196  0.691132  0.0602008  0.00561938  0.0101453  -0.0185265  -0.0182711  -0.0157062  -0.000221011  0.0223644  0.00352155  -0.0209841  -0.216877  0.334516  -0.0889069 
1703170018.493081000  0  0  11.8119  0.00178634  -0.193443  0.0243203  nan  nan  nan  nan  nan  nan  -2.49131  -0.291314  1.00495  -0.060386  0.0699335  -0.0226784  0.0914173  0.0912458  0.0336769  0  0  0  0.71711  0.706294  0.0548394  0.00552772  0.0100789  -0.0185082  -0.0181692  -0.0156226  0.00227269  0.0225535  0.00373385  -0.0205882  -0.263294  0.371835  -0.0578363 
1703170018.498039000  0  0  11.7864  0.000459361  -0.186062  0.0233703  nan  nan  nan  nan  nan  nan  -2.49085  -0.290849  1.00512  -0.063076  0.0729283  -0.0233775  0.0950446  0.0948147  0.0339382  0  0  0  0.733773  0.721205  0.0497281  0.00534821  0.0101006  -0.018503  -0.0194427  -0.0170411  0.00394958  0.0238657  0.0026171  -0.0202449  -0.275544  0.368854  -0.0500211 
1703170018.503035000  0  0  11.8307  -0.01341  -0.18459  0.0252015  nan  nan  nan  nan  nan  nan  -2.49036  -0.290366  1.00529  -0.0658714  0.0741117  -0.023988  0.0987546  0.0984575  0.0341746  0  0  0  0.750187  0.735867  0.0448667  0.00525059  0.0100081  -0.0185196  -0.0191211  -0.0188772  0.000644057  0.0254289  0.00318327  -0.0202051  -0.263788  0.359184  -0.0735411 
1703170018.508088000  0  0  11.8088  0.0131636  -0.205284  0.0235358  nan  nan  nan  nan  nan  nan  -2.48986  -0.289864  1.00546  -0.0668938  0.0755345  -0.0244935  0.102546  0.102173  0.0343873  0  0  0  0.76635  0.750279  0.0402553  0.00509113  0.0100557  -0.0185197  -0.0183493  -0.0182412  0.00197803  0.0246168  0.00404619  -0.0199776  -0.311426  0.39363  -0.0553257 
1703170018.513089000  0  0  11.8102  0.0209289  -0.206702  0.0222075  nan  nan  nan  nan  nan  nan  -2.48934  -0.289344  1.00563  -0.0693388  0.0790608  -0.0252637  0.106418  0.10596  0.0345775  0  0  0  0.782264  0.764441  0.0358939  0.00492263  0.0100389  -0.018472  -0.0207095  -0.0194655  0.00178231  0.025273  0.00271345  -0.0195764  -0.335626  0.412004  -0.0434487 
1703170018.518090000  0  0  11.8063  0.00426328  -0.192191  0.0252612  nan  nan  nan  nan  nan  nan  -2.48879  -0.288804  1.00581  -0.0723071  0.0801959  -0.0259281  0.110368  0.109817  0.0347466  0  0  0  0.797928  0.778353  0.0317825  0.00482175  0.00993367  -0.0184691  -0.0200096  -0.0212337  0.00193657  0.0267652  0.00322713  -0.019619  -0.317057  0.374978  -0.0813572 
1703170018.523083000  0  0  11.8112  0.0391937  -0.22875  0.023468  nan  nan  nan  nan  nan  nan  -2.48823  -0.288246  1.00598  -0.0730014  0.0807272  -0.0263758  0.114397  0.113743  0.0348958  0  0  0  0.813341  0.792015  0.0279211  0.00466729  0.0099588  -0.0184828  -0.0183662  -0.0204167  0.00140967  0.0252798  0.00524201  -0.0193994  -0.374868  0.430191  -0.0614428 
1703170018.527103000  0  0  11.8227  0.0545006  -0.235046  0.0199374  nan  nan  nan  nan  nan  nan  -2.48765  -0.287667  1.00615  -0.0758855  0.0848802  -0.0272837  0.118501  0.117737  0.0350263  0  0  0  0.828505  0.805427  0.0243098  0.00445511  0.00976141  -0.0185113  -0.0216861  -0.0218585  0.000819716  0.0261447  0.00324046  -0.0185662  -0.417639  0.466717  -0.0270629 
1703170018.533096000  0  0  11.8019  0.0245134  -0.204511  0.0261749  nan  nan  nan  nan  nan  nan  -2.48705  -0.287068  1.00633  -0.0782612  0.0855341  -0.027903  0.122681  0.121797  0.0351393  0  0  0  0.843418  0.818589  0.0209484  0.00442352  0.00981403  -0.0184147  -0.0204416  -0.0232302  0.00199828  0.0267222  0.00437557  -0.0190672  -0.359983  0.388185  -0.0995046 
1703170018.538096000  0  0  11.8268  0.0744316  -0.251039  0.0249818  nan  nan  nan  nan  nan  nan  -2.48642  -0.286449  1.00651  -0.0782013  0.0860558  -0.0283105  0.126935  0.125922  0.0352362  0  0  0  0.858082  0.8315  0.017837  0.00423921  0.00985604  -0.0184621  -0.0189798  -0.021709  0.00016676  0.0240708  0.00667938  -0.019082  -0.436518  0.461448  -0.0843146 
1703170018.543089000  0  0  11.7992  0.0762324  -0.239731  0.0209247  nan  nan  nan  nan  nan  nan  -2.48578  -0.285809  1.00668  -0.0814395  0.0898071  -0.0292737  0.131262  0.130111  0.0353181  0  0  0  0.872495  0.844162  0.0149756  0.00412092  0.00973644  -0.0184333  -0.0217405  -0.0235976  0.00230665  0.0248808  0.00520815  -0.0182288  -0.449697  0.454127  -0.043551 
1703170018.548096000  0  0  11.8273  0.0336079  -0.210755  0.0278448  nan  nan  nan  nan  nan  nan  -2.48511  -0.285148  1.00686  -0.0836588  0.0904477  -0.029912  0.13566  0.134363  0.0353863  0  0  0  0.886659  0.856574  0.0123642  0.00395436  0.00973052  -0.0184923  -0.0207086  -0.0251199  0.000413075  0.0258562  0.00600794  -0.0188719  -0.369522  0.382794  -0.12287 
1703170018.553098000  0  0  11.8674  0.085301  -0.264177  0.0243011  nan  nan  nan  nan  nan  nan  -2.48442  -0.284465  1.00704  -0.0841073  0.0905784  -0.0303543  0.140128  0.138677  0.0354421  0  0  0  0.900573  0.868736  0.0100028  0.0038629  0.00962537  -0.0185185  -0.0192802  -0.0241409  -0.00248096  0.0234744  0.00874224  -0.0185992  -0.452964  0.465887  -0.0815697 
1703170018.558093000  0  0  11.8167  0.0838789  -0.238947  0.0202022  nan  nan  nan  nan  nan  nan  -2.48371  -0.283761  1.00721  -0.0867442  0.0943789  -0.0313206  0.144665  0.14305  0.0354868  0  0  0  0.914236  0.880648  0.0078914  0.00365282  0.00962949  -0.0185242  -0.0216787  -0.0254093  0.00142224  0.0237948  0.00697606  -0.0177879  -0.4536  0.432106  -0.0397756 
1703170018.563089000  0  0  11.8899  0.041766  -0.210177  0.027  nan  nan  nan  nan  nan  nan  -2.48297  -0.283034  1.00739  -0.0883949  0.0952931  -0.0319611  0.14927  0.147483  0.0355215  0  0  0  0.92765  0.89231  0.0060301  0.00347937  0.00961841  -0.0185983  -0.0216096  -0.0266836  -0.00354718  0.024206  0.00743227  -0.0183908  -0.36803  0.365168  -0.11804 
1703170018.568097000  0  0  11.892  0.0865492  -0.245923  0.023242  nan  nan  nan  nan  nan  nan  -2.48222  -0.282286  1.00757  -0.089415  0.09552  -0.0324885  0.153941  0.151973  0.0355475  0  0  0  0.940813  0.903722  0.0044187  0.00339627  0.00950174  -0.0186131  -0.0200645  -0.0261829  -0.00368566  0.0224722  0.00963407  -0.0179805  -0.44411  0.416487  -0.0757024 
1703170018.573096000  0  0  11.8728  0.0734816  -0.227744  0.0203378  nan  nan  nan  nan  nan  nan  -2.48143  -0.281515  1.00775  -0.0919042  0.098708  -0.0334359  0.158677  0.15652  0.0355661  0  0  0  0.953727  0.914883  0.0030573  0.00318471  0.00946797  -0.0186483  -0.0220758  -0.0275535  -0.00192268  0.0229795  0.00831199  -0.0172856  -0.421926  0.392717  -0.0475362 
1703170018.578570000  0  0  11.9259  0.0423797  -0.202582  0.0245717  nan  nan  nan  nan  nan  nan  -2.48063  -0.280721  1.00792  -0.0935903  0.100245  -0.034169  0.163478  0.161121  0.0355785  0  0  0  0.966391  0.925795  0.0019459  0.00309639  0.00946955  -0.0186726  -0.023023  -0.0288023  -0.00544549  0.023185  0.00821384  -0.0176119  -0.3576  0.339891  -0.0968757 
1703170018.583080000  0  0  11.9028  0.0679607  -0.225291  0.0212977  nan  nan  nan  nan  nan  nan  -2.4798  -0.279903  1.0081  -0.0953805  0.099986  -0.0347531  0.168341  0.165777  0.0355859  0  0  0  0.978804  0.936457  0.0010845  0.00294117  0.00926904  -0.0186968  -0.0204546  -0.0289703  -0.00372311  0.0227585  0.0102742  -0.017051  -0.407545  0.364882  -0.0624421 
1703170018.588088000  0  0  11.9169  0.0584923  -0.221112  0.0181477  nan  nan  nan  nan  nan  nan  -2.47895  -0.279063  1.00828  -0.0973602  0.103322  -0.0357111  0.173265  0.170486  0.0355897  0  0  0  0.990968  0.946869  0.0004731  0.0027116  0.00924245  -0.0187664  -0.0231058  -0.0300862  -0.00416872  0.0229606  0.00888775  -0.01631  -0.389568  0.371872  -0.0317401 
1703170018.593089000  0  0  11.9278  0.0130849  -0.182772  0.0214891  nan  nan  nan  nan  nan  nan  -2.47807  -0.278198  1.00846  -0.100273  0.104912  -0.0366142  0.17825  0.175245  0.0355911  0  0  0  1.00288  0.957031  0.0001118  0.0025915  0.0090815  -0.0187923  -0.0237243  -0.0321977  -0.00456173  0.0247373  0.00822914  -0.0161948  -0.312643  0.297237  -0.07517 
1703170018.598091000  0  0  11.9215  0.0293708  -0.206159  0.0211732  nan  nan  nan  nan  nan  nan  -2.47716  -0.27731  1.00864  -0.101234  0.10428  -0.0370987  0.183294  0.180055  0.0355913  0  0  0  1.01454  0.966943  -0  0.00241012  0.00904428  -0.0188423  -0.0208326  -0.031992  -0.00400037  0.0238942  0.0105823  -0.0160368  -0.337865  0.320313  -0.0731007 
1703170018.603626000  0  0  11.9573  0.0395152  -0.211792  0.0167321  nan  nan  nan  nan  nan  nan  -2.47623  -0.276398  1.00881  -0.102348  0.107516  -0.0379996  0.188395  0.184914  0.0355913  0  0  0  1.02596  0.976605  -0  0.00224412  0.00904768  -0.0188992  -0.0238809  -0.0323561  -0.00598882  0.023048  0.00947713  -0.0152678  -0.349881  0.345107  -0.0264903 
1703170018.608093000  0  0  11.9196  -0.0136207  -0.154748  0.0225386  nan  nan  nan  nan  nan  nan  -2.47528  -0.275461  1.00899  -0.106126  0.109255  -0.0390529  0.193553  0.189821  0.0355913  0  0  0  1.03712  0.986017  -0  0.00204501  0.00879188  -0.0189159  -0.0240261  -0.0348938  -0.00286572  0.0260526  0.00799512  -0.0153283  -0.270512  0.239839  -0.0988208 
1703170018.613095000  0  0  11.9722  0.0129389  -0.197121  0.0231128  nan  nan  nan  nan  nan  nan  -2.4743  -0.274499  1.00917  -0.10647  0.108435  -0.0394693  0.198766  0.194774  0.0355913  0  0  0  1.04804  0.995178  -0  0.00186185  0.00872076  -0.0189964  -0.0216994  -0.0345532  -0.00642302  0.0246482  0.010631  -0.0154488  -0.311305  0.300375  -0.104593 
1703170018.618090000  0  0  11.9471  0.0245224  -0.191277  0.0176731  nan  nan  nan  nan  nan  nan  -2.47329  -0.273513  1.00935  -0.108675  0.111616  -0.0405274  0.204033  0.199772  0.0355913  0  0  0  1.0587  1.00409  -0  0.00172234  0.0085501  -0.0190066  -0.0241459  -0.0352843  -0.004134  0.0248327  0.00906236  -0.0144814  -0.338265  0.305889  -0.0478099 
1703170018.623088000  0  0  11.9178  -0.0307909  -0.143181  0.0236427  nan  nan  nan  nan  nan  nan  -2.47226  -0.272502  1.00953  -0.111529  0.112642  -0.0414414  0.209353  0.204815  0.0355913  0  0  0  1.06911  1.01275  -0  0.00156401  0.00840376  -0.0189395  -0.0235842  -0.0370883  -0.00190436  0.0270392  0.00825803  -0.0148062  -0.245045  0.212014  -0.119005 
1703170018.628092000  0  0  11.9818  0.0108687  -0.196706  0.0216714  nan  nan  nan  nan  nan  nan  -2.4712  -0.271465  1.0097  -0.112262  0.112029  -0.0419406  0.214724  0.2099  0.0355913  0  0  0  1.07928  1.02116  -0  0.0014591  0.0082274  -0.0189851  -0.0220687  -0.0372292  -0.00627467  0.0256717  0.0108391  -0.0146183  -0.31864  0.297091  -0.0964668 
1703170018.633096000  0  0  11.924  0.0289696  -0.178894  0.0173354  nan  nan  nan  nan  nan  nan  -2.47011  -0.270403  1.00988  -0.11392  0.115501  -0.0430135  0.220145  0.215026  0.0355913  0  0  0  1.08919  1.02933  -0  0.001221  0.00815363  -0.018838  -0.024257  -0.0371181  -0.00201018  0.0252796  0.00844457  -0.0138368  -0.352942  0.286445  -0.0513305 
1703170018.638090000  0  0  11.9236  -0.0058747  -0.15318  0.0227682  nan  nan  nan  nan  nan  nan  -2.469  -0.269315  1.01006  -0.116265  0.116789  -0.0439336  0.225615  0.220192  0.0355913  0  0  0  1.09885  1.03724  -0  0.00100762  0.00800814  -0.0188819  -0.0243645  -0.0386439  -0.00156367  0.0266002  0.0079401  -0.0141395  -0.293421  0.23711  -0.116039 
1703170018.643088000  0  0  11.9504  0.0313251  -0.193558  0.0199934  nan  nan  nan  nan  nan  nan  -2.46785  -0.268201  1.01024  -0.11733  0.116594  -0.0445398  0.231133  0.225398  0.0355913  0  0  0  1.10827  1.0449  -0  0.000888808  0.00782033  -0.0189109  -0.0230316  -0.0388149  -0.00328569  0.0253957  0.00996953  -0.0137649  -0.359329  0.300344  -0.0856414 
1703170018.648091000  0  0  11.9349  0.0392597  -0.18266  0.0172706  nan  nan  nan  nan  nan  nan  -2.46668  -0.267061  1.01042  -0.11857  0.119128  -0.0454952  0.236697  0.230641  0.0355913  0  0  0  1.11743  1.05231  -0  0.000624595  0.00770975  -0.0189488  -0.0245003  -0.0387029  -0.00172507  0.0247356  0.00880042  -0.0131536  -0.368748  0.290426  -0.0587502 
1703170018.653609000  0  0  11.9296  0.023284  -0.173846  0.0209826  nan  nan  nan  nan  nan  nan  -2.46549  -0.265894  1.01059  -0.120086  0.119992  -0.0462969  0.242307  0.235921  0.0355913  0  0  0  1.12634  1.05947  -0  0.000517855  0.00767644  -0.0189662  -0.0243111  -0.0394792  -0.00107604  0.0246497  0.00921232  -0.0133122  -0.333504  0.266787  -0.103545 
1703170018.658078000  0  0  11.9263  0.036766  -0.190244  0.0205086  nan  nan  nan  nan  nan  nan  -2.46426  -0.264701  1.01077  -0.121726  0.119838  -0.0469992  0.24796  0.241235  0.0355913  0  0  0  1.13501  1.06639  -0  0.000294817  0.00737941  -0.0189909  -0.0224661  -0.039817  -0.000654238  0.0244176  0.0106817  -0.0130291  -0.359743  0.285044  -0.100994 
1703170018.663093000  0  0  11.9625  0.0568385  -0.199376  0.0188864  nan  nan  nan  nan  nan  nan  -2.46301  -0.263482  1.01095  -0.122595  0.122144  -0.0479147  0.253657  0.246584  0.0355913  0  0  0  1.14342  1.07305  -0  1.56112e-05  0.00722785  -0.01904  -0.0244036  -0.039872  -0.00272847  0.0231869  0.0100845  -0.0127202  -0.388625  0.311496  -0.0843059 
1703170018.668097000  0  0  11.9271  0.0357069  -0.17932  0.0211111  nan  nan  nan  nan  nan  nan  -2.46172  -0.262235  1.01113  -0.124863  0.123027  -0.0488392  0.259394  0.251965  0.0355913  0  0  0  1.15159  1.07946  -0  -0.000110224  0.0070231  -0.0190295  -0.0239048  -0.0408552  3.81016e-05  0.0238371  0.0101894  -0.0126188  -0.350794  0.267285  -0.113519 
1703170018.673097000  0  0  11.9404  0.0440431  -0.20081  0.022684  nan  nan  nan  nan  nan  nan  -2.46041  -0.260962  1.01131  -0.125663  0.122548  -0.0494189  0.265172  0.257378  0.0355913  0  0  0  1.1595  1.08562  -0  -0.000327581  0.00686809  -0.0190621  -0.0219253  -0.0408113  -0.000792242  0.0228555  0.0122004  -0.0128398  -0.357376  0.290229  -0.130646 
1703170018.677104000  0  0  11.9987  0.0650119  -0.215767  0.0193673  nan  nan  nan  nan  nan  nan  -2.45907  -0.259662  1.01148  -0.127448  0.125223  -0.0505269  0.270989  0.262821  0.0355913  0  0  0  1.16716  1.09153  -0  -0.000702953  0.006449  -0.0191233  -0.0246239  -0.0417202  -0.00425956  0.0226156  0.0111099  -0.0121649  -0.399579  0.334845  -0.0970505 
1703170018.683086000  0  0  11.9614  0.0475456  -0.187923  0.0219844  nan  nan  nan  nan  nan  nan  -2.4577  -0.258334  1.01166  -0.128236  0.125636  -0.0512319  0.276843  0.268293  0.0355913  0  0  0  1.17458  1.09719  -0  -0.00071034  0.0065166  -0.0191177  -0.0237774  -0.0415673  -0.00152037  0.021588  0.0118462  -0.0124365  -0.350304  0.266671  -0.126705 
1703170018.688094000  0  0  11.997  0.0605447  -0.228168  0.0228767  nan  nan  nan  nan  nan  nan  -2.4563  -0.256979  1.01184  -0.12891  0.124927  -0.0517844  0.282734  0.273793  0.0355913  0  0  0  1.18174  1.10261  -0  -0.000845727  0.006343  -0.0190646  -0.0221477  -0.0417366  -0.00412229  0.0202581  0.0142576  -0.0126165  -0.362879  0.325225  -0.135763 
1703170018.693093000  0  0  12.0263  0.0806309  -0.233433  0.0192247  nan  nan  nan  nan  nan  nan  -2.45488  -0.255596  1.01202  -0.129516  0.126626  -0.0526444  0.28866  0.279319  0.0355913  0  0  0  1.18865  1.10777  -0  -0.00096891  0.00614088  -0.019098  -0.0238191  -0.0414492  -0.00582806  0.0186246  0.0142869  -0.0121265  -0.387156  0.336177  -0.0957182 
1703170018.698097000  0  0  11.9899  0.0500571  -0.20195  0.0225694  nan  nan  nan  nan  nan  nan  -2.45342  -0.254185  1.01219  -0.13142  0.127228  -0.0535371  0.29462  0.28487  0.0355913  0  0  0  1.19532  1.11268  -0  -0.00118277  0.00598704  -0.0191112  -0.022849  -0.0422627  -0.00299638  0.0192186  0.0144525  -0.012238  -0.328432  0.266765  -0.136458 
1703170018.703631000  0  0  12.0692  0.0795898  -0.245011  0.0217108  nan  nan  nan  nan  nan  nan  -2.45193  -0.252747  1.01237  -0.130422  0.126732  -0.0539186  0.300613  0.290445  0.0355913  0  0  0  1.20173  1.11734  -0  -0.00128669  0.005987  -0.0191837  -0.022258  -0.0413689  -0.00854004  0.0161228  0.0170873  -0.0124659  -0.356142  0.328787  -0.122908 
1703170018.708092000  0  0  12.054  0.08188  -0.221384  0.018843  nan  nan  nan  nan  nan  nan  -2.45041  -0.251281  1.01255  -0.132131  0.129006  -0.0550183  0.306637  0.296043  0.0355913  0  0  0  1.20789  1.12175  -0  -0.00156449  0.00564978  -0.0192202  -0.0238133  -0.0415992  -0.00695045  0.0160247  0.0158114  -0.0118161  -0.359924  0.292803  -0.0946578 
1703170018.712098000  0  0  12.0221  0.0501175  -0.199248  0.0207129  nan  nan  nan  nan  nan  nan  -2.44886  -0.249787  1.01273  -0.135423  0.130219  -0.0561986  0.312691  0.301662  0.0355913  0  0  0  1.21381  1.12592  -0  -0.00195937  0.0051792  -0.0192584  -0.0234572  -0.0434797  -0.00416202  0.0182148  0.0151951  -0.0114539  -0.317013  0.252427  -0.122552 
1703170018.718093000  0  0  12.0709  0.0740257  -0.231009  0.0204721  nan  nan  nan  nan  nan  nan  -2.44728  -0.248264  1.01291  -0.134179  0.128914  -0.0564502  0.318775  0.307302  0.0355913  0  0  0  1.21947  1.12983  -0  -0.00190741  0.00529665  -0.0193219  -0.0218165  -0.0423501  -0.00771819  0.014932  0.0183758  -0.0117544  -0.330512  0.283939  -0.1159 
1703170018.723082000  0  0  12.0711  0.0721082  -0.206984  0.0196553  nan  nan  nan  nan  nan  nan  -2.44568  -0.246714  1.01308  -0.134913  0.130522  -0.0573582  0.324886  0.31296  0.0355913  0  0  0  1.22488  1.13349  -0  -0.00217122  0.00515771  -0.019385  -0.022757  -0.0421892  -0.00732168  0.0141338  0.0176218  -0.011551  -0.317218  0.241097  -0.108074 
1703170018.728550000  0  0  12.0671  0.0706636  -0.207573  0.0219019  nan  nan  nan  nan  nan  nan  -2.44404  -0.245135  1.01326  -0.135175  0.130533  -0.0579949  0.331023  0.318636  0.0355913  0  0  0  1.23005  1.1369  -0  -0.00227798  0.00515958  -0.0194413  -0.0218527  -0.0419277  -0.00689738  0.0128847  0.0187364  -0.0118444  -0.29975  0.229538  -0.132805 
1703170018.733086000  0  0  12.0752  0.0664857  -0.207654  0.0209389  nan  nan  nan  nan  nan  nan  -2.44237  -0.243527  1.01344  -0.1366  0.130893  -0.0588379  0.337186  0.324329  0.0355913  0  0  0  1.23496  1.14006  -0  -0.00252665  0.00482089  -0.0194933  -0.0213547  -0.0424521  -0.0071595  0.0129384  0.0192687  -0.0115429  -0.291409  0.223589  -0.124321 
1703170018.738085000  0  0  12.104  0.0695555  -0.20071  0.020151  nan  nan  nan  nan  nan  nan  -2.44066  -0.241891  1.01362  -0.137047  0.13204  -0.0596635  0.343372  0.330036  0.0355913  0  0  0  1.23963  1.14298  -0  -0.00274139  0.00463641  -0.0194627  -0.0223295  -0.0423352  -0.0090345  0.0118777  0.018782  -0.0114523  -0.285789  0.214298  -0.115499 
1703170018.743082000  0  0  12.0703  0.0581237  -0.189084  0.0204512  nan  nan  nan  nan  nan  nan  -2.43893  -0.240227  1.0138  -0.138531  0.132235  -0.0605032  0.349582  0.335758  0.0355913  0  0  0  1.24404  1.14564  -0  -0.00284619  0.0044221  -0.0194827  -0.0214185  -0.0427491  -0.00645476  0.0120772  0.0192444  -0.011264  -0.263571  0.184049  -0.121547 
1703170018.748086000  0  0  12.074  0.0468779  -0.181006  0.0202713  nan  nan  nan  nan  nan  nan  -2.43717  -0.238534  1.01397  -0.139134  0.13264  -0.0612582  0.355812  0.341492  0.0355913  0  0  0  1.2482  1.14805  -0  -0.00309529  0.00430308  -0.0195482  -0.0209498  -0.0428027  -0.00645879  0.0116575  0.019443  -0.0111397  -0.234629  0.164444  -0.120782 
1703170018.753087000  0  0  12.1262  0.0536512  -0.186178  0.0188371  nan  nan  nan  nan  nan  nan  -2.43537  -0.236812  1.01415  -0.139194  0.13295  -0.061931  0.362063  0.347238  0.0355913  0  0  0  1.25212  1.15021  -0  -0.00321479  0.0040931  -0.0196155  -0.021487  -0.0426348  -0.00991457  0.0104307  0.0199279  -0.0109361  -0.235039  0.169954  -0.105191 
1703170018.758086000  0  0  12.047  0.042681  -0.168044  0.0183676  nan  nan  nan  nan  nan  nan  -2.43355  -0.235061  1.01433  -0.14048  0.133775  -0.0628453  0.368333  0.352994  0.0355913  0  0  0  1.25578  1.15212  -0  -0.00345165  0.00397056  -0.0196413  -0.0204227  -0.0423632  -0.00408332  0.0106979  0.019479  -0.0105961  -0.21459  0.136235  -0.103381 
1703170018.763082000  0  0  12.0693  0.0339754  -0.172324  0.0194026  nan  nan  nan  nan  nan  nan  -2.43169  -0.233282  1.01451  -0.14069  0.134276  -0.0635729  0.374621  0.358759  0.0355913  0  0  0  1.25919  1.15378  -0  -0.00370032  0.00384496  -0.0196993  -0.0204632  -0.0422327  -0.00544  0.010096  0.0196437  -0.0105952  -0.188999  0.143519  -0.116415 
1703170018.768088000  0  0  12.0999  0.0384795  -0.171156  0.0190591  nan  nan  nan  nan  nan  nan  -2.4298  -0.231474  1.01469  -0.140765  0.134204  -0.0642047  0.380925  0.364531  0.0355913  0  0  0  1.26236  1.1552  -0  -0.00380518  0.00364014  -0.0197509  -0.02027  -0.0419159  -0.00746249  0.00913359  0.020247  -0.0104962  -0.187585  0.134073  -0.113286 
1703170018.773085000  0  0  12.0396  0.0309637  -0.165479  0.0198052  nan  nan  nan  nan  nan  nan  -2.42788  -0.229637  1.01486  -0.141755  0.134827  -0.0650622  0.387244  0.37031  0.0355913  0  0  0  1.26527  1.15636  -0  -0.00407372  0.00350521  -0.0197604  -0.0192096  -0.0416024  -0.00304943  0.00929022  0.0200655  -0.010376  -0.173272  0.123988  -0.124122 
1703170018.778601000  0  0  12.0793  0.035191  -0.17067  0.0204137  nan  nan  nan  nan  nan  nan  -2.42593  -0.227771  1.01504  -0.140597  0.13547  -0.0656309  0.393577  0.376095  0.0355913  0  0  0  1.26793  1.15727  -0  -0.00419557  0.00355467  -0.0198126  -0.020071  -0.0404569  -0.00575673  0.00729439  0.0200876  -0.0106236  -0.159375  0.134865  -0.128794 
1703170018.783082000  0  0  12.0814  0.0273623  -0.163718  0.0213149  nan  nan  nan  nan  nan  nan  -2.42395  -0.225876  1.01522  -0.141964  0.135569  -0.0664728  0.399923  0.381883  0.0355913  0  0  0  1.27035  1.15793  -0  -0.00448021  0.00317524  -0.0198583  -0.0193613  -0.0410406  -0.00564163  0.00792284  0.020274  -0.0105141  -0.149818  0.117814  -0.141453 
1703170018.788087000  0  0  12.0836  0.0375325  -0.18168  0.0212209  nan  nan  nan  nan  nan  nan  -2.42193  -0.223952  1.0154  -0.142025  0.136139  -0.0672038  0.40628  0.387673  0.0355913  0  0  0  1.27251  1.15834  -0  -0.0047568  0.00304876  -0.0199077  -0.019249  -0.0405487  -0.00562271  0.00707817  0.0206099  -0.0105414  -0.161908  0.152465  -0.139942 
1703170018.793086000  0  0  12.0726  0.0310193  -0.172099  0.0206317  nan  nan  nan  nan  nan  nan  -2.41988  -0.221999  1.01558  -0.142767  0.136691  -0.0680287  0.412647  0.393466  0.0355913  0  0  0  1.27442  1.15851  -0  -0.00486399  0.00284495  -0.01993  -0.0194647  -0.0405876  -0.00465108  0.00704849  0.0205383  -0.0104073  -0.147601  0.132743  -0.134145 
1703170018.798036000  0  0  12.0877  0.0229472  -0.172368  0.0219076  nan  nan  nan  nan  nan  nan  -2.4178  -0.220017  1.01575  -0.142851  0.13621  -0.0686175  0.419024  0.399258  0.0355913  0  0  0  1.27609  1.15842  -0  -0.00514547  0.00269231  -0.019982  -0.0181609  -0.0404445  -0.00565621  0.00658159  0.0213851  -0.0105659  -0.124921  0.123578  -0.148287 
1703170018.803548000  0  0  12.087  0.0604637  -0.211795  0.0197289  nan  nan  nan  nan  nan  nan  -2.41569  -0.218006  1.01593  -0.141384  0.136781  -0.069142  0.425408  0.405049  0.0355913  0  0  0  1.2775  1.15808  -0  -0.00522586  0.00275012  -0.0199993  -0.0185147  -0.0384577  -0.00568881  0.00383341  0.0222953  -0.0106202  -0.17375  0.197648  -0.120219 
1703170018.808087000  0  0  12.0342  0.0338109  -0.174787  0.0208112  nan  nan  nan  nan  nan  nan  -2.41355  -0.215967  1.01611  -0.143106  0.137694  -0.0701605  0.431798  0.410839  0.0355913  0  0  0  1.27867  1.15749  -0  -0.00550326  0.00238732  -0.0200086  -0.0182376  -0.0387799  -0.00166004  0.00509798  0.0213838  -0.0104224  -0.131148  0.128781  -0.136222 
1703170018.813107000  0  0  12.0881  0.037036  -0.206485  0.0228082  nan  nan  nan  nan  nan  nan  -2.41137  -0.213898  1.01629  -0.142473  0.136152  -0.0705026  0.438194  0.416624  0.0355913  0  0  0  1.27958  1.15665  -0  -0.00577032  0.00224524  -0.0200484  -0.0161901  -0.038531  -0.00563471  0.00390442  0.0238118  -0.0108123  -0.124332  0.168817  -0.156649 
1703170018.818041000  0  0  12.0849  0.0687123  -0.233658  0.0187457  nan  nan  nan  nan  nan  nan  -2.40917  -0.2118  1.01647  -0.142279  0.136199  -0.0711335  0.444594  0.422405  0.0355913  0  0  0  1.28024  1.15556  -0  -0.00587989  0.00203503  -0.0200761  -0.0159127  -0.0376366  -0.00539567  0.00238432  0.0250657  -0.01041  -0.174766  0.212656  -0.110382 
1703170018.823099000  0  0  12.0544  0.0299229  -0.181205  0.0216196  nan  nan  nan  nan  nan  nan  -2.40693  -0.209674  1.01664  -0.142887  0.136486  -0.0719105  0.450996  0.428179  0.0355913  0  0  0  1.28066  1.15423  -0  -0.00608256  0.00191736  -0.020067  -0.0153491  -0.0376625  -0.00316631  0.00288609  0.0244947  -0.010578  -0.0973647  0.106753  -0.144516 
1703170018.828571000  0  0  12.1145  0.0612062  -0.230481  0.0222271  nan  nan  nan  nan  nan  nan  -2.40466  -0.207519  1.01682  -0.140802  0.134259  -0.0719614  0.4574  0.433946  0.0355913  0  0  0  1.28082  1.15264  -0  -0.00612543  0.00199201  -0.020121  -0.013035  -0.0363428  -0.00782635  -4.90522e-05  0.0279621  -0.0110912  -0.130677  0.172523  -0.145974 
1703170018.833103000  0  0  12.0766  0.0777086  -0.231984  0.0178328  nan  nan  nan  nan  nan  nan  -2.40235  -0.205334  1.017  -0.141646  0.135535  -0.0729106  0.463804  0.439705  0.0355913  0  0  0  1.28073  1.1508  -0  -0.00641796  0.00162933  -0.0201426  -0.0135721  -0.0358339  -0.00488033  -0.000349147  0.027522  -0.0104044  -0.16261  0.180808  -0.0989626 
1703170018.838056000  0  0  12.0687  0.0446143  -0.196101  0.0218609  nan  nan  nan  nan  nan  nan  -2.40002  -0.203121  1.01718  -0.142017  0.136096  -0.0736952  0.470207  0.445454  0.0355913  0  0  0  1.2804  1.14871  -0  -0.00669369  0.00149634  -0.0201484  -0.0136364  -0.0359072  -0.00419136  -6.82139e-05  0.0268804  -0.0106946  -0.0948794  0.111248  -0.146149 
1703170018.843096000  0  0  12.1046  0.0659963  -0.2316  0.0209767  nan  nan  nan  nan  nan  nan  -2.39765  -0.20088  1.01736  -0.141241  0.133583  -0.0738886  0.476607  0.451192  0.0355913  0  0  0  1.27981  1.14637  -0  -0.00672856  0.00133617  -0.0201985  -0.0107706  -0.0354676  -0.00705507  -0.00165677  0.0302879  -0.010785  -0.122452  0.148166  -0.133934 
1703170018.848109000  0  0  12.0625  0.0755857  -0.225906  0.0180365  nan  nan  nan  nan  nan  nan  -2.39525  -0.19861  1.01753  -0.14064  0.134868  -0.0746423  0.483005  0.456917  0.0355913  0  0  0  1.27897  1.14379  -0  -0.00698837  0.00123296  -0.0201802  -0.0112968  -0.0337683  -0.00407034  -0.00301201  0.0296182  -0.0104698  -0.127423  0.143662  -0.100738 
1703170018.853607000  0  0  12.0641  0.0586341  -0.197474  0.0216424  nan  nan  nan  nan  nan  nan  -2.39282  -0.196311  1.01771  -0.139716  0.134833  -0.0751662  0.489397  0.462629  0.0355913  0  0  0  1.27789  1.14095  -0  -0.00696993  0.00132647  -0.0201746  -0.0114947  -0.0330572  -0.00431029  -0.00410524  0.029591  -0.010967  -0.0784981  0.0830087  -0.140114 
1703170018.858105000  0  0  12.0867  0.0610493  -0.218674  0.0223418  nan  nan  nan  nan  nan  nan  -2.39036  -0.193983  1.01789  -0.140167  0.132892  -0.0756123  0.495783  0.468326  0.0355913  0  0  0  1.27655  1.13786  -0  -0.00724177  0.000941238  -0.0202302  -0.00875324  -0.0334597  -0.00600312  -0.00412469  0.0320055  -0.0110047  -0.0834531  0.10069  -0.14846 
1703170018.863096000  0  0  12.0721  0.0728549  -0.2252  0.019023  nan  nan  nan  nan  nan  nan  -2.38786  -0.191627  1.01807  -0.139119  0.134051  -0.0762874  0.502162  0.474008  0.0355913  0  0  0  1.27496  1.13452  -0  -0.00747226  0.000850189  -0.0202462  -0.00968907  -0.031721  -0.00493226  -0.00574034  0.0314676  -0.010772  -0.0901801  0.120871  -0.109508 
1703170018.868107000  0  0  12.0603  0.0461536  -0.188795  0.0207969  nan  nan  nan  nan  nan  nan  -2.38534  -0.189243  1.01825  -0.139649  0.133982  -0.0770057  0.508532  0.479671  0.0355913  0  0  0  1.27313  1.13093  -0  -0.00751635  0.000688711  -0.0202651  -0.00968615  -0.0321543  -0.0040069  -0.00522661  0.0311843  -0.0108249  -0.0388361  0.0460688  -0.13119 
1703170018.873089000  0  0  12.0747  0.0397134  -0.203862  0.0237134  nan  nan  nan  nan  nan  nan  -2.38278  -0.186831  1.01842  -0.138994  0.132013  -0.0772998  0.514893  0.485316  0.0355913  0  0  0  1.27104  1.1271  -0  -0.00773518  0.000581463  -0.0202487  -0.00690351  -0.0318288  -0.00540298  -0.0058482  0.0332603  -0.0112966  -0.0178759  0.054494  -0.1622 
