ts fx fy fz tx ty tz exfx exfy exfz extx exty extz xd yd zd rolld pitchd yawd vxd vyd vzd wxd wyd wzd axd ayd azd e_x e_y e_z e_vx e_vy e_vz e_rx e_ry e_rz e_wx e_wy e_wz
1699974221.505319000  0  0  12.0028  0.259647  -0.226848  0.000417436  nan  nan  nan  nan  nan  nan  -1  0  1  0.0463763  -0.0593219  -0.00275148  0  0  0  0  0  0  0  0  0  0.0397505  0.0184138  -0.0346123  -0.00894534  0.0208741  0.000410966  -0.0571797  0.0518326  -0.000598727  0.00675888  -0.0231641  0.000769321 
1699974221.509306000  0  0  12.0439  0.247647  -0.23189  0.00071952  nan  nan  nan  nan  nan  nan  -1  0  1  0.0464738  -0.0589006  -0.00273772  0  0  0  0  0  0  0  0  0  0.039715  0.0184947  -0.0346316  -0.00916124  0.0210377  -0.00296977  -0.0570058  0.0514857  -0.000645286  0.0291593  -0.00988965  -0.00254114 
1699974221.514316000  0  0  11.9954  0.245886  -0.219128  0.000823342  nan  nan  nan  nan  nan  nan  -1  0  1  0.0459721  -0.0596933  -0.00274452  0  0  0  0  0  0  0  0  0  0.0397268  0.018437  -0.0346077  -0.00845008  0.0202416  0.00105839  -0.0563833  0.0518904  -0.000641225  0.0269546  -0.0391346  -0.00387952 
1699974221.519307000  0  0  12.0365  0.25371  -0.245557  0.000684972  nan  nan  nan  nan  nan  nan  -1  0  1  0.0456661  -0.0594543  -0.00271533  0  0  0  0  0  0  0  0  0  0.0397184  0.0184062  -0.0346279  -0.00848012  0.0201124  -0.00234157  -0.056166  0.0519937  -0.000654653  0.00930776  0.012772  -0.00201562 
1699974221.524301000  0  0  12.0931  0.237222  -0.262301  0.00113087  nan  nan  nan  nan  nan  nan  -1  0  1  0.0459453  -0.0587936  -0.00270163  0  0  0  0  0  0  0  0  0  0.0396734  0.018507  -0.034672  -0.00889502  0.0205535  -0.0069766  -0.0560502  0.0518254  -0.000743101  0.0412181  0.0478075  -0.00670486 
1699974221.529298000  0  0  12.0212  0.232289  -0.246125  0.00196328  nan  nan  nan  nan  nan  nan  -1  0  1  0.0456442  -0.059606  -0.00272094  0  0  0  0  0  0  0  0  0  0.0396786  0.0184687  -0.0346417  -0.00829148  0.0198645  -0.00101285  -0.0554798  0.0524424  -0.000854095  0.0458358  0.00977922  -0.016 
1699974221.534307000  0  0  12.0343  0.239291  -0.259458  0.00149712  nan  nan  nan  nan  nan  nan  -1  0  1  0.0460592  -0.0593967  -0.00273608  0  0  0  0  0  0  0  0  0  0.0396366  0.0185691  -0.0346588  -0.00838827  0.0202646  -0.00208445  -0.0558016  0.0525385  -0.000871738  0.0347937  0.0355615  -0.00999661 
1699974221.539298000  0  0  12.0962  0.211628  -0.271461  0.00089649  nan  nan  nan  nan  nan  nan  -1  0  1  0.0453363  -0.0589839  -0.00267439  0  0  0  0  0  0  0  0  0  0.0396464  0.0185085  -0.0347242  -0.00856434  0.0197447  -0.0070937  -0.0544347  0.0526079  -0.000888604  0.0775437  0.0589301  -0.00232009 
1699974221.543301000  0  0  12.0325  0.212756  -0.250666  0.000226799  nan  nan  nan  nan  nan  nan  -1  0  1  0.0457187  -0.0590657  -0.00270071  0  0  0  0  0  0  0  0  0  0.0396113  0.0185854  -0.0346994  -0.00879404  0.0197631  -0.00181796  -0.0545004  0.0525075  -0.000802913  0.0758918  0.0182628  0.00519415 
1699974221.549299000  0  0  12.0205  0.222301  -0.247501  0.000293769  nan  nan  nan  nan  nan  nan  -1  0  1  0.0452518  -0.0595422  -0.00269463  0  0  0  0  0  0  0  0  0  0.0396235  0.0185604  -0.0347117  -0.00826573  0.0191306  -0.000765597  -0.0538683  0.0529164  -0.000764265  0.0509871  0.00817042  0.00397055 
1699974221.554302000  0  0  12.099  0.198  -0.272139  0.000853988  nan  nan  nan  nan  nan  nan  -1  0  1  0.0446556  -0.0591855  -0.00264317  0  0  0  0  0  0  0  0  0  0.039652  0.0184975  -0.0347606  -0.00829484  0.0188638  -0.00719975  -0.0526237  0.0530955  -0.000850058  0.0881383  0.0558  -0.00217426 
1699974221.559300000  0  0  12.0608  0.212692  -0.259014  0.000950659  nan  nan  nan  nan  nan  nan  -1  0  1  0.0449339  -0.0592325  -0.00266177  0  0  0  0  0  0  0  0  0  0.0396111  0.0185886  -0.0347578  -0.00839134  0.0188443  -0.0040143  -0.0527551  0.0531445  -0.00087092  0.059964  0.029098  -0.00317404 
1699974221.564298000  0  0  12.0219  0.227726  -0.255787  0.000672242  nan  nan  nan  nan  nan  nan  -1  0  1  0.0446238  -0.0598038  -0.00266885  0  0  0  0  0  0  0  0  0  0.0396246  0.0185263  -0.0347398  -0.00791314  0.0183724  -0.000807895  -0.052511  0.0537082  -0.000844468  0.0276497  0.0174579  4.16551e-05 
1699974221.569300000  0  0  12.0984  0.221228  -0.285484  0.00065315  nan  nan  nan  nan  nan  nan  -1  0  1  0.04426  -0.0594507  -0.00263145  0  0  0  0  0  0  0  0  0  0.0396286  0.0184832  -0.0347975  -0.00788951  0.0183609  -0.00709284  -0.0519244  0.0540629  -0.000870097  0.0352489  0.0735893  0.000536596 
1699974221.574306000  0  0  12.0608  0.227534  -0.269208  0.000981821  nan  nan  nan  nan  nan  nan  -1  0  1  0.044667  -0.0594284  -0.00265469  0  0  0  0  0  0  0  0  0  0.0395882  0.0185729  -0.0347977  -0.00807624  0.0185225  -0.00395805  -0.0522506  0.0540828  -0.00089866  0.0256379  0.0408536  -0.00328616 
1699974221.579298000  0  0  11.9948  0.238445  -0.24711  0.00137098  nan  nan  nan  nan  nan  nan  -1  0  1  0.0446737  -0.0600968  -0.00268491  0  0  0  0  0  0  0  0  0  0.039598  0.0185407  -0.0347642  -0.00764056  0.0182725  0.00148682  -0.0523681  0.0544016  -0.00093168  0.00489667  -0.00627479  -0.00782042 
1699974221.584301000  0  0  12.066  0.237122  -0.265795  0.00179385  nan  nan  nan  nan  nan  nan  -1  0  1  0.0453652  -0.0591534  -0.00268377  0  0  0  0  0  0  0  0  0  0.0395544  0.0186383  -0.0348189  -0.00833161  0.0193408  -0.0043564  -0.0529629  0.0538874  -0.00103243  0.0130143  0.0358268  -0.0120989 
1699974221.589298000  0  0  12.0466  0.230769  -0.246653  0.00198083  nan  nan  nan  nan  nan  nan  -1  0  1  0.0449376  -0.0592938  -0.00266475  0  0  0  0  0  0  0  0  0  0.0395599  0.0185983  -0.0348102  -0.00828779  0.0187575  -0.0027349  -0.0523939  0.0538189  -0.00111208  0.0204855  -0.00182892  -0.0136396 
1699974221.594317000  0  0  11.9521  0.244199  -0.226382  0.000574968  nan  nan  nan  nan  nan  nan  -1  0  1  0.04466  -0.060079  -0.0026833  0  0  0  0  0  0  0  0  0  0.0395719  0.0185363  -0.0347369  -0.0078939  0.0180513  0.00500873  -0.0522944  0.0541089  -0.000965925  -0.00728961  -0.0450369  0.00247215 
1699974221.599299000  0  0  12.0168  0.245297  -0.240328  -0.000553117  nan  nan  nan  nan  nan  nan  -1  0  1  0.0453859  -0.0591583  -0.00268522  0  0  0  0  0  0  0  0  0  0.0395276  0.0186325  -0.0347743  -0.00859182  0.0191319  -0.000323593  -0.0530183  0.0533494  -0.000812651  -0.00282466  -0.010158  0.0150405 
1699974221.604299000  0  0  12.0184  0.242096  -0.230662  -0.000598187  nan  nan  nan  nan  nan  nan  -1  0  1  0.0450085  -0.0590601  -0.00265845  0  0  0  0  0  0  0  0  0  0.0395259  0.0185779  -0.0347467  -0.00871302  0.018757  -0.000503295  -0.0525811  0.0530626  -0.000722972  -0.000445298  -0.0268511  0.0147071 
1699974221.609300000  0  0  11.9394  0.269156  -0.218706  -0.00076631  nan  nan  nan  nan  nan  nan  -1  0  1  0.0457284  -0.0595183  -0.00272196  0  0  0  0  0  0  0  0  0  0.0394862  0.0186707  -0.0346921  -0.00852816  0.0191101  0.005961  -0.0537647  0.0531001  -0.000584289  -0.0436774  -0.0511096  0.0154218 
1699974221.614297000  0  0  11.9967  0.271703  -0.238593  -0.00106885  nan  nan  nan  nan  nan  nan  -1  0  1  0.0455328  -0.0590798  -0.00269036  0  0  0  0  0  0  0  0  0  0.0394915  0.0186143  -0.0347082  -0.00874666  0.0192687  0.00119305  -0.053867  0.0528639  -0.000473109  -0.0478294  -0.00916135  0.0180918 
1699974221.618310000  0  0  12.0203  0.267096  -0.238513  -0.00113246  nan  nan  nan  nan  nan  nan  -1  0  1  0.0460444  -0.0585717  -0.00269726  0  0  0  0  0  0  0  0  0  0.0394542  0.0186928  -0.0347177  -0.00918655  0.0198994  -0.000762298  -0.0544076  0.0523852  -0.00039702  -0.0336413  -0.00491686  0.0181259 
1699974221.624308000  0  0  11.9328  0.287516  -0.226718  -0.000888676  nan  nan  nan  nan  nan  nan  -1  0  1  0.0457734  -0.0595368  -0.00272548  0  0  0  0  0  0  0  0  0  0.0394578  0.0186568  -0.0346477  -0.00848052  0.0191696  0.00637726  -0.0547784  0.0529897  -0.000281123  -0.0710705  -0.0340685  0.0139197 
1699974221.628307000  0  0  11.954  0.287078  -0.23861  -0.000310204  nan  nan  nan  nan  nan  nan  -1  0  1  0.0466111  -0.0591206  -0.00275606  0  0  0  0  0  0  0  0  0  0.0394217  0.0187394  -0.0346464  -0.00880683  0.0202105  0.00457598  -0.0558104  0.0526974  -0.000281337  -0.0607004  -0.00759525  0.00669092 
1699974221.634312000  0  0  11.9895  0.268819  -0.246844  0.000881462  nan  nan  nan  nan  nan  nan  -1  0  1  0.0466677  -0.058529  -0.00273183  0  0  0  0  0  0  0  0  0  0.0393922  0.0187675  -0.034647  -0.00929846  0.0204101  0.00160629  -0.0557939  0.052338  -0.000417128  -0.0243329  0.012179  -0.00684699 
1699974221.638336000  0  0  11.9294  0.27274  -0.22758  0.00105161  nan  nan  nan  nan  nan  nan  -1  0  1  0.0463011  -0.0591371  -0.00273847  0  0  0  0  0  0  0  0  0  0.0394069  0.0187131  -0.0345943  -0.00891681  0.0197302  0.00652226  -0.0556596  0.0525687  -0.000433796  -0.0334112  -0.0284719  -0.00880722 
1699974221.644252000  0  0  11.9664  0.259386  -0.234842  0.000123982  nan  nan  nan  nan  nan  nan  -1  0  1  0.0463472  -0.058992  -0.00273448  0  0  0  0  0  0  0  0  0  0.0394023  0.0187227  -0.0346089  -0.00885668  0.0199604  0.00347379  -0.0556326  0.0523339  -0.000363351  -0.00695262  -0.0117879  0.00208373 
1699974221.648422000  0  0  12.0204  0.247535  -0.245872  0.000168649  nan  nan  nan  nan  nan  nan  -1  0  1  0.0465475  -0.0582503  -0.00271182  0  0  0  0  0  0  0  0  0  0.0393619  0.0188055  -0.0346299  -0.00940628  0.0203249  -0.000986788  -0.0556105  0.0518454  -0.000380218  0.016546  0.0147666  0.00169407 
1699974221.654314000  0  0  11.9614  0.24602  -0.226074  0.000714119  nan  nan  nan  nan  nan  nan  -1  0  1  0.0462405  -0.0590971  -0.00273303  0  0  0  0  0  0  0  0  0  0.0393852  0.0187758  -0.0345756  -0.00871423  0.0196728  0.00385189  -0.055223  0.0522661  -0.000401238  0.0160114  -0.0287001  -0.00491411 
1699974221.658321000  0  0  11.9538  0.250522  -0.232105  0.000593544  nan  nan  nan  nan  nan  nan  -1  0  1  0.0468567  -0.0590672  -0.0027681  0  0  0  0  0  0  0  0  0  0.0393508  0.0188573  -0.0345582  -0.00872284  0.0202718  0.00444286  -0.0558145  0.0522262  -0.000386185  0.0124502  -0.0162714  -0.00355745 
1699974221.663395000  0  0  12.0515  0.237896  -0.266664  0.000691158  nan  nan  nan  nan  nan  nan  -1  0  1  0.046406  -0.0585031  -0.00271529  0  0  0  0  0  0  0  0  0  0.0393471  0.0188574  -0.034622  -0.00883274  0.0201791  -0.00358475  -0.0550722  0.0523084  -0.000468337  0.0308713  0.0520904  -0.0039561 
1699974221.668410000  0  0  12.0096  0.241001  -0.255131  0.000721312  nan  nan  nan  nan  nan  nan  -1  -0  1  0.0468845  -0.0587878  -0.00275666  6e-07  -6e-07  6e-07  0  0  0  0  0  0  0.0393056  0.0189571  -0.0345958  -0.00862888  0.0203792  -0.000139535  -0.055422  0.0525904  -0.000474777  0.0278801  0.0264302  -0.00426863 
1699974221.674360000  0  0  11.9838  0.251379  -0.261734  0.000106986  nan  nan  nan  nan  nan  nan  -1  -0  1  0.0467078  -0.0592144  -0.00276616  5e-06  -5e-06  5e-06  0  0  0  0  0  0  0.0393191  0.0189263  -0.0345867  -0.00825757  0.0200768  0.00198518  -0.0552954  0.0531699  -0.000422818  0.00595942  0.0343041  0.00289086 
1699974221.679292000  0  0  12.0607  0.234121  -0.278885  0.00057053  nan  nan  nan  nan  nan  nan  -1  -1e-07  1  0.0460711  -0.0590032  -0.00271869  1.69e-05  -1.69e-05  1.69e-05  0  0  0  0  0  0  0.0393515  0.0188772  -0.0346332  -0.00811039  0.0197321  -0.00433382  -0.0543486  0.0534414  -0.000506589  0.0317657  0.0661086  -0.00206574 
1699974221.684294000  0  0  11.9872  0.230735  -0.259929  0.00171254  nan  nan  nan  nan  nan  nan  -1  -2e-07  1  0.046686  -0.0593686  -0.00277196  4e-05  -4e-05  4e-05  0  0  0  0  0  0  0.0393125  0.0189743  -0.0345919  -0.00801521  0.019957  0.00172867  -0.054679  0.0536971  -0.000634556  0.0415781  0.0258452  -0.0150612 
1699974221.689297000  0  0  11.9573  0.237014  -0.252989  0.00120421  nan  nan  nan  nan  nan  nan  -1  -5e-07  1  0.0463193  -0.0596075  -0.00276111  7.81e-05  -7.81e-05  7.81e-05  0  0  0  0  0  0  0.0393149  0.0189393  -0.0345766  -0.00790201  0.0193915  0.0041902  -0.0543211  0.0538821  -0.00063221  0.0257272  0.010263  -0.00873051 
1699974221.694296000  0  0  12.0407  0.216128  -0.260395  0.000959625  nan  nan  nan  nan  nan  nan  -0.999999  -1e-06  1  0.046125  -0.0589209  -0.00271767  0.000135  -0.000135  0.000135  0  0  0  0  0  0  0.03932  0.0189257  -0.0346403  -0.00828553  0.0195922  -0.00261341  -0.0536089  0.053443  -0.000684438  0.0609449  0.0291134  -0.00515093 
1699974221.699294000  0  0  11.9817  0.220295  -0.242201  -0.000125288  nan  nan  nan  nan  nan  nan  -0.999998  -1.9e-06  1  0.0465915  -0.0588458  -0.00274151  0.0002141  -0.0002144  0.0002134  0  0  0  0  0  0  0.0392771  0.0190207  -0.034602  -0.00867664  0.019699  0.00224769  -0.0538084  0.0531643  -0.000561702  0.0544478  -0.00470982  0.00718312 
1699974221.704298000  0  0  11.9497  0.235489  -0.229749  -0.000585816  nan  nan  nan  nan  nan  nan  -0.999997  -3.2e-06  1  0.0464052  -0.0592142  -0.00274741  0.0003149  -0.00032  0.0003113  0  0  0  0  0  0  0.0392776  0.0189836  -0.0345677  -0.00839847  0.0193663  0.00485897  -0.0537036  0.0532147  -0.000447618  0.0230945  -0.0300774  0.0117989 
1699974221.709308000  0  0  12.0439  0.22749  -0.253851  -0.000644112  nan  nan  nan  nan  nan  nan  -0.999995  -5.1e-06  1.00001  0.0471343  -0.0581008  -0.00273802  0.0004338  -0.0004556  0.0004249  0  0  0  0  0  0  0.0392305  0.0190878  -0.0346272  -0.00916329  0.0206016  -0.00288958  -0.0540872  0.0525715  -0.00040823  0.0426233  0.0240436  0.0121337 
1699974221.714323000  0  0  12.0161  0.239281  -0.242817  -0.000193932  nan  nan  nan  nan  nan  nan  -0.999992  -7.8e-06  1.00001  0.0465789  -0.0582018  -0.0027102  0.0005669  -0.000625  0.0005504  0  0  0  0  0  0  0.0392299  0.019034  -0.0346044  -0.00921131  0.0198329  -0.000610433  -0.0535703  0.0525639  -0.000404935  0.0142839  0.00204517  0.0064735 
1699974221.719328000  0  0  11.974  0.25581  -0.230681  0.000163721  nan  nan  nan  nan  nan  nan  -0.999989  -1.14e-05  1.00001  0.0466953  -0.0586002  -0.00273537  0.0007105  -0.0008319  0.0006841  0  0  0  0  0  0  0.0392329  0.0190128  -0.0345785  -0.00895799  0.0198153  0.00285302  -0.0539406  0.0526457  -0.000395397  -0.0153653  -0.0229788  0.00190746 
1699974221.724327000  0  0  12.0574  0.256851  -0.253161  -0.000127724  nan  nan  nan  nan  nan  nan  -0.999985  -1.62e-05  1.00001  0.0474595  -0.0577693  -0.00274063  0.000861  -0.00108  0.0008222  0  0  0  0  0  0  0.0391859  0.0191178  -0.0346253  -0.00941939  0.0210441  -0.00404138  -0.0547263  0.0522401  -0.000359301  -0.0102191  0.0257132  0.00518957 
1699974221.729322000  0  0  12.0478  0.254222  -0.243108  -0.00025934  nan  nan  nan  nan  nan  nan  -0.999981  -2.23e-05  1.00002  0.0468445  -0.0577463  -0.00270386  0.0010145  -0.0013731  0.000961  0  0  0  0  0  0  0.0392168  0.0190194  -0.0346591  -0.00958611  0.0203878  -0.00316078  -0.0541457  0.0521331  -0.000339011  -0.0103036  0.00659079  0.00663186 
1699974221.734310000  0  0  11.9753  0.268335  -0.217761  3.82873e-05  nan  nan  nan  nan  nan  nan  -0.999975  -3e-05  1.00002  0.0478126  -0.0580393  -0.00277376  0.0011672  -0.001715  0.0010968  0  0  0  0  0  0  0.0391716  0.0191215  -0.0346143  -0.00955435  0.021071  0.00280199  -0.0553444  0.0518956  -0.000293422  -0.0275008  -0.0419179  0.00245563 
1699974221.739304000  0  0  12.056  0.26259  -0.241099  -0.000109893  nan  nan  nan  nan  nan  nan  -0.999969  -3.96e-05  1.00003  0.0476374  -0.0573536  -0.00273103  0.0013155  -0.0021094  0.0012257  0  0  0  0  0  0  0.0391782  0.0190851  -0.0346881  -0.00996988  0.0213494  -0.00379434  -0.0552153  0.0515303  -0.000301382  -0.0171991  0.00811984  0.00438748 
1699974221.744305000  0  0  12.0615  0.249766  -0.230705  -4.45581e-05  nan  nan  nan  nan  nan  nan  -0.999962  -5.12e-05  1.00004  0.0476625  -0.0570668  -0.00271912  0.0014556  -0.0025587  0.0013441  0  0  0  0  0  0  0.0391742  0.0190877  -0.0347043  -0.0103135  0.0214063  -0.00420094  -0.0550566  0.0510941  -0.000292172  0.00698868  -0.00865503  0.00347869 
1699974221.749307000  0  0  11.9751  0.261147  -0.208313  -0.000397832  nan  nan  nan  nan  nan  nan  -0.999954  -6.52e-05  1.00004  0.0487531  -0.0573769  -0.00279708  0.0015837  -0.0030604  0.0014482  0  0  0  0  0  0  0.0391251  0.0191951  -0.0346518  -0.0103322  0.0221605  0.00290503  -0.0562182  0.0508653  -0.00018025  -0.00508534  -0.0513336  0.0067754 
1699974221.754330000  0  0  12.0599  0.257272  -0.231785  -0.000933765  nan  nan  nan  nan  nan  nan  -0.999946  -8.19e-05  1.00005  0.0485621  -0.0568783  -0.00276281  0.0016961  -0.0036108  0.0015342  0  0  0  0  0  0  0.0391236  0.0191601  -0.0347269  -0.0104587  0.0224438  -0.00401949  -0.0559858  0.0506247  -0.000109817  0.000524766  -0.00217687  0.0127702 
1699974221.759331000  0  0  12.0989  0.244616  -0.231143  -1.28197e-05  nan  nan  nan  nan  nan  nan  -0.999938  -0.0001014  1.00006  0.0493753  -0.0562644  -0.00278016  0.001789  -0.0042061  0.0015988  0  0  0  0  0  0  0.0390702  0.0192745  -0.0347695  -0.0109165  0.0234961  -0.00717783  -0.0564594  0.0500771  -0.000161395  0.0301945  0.00157587  0.0017742 
1699974221.764326000  0  0  12.016  0.25752  -0.218568  0.000336291  nan  nan  nan  nan  nan  nan  -0.999928  -0.000124  1.00007  0.0496022  -0.0570695  -0.00283465  0.0018593  -0.0048425  0.0016434  0  0  0  0  0  0  0.0390744  0.0192512  -0.0347634  -0.0103648  0.0233919  -0.000260717  -0.0567788  0.0505288  -0.000156166  0.0073259  -0.0277291  -0.00264198 
1699974221.768330000  0  0  12.0474  0.269462  -0.237026  4.0623e-05  nan  nan  nan  nan  nan  nan  -0.999919  -0.0001499  1.00007  0.0505415  -0.0568001  -0.00287716  0.0019086  -0.0055164  0.0016716  0  0  0  0  0  0  0.0390317  0.0193539  -0.0347865  -0.0104229  0.0245981  -0.00286079  -0.0578497  0.0505245  -0.000113461  -0.00670665  0.00922554  0.000626828 
1699974221.774312000  0  0  12.1112  0.246684  -0.259959  3.46972e-05  nan  nan  nan  nan  nan  nan  -0.999909  -0.0001792  1.00008  0.0508197  -0.056307  -0.00287115  0.0019405  -0.0062239  0.0016872  0  0  0  0  0  0  0.0390129  0.0193778  -0.0348338  -0.010642  0.0252798  -0.00808276  -0.0576287  0.050636  -0.000126686  0.0368159  0.0540661  0.000833147 
1699974221.779307000  0  0  12.0245  0.260023  -0.246788  0.000160479  nan  nan  nan  nan  nan  nan  -0.9999  -0.0002122  1.00009  0.0510054  -0.0572781  -0.00293513  0.0019589  -0.0069612  0.0016939  0  0  0  0  0  0  0.0390226  0.0193813  -0.0347951  -0.00990111  0.025027  -0.000937077  -0.0578852  0.0514599  -0.000106336  0.0124973  0.0201454  -0.000942622 
1699974221.784307000  0  0  12.0536  0.258101  -0.263288  0.000288354  nan  nan  nan  nan  nan  nan  -0.99989  -0.0002489  1.0001  0.0522861  -0.0571353  -0.00300627  0.0019674  -0.0077248  0.0016954  0  0  0  0  0  0  0.0389738  0.0195137  -0.0348293  -0.00978749  0.0266159  -0.0033058  -0.0589778  0.0517198  -0.000103818  0.026394  0.0507541  -0.00256624 
1699974221.789308000  0  0  12.1017  0.241012  -0.279676  0.000407066  nan  nan  nan  nan  nan  nan  -0.99988  -0.0002895  1.00011  0.0520504  -0.056975  -0.00299064  0.0019699  -0.0085107  0.0016955  0  0  0  0  0  0  0.0389859  0.0195039  -0.0348734  -0.00972581  0.0266001  -0.00722836  -0.0582745  0.0521234  -0.000170849  0.0541012  0.0798158  -0.00337984 
1699974221.794308000  0  0  12.0156  0.242266  -0.257517  0.00117181  nan  nan  nan  nan  nan  nan  -0.99987  -0.000334  1.00012  0.0522634  -0.0578182  -0.00305434  0.0019701  -0.0093153  0.0016955  0  0  0  0  0  0  0.0389866  0.0194945  -0.034832  -0.00914176  0.0264021  -0.000111849  -0.058209  0.0528436  -0.000241598  0.0509912  0.0288731  -0.0122316 
1699974221.799307000  0  0  12.0163  0.242073  -0.264801  0.000821895  nan  nan  nan  nan  nan  nan  -0.99986  -0.0003826  1.00013  0.053383  -0.0578221  -0.00312842  0.0019701  -0.0101348  0.0016955  0  0  0  0  0  0  0.0389415  0.0196304  -0.0348436  -0.00902201  0.0275999  -0.000144633  -0.0589995  0.0530792  -0.000228539  0.0586488  0.0412739  -0.0079883 
1699974221.804308000  0  0  12.0845  0.227656  -0.28542  0.000331719  nan  nan  nan  nan  nan  nan  -0.99985  -0.0004354  1.00013  0.0532901  -0.0573909  -0.00311068  0.0019701  -0.0109655  0.0016955  0  0  0  0  0  0  0.0389549  0.0196214  -0.0348645  -0.00919434  0.0279004  -0.00578571  -0.0583381  0.0532939  -0.000232909  0.0813988  0.080536  -0.00181739 
1699974221.809308000  0  0  12.0105  0.235198  -0.261216  0.000672248  nan  nan  nan  nan  nan  nan  -0.999841  -0.0004923  1.00014  0.0542457  -0.0578733  -0.0032042  0.0019701  -0.0118035  0.0016955  0  0  0  0  0  0  0.0389129  0.0197583  -0.0348334  -0.00891975  0.0284307  0.000337395  -0.0589658  0.0536428  -0.000239079  0.07209  0.0289183  -0.00601231 
1699974221.814313000  0  0  11.9717  0.248129  -0.263823  0.000492252  nan  nan  nan  nan  nan  nan  -0.999831  -0.0005534  1.00015  0.0547214  -0.0585247  -0.00328191  0.0019701  -0.0126452  0.0016955  0  0  0  0  0  0  0.0389319  0.0197715  -0.03479  -0.00833591  0.0287967  0.00348791  -0.0592957  0.0543547  -0.000205394  0.0492631  0.0275823  -0.00409921 
1699974221.819306000  0  0  12.0753  0.238153  -0.292974  0.000583855  nan  nan  nan  nan  nan  nan  -0.999821  -0.0006188  1.00016  0.0544139  -0.0581226  -0.00325881  0.0019701  -0.0134869  0.0016955  0  0  0  0  0  0  0.0389472  0.0197387  -0.0348213  -0.00823658  0.0290877  -0.00509646  -0.0585777  0.0547242  -0.00025136  0.0626094  0.082485  -0.00478459 
1699974221.824307000  0  0  12.0113  0.249385  -0.275351  0.000817299  nan  nan  nan  nan  nan  nan  -0.999811  -0.0006883  1.00017  0.0555207  -0.0584996  -0.00336342  0.0019701  -0.0143246  0.0016955  0  0  0  0  0  0  0.0389077  0.0198833  -0.0347916  -0.00804678  0.0298553  0.000179171  -0.0595108  0.0551152  -0.000252845  0.04873  0.0436428  -0.00768779 
1699974221.829305000  0  0  11.9601  0.264781  -0.269671  0.000480747  nan  nan  nan  nan  nan  nan  -0.999801  -0.000762  1.00018  0.05552  -0.0592234  -0.00342533  0.0019701  -0.0151548  0.0016955  0  0  0  0  0  0  0.0389326  0.0198452  -0.0347225  -0.0074661  0.0296187  0.00429766  -0.0595855  0.0558352  -0.000197161  0.018625  0.0256579  -0.00403772 
1699974221.834317000  0  0  12.0495  0.258563  -0.28602  -2.06529e-05  nan  nan  nan  nan  nan  nan  -0.999791  -0.0008398  1.00018  0.0565464  -0.0583598  -0.00346227  0.0019701  -0.0159736  0.0016955  0  0  0  0  0  0  0.0388906  0.0200009  -0.0347672  -0.00793354  0.0312033  -0.00307533  -0.0603103  0.0555201  -0.000140096  0.037728  0.0612547  0.00165912 
1699974221.839306000  0  0  11.9928  0.259388  -0.269193  0.00024226  nan  nan  nan  nan  nan  nan  -0.999781  -0.0009217  1.00019  0.0565342  -0.0589969  -0.00352555  0.0019701  -0.0167773  0.0016955  0  0  0  0  0  0  0.0389327  0.0199668  -0.0347129  -0.00754153  0.0308998  0.00155903  -0.0601016  0.0560371  -0.000124863  0.0341582  0.0228451  -0.00177963 
1699974221.843313000  0  0  11.9305  0.278164  -0.24735  0.000271724  nan  nan  nan  nan  nan  nan  -0.999772  -0.0010076  1.0002  0.0575405  -0.0593099  -0.00363438  0.0019701  -0.0175622  0.0016955  0  0  0  0  0  0  0.0389027  0.0201065  -0.0346708  -0.00745602  0.03153  0.00666832  -0.0612542  0.0559736  -5.5466e-05  0.00721164  -0.0202559  -0.00284189 
1699974221.849305000  0  0  12.0155  0.255761  -0.260085  0.000311923  nan  nan  nan  nan  nan  nan  -0.999762  -0.0010973  1.00021  0.0575687  -0.0587494  -0.00363881  0.0019701  -0.0183245  0.0016955  0  0  0  0  0  0  0.0389198  0.0200992  -0.0346758  -0.00768344  0.0321253  -0.000384749  -0.0608087  0.055626  -7.09921e-05  0.0479183  0.00841097  -0.00318912 
1699974221.854313000  0  0  11.9763  0.257409  -0.247835  -8.7556e-05  nan  nan  nan  nan  nan  nan  -0.999752  -0.0011908  1.00022  0.0573733  -0.0589984  -0.00368047  0.0019701  -0.0190604  0.0016955  0  0  0  0  0  0  0.0389381  0.0200815  -0.0346195  -0.00764822  0.0316476  0.00278926  -0.0604219  0.0556608  2.0302e-05  0.041063  -0.0164096  0.00089143 
1699974221.859310000  0  0  11.9063  0.279267  -0.214304  -0.00018956  nan  nan  nan  nan  nan  nan  -0.999742  -0.0012879  1.00023  0.0587241  -0.0592299  -0.00381698  0.0019701  -0.0197662  0.0016955  0  0  0  0  0  0  0.0389009  0.0202423  -0.0345595  -0.00770486  0.0326273  0.00853092  -0.0619017  0.0550953  0.000147664  0.0109623  -0.0782684  0.000892859 
1699974221.864305000  0  0  11.9923  0.26905  -0.236333  -0.00025439  nan  nan  nan  nan  nan  nan  -0.999732  -0.0013884  1.00024  0.0586907  -0.0586257  -0.00382676  0.0019701  -0.0204382  0.0016955  0  0  0  0  0  0  0.0388908  0.0202432  -0.0345864  -0.00792093  0.0331405  0.0014224  -0.0615969  0.0546609  0.000178029  0.0285919  -0.0302144  0.00139959 
1699974221.869304000  0  0  11.9887  0.272644  -0.237343  1.87627e-06  nan  nan  nan  nan  nan  nan  -0.999722  -0.0014922  1.00024  0.0583978  -0.0584309  -0.00384986  0.0019701  -0.0210726  0.0016955  0  0  0  0  0  0  0.0388833  0.0202335  -0.0345753  -0.00818825  0.0327444  0.00170349  -0.0612496  0.0544163  0.000202775  0.0182095  -0.0259431  -0.00205121 
1699974221.874309000  0  0  11.9218  0.289223  -0.214767  4.63506e-05  nan  nan  nan  nan  nan  nan  -0.999712  -0.001599  1.00025  0.0595334  -0.0588764  -0.00399932  0.0019701  -0.0216656  0.0016955  0  0  0  0  0  0  0.0388465  0.0203974  -0.0345172  -0.00793548  0.0334443  0.0071864  -0.0625222  0.0542508  0.000300657  -0.00324224  -0.0695735  -0.00358596 
1699974221.879306000  0  0  11.9968  0.28492  -0.244684  -0.0005986  nan  nan  nan  nan  nan  nan  -0.999703  -0.0017087  1.00026  0.0594275  -0.0585489  -0.00403471  0.0019701  -0.0222136  0.0016955  0  0  0  0  0  0  0.0388444  0.0204084  -0.0345656  -0.00787214  0.0337725  0.00101839  -0.0623543  0.0542468  0.000413542  0.00381988  -0.00970175  0.00334708 
1699974221.884307000  0  0  12.0063  0.28008  -0.249093  -0.000594052  nan  nan  nan  nan  nan  nan  -0.999693  -0.0018211  1.00027  0.0600673  -0.0580152  -0.00410644  0.0019701  -0.0227126  0.0016955  0  0  0  0  0  0  0.038801  0.020576  -0.0345632  -0.00841881  0.034315  0.000224871  -0.0628172  0.0538511  0.000488157  0.017758  0.00275532  0.00254408 
1699974221.889304000  0  0  11.9165  0.275085  -0.219488  -0.000491163  nan  nan  nan  nan  nan  nan  -0.999683  -0.0019358  1.00028  0.0598694  -0.0590022  -0.00422539  0.0019701  -0.0231591  0.0016955  0  0  0  0  0  0  0.0388264  0.020582  -0.0344914  -0.00774147  0.0334256  0.00760836  -0.0624537  0.0541264  0.000602676  0.0244045  -0.0589865  0.000112778 
1699974221.894309000  0  0  11.9745  0.263046  -0.239381  -0.000436626  nan  nan  nan  nan  nan  nan  -0.999673  -0.0020526  1.00029  0.0596622  -0.0585936  -0.00426536  0.0019701  -0.0235507  0.0016955  0  0  0  0  0  0  0.0388292  0.0206118  -0.0344995  -0.00791008  0.0334638  0.00280518  -0.0619448  0.0538352  0.000646172  0.0437992  -0.0165226  -0.0010039 
1699974221.899306000  0  0  12.0017  0.240976  -0.243861  -0.000224462  nan  nan  nan  nan  nan  nan  -0.999663  -0.0021712  1.0003  0.0600011  -0.0580247  -0.00433316  0.0019701  -0.0238899  0.0016955  0  0  0  0  0  0  0.0387866  0.0207778  -0.0345038  -0.00839353  0.0337223  0.000577966  -0.0616  0.0533774  0.000660725  0.0847683  -0.00335039  -0.00380147 
1699974221.904306000  0  0  11.9131  0.235101  -0.219118  -0.000128808  nan  nan  nan  nan  nan  nan  -0.999653  -0.0022914  1.0003  0.0598315  -0.0587198  -0.00445246  0.0019701  -0.0241806  0.0016955  0  0  0  0  0  0  0.0387705  0.0208259  -0.0344409  -0.00800563  0.0327844  0.0078958  -0.0609134  0.0535257  0.000738475  0.0902004  -0.0542006  -0.00577466 
1699974221.909306000  0  0  11.9828  0.231346  -0.242279  -0.000228983  nan  nan  nan  nan  nan  nan  -0.999643  -0.0024129  1.00031  0.0601291  -0.0582928  -0.00453762  0.0019701  -0.0244265  0.0016955  0  0  0  0  0  0  0.0387307  0.0209931  -0.0344628  -0.00802305  0.0332664  0.00214932  -0.0607175  0.0533286  0.000788003  0.0959088  -0.00606614  -0.00501774 
1699974221.913307000  0  0  12.0644  0.213243  -0.25493  8.13127e-05  nan  nan  nan  nan  nan  nan  -0.999634  -0.0025356  1.00032  0.059505  -0.0577784  -0.00456954  0.0019701  -0.0246313  0.0016955  0  0  0  0  0  0  0.0387156  0.021035  -0.0345277  -0.0081526  0.0328731  -0.00449048  -0.0594495  0.0531065  0.000774467  0.120449  0.0212811  -0.00876107 
1699974221.919257000  0  0  11.9627  0.218042  -0.240311  0.00111112  nan  nan  nan  nan  nan  nan  -0.999624  -0.0026592  1.00033  0.0592834  -0.0584768  -0.00470298  0.0019701  -0.0247989  0.0016955  0  0  0  0  0  0  0.038699  0.0210759  -0.0344802  -0.00783604  0.0317997  0.00393216  -0.0586648  0.0535827  0.000694263  0.103631  -0.0123396  -0.0208317 
1699974221.924306000  0  0  12.0007  0.227676  -0.250879  0.0015316  nan  nan  nan  nan  nan  nan  -0.999614  -0.0027835  1.00034  0.0595428  -0.0583099  -0.00481906  0.0019701  -0.0249328  0.0016955  0  0  0  0  0  0  0.0386605  0.0212369  -0.0344945  -0.00771473  0.0320302  0.000799424  -0.0586507  0.0535384  0.000635166  0.0842351  0.00920504  -0.0254966 
1699974221.929306000  0  0  12.0757  0.211702  -0.279179  0.000996667  nan  nan  nan  nan  nan  nan  -0.999604  -0.0029085  1.00035  0.0589049  -0.0579763  -0.00487902  0.0019701  -0.025037  0.0016955  0  0  0  0  0  0  0.0386705  0.021247  -0.034547  -0.00769698  0.0316386  -0.00533534  -0.057387  0.0538442  0.000625623  0.104555  0.0629922  -0.0187146 
1699974221.934312000  0  0  11.9816  0.225414  -0.265376  2.79948e-05  nan  nan  nan  nan  nan  nan  -0.999594  -0.0030339  1.00035  0.0591728  -0.0583099  -0.00503722  0.0019701  -0.0251151  0.0016955  0  0  0  0  0  0  0.0386316  0.0213987  -0.0344847  -0.00776172  0.0310311  0.00238906  -0.0574107  0.0541937  0.000776173  0.0773511  0.032169  -0.00811166 
1699974221.939306000  0  0  11.9709  0.227261  -0.249315  -0.000735171  nan  nan  nan  nan  nan  nan  -0.999584  -0.0031596  1.00036  0.0586822  -0.0586683  -0.00515865  0.0019701  -0.0251709  0.0016955  0  0  0  0  0  0  0.0386475  0.0213989  -0.0344779  -0.00738406  0.0302927  0.00328913  -0.0566829  0.0543063  0.000932509  0.0669599  -0.000987255  -0.000135454 
1699974221.944306000  0  0  12.0461  0.208226  -0.270171  -0.00133572  nan  nan  nan  nan  nan  nan  -0.999575  -0.0032855  1.00037  0.0577642  -0.0582872  -0.00521784  0.0019701  -0.0252082  0.0016955  0  0  0  0  0  0  0.0386631  0.0213871  -0.0345276  -0.00744013  0.0295686  -0.00285936  -0.0551539  0.0543686  0.0010656  0.0909628  0.040151  0.00604051 
1699974221.949306000  0  0  11.9762  0.210174  -0.247311  -0.00116488  nan  nan  nan  nan  nan  nan  -0.999565  -0.0034116  1.00038  0.0578509  -0.0584959  -0.00537637  0.0019701  -0.0252306  0.0016955  0  0  0  0  0  0  0.0386257  0.0215285  -0.0344863  -0.00752333  0.0289077  0.00290707  -0.0548411  0.0543311  0.00120098  0.0841902  -0.00522452  0.00255115 
1699974221.953306000  0  0  11.9358  0.211746  -0.222722  -0.000832977  nan  nan  nan  nan  nan  nan  -0.999555  -0.0035378  1.00039  0.0572149  -0.0589894  -0.00551499  0.0019701  -0.025242  0.0016955  0  0  0  0  0  0  0.0386583  0.021498  -0.0344697  -0.00720159  0.0278534  0.00628675  -0.0540103  0.0542625  0.00129878  0.0734019  -0.0537716  -0.00257564 
1699974221.959310000  0  0  12.0387  0.215198  -0.246383  -0.00111483  nan  nan  nan  nan  nan  nan  -0.999545  -0.003664  1.0004  0.0574679  -0.057976  -0.00562565  0.0019701  -0.0252461  0.0016955  0  0  0  0  0  0  0.0386129  0.0216465  -0.0345209  -0.00777106  0.0285097  -0.00218032  -0.0539095  0.0535453  0.00142394  0.0655719  0.000149522  -0.000304111 
1699974221.964307000  0  0  12.0123  0.219561  -0.233704  -0.00132108  nan  nan  nan  nan  nan  nan  -0.999535  -0.0037903  1.00041  0.0565498  -0.0582143  -0.00574595  0.0019701  -0.0252466  0.0016955  0  0  0  0  0  0  0.0386304  0.0216158  -0.0345225  -0.00766096  0.027168  3.47746e-05  -0.0528966  0.0535062  0.00157327  0.0475262  -0.0248483  0.000780849 
1699974221.969307000  0  0  11.9475  0.236136  -0.218347  -0.0014218  nan  nan  nan  nan  nan  nan  -0.999525  -0.0039165  1.00041  0.0561565  -0.0587783  -0.00592104  0.0019701  -0.0252462  0.0016955  0  0  0  0  0  0  0.0386363  0.0216145  -0.0344752  -0.00733698  0.0262232  0.00535957  -0.0526656  0.0535635  0.00176748  0.0122514  -0.0560905  9.77107e-05 
1699974221.974323000  0  0  12.0573  0.244357  -0.245243  -0.00134444  nan  nan  nan  nan  nan  nan  -0.999515  -0.0040427  1.00042  0.0563385  -0.0577959  -0.00604916  0.0019701  -0.0252424  0.0016955  0  0  0  0  0  0  0.038596  0.0217512  -0.0345385  -0.0078321  0.0268428  -0.00368653  -0.0529429  0.0529522  0.00189239  -0.00163863  0.00332535  -0.00211848 
1699974221.979306000  0  0  12.0352  0.246369  -0.242005  -0.000992742  nan  nan  nan  nan  nan  nan  -0.999506  -0.0041689  1.00043  0.0559338  -0.0578515  -0.00620772  0.0019701  -0.0252316  0.0016955  0  0  0  0  0  0  0.0386008  0.0217452  -0.0345417  -0.00790218  0.0261628  -0.00184455  -0.0526354  0.0529708  0.00200072  -0.00849212  -0.00332113  -0.00759792 
1699974221.984321000  0  0  11.9567  0.264657  -0.224455  -0.001223  nan  nan  nan  nan  nan  nan  -0.999496  -0.004295  1.00044  0.0564044  -0.0582253  -0.00644128  0.0019701  -0.02521  0.0016955  0  0  0  0  0  0  0.0385637  0.0218735  -0.0344927  -0.00780911  0.0259993  0.00460257  -0.0534568  0.0529287  0.00219931  -0.0375122  -0.0380343  -0.00670561 
1699974221.989313000  0  0  12.0459  0.257351  -0.2418  -0.00159003  nan  nan  nan  nan  nan  nan  -0.999486  -0.004421  1.00045  0.0557983  -0.0575543  -0.00655988  0.0019701  -0.0251737  0.0016955  0  0  0  0  0  0  0.0385708  0.0218571  -0.0345656  -0.00813899  0.0257729  -0.00270014  -0.0529787  0.0524972  0.00236281  -0.0272985  0.000626836  -0.00375272 
1699974221.994303000  0  0  12.0425  0.245254  -0.23383  -0.000998513  nan  nan  nan  nan  nan  nan  -0.999476  -0.0045467  1.00046  0.0553906  -0.0574688  -0.00672933  0.0019701  -0.0251192  0.0016955  0  0  0  0  0  0  0.0385773  0.0218726  -0.0345981  -0.00828162  0.0251566  -0.00234349  -0.0524893  0.0522933  0.0024408  -0.00760716  -0.0134385  -0.0119266 
1699974221.999321000  0  0  11.9506  0.260568  -0.207032  -0.00138666  nan  nan  nan  nan  nan  nan  -0.999466  -0.0046722  1.00046  0.0556078  -0.0578804  -0.00696861  0.0019701  -0.0250426  0.0016955  0  0  0  0  0  0  0.0385384  0.0219926  -0.0345326  -0.00822007  0.0245948  0.00519353  -0.0530194  0.0520495  0.0026547  -0.0333565  -0.0647907  -0.00921374 
1699974222.004321000  0  0  12.0582  0.24064  -0.220272  -0.00146752  nan  nan  nan  nan  nan  nan  -0.999456  -0.0047971  1.00047  0.0549751  -0.0572344  -0.00710651  0.0019701  -0.0249402  0.0016955  0  0  0  0  0  0  0.0385439  0.0219961  -0.0346211  -0.0083992  0.0243896  -0.00358242  -0.0522363  0.0514111  0.00277354  -0.000705973  -0.0324372  -0.00939135 
1699974222.009314000  0  0  12.0859  0.232334  -0.221436  -0.00182571  nan  nan  nan  nan  nan  nan  -0.999446  -0.0049215  1.00048  0.0549229  -0.0566283  -0.00728665  0.0019701  -0.0248082  0.0016955  0  0  0  0  0  0  0.0384991  0.0221159  -0.0346501  -0.00892645  0.0242099  -0.00581725  -0.0519897  0.0507681  0.0029541  0.0136366  -0.0241945  -0.00671956 
1699974222.014323000  0  0  12.0018  0.246619  -0.203381  -0.00232077  nan  nan  nan  nan  nan  nan  -0.999437  -0.0050451  1.00049  0.0545381  -0.0573938  -0.00752923  0.0019701  -0.0246429  0.0016955  0  0  0  0  0  0  0.0385021  0.0221211  -0.0346236  -0.00843016  0.0231485  0.00114761  -0.0518601  0.0509863  0.00321742  -0.0161247  -0.062313  -0.00316452 
1699974222.019322000  0  0  12.0744  0.244264  -0.234559  -0.00291056  nan  nan  nan  nan  nan  nan  -0.999427  -0.0051679  1.0005  0.0540985  -0.0571065  -0.0077173  0.0019701  -0.0244405  0.0016955  0  0  0  0  0  0  0.0384961  0.0221368  -0.0346877  -0.00832555  0.0229479  -0.00479066  -0.051511  0.0510372  0.00345664  -0.0146275  -0.000424709  0.00181561 
1699974222.024321000  0  0  12.1252  0.243875  -0.258382  -0.00309476  nan  nan  nan  nan  nan  nan  -0.999417  -0.0052895  1.00051  0.0538746  -0.0565191  -0.00790806  0.0019701  -0.0241973  0.0016955  0  0  0  0  0  0  0.038452  0.0222492  -0.0347412  -0.00868203  0.0226904  -0.00894851  -0.0513466  0.0510185  0.00367418  -0.0153608  0.0473936  0.00194264 
1699974222.029320000  0  0  12.0362  0.253932  -0.241468  -0.00232281  nan  nan  nan  nan  nan  nan  -0.999407  -0.0054098  1.00052  0.0533512  -0.057405  -0.00816704  0.0019701  -0.0239095  0.0016955  0  0  0  0  0  0  0.0384582  0.0222434  -0.034723  -0.00805844  0.0214452  -0.00157286  -0.0511439  0.0516926  0.00382164  -0.0373395  0.0073637  -0.00918128 
1699974222.034336000  0  0  12.0628  0.256402  -0.260463  -0.00235608  nan  nan  nan  nan  nan  nan  -0.999397  -0.0055285  1.00052  0.0536686  -0.0572056  -0.00842231  0.0019701  -0.0235734  0.0016955  0  0  0  0  0  0  0.0384178  0.0223552  -0.0347479  -0.0080417  0.0217642  -0.0037658  -0.0516564  0.0519049  0.00400233  -0.0375663  0.043401  -0.0105723 
1699974222.039326000  0  0  12.116  0.241766  -0.277471  -0.00205763  nan  nan  nan  nan  nan  nan  -0.999387  -0.0056454  1.00053  0.0525529  -0.0567924  -0.00859055  0.0019701  -0.0231852  0.0016955  0  0  0  0  0  0  0.0384255  0.0223382  -0.0348245  -0.00827375  0.0206017  -0.0080735  -0.05055  0.052091  0.00408892  -0.018472  0.0757043  -0.0151687 
1699974222.044322000  0  0  12.0307  0.230258  -0.249069  -0.00147817  nan  nan  nan  nan  nan  nan  -0.999378  -0.0057603  1.00054  0.0517291  -0.0576746  -0.00884945  0.0019701  -0.0227412  0.0016955  0  0  0  0  0  0  0.0384432  0.0223188  -0.0348073  -0.00766687  0.0190164  -0.000979943  -0.049635  0.0526917  0.00418011  -0.00387481  0.0133746  -0.0233239 
1699974222.049314000  0  0  12.0251  0.233126  -0.253601  -0.00191163  nan  nan  nan  nan  nan  nan  -0.999368  -0.0058727  1.00055  0.0518291  -0.0574848  -0.0091118  0.0019701  -0.0222377  0.0016955  0  0  0  0  0  0  0.0384034  0.0224161  -0.0348184  -0.00784859  0.0188845  -0.000504724  -0.0497977  0.0526376  0.00436946  -0.00811322  0.0229359  -0.0197992 
1699974222.054328000  0  0  12.0979  0.210176  -0.262468  -0.00214203  nan  nan  nan  nan  nan  nan  -0.999358  -0.0059825  1.00056  0.0507054  -0.0569503  -0.00929259  0.0019701  -0.0216708  0.0016955  0  0  0  0  0  0  0.0384073  0.0223936  -0.0348943  -0.00810993  0.0178247  -0.00641499  -0.0483507  0.0524618  0.00449577  0.0244739  0.0422869  -0.0181824 
1699974222.059272000  0  0  12.0178  0.208657  -0.239872  -0.00250698  nan  nan  nan  nan  nan  nan  -0.999348  -0.0060893  1.00057  0.0502601  -0.05749  -0.00957329  0.0019701  -0.0210368  0.0016955  0  0  0  0  0  0  0.0383709  0.0224752  -0.0348636  -0.00780645  0.016571  0.000217684  -0.0477598  0.0527039  0.00471306  0.0220764  -0.00513265  -0.0157933 
1699974222.064322000  0  0  12.002  0.217988  -0.251153  -0.00299659  nan  nan  nan  nan  nan  nan  -0.999338  -0.0061928  1.00057  0.0492709  -0.0579256  -0.00982285  0.0019701  -0.0203326  0.0016955  0  0  0  0  0  0  0.0383936  0.0224191  -0.0348645  -0.00737077  0.0152623  0.0015132  -0.0469677  0.0532679  0.00494316  -0.00387271  0.0122402  -0.0119742 
1699974222.069317000  0  0  12.0965  0.205021  -0.273189  -0.00332123  nan  nan  nan  nan  nan  nan  -0.999328  -0.0062925  1.00058  0.0479747  -0.0575143  -0.0100193  0.0019701  -0.0195595  0.0016955  0  0  0  0  0  0  0.038419  0.0223533  -0.0349483  -0.00737087  0.0141626  -0.00620734  -0.0455533  0.0534144  0.00513686  0.00904873  0.0549657  -0.0098532 
1699974222.073316000  0  0  12.0509  0.211135  -0.265443  -0.0032229  nan  nan  nan  nan  nan  nan  -0.999318  -0.0063883  1.00059  0.0475447  -0.0578354  -0.0103075  0.0019701  -0.0187213  0.0016955  0  0  0  0  0  0  0.0383899  0.0224252  -0.0349354  -0.00715567  0.0131596  -0.00244833  -0.0452174  0.0537764  0.00535386  -0.00627075  0.036144  -0.0132523 
1699974222.079306000  0  0  11.984  0.235786  -0.263218  -0.00294785  nan  nan  nan  nan  nan  nan  -0.999309  -0.0064796  1.0006  0.0465813  -0.0585396  -0.0105884  0.0019701  -0.0178216  0.0016955  0  0  0  0  0  0  0.0384154  0.0223476  -0.0349105  -0.00669948  0.0116674  0.00304596  -0.0449224  0.0545221  0.00552565  -0.0582856  0.0248321  -0.0184084 
1699974222.084312000  0  0  12.0629  0.225624  -0.277577  -0.00261117  nan  nan  nan  nan  nan  nan  -0.999299  -0.0065664  1.00061  0.0462482  -0.0578049  -0.0108451  0.0019701  -0.0168643  0.0016955  0  0  0  0  0  0  0.0383786  0.0224092  -0.0349654  -0.00707392  0.0114758  -0.0034459  -0.044674  0.0542779  0.0056504  -0.0402469  0.055797  -0.0238643 
1699974222.089311000  0  0  12.0008  0.23403  -0.255602  -0.00238898  nan  nan  nan  nan  nan  nan  -0.999289  -0.0066482  1.00062  0.044755  -0.058506  -0.0111064  0.0019701  -0.0158531  0.0016955  0  0  0  0  0  0  0.0384177  0.0223119  -0.0349455  -0.00663127  0.00935111  0.00167719  -0.0436562  0.0547679  0.00578077  -0.0664228  0.00733902  -0.0279455 
1699974222.093315000  0  0  11.9276  0.246543  -0.235802  -0.00265594  nan  nan  nan  nan  nan  nan  -0.999279  -0.0067248  1.00063  0.0444702  -0.0586887  -0.0114205  0.0019701  -0.0147918  0.0016955  0  0  0  0  0  0  0.0383881  0.0223631  -0.0349  -0.00678895  0.00847218  0.00768119  -0.043876  0.0545676  0.00601606  -0.0894266  -0.0304183  -0.0269614 
1699974222.099321000  0  0  12.0032  0.224666  -0.239551  -0.00314472  nan  nan  nan  nan  nan  nan  -0.999269  -0.006796  1.00063  0.043491  -0.0581037  -0.0116665  0.0019701  -0.0136841  0.0016955  0  0  0  0  0  0  0.0384086  0.0222747  -0.0349352  -0.00711993  0.00771541  0.00144887  -0.0429986  0.0539702  0.00618331  -0.053745  -0.0174243  -0.0225241 
1699974222.103322000  0  0  11.9898  0.222748  -0.227188  -0.00363612  nan  nan  nan  nan  nan  nan  -0.999259  -0.0068616  1.00064  0.0427125  -0.0577969  -0.0119433  0.0019701  -0.0125337  0.0016955  0  0  0  0  0  0  0.038376  0.0223133  -0.0349221  -0.00754138  0.00650716  0.00254143  -0.0424339  0.0534026  0.00644722  -0.0551038  -0.0369268  -0.0190207 
1699974222.109308000  0  0  11.9304  0.230188  -0.203913  -0.00427368  nan  nan  nan  nan  nan  nan  -0.999249  -0.0069213  1.00065  0.0412092  -0.0582958  -0.0122182  0.0019701  -0.0113444  0.0016955  0  0  0  0  0  0  0.0384294  0.0221268  -0.0348723  -0.00739253  0.00461607  0.00740555  -0.0415183  0.0531431  0.00671377  -0.078408  -0.0810897  -0.0137167 
1699974222.114315000  0  0  12.019  0.226501  -0.220032  -0.00503939  nan  nan  nan  nan  nan  nan  -0.99924  -0.006975  1.00066  0.0398914  -0.0578311  -0.0124704  0.0019701  -0.01012  0.0016955  0  0  0  0  0  0  0.0384644  0.022017  -0.0349331  -0.00751993  0.00348208  0.000127744  -0.040591  0.0526708  0.0070342  -0.0795651  -0.0445074  -0.00734956 
1699974222.118835000  0  0  12.0318  0.223215  -0.221611  -0.00546808  nan  nan  nan  nan  nan  nan  -0.99923  -0.0070225  1.00067  0.0385144  -0.0577783  -0.0127427  0.0019701  -0.0088642  0.0016955  0  0  0  0  0  0  0.0384935  0.0219039  -0.0349516  -0.00758118  0.00192281  -0.00090736  -0.0395948  0.0524635  0.00734843  -0.0821574  -0.0394426  -0.00513329 
1699974222.124293000  0  0  11.9425  0.247034  -0.211116  -0.00591791  nan  nan  nan  nan  nan  nan  -0.99922  -0.0070636  1.00068  0.0381139  -0.0584719  -0.013106  0.0019701  -0.0075807  0.0016955  0  0  0  0  0  0  0.0384602  0.0219062  -0.0348832  -0.00715083  0.000971494  0.0063843  -0.040102  0.0526665  0.00773786  -0.12513  -0.0623012  -0.00340474 
1699974222.129306000  0  0  12.0406  0.246223  -0.240084  -0.00506182  nan  nan  nan  nan  nan  nan  -0.99921  -0.0070982  1.00069  0.0368818  -0.0578216  -0.0132643  0.0019701  -0.0062733  0.0016955  0  0  0  0  0  0  0.0384762  0.0217917  -0.0349382  -0.00742666  -2.02273e-05  -0.00171288  -0.0395539  0.0523314  0.00781249  -0.128549  -0.00128162  -0.0148521 
1699974222.134335000  0  0  12.0429  0.242237  -0.234706  -0.00342941  nan  nan  nan  nan  nan  nan  -0.9992  -0.0071263  1.00069  0.0362713  -0.0576492  -0.0132228  0.0019701  -0.0049458  0.0016954  0  0  0  0  0  0  0.0384394  0.0217885  -0.034928  -0.00757292  -0.000816414  -0.00194298  -0.0395104  0.052075  0.00753448  -0.120978  -0.00967831  -0.0324772 
1699974222.139257000  0  0  11.9378  0.258558  -0.2232  -0.00266429  nan  nan  nan  nan  nan  nan  -0.99919  -0.0071477  1.0007  0.0351313  -0.0585692  -0.0131893  0.0019701  -0.0036019  0.0016932  0  0  0  0  0  0  0.0384604  0.0216596  -0.0348609  -0.00709551  -0.00247192  0.00666142  -0.0393623  0.0525874  0.00730242  -0.154982  -0.0374035  -0.0397206 
1699974222.144322000  0  0  12.0137  0.240335  -0.236929  -0.00228075  nan  nan  nan  nan  nan  nan  -0.999181  -0.0071623  1.00071  0.0338652  -0.0579495  -0.0130941  0.0019701  -0.0022454  0.0016853  0  0  0  0  0  0  0.0384709  0.0215259  -0.0349  -0.00747497  -0.00356135  0.000395957  -0.038622  0.052106  0.00702666  -0.125347  -0.00551818  -0.0417572 
1699974222.149314000  0  0  12.0116  0.222111  -0.222285  -0.0023895  nan  nan  nan  nan  nan  nan  -0.999171  -0.0071701  1.00072  0.0332862  -0.0576384  -0.0130502  0.0019701  -0.0008799  0.001668  0  0  0  0  0  0  0.0384323  0.0215059  -0.0348943  -0.00783176  -0.00429157  0.000563741  -0.0383105  0.0515225  0.00683526  -0.0917641  -0.0294371  -0.0384839 
1699974222.154306000  0  0  11.9141  0.2349  -0.208168  -0.00375998  nan  nan  nan  nan  nan  nan  -0.999161  -0.0071711  1.00073  0.0314814  -0.0585514  -0.0129748  0.0019701  0.0004907  0.0016374  0  0  0  0  0  0  0.0384615  0.0213119  -0.0348443  -0.00734924  -0.00661683  0.00859494  -0.0373482  0.0519155  0.00681403  -0.126197  -0.0612871  -0.0211406 
1699974222.159303000  0  0  11.9874  0.222735  -0.223663  -0.00436342  nan  nan  nan  nan  nan  nan  -0.999151  -0.0071652  1.00074  0.0310264  -0.0577113  -0.0129222  0.0019701  0.0018626  0.0015898  0  0  0  0  0  0  0.0384209  0.0212821  -0.0348705  -0.00790889  -0.00688962  0.00251543  -0.0373077  0.0511781  0.00678368  -0.102239  -0.0235129  -0.0132941 
1699974222.164298000  0  0  12.0506  0.201974  -0.230536  -0.00406312  nan  nan  nan  nan  nan  nan  -0.999141  -0.0071525  1.00074  0.0291538  -0.0576978  -0.0128137  0.0019701  0.0032323  0.0015215  0  0  0  0  0  0  0.0384575  0.0210601  -0.0349211  -0.00763661  -0.00868793  -0.00264268  -0.0356623  0.0511814  0.00662113  -0.0758545  -0.00979608  -0.0154223 
1699974222.168300000  0  0  11.9791  0.221271  -0.227329  -0.0039284  nan  nan  nan  nan  nan  nan  -0.999131  -0.0071329  1.00075  0.0284208  -0.0581612  -0.0127845  0.0019701  0.0045958  0.0014287  0  0  0  0  0  0  0.038428  0.0210174  -0.0348759  -0.00742695  -0.00980135  0.00321037  -0.0356389  0.0514965  0.00655356  -0.114664  -0.0191092  -0.0164307 
1699974222.174313000  0  0  12.0222  0.226684  -0.254852  -0.00327777  nan  nan  nan  nan  nan  nan  -0.999121  -0.0071065  1.00076  0.027424  -0.0581571  -0.0127264  0.0019701  0.0059495  0.0013081  0  0  0  0  0  0  0.0384399  0.020818  -0.0349166  -0.007194  -0.0105537  -0.000341924  -0.035535  0.0519353  0.00634554  -0.126446  0.0318996  -0.0224833 
1699974222.179307000  0  0  12.0875  0.218996  -0.270662  -0.00263431  nan  nan  nan  nan  nan  nan  -0.999112  -0.0070734  1.00076  0.0258369  -0.0579972  -0.01263  0.0019701  0.0072895  0.0011611  0  0  0  0  0  0  0.0384559  0.0206202  -0.0349718  -0.00704805  -0.0120456  -0.00569844  -0.0345125  0.0522807  0.00611123  -0.120477  0.060341  -0.0281834 
1699974222.184306000  0  0  12.002  0.236348  -0.258216  -0.00226467  nan  nan  nan  nan  nan  nan  -0.999102  -0.0070336  1.00077  0.0251998  -0.0586197  -0.0126087  0.0019701  0.0086123  0.0009912  0  0  0  0  0  0  0.0384242  0.0205548  -0.0349307  -0.00670922  -0.0129977  0.00131943  -0.0348209  0.0528659  0.0059496  -0.152343  0.0300667  -0.0311877 
1699974222.189307000  0  0  12.003  0.231045  -0.267527  -0.0019813  nan  nan  nan  nan  nan  nan  -0.999092  -0.0069873  1.00077  0.0244973  -0.0587231  -0.01257  0.0019701  0.0099139  0.0008024  0  0  0  0  0  0  0.0384454  0.0203848  -0.0349499  -0.00662156  -0.0135536  0.00124118  -0.0347793  0.0532704  0.00576331  -0.142119  0.0449658  -0.0328669 
1699974222.194311000  0  0  12.0812  0.213534  -0.275854  -0.00174008  nan  nan  nan  nan  nan  nan  -0.999082  -0.0069346  1.00078  0.0227163  -0.058616  -0.012463  0.0019701  0.0111906  0.0005983  0  0  0  0  0  0  0.0385006  0.020141  -0.0350256  -0.00640719  -0.0151902  -0.00513313  -0.0334271  0.0535458  0.00553307  -0.119539  0.0590869  -0.0335796 
1699974222.199310000  0  0  11.987  0.220209  -0.243114  -0.00193848  nan  nan  nan  nan  nan  nan  -0.999072  -0.0068755  1.00078  0.0221828  -0.0592091  -0.0124449  0.0019701  0.0124388  0.0003827  0  0  0  0  0  0  0.0384714  0.0200608  -0.0349725  -0.00617667  -0.0159624  0.00261221  -0.0336133  0.0536874  0.00542129  -0.131176  -0.00769657  -0.029982 
1699974222.204307000  0  0  11.9428  0.220605  -0.243112  -0.00256708  nan  nan  nan  nan  nan  nan  -0.999062  -0.0068102  1.00078  0.0211876  -0.0595225  -0.0123926  0.0019701  0.0136546  0.0001593  0  0  0  0  0  0  0.0385296  0.0198227  -0.0349429  -0.0061986  -0.0168626  0.00623014  -0.0333099  0.0539273  0.00536399  -0.134758  -0.009908  -0.0215514 
1699974222.209307000  0  0  12.0328  0.214616  -0.24592  -0.00264501  nan  nan  nan  nan  nan  nan  -0.999052  -0.006739  1.00078  0.0206199  -0.0588695  -0.0123454  0.0019701  0.0148343  -6.81e-05  0  0  0  0  0  0  0.038498  0.0197369  -0.0349874  -0.0064156  -0.0172136  -0.00119323  -0.033293  0.0533534  0.00526103  -0.122936  0.0009894  -0.0195476 
1699974222.214313000  0  0  11.9522  0.227633  -0.231303  -0.00307162  nan  nan  nan  nan  nan  nan  -0.999043  -0.0066619  1.00078  0.0196217  -0.0597938  -0.0123047  0.0019701  0.0159741  -0.0002958  0  0  0  0  0  0  0.038532  0.0195215  -0.0349029  -0.00580744  -0.0182527  0.00535412  -0.0332528  0.0538983  0.00524053  -0.149341  -0.0332587  -0.01401 
1699974222.219307000  0  0  11.9114  0.243934  -0.244074  -0.00277726  nan  nan  nan  nan  nan  nan  -0.999033  -0.0065793  1.00078  0.019036  -0.0599884  -0.0122734  0.0019701  0.0170704  -0.00052  0  0  0  0  0  0  0.0385479  0.01931  -0.0348304  -0.00586423  -0.0186449  0.00856978  -0.033812  0.0541719  0.00516167  -0.176797  -0.0102341  -0.016901 
1699974222.224308000  0  0  12.0283  0.245035  -0.254977  -0.00227635  nan  nan  nan  nan  nan  nan  -0.999023  -0.0064913  1.00077  0.0189843  -0.0591263  -0.0122539  0.0019701  0.0181193  -0.000737  0  0  0  0  0  0  0.0385169  0.0192197  -0.0348767  -0.00616604  -0.0182598  -0.00112464  -0.0346004  0.0535884  0.0050237  -0.171745  0.0169396  -0.0217826 
1699974222.229308000  0  0  11.9424  0.264355  -0.247616  -0.00205695  nan  nan  nan  nan  nan  nan  -0.999013  -0.0063982  1.00077  0.0180589  -0.0601641  -0.012218  0.0019701  0.019117  -0.000943  0  0  0  0  0  0  0.0385571  0.0189717  -0.0347835  -0.00545475  -0.0191257  0.00582125  -0.0349707  0.0544943  0.00492868  -0.20698  -0.00611561  -0.0235748 
1699974222.234310000  0  0  11.8884  0.285236  -0.254288  -0.00248993  nan  nan  nan  nan  nan  nan  -0.999003  -0.0063002  1.00077  0.0182906  -0.0601369  -0.0122314  0.0019701  0.02006  -0.0011342  0  0  0  0  0  0  0.0385272  0.0188781  -0.0347297  -0.00577854  -0.0187145  0.0101508  -0.0365779  0.0545575  0.00491814  -0.233955  0.00664616  -0.0180572 
1699974222.239307000  0  0  11.9806  0.263205  -0.255813  -0.00204284  nan  nan  nan  nan  nan  nan  -0.998993  -0.0061977  1.00076  0.0177699  -0.0596446  -0.0121914  0.0019701  0.0209443  -0.001307  0  0  0  0  0  0  0.0385671  0.0186402  -0.0347302  -0.00591329  -0.0186893  0.0024441  -0.0367808  0.0542075  0.00479119  -0.188026  0.0129159  -0.0223764 
1699974222.243309000  0  0  11.9377  0.269874  -0.241319  -0.00237759  nan  nan  nan  nan  nan  nan  -0.998984  -0.0060909  1.00075  0.0176146  -0.0598223  -0.0121852  0.0019701  0.0217663  -0.0014575  0  0  0  0  0  0  0.0385439  0.0185414  -0.0346795  -0.00591258  -0.0187594  0.005903  -0.0374381  0.0541338  0.00477189  -0.195318  -0.0153916  -0.017999 
1699974222.249307000  0  0  11.8445  0.284983  -0.230161  -0.00314217  nan  nan  nan  nan  nan  nan  -0.998974  -0.0059802  1.00074  0.0175554  -0.0603186  -0.0121904  0.0019703  0.0225221  -0.0015821  0  0  0  0  0  0  0.0385733  0.0183279  -0.0345606  -0.00594285  -0.0185454  0.0133899  -0.0388684  0.0542498  0.00484375  -0.212376  -0.0387756  -0.00916034 
1699974222.254313000  0  0  11.9408  0.25618  -0.232133  -0.00285862  nan  nan  nan  nan  nan  nan  -0.998964  -0.0058658  1.00074  0.0173821  -0.0595278  -0.0121662  0.0019731  0.0232082  -0.0016769  0  0  0  0  0  0  0.0385823  0.0181495  -0.0345772  -0.00636942  -0.0181847  0.00537801  -0.0391165  0.0534148  0.00476337  -0.152488  -0.0271496  -0.0119009 
1699974222.259310000  0  0  11.9156  0.268579  -0.215631  -0.00320823  nan  nan  nan  nan  nan  nan  -0.998954  -0.0057482  1.00073  0.0175385  -0.0596185  -0.0121771  0.0019823  0.0238206  -0.0017383  0  0  0  0  0  0  0.0385533  0.0180564  -0.0345243  -0.00634849  -0.017819  0.00735967  -0.0401811  0.0530483  0.00478892  -0.167492  -0.0567818  -0.00778624 
1699974222.264308000  0  0  11.863  0.280364  -0.211408  -0.00311243  nan  nan  nan  nan  nan  nan  -0.998944  -0.0056277  1.00072  0.0175561  -0.0600024  -0.0121849  0.0020015  0.0243556  -0.0017624  0  0  0  0  0  0  0.0385742  0.0178556  -0.0344378  -0.00623466  -0.0174538  0.0115407  -0.0412202  0.0530405  0.00479227  -0.181502  -0.0651572  -0.00901732 
1699974222.269306000  0  0  11.9681  0.265801  -0.238428  -0.00259018  nan  nan  nan  nan  nan  nan  -0.998934  -0.0055048  1.00071  0.0174309  -0.0593394  -0.0121658  0.0020346  0.0248096  -0.0017455  0  0  0  0  0  0  0.0385844  0.0176682  -0.0344539  -0.00643768  -0.0169954  0.00277672  -0.0416785  0.0526743  0.00468311  -0.14816  -0.00774673  -0.0144539 
1699974222.274314000  0  0  11.9889  0.27784  -0.233665  -0.0023092  nan  nan  nan  nan  nan  nan  -0.998924  -0.0053798  1.0007  0.0177449  -0.0591435  -0.012181  0.0020853  0.0251787  -0.0016839  0  0  0  0  0  0  0.0385542  0.0175822  -0.0344387  -0.00648607  -0.0163434  0.000969325  -0.0428656  0.0523849  0.00461379  -0.161317  -0.0146105  -0.0172729 
1699974222.279309000  0  0  11.9158  0.294959  -0.235666  -0.00176202  nan  nan  nan  nan  nan  nan  -0.998913  -0.0052531  1.00069  0.0181489  -0.0597328  -0.0122156  0.0021573  0.0254592  -0.0015738  0  0  0  0  0  0  0.0385665  0.0174037  -0.0343668  -0.00620152  -0.0155595  0.00686243  -0.0443418  0.0528714  0.00452422  -0.181974  -0.0150838  -0.023217 
1699974222.284309000  0  0  12.0229  0.28546  -0.259243  -0.00172773  nan  nan  nan  nan  nan  nan  -0.998902  -0.0051253  1.00069  0.0188518  -0.0586177  -0.0122365  0.0022544  0.0256473  -0.0014115  0  0  0  0  0  0  0.038531  0.0173295  -0.0344185  -0.00688519  -0.0142286  -0.00203883  -0.0456303  0.0522718  0.0044151  -0.15112  0.0375851  -0.0225544 
1699974222.289308000  0  0  12.0394  0.273256  -0.24618  -0.00126446  nan  nan  nan  nan  nan  nan  -0.99889  -0.0049968  1.00068  0.0179164  -0.0591478  -0.0121912  0.0023803  0.0257393  -0.0011932  0  0  0  0  0  0  0.0386071  0.0170158  -0.0344228  -0.00625194  -0.0147574  -0.00339041  -0.045245  0.0526842  0.00425154  -0.130258  0.00766505  -0.0267096 
1699974222.294317000  0  0  11.9498  0.282519  -0.240937  -0.00173203  nan  nan  nan  nan  nan  nan  -0.998878  -0.0048681  1.00067  0.0182677  -0.059807  -0.012224  0.0025388  0.0257315  -0.0009152  0  0  0  0  0  0  0.0386339  0.0168247  -0.0343731  -0.00601548  -0.0140482  0.00394214  -0.0463421  0.0532019  0.00422515  -0.138691  -0.00758237  -0.0206011 
1699974222.299308000  0  0  12.0487  0.269884  -0.256568  -0.00184033  nan  nan  nan  nan  nan  nan  -0.998865  -0.0047397  1.00067  0.0191075  -0.0586102  -0.0122514  0.0027337  0.0256201  -0.0005737  0  0  0  0  0  0  0.0385986  0.0167581  -0.0344343  -0.00686477  -0.0125624  -0.00424811  -0.0475118  0.0524023  0.00414955  -0.102659  0.0310347  -0.0184913 
1699974222.304305000  0  0  12.0949  0.247553  -0.238394  -0.00147301  nan  nan  nan  nan  nan  nan  -0.998851  -0.0046121  1.00067  0.0189604  -0.0587181  -0.0122448  0.0029687  0.0254013  -0.0001649  0  0  0  0  0  0  0.0386326  0.0165466  -0.0344907  -0.0064957  -0.0121975  -0.0079706  -0.0473763  0.0523262  0.00402019  -0.0592436  -0.00461364  -0.0217893 
1699974222.309306000  0  0  12.0213  0.267412  -0.234609  -0.00166735  nan  nan  nan  nan  nan  nan  -0.998835  -0.0044858  1.00067  0.0202263  -0.0587343  -0.0123195  0.0032475  0.0250714  0.0003148  0  0  0  0  0  0  0.0385989  0.0164902  -0.0344629  -0.00685551  -0.0105311  -0.00194064  -0.0491731  0.0522284  0.00400024  -0.0824305  -0.0112831  -0.0191606 
1699974222.314261000  0  0  12.1212  0.255127  -0.252479  -0.00126293  nan  nan  nan  nan  nan  nan  -0.998818  -0.0043615  1.00067  0.0203939  -0.0581366  -0.0123171  0.0035738  0.0246267  0.0008692  0  0  0  0  0  0  0.0386388  0.0162763  -0.0345382  -0.00709117  -0.00960246  -0.0101473  -0.0494285  0.0519939  0.00385738  -0.0555123  0.0266147  -0.0227872 
1699974222.318311000  0  0  12.1889  0.244939  -0.248943  -0.000824575  nan  nan  nan  nan  nan  nan  -0.998799  -0.0042398  1.00068  0.0213476  -0.0575736  -0.0123606  0.0039516  0.0240634  0.0015022  0  0  0  0  0  0  0.0386079  0.0162168  -0.0346154  -0.00732823  -0.00802054  -0.0156655  -0.0502921  0.0515192  0.00373167  -0.0271899  0.0239099  -0.0270095 
1699974222.324300000  0  0  12.1047  0.279832  -0.25066  -0.000779989  nan  nan  nan  nan  nan  nan  -0.998779  -0.0041211  1.00069  0.0221187  -0.0583146  -0.0124213  0.0043844  0.0233777  0.0022173  0  0  0  0  0  0  0.0386537  0.0160225  -0.0346124  -0.00695171  -0.00675649  -0.00871522  -0.0518147  0.0523208  0.00363147  -0.0829684  0.0199683  -0.0265648 
1699974222.329300000  0  0  12.1725  0.278206  -0.269338  -0.000115184  nan  nan  nan  nan  nan  nan  -0.998755  -0.0040062  1.0007  0.0226222  -0.0577226  -0.0124373  0.004876  0.0225659  0.0030185  0  0  0  0  0  0  0.0386819  0.0158185  -0.0347126  -0.00736263  -0.00544908  -0.0142204  -0.0526493  0.0522602  0.0034343  -0.072039  0.0578816  -0.0329032 
1699974222.334306000  0  0  12.2262  0.274308  -0.271869  0.000614697  nan  nan  nan  nan  nan  nan  -0.99873  -0.0038957  1.00072  0.0241798  -0.0568598  -0.0125064  0.0054303  0.0216242  0.0039094  0  0  0  0  0  0  0.0386437  0.0157966  -0.034812  -0.00807294  -0.0031371  -0.018573  -0.0542942  0.0518047  0.00321243  -0.0491089  0.0671351  -0.039808 
1699974222.339302000  0  0  12.1353  0.29861  -0.258634  0.000351934  nan  nan  nan  nan  nan  nan  -0.998701  -0.0037902  1.00074  0.0252631  -0.057466  -0.0125833  0.0060509  0.020549  0.0048937  0  0  0  0  0  0  0.0386629  0.0156438  -0.0348259  -0.00784782  -0.00158316  -0.011024  -0.0559736  0.052417  0.00313215  -0.0822635  0.0350317  -0.0357207 
1699974222.344310000  0  0  12.1359  0.301649  -0.265502  -0.000399391  nan  nan  nan  nan  nan  nan  -0.998669  -0.0036904  1.00077  0.0275139  -0.0566095  -0.0126891  0.0067415  0.0193364  0.0059753  0  0  0  0  0  0  0.0386186  0.0156461  -0.0348885  -0.00885488  0.001467  -0.0110532  -0.0584824  0.0519231  0.00310651  -0.0652595  0.0533109  -0.0260728 
1699974222.349300000  0  0  12.2291  0.280695  -0.26482  -0.000474638  nan  nan  nan  nan  nan  nan  -0.998633  -0.0035971  1.0008  0.0282351  -0.055542  -0.0126998  0.0075047  0.0179827  0.0071579  0  0  0  0  0  0  0.0386278  0.0155043  -0.035012  -0.00972508  0.00306034  -0.0186081  -0.05898  0.0512305  0.00297455  -0.0187743  0.0583199  -0.0238126 
