ts x y z roll pitch yaw vx vy vz wx wy wz ax ay az dwx dwy dwz jx jy jz ddwx ddwy ddwz
1704720553.601418000  -2.5  -0.3  1  0  0  0  2e-07  -2e-07  2e-07  0  0  0  0.000125  -0.000125  0.000125  0  0  0  0  0  0  0  0  0 
1704720553.606385000  -2.5  -0.3  1  0  0  0  1.7e-06  -1.7e-06  1.7e-06  0  0  0  0.0005  -0.0005  0.0005  0  0  0  0  0  0  0  0  0 
1704720553.611391000  -2.5  -0.3  1  0  0  0  5.6e-06  -5.6e-06  5.6e-06  0  0  0  0.001125  -0.001125  0.001125  0  0  0  0  0  0  0  0  0 
1704720553.616376000  -2.5  -0.3  1  0  0  1e-07  1.33e-05  -1.33e-05  1.33e-05  0  0  0  0.002  -0.002  0.002  0  0  0  0  0  0  0  0  0 
1704720553.621387000  -2.5  -0.3  1  0  0  3e-07  2.6e-05  -2.6e-05  2.6e-05  0  0  0  0.003125  -0.003125  0.003125  0  0  0  0  0  0  0  0  0 
1704720553.626390000  -2.5  -0.3  1  0  0  5e-07  4.5e-05  -4.5e-05  4.5e-05  0  0  0  0.0045  -0.0045  0.0045  0  0  0  0  0  0  0  0  0 
1704720553.631400000  -2.5  -0.300001  1  0  0  1e-06  7.15e-05  -7.15e-05  7.15e-05  0  0  0  0.006125  -0.006125  0.006125  0  0  0  0  0  0  0  0  0 
1704720553.636398000  -2.5  -0.300001  1  0  0  1.7e-06  0.0001067  -0.0001067  0.0001067  0  0  0  0.008  -0.008  0.008  0  0  0  0  0  0  0  0  0 
1704720553.641404000  -2.5  -0.300002  1  0  0  2.7e-06  0.0001519  -0.0001519  0.0001519  0  0  0  0.010125  -0.010125  0.010125  0  0  0  0  0  0  0  0  0 
1704720553.646396000  -2.5  -0.300003  1  0  0  4.2e-06  0.0002083  -0.0002083  0.0002083  0  0  0  0.0125  -0.0125  0.0125  0  0  0  0  0  0  0  0  0 
1704720553.651397000  -2.5  -0.300004  1  0  0  6.1e-06  0.0002773  -0.0002773  0.0002773  0  0  0  0.015125  -0.015125  0.015125  0  0  0  0  0  0  0  0  0 
1704720553.656402000  -2.49999  -0.300005  1.00001  0  0  8.6e-06  0.00036  -0.00036  0.00036  0  0  0  0.018  -0.018  0.018  0  0  0  0  0  0  0  0  0 
1704720553.661400000  -2.49999  -0.300007  1.00001  0  0  1.19e-05  0.0004577  -0.0004577  0.0004577  0  0  0  0.021125  -0.021125  0.021125  0  0  0  0  0  0  0  0  0 
1704720553.666404000  -2.49999  -0.30001  1.00001  0  0  1.6e-05  0.0005717  -0.0005717  0.0005717  0  0  0  0.0245  -0.0245  0.0245  0  0  0  0  0  0  0  0  0 
1704720553.671398000  -2.49999  -0.300013  1.00001  0  0  2.11e-05  0.0007031  -0.0007031  0.0007031  0  0  0  0.028125  -0.028125  0.028125  0  0  0  0  0  0  0  0  0 
1704720553.676398000  -2.49998  -0.300017  1.00002  0  0  2.73e-05  0.0008533  -0.0008533  0.0008533  0  0  0  0.032  -0.032  0.032  0  0  0  0  0  0  0  0  0 
1704720553.681405000  -2.49998  -0.300022  1.00002  0  0  3.48e-05  0.0010235  -0.0010235  0.0010235  0  0  0  0.036125  -0.036125  0.036125  0  0  0  0  0  0  0  0  0 
1704720553.686406000  -2.49997  -0.300027  1.00003  0  0  4.37e-05  0.001215  -0.001215  0.001215  0  0  0  0.0405  -0.0405  0.0405  0  0  0  0  0  0  0  0  0 
1704720553.691404000  -2.49997  -0.300034  1.00003  0  0  5.43e-05  0.001429  -0.001429  0.001429  0  0  0  0.045125  -0.045125  0.045125  0  0  0  0  0  0  0  0  0 
1704720553.696396000  -2.49996  -0.300042  1.00004  0  0  6.65e-05  0.0016667  -0.0016667  0.0016667  0  0  0  0.05  -0.05  0.05  0  0  0  0  0  0  0  0  0 
1704720553.701398000  -2.49995  -0.300051  1.00005  0  0  8.07e-05  0.0019294  -0.0019294  0.0019294  0  0  0  0.055125  -0.055125  0.055125  0  0  0  0  0  0  0  0  0 
1704720553.706416000  -2.49994  -0.300061  1.00006  0  0  9.68e-05  0.0022183  -0.0022183  0.0022183  0  0  0  0.0605  -0.0605  0.0605  0  0  0  0  0  0  0  0  0 
1704720553.711409000  -2.49993  -0.300073  1.00007  0  0  0.000115  0.0025348  -0.0025348  0.0025348  0  0  0  0.066125  -0.066125  0.066125  0  0  0  0  0  0  0  0  0 
1704720553.716405000  -2.49991  -0.300086  1.00009  0  0  0.0001354  0.0028799  -0.00288  0.00288  0  0  0  0.0719294  -0.072  0.0719647  0  0  0  0  0  0  0  0  0 
1704720553.721405000  -2.4999  -0.300102  1.0001  0  0  0.0001582  0.0032537  -0.0032552  0.0032541  0  0  0  0.0775388  -0.078125  0.0776518  0  0  0  0  0  0  0  0  0 
1704720553.726403000  -2.49988  -0.300119  1.00012  0  0  0.0001833  0.0036549  -0.0036617  0.0036561  0  0  0  0.0828982  -0.0845  0.083089  0  0  0  0  0  0  0  0  0 
1704720553.731433000  -2.49986  -0.300138  1.00014  0  0  0.0002109  0.0040823  -0.0041006  0.0040846  0  0  0  0.0880075  -0.091125  0.0882761  0  0  0  0  0  0  0  0  0 
1704720553.736413000  -2.49984  -0.30016  1.00016  0  0  0.000241  0.0045346  -0.0045733  0.0045384  0  0  0  0.0928669  -0.098  0.0932132  0  0  0  0  0  0  0  0  0 
1704720553.741388000  -2.49982  -0.300184  1.00018  0  0  0.0002736  0.0050105  -0.005081  0.0050163  0  0  0  0.0974763  -0.105125  0.0979003  0  0  0  0  0  0  0  0  0 
1704720553.746411000  -2.49979  -0.300211  1.00021  0  0  0.0003089  0.0055089  -0.005625  0.005517  0  0  0  0.101836  -0.1125  0.102337  0  0  0  0  0  0  0  0  0 
1704720553.751414000  -2.49976  -0.300241  1.00024  0  0  0.0003468  0.0060285  -0.0062065  0.0060393  0  0  0  0.105945  -0.120125  0.106525  0  0  0  0  0  0  0  0  0 
1704720553.756385000  -2.49973  -0.300273  1.00027  0  0  0.0003874  0.006568  -0.0068267  0.0065818  0  0  0  0.109804  -0.128  0.110462  0  0  0  0  0  0  0  0  0 
1704720553.761411000  -2.4997  -0.300309  1.0003  0  0  0.0004307  0.0071261  -0.0074869  0.0071435  0  0  0  0.113414  -0.136125  0.114149  0  0  0  0  0  0  0  0  0 
1704720553.766392000  -2.49966  -0.300348  1.00034  0  0  0.0004766  0.0077017  -0.0081883  0.0077229  0  0  0  0.116773  -0.1445  0.117586  0  0  0  0  0  0  0  0  0 
1704720553.771401000  -2.49962  -0.300391  1.00038  0  0  0.0005253  0.0082934  -0.0089323  0.0083189  0  0  0  0.119882  -0.153125  0.120773  0  0  0  0  0  0  0  0  0 
1704720553.776398000  -2.49958  -0.300437  1.00043  0  0  0.0005765  0.0089001  -0.0097197  0.0089302  0  0  0  0.122742  -0.161787  0.12371  0  0  0  0  0  0  0  0  0 
1704720553.781397000  -2.49953  -0.300488  1.00047  0  0  0.0006305  0.0095204  -0.0105498  0.0095556  0  0  0  0.125351  -0.170202  0.126397  0  0  0  0  0  0  0  0  0 
1704720553.786402000  -2.49948  -0.300543  1.00052  0  0  0.000687  0.0101532  -0.0114213  0.0101938  0  0  0  0.127711  -0.178366  0.128834  0  0  0  0  0  0  0  0  0 
1704720553.791405000  -2.49943  -0.300602  1.00057  0  0  0.0007461  0.0107971  -0.012333  0.0108435  0  0  0  0.12982  -0.18628  0.131022  0  0  0  0  0  0  0  0  0 
1704720553.796404000  -2.49937  -0.300666  1.00063  0  0  0.0008076  0.011451  -0.0132837  0.0115036  0  0  0  0.131679  -0.193944  0.132959  0  0  0  0  0  0  0  0  0 
1704720553.801392000  -2.49931  -0.300735  1.00069  0  0  0.0008716  0.0121135  -0.014272  0.0121727  0  0  0  0.133289  -0.201358  0.134646  0  0  0  0  0  0  0  0  0 
1704720553.806405000  -2.49925  -0.300809  1.00075  0  0  0.0009379  0.0127834  -0.0152968  0.0128496  0  0  0  0.134648  -0.208522  0.136083  0  0  0  0  0  0  0  0  0 
1704720553.811378000  -2.49919  -0.300888  1.00082  0  0  0.0010065  0.0134595  -0.0163568  0.0135331  0  0  0  0.135757  -0.215436  0.13727  0  0  0  0  0  0  0  0  0 
1704720553.816387000  -2.49912  -0.300973  1.00089  0  0  0.0010773  0.0141406  -0.0174507  0.0142219  0  0  0  0.136617  -0.2221  0.138207  0  0  0  0  0  0  0  0  0 
1704720553.821388000  -2.49904  -0.301063  1.00096  0  0  0.0011501  0.0148253  -0.0185774  0.0149148  0  0  0  0.137226  -0.228514  0.138894  0  0  0  0  0  0  0  0  0 
1704720553.826399000  -2.49897  -0.301159  1.00104  0  0  0.0012248  0.0155124  -0.0197355  0.0156104  0  0  0  0.137585  -0.234678  0.139332  0  0  0  0  0  0  0  0  0 
1704720553.831396000  -2.49889  -0.30126  1.00112  0  0  0.0013014  0.0162007  -0.0209237  0.0163077  0  0  0  0.137695  -0.240592  0.139519  0  0  0  0  0  0  0  0  0 
1704720553.836394000  -2.49881  -0.301368  1.0012  0  0  0.0013796  0.016889  -0.022141  0.0170052  0  0  0  0.137554  -0.246256  0.139456  0  0  0  0  0  0  0  0  0 
1704720553.841390000  -2.49872  -0.301482  1.00129  0  0  0.0014594  0.0175759  -0.0233859  0.0177018  0  0  0  0.137164  -0.25167  0.139143  0  0  0  0  0  0  0  0  0 
1704720553.846404000  -2.49863  -0.301602  1.00138  0  0  0.0015405  0.0182602  -0.0246573  0.0183962  0  0  0  0.136523  -0.256834  0.13858  0  0  0  0  0  0  0  0  0 
1704720553.851389000  -2.49854  -0.301728  1.00147  0  0  0.0016228  0.0189407  -0.0259538  0.0190872  0  0  0  0.135632  -0.261748  0.137767  0  0  0  0  0  0  0  0  0 
1704720553.856394000  -2.49844  -0.301861  1.00157  0  0  0.0017062  0.0196161  -0.0272743  0.0197735  0  0  0  0.134492  -0.266412  0.136704  0  0  0  0  0  0  0  0  0 
1704720553.861390000  -2.49834  -0.302001  1.00167  0  0  0.0017905  0.0202852  -0.0286175  0.0204538  0  0  0  0.133101  -0.270826  0.135391  0  0  0  0  0  0  0  0  0 
1704720553.866405000  -2.49824  -0.302148  1.00177  0  0  0.0018756  0.0209467  -0.0299822  0.021127  0  0  0  0.13146  -0.27499  0.133829  0  0  0  0  0  0  0  0  0 
1704720553.871389000  -2.49813  -0.302301  1.00188  0  0  0.0019614  0.0215994  -0.031367  0.0217917  0  0  0  0.12957  -0.278904  0.132016  0  0  0  0  0  0  0  0  0 
1704720553.876375000  -2.49802  -0.302461  1.00199  0  0  0.0020477  0.022242  -0.0327708  0.0224467  0  0  0  0.127429  -0.282568  0.129953  0  0  0  0  0  0  0  0  0 
1704720553.881384000  -2.49791  -0.302629  1.0021  0  0  0.0021345  0.0228732  -0.0341923  0.0230908  0  0  0  0.125038  -0.285982  0.12764  0  0  0  0  0  0  0  0  0 
1704720553.886401000  -2.49779  -0.302803  1.00222  0  0  0.0022216  0.0234919  -0.0356302  0.0237227  0  0  0  0.122398  -0.289146  0.125077  0  0  0  0  0  0  0  0  0 
1704720553.891393000  -2.49767  -0.302985  1.00234  0  0  0.0023091  0.0240968  -0.0370833  0.0243412  0  0  0  0.119507  -0.29206  0.122264  0  0  0  0  0  0  0  0  0 
1704720553.896394000  -2.49755  -0.303174  1.00246  0  0  0.0023967  0.0246866  -0.0385504  0.0249449  0  0  0  0.116367  -0.294724  0.119201  0  0  0  0  0  0  0  0  0 
1704720553.901387000  -2.49743  -0.303371  1.00259  0  0  0.0024845  0.02526  -0.0400301  0.0255327  0  0  0  0.112976  -0.297138  0.115888  0  0  0  0  0  0  0  0  0 
1704720553.906396000  -2.4973  -0.303574  1.00272  0  0  0.0025724  0.0258159  -0.0415213  0.0261034  0  0  0  0.109335  -0.299302  0.112326  0  0  0  0  0  0  0  0  0 
1704720553.911393000  -2.49717  -0.303786  1.00285  0  0  0.0026604  0.026353  -0.0430227  0.0266556  0  0  0  0.105445  -0.301216  0.108513  0  0  0  0  0  0  0  0  0 
1704720553.916395000  -2.49704  -0.304005  1.00298  0  0  0.0027484  0.02687  -0.0445331  0.0271881  0  0  0  0.101304  -0.30288  0.10445  0  0  0  0  0  0  0  0  0 
1704720553.921391000  -2.4969  -0.304231  1.00312  0  0  0.0028364  0.0273656  -0.0460511  0.0276997  0  0  0  0.0969134  -0.304294  0.100137  0  0  0  0  0  0  0  0  0 
1704720553.926395000  -2.49676  -0.304465  1.00326  0  0  0.0029244  0.0278387  -0.0475756  0.0281891  0  0  0  0.0922728  -0.305458  0.0955741  0  0  0  0  0  0  0  0  0 
1704720553.931385000  -2.49662  -0.304707  1.0034  0  0  0.0030124  0.0282879  -0.0491053  0.028655  0  0  0  0.0873821  -0.306372  0.0907612  0  0  0  0  0  0  0  0  0 
1704720553.936386000  -2.49648  -0.304956  1.00355  0  0  0.0031005  0.0287121  -0.0506389  0.0290962  0  0  0  0.0822415  -0.307036  0.0856983  0  0  0  0  0  0  0  0  0 
1704720553.941381000  -2.49634  -0.305213  1.00369  0  0  0.0031885  0.0291099  -0.0521752  0.0295116  0  0  0  0.0768508  -0.30745  0.0803855  0  0  0  0  0  0  0  0  0 
1704720553.946383000  -2.49619  -0.305478  1.00384  0  0  0.0032765  0.0294802  -0.053713  0.0298997  0  0  0  0.0712102  -0.307614  0.0748226  0  0  0  0  0  0  0  0  0 
1704720553.951384000  -2.49604  -0.30575  1.00399  0  0  0.0033645  0.0298217  -0.0552509  0.0302594  0  0  0  0.0654077  -0.307528  0.0690138  0  0  0  0  0  0  0  0  0 
1704720553.956393000  -2.49589  -0.30603  1.00415  0  0  0.0034525  0.0301346  -0.0567878  0.03059  0  0  0  0.059814  -0.307192  0.0632645  0  0  0  0  0  0  0  0  0 
1704720553.961382000  -2.49574  -0.306318  1.0043  0  0  0.0035406  0.0304202  -0.0583224  0.0308924  0  0  0  0.0544703  -0.306606  0.0577653  0  0  0  0  0  0  0  0  0 
1704720553.966382000  -2.49559  -0.306614  1.00445  0  0  0.0036286  0.0306797  -0.0598535  0.031168  0  0  0  0.0493765  -0.30577  0.052516  0  0  0  0  0  0  0  0  0 
1704720553.971382000  -2.49543  -0.306917  1.00461  0  0  0.0037166  0.0309144  -0.0613797  0.031418  0  0  0  0.0445328  -0.304684  0.0475167  0  0  0  0  0  0  0  0  0 
1704720553.976386000  -2.49528  -0.307227  1.00477  0  0  0.0038046  0.0311255  -0.0628999  0.0316436  0  0  0  0.0399391  -0.303348  0.0427675  0  0  0  0  0  0  0  0  0 
1704720553.981395000  -2.49512  -0.307546  1.00493  0  0  0.0038926  0.0313142  -0.0644128  0.0318461  0  0  0  0.0355954  -0.301762  0.0382682  0  0  0  0  0  0  0  0  0 
1704720553.986401000  -2.49496  -0.307872  1.00509  0  0  0.0039807  0.0314819  -0.0659171  0.0320267  0  0  0  0.0315016  -0.299926  0.034019  0  0  0  0  0  0  0  0  0 
1704720553.991386000  -2.49481  -0.308205  1.00525  0  0  0.0040687  0.0316297  -0.0674116  0.0321867  0  0  0  0.0276579  -0.29784  0.0300197  0  0  0  0  0  0  0  0  0 
1704720553.996387000  -2.49465  -0.308546  1.00541  0  0  0.0041567  0.0317589  -0.0688951  0.0323273  0  0  0  0.0240642  -0.295504  0.0262705  0  0  0  0  0  0  0  0  0 
1704720554.001381000  -2.49449  -0.308894  1.00557  0  0  0.0042447  0.0318707  -0.0703663  0.0324498  0  0  0  0.0207204  -0.292918  0.0227712  0  0  0  0  0  0  0  0  0 
1704720554.006391000  -2.49433  -0.309249  1.00573  0  0  0.0043327  0.0319665  -0.0718239  0.0325555  0  0  0  0.0176267  -0.290082  0.019522  0  0  0  0  0  0  0  0  0 
1704720554.011384000  -2.49417  -0.309612  1.0059  0  0  0.0044208  0.0320474  -0.0732667  0.0326455  0  0  0  0.014783  -0.286996  0.0165227  0  0  0  0  0  0  0  0  0 
1704720554.016393000  -2.49401  -0.309982  1.00606  0  0  0.0045088  0.0321147  -0.0746934  0.0327211  0  0  0  0.0121892  -0.28366  0.0137734  0  0  0  0  0  0  0  0  0 
1704720554.021405000  -2.49385  -0.310359  1.00622  0  0  0.0045968  0.0321697  -0.0761029  0.0327836  0  0  0  0.0098455  -0.280074  0.0112742  0  0  0  0  0  0  0  0  0 
1704720554.026393000  -2.49369  -0.310743  1.00639  0  0  0.0046848  0.0322136  -0.0774937  0.0328343  0  0  0  0.0077518  -0.276238  0.0090249  0  0  0  0  0  0  0  0  0 
1704720554.031394000  -2.49353  -0.311134  1.00655  0  0  0.0047728  0.0322476  -0.0788648  0.0328743  0  0  0  0.0059081  -0.272152  0.0070257  0  0  0  0  0  0  0  0  0 
1704720554.036391000  -2.49336  -0.311532  1.00672  0  0  0.0048608  0.0322731  -0.0802149  0.0329049  0  0  0  0.0043143  -0.267816  0.0052764  0  0  0  0  0  0  0  0  0 
1704720554.041390000  -2.4932  -0.311936  1.00688  0  0  0.0049489  0.0322912  -0.0815426  0.0329275  0  0  0  0.0029706  -0.263231  0.0037772  0  0  0  0  0  0  0  0  0 
1704720554.046391000  -2.49304  -0.312347  1.00705  0  0  0.0050369  0.0323032  -0.0828467  0.0329431  0  0  0  0.0018769  -0.258395  0.0025279  0  0  0  0  0  0  0  0  0 
1704720554.051394000  -2.49288  -0.312764  1.00721  0  0  0.0051249  0.0323104  -0.0841261  0.0329532  0  0  0  0.0010331  -0.253309  0.0015287  0  0  0  0  0  0  0  0  0 
1704720554.056380000  -2.49272  -0.313188  1.00738  0  0  0.0052129  0.032314  -0.0853794  0.0329588  0  0  0  0.0004394  -0.247973  0.0007794  0  0  0  0  0  0  0  0  0 
1704720554.061388000  -2.49256  -0.313618  1.00754  0  0  0.0053009  0.0323152  -0.0866054  0.0329614  0  0  0  9.57e-05  -0.242387  0.0002801  0  0  0  0  0  0  0  0  0 
1704720554.066392000  -2.4924  -0.314054  1.00771  0  0  0.005389  0.0323153  -0.0878029  0.032962  0  0  0  -0  -0.236551  3.09e-05  0  0  0  0  0  0  0  0  0 
1704720554.071392000  -2.49223  -0.314496  1.00787  0  0  0.005477  0.0323153  -0.0889705  0.0329621  0  0  0  -0  -0.230465  0  0  0  0  0  0  0  0  0  0 
1704720554.076382000  -2.49207  -0.314944  1.00803  0  0  0.005565  0.0323153  -0.0901071  0.0329621  0  0  0  -0  -0.224129  0  0  0  0  0  0  0  0  0  0 
1704720554.081388000  -2.49191  -0.315397  1.0082  0  0  0.005653  0.0323153  -0.0912114  0.0329621  0  0  0  -0  -0.217543  0  0  0  0  0  0  0  0  0  0 
1704720554.086395000  -2.49175  -0.315856  1.00836  0  0  0.0057411  0.0323153  -0.0922821  0.0329621  0  0  0  -0  -0.210707  0  0  0  0  0  0  0  0  0  0 
1704720554.091390000  -2.49159  -0.31632  1.00853  0  0  0.0058291  0.0323153  -0.093318  0.0329621  0  0  0  -0  -0.203621  0  0  0  0  0  0  0  0  0  0 
1704720554.096377000  -2.49143  -0.316789  1.00869  0  0  0.0059171  0.0323153  -0.0943179  0.0329621  0  0  0  -0  -0.196285  0  0  0  0  0  0  0  0  0  0 
1704720554.101386000  -2.49126  -0.317263  1.00886  0  0  0.0060051  0.0323153  -0.0952805  0.0329621  0  0  0  -0  -0.188699  0  0  0  0  0  0  0  0  0  0 
1704720554.106398000  -2.4911  -0.317742  1.00902  0  0  0.0060931  0.0323153  -0.0962045  0.0329621  0  0  0  -0  -0.180863  0  0  0  0  0  0  0  0  0  0 
1704720554.111393000  -2.49094  -0.318225  1.00919  0  0  0.0061811  0.0323153  -0.0970887  0.0329621  0  0  0  -0  -0.172777  0  0  0  0  0  0  0  0  0  0 
1704720554.116382000  -2.49078  -0.318713  1.00935  0  0  0.0062692  0.0323153  -0.0979318  0.0329621  0  0  0  -0  -0.164441  0  0  0  0  0  0  0  0  0  0 
1704720554.121390000  -2.49062  -0.319204  1.00952  0  0  0.0063572  0.0323153  -0.0987327  0.0329621  0  0  0  -0  -0.155855  0  0  0  0  0  0  0  0  0  0 
1704720554.126389000  -2.49046  -0.3197  1.00968  0  0  0.0064452  0.0323153  -0.0994901  0.0329621  0  0  0  -0  -0.147165  0  0  0  0  0  0  0  0  0  0 
1704720554.131389000  -2.4903  -0.320199  1.00985  0  0  0.0065332  0.0323153  -0.100205  0.0329621  0  0  0  -0  -0.138712  0  0  0  0  0  0  0  0  0  0 
1704720554.136380000  -2.49013  -0.320702  1.01001  0  0  0.0066213  0.0323153  -0.100878  0.0329621  0  0  0  -0  -0.130509  0  0  0  0  0  0  0  0  0  0 
1704720554.141386000  -2.48997  -0.321208  1.01018  0  0  0.0067093  0.0323153  -0.10151  0.0329621  0  0  0  -0  -0.122556  0  0  0  0  0  0  0  0  0  0 
1704720554.146390000  -2.48981  -0.321717  1.01034  0  0  0.0067973  0.0323153  -0.102104  0.0329621  0  0  0  -0  -0.114853  0  0  0  0  0  0  0  0  0  0 
1704720554.151389000  -2.48965  -0.322229  1.01051  0  0  0.0068853  0.0323153  -0.102659  0.0329621  0  0  0  -0  -0.1074  0  0  0  0  0  0  0  0  0  0 
1704720554.156379000  -2.48949  -0.322743  1.01067  0  0  0.0069733  0.0323153  -0.103178  0.0329621  0  0  0  -0  -0.100197  0  0  0  0  0  0  0  0  0  0 
1704720554.161388000  -2.48933  -0.323261  1.01084  0  0  0.0070613  0.0323153  -0.103662  0.0329621  0  0  0  -0  -0.0932442  0  0  0  0  0  0  0  0  0  0 
1704720554.166388000  -2.48916  -0.32378  1.011  0  0  0.0071494  0.0323153  -0.104111  0.0329621  0  0  0  -0  -0.0865412  0  0  0  0  0  0  0  0  0  0 
1704720554.171394000  -2.489  -0.324302  1.01117  0  0  0.0072374  0.0323153  -0.104527  0.0329621  0  0  0  -0  -0.0800881  0  0  0  0  0  0  0  0  0  0 
1704720554.176379000  -2.48884  -0.324825  1.01133  0  0  0.0073254  0.0323153  -0.104912  0.0329621  0  0  0  -0  -0.0738851  0  0  0  0  0  0  0  0  0  0 
1704720554.181392000  -2.48868  -0.325351  1.0115  0  0  0.0074134  0.0323153  -0.105267  0.0329621  0  0  0  -0  -0.0679321  0  0  0  0  0  0  0  0  0  0 
1704720554.186388000  -2.48852  -0.325878  1.01166  0  0  0.0075014  0.0323153  -0.105592  0.0329621  0  0  0  -0  -0.062229  0  0  0  0  0  0  0  0  0  0 
1704720554.191394000  -2.48836  -0.326407  1.01183  0  0  0.0075895  0.0323153  -0.105889  0.0329621  0  0  0  -0  -0.056776  0  0  0  0  0  0  0  0  0  0 
1704720554.196381000  -2.48819  -0.326937  1.01199  0  0  0.0076775  0.0323153  -0.10616  0.0329621  0  0  0  -0  -0.0515729  0  0  0  0  0  0  0  0  0  0 
1704720554.201385000  -2.48803  -0.327468  1.01216  0  0  0.0077655  0.0323153  -0.106406  0.0329621  0  0  0  -0  -0.0466199  0  0  0  0  0  0  0  0  0  0 
1704720554.206390000  -2.48787  -0.328001  1.01232  0  0  0.0078535  0.0323153  -0.106627  0.0329621  0  0  0  -0  -0.0419169  0  0  0  0  0  0  0  0  0  0 
1704720554.211394000  -2.48771  -0.328534  1.01248  0  0  0.0079415  0.0323153  -0.106825  0.0329621  0  0  0  -0  -0.0374638  0  0  0  0  0  0  0  0  0  0 
1704720554.216381000  -2.48755  -0.329069  1.01265  0  0  0.0080296  0.0323153  -0.107002  0.0329621  0  0  0  -0  -0.0332608  0  0  0  0  0  0  0  0  0  0 
1704720554.221385000  -2.48739  -0.329604  1.01281  0  0  0.0081176  0.0323153  -0.107158  0.0329621  0  0  0  -0  -0.0293077  0  0  0  0  0  0  0  0  0  0 
1704720554.226395000  -2.48723  -0.33014  1.01298  0  0  0.0082056  0.0323153  -0.107295  0.0329621  0  0  0  -0  -0.0256047  0  0  0  0  0  0  0  0  0  0 
1704720554.231388000  -2.48706  -0.330677  1.01314  0  0  0.0082936  0.0323153  -0.107415  0.0329621  0  0  0  -0  -0.0221517  0  0  0  0  0  0  0  0  0  0 
1704720554.236390000  -2.4869  -0.331215  1.01331  0  0  0.0083816  0.0323153  -0.107517  0.0329621  0  0  0  -0  -0.0189486  0  0  0  0  0  0  0  0  0  0 
1704720554.241390000  -2.48674  -0.331752  1.01347  0  0  0.0084697  0.0323153  -0.107604  0.0329621  0  0  0  -0  -0.0159956  0  0  0  0  0  0  0  0  0  0 
1704720554.246391000  -2.48658  -0.332291  1.01364  0  0  0.0085577  0.0323153  -0.107678  0.0329621  0  0  0  -0  -0.0132926  0  0  0  0  0  0  0  0  0  0 
1704720554.251394000  -2.48642  -0.332829  1.0138  0  0  0.0086457  0.0323153  -0.107738  0.0329621  0  0  0  -0  -0.0108395  0  0  0  0  0  0  0  0  0  0 
1704720554.256379000  -2.48626  -0.333368  1.01397  0  0  0.0087337  0.0323153  -0.107786  0.0329621  0  0  0  -0  -0.0086365  0  0  0  0  0  0  0  0  0  0 
1704720554.261391000  -2.48609  -0.333907  1.01413  0  0  0.0088217  0.0323153  -0.107825  0.0329621  0  0  0  -0  -0.0066834  0  0  0  0  0  0  0  0  0  0 
1704720554.266389000  -2.48593  -0.334446  1.0143  0  0  0.0089097  0.0323153  -0.107854  0.0329621  0  0  0  -0  -0.0049804  0  0  0  0  0  0  0  0  0  0 
1704720554.271387000  -2.48577  -0.334985  1.01446  0  0  0.0089978  0.0323153  -0.107875  0.0329621  0  0  0  -0  -0.0035274  0  0  0  0  0  0  0  0  0  0 
1704720554.276380000  -2.48561  -0.335525  1.01463  0  0  0.0090858  0.0323153  -0.107889  0.0329621  0  0  0  -0  -0.0023243  0  0  0  0  0  0  0  0  0  0 
1704720554.281388000  -2.48545  -0.336064  1.01479  0  0  0.0091738  0.0323153  -0.107899  0.0329621  0  0  0  -0  -0.0013713  0  0  0  0  0  0  0  0  0  0 
1704720554.286393000  -2.48529  -0.336604  1.01496  0  0  0.0092618  0.0323153  -0.107903  0.0329621  0  0  0  -0  -0.0006683  0  0  0  0  0  0  0  0  0  0 
1704720554.291392000  -2.48512  -0.337143  1.01512  0  0  0.0093498  0.0323153  -0.107906  0.0329621  0  0  0  -0  -0.0002152  0  0  0  0  0  0  0  0  0  0 
1704720554.296379000  -2.48496  -0.337683  1.01529  0  0  0.0094379  0.0323153  -0.107906  0.0329621  0  0  0  -0  -1.22e-05  0  0  0  0  0  0  0  0  0  0 
1704720554.301384000  -2.4848  -0.338222  1.01545  0  0  0.0095259  0.0323153  -0.107906  0.0329621  0  0  0  -0  3.82e-05  0  0  0  0  0  0  0  0  0  0 
1704720554.306389000  -2.48464  -0.338762  1.01562  0  0  0.0096139  0.0323153  -0.107905  0.0329621  0  0  0  -0  0.0003014  0  0  0  0  0  0  0  0  0  0 
1704720554.311389000  -2.48448  -0.339301  1.01578  0  0  0.0097019  0.0323153  -0.107903  0.0329621  0  0  0  -0  0.0008146  0  0  0  0  0  0  0  0  0  0 
1704720554.316378000  -2.48432  -0.339841  1.01595  0  0  0.00979  0.0323153  -0.107897  0.0329621  0  0  0  -0  0.0015778  0  0  0  0  0  0  0  0  0  0 
1704720554.321386000  -2.48416  -0.34038  1.01611  0  0  0.009878  0.0323153  -0.107886  0.0329621  0  0  0  -0  0.002591  0  0  0  0  0  0  0  0  0  0 
1704720554.326384000  -2.48399  -0.34092  1.01628  0  0  0.009966  0.0323153  -0.10787  0.0329621  0  0  0  -0  0.0038542  0  0  0  0  0  0  0  0  0  0 
1704720554.331390000  -2.48383  -0.341459  1.01644  0  0  0.010054  0.0323153  -0.107847  0.0329621  0  0  0  -0  0.0053673  0  0  0  0  0  0  0  0  0  0 
1704720554.336380000  -2.48367  -0.341998  1.0166  0  0  0.010142  0.0323153  -0.107816  0.0329621  0  0  0  -0  0.0071305  0  0  0  0  0  0  0  0  0  0 
1704720554.341395000  -2.48351  -0.342537  1.01677  0  0  0.01023  0.0323153  -0.107776  0.0329621  0  0  0  -0  0.0091437  0  0  0  0  0  0  0  0  0  0 
1704720554.346389000  -2.48335  -0.343076  1.01693  0  0  0.0103181  0.0323153  -0.107724  0.0329621  0  0  0  -0  0.0114069  0  0  0  0  0  0  0  0  0  0 
1704720554.351390000  -2.48319  -0.343615  1.0171  0  0  0.0104061  0.0323153  -0.107661  0.0329621  0  0  0  -0  0.0139201  0  0  0  0  0  0  0  0  0  0 
1704720554.356382000  -2.48302  -0.344153  1.01726  0  0  0.0104941  0.0323153  -0.107585  0.0329621  0  0  0  -0  0.0166833  0  0  0  0  0  0  0  0  0  0 
1704720554.361385000  -2.48286  -0.34469  1.01743  0  0  0.0105821  0.0323153  -0.107494  0.0329621  0  0  0  -0  0.0196965  0  0  0  0  0  0  0  0  0  0 
1704720554.366389000  -2.4827  -0.345228  1.01759  0  0  0.0106701  0.0323153  -0.107387  0.0329621  0  0  0  -0  0.0229597  0  0  0  0  0  0  0  0  0  0 
1704720554.371394000  -2.48254  -0.345764  1.01776  0  0  0.0107582  0.0323153  -0.107264  0.0329621  0  0  0  -0  0.0264729  0  0  0  0  0  0  0  0  0  0 
1704720554.376378000  -2.48238  -0.3463  1.01792  0  0  0.0108462  0.0323153  -0.107122  0.0329621  0  0  0  -0  0.0302361  0  0  0  0  0  0  0  0  0  0 
1704720554.381386000  -2.48222  -0.346835  1.01809  0  0  0.0109342  0.0323153  -0.106961  0.0329621  0  0  0  -0  0.0342493  0  0  0  0  0  0  0  0  0  0 
1704720554.386393000  -2.48205  -0.34737  1.01825  0  0  0.0110222  0.0323153  -0.106779  0.0329621  0  0  0  -0  0.0385125  0  0  0  0  0  0  0  0  0  0 
1704720554.391393000  -2.48189  -0.347903  1.01842  0  0  0.0111102  0.0323153  -0.106576  0.0329621  0  0  0  -0  0.0430257  0  0  0  0  0  0  0  0  0  0 
1704720554.396380000  -2.48173  -0.348435  1.01858  0  0  0.0111983  0.0323153  -0.106349  0.0329621  0  0  0  -0  0.0477889  0  0  0  0  0  0  0  0  0  0 
1704720554.401387000  -2.48157  -0.348967  1.01875  0  0  0.0112863  0.0323153  -0.106097  0.0329621  0  0  0  -0  0.052802  0  0  0  0  0  0  0  0  0  0 
1704720554.406389000  -2.48141  -0.349496  1.01891  0  0  0.0113743  0.0323153  -0.10582  0.0329621  0  0  0  -0  0.0580652  0  0  0  0  0  0  0  0  0  0 
1704720554.411384000  -2.48125  -0.350025  1.01908  0  0  0.0114623  0.0323153  -0.105516  0.0329621  0  0  0  -0  0.0635784  0  0  0  0  0  0  0  0  0  0 
1704720554.416379000  -2.48109  -0.350552  1.01924  0  0  0.0115503  0.0323153  -0.105184  0.0329621  0  0  0  -0  0.0693416  0  0  0  0  0  0  0  0  0  0 
1704720554.421396000  -2.48092  -0.351077  1.01941  0  0  0.0116384  0.0323153  -0.104822  0.0329621  0  0  0  -0  0.0753548  0  0  0  0  0  0  0  0  0  0 
1704720554.426390000  -2.48076  -0.3516  1.01957  0  0  0.0117264  0.0323153  -0.10443  0.0329621  0  0  0  -0  0.081618  0  0  0  0  0  0  0  0  0  0 
1704720554.431395000  -2.4806  -0.352121  1.01974  0  0  0.0118144  0.0323153  -0.104006  0.0329621  0  0  0  -0  0.0881312  0  0  0  0  0  0  0  0  0  0 
1704720554.436379000  -2.48044  -0.35264  1.0199  0  0  0.0119024  0.0323153  -0.103548  0.0329621  0  0  0  -0  0.0948944  0  0  0  0  0  0  0  0  0  0 
1704720554.441385000  -2.48028  -0.353156  1.02007  0  0  0.0119904  0.0323153  -0.103057  0.0329621  0  0  0  -0  0.101908  0  0  0  0  0  0  0  0  0  0 
1704720554.446393000  -2.48012  -0.35367  1.02023  0  0  0.0120785  0.0323153  -0.102529  0.0329621  0  0  0  -0  0.109171  0  0  0  0  0  0  0  0  0  0 
1704720554.451393000  -2.47995  -0.354181  1.0204  0  0  0.0121665  0.0323153  -0.101964  0.0329621  0  0  0  -0  0.116684  0  0  0  0  0  0  0  0  0  0 
1704720554.456386000  -2.47979  -0.35469  1.02056  0  0  0.0122545  0.0323153  -0.101362  0.0329621  0  0  0  -0  0.124447  0  0  0  0  0  0  0  0  0  0 
1704720554.461395000  -2.47963  -0.355195  1.02073  0  0  0.0123425  0.0323153  -0.100719  0.0329621  0  0  0  -0  0.13246  0  0  0  0  0  0  0  0  0  0 
1704720554.466395000  -2.47947  -0.355697  1.02089  0  0  0.0124305  0.0323153  -0.100037  0.0329621  0  0  0  -0  0.140724  0  0  0  0  0  0  0  0  0  0 
1704720554.471392000  -2.47931  -0.356195  1.02105  0  0  0.0125186  0.0323153  -0.0993118  0.0329621  0  0  0  -0  0.149237  0  0  0  0  0  0  0  0  0  0 
1704720554.476379000  -2.47915  -0.35669  1.02122  0  0  0.0126066  0.0323153  -0.0985438  0.0329621  0  0  0  -0  0.158  0  0  0  0  0  0  0  0  0  0 
1704720554.481395000  -2.47898  -0.357181  1.02138  0  0  0.0126946  0.0323153  -0.0977314  0.0329621  0  0  0  -0  0.167013  0  0  0  0  0  0  0  0  0  0 
1704720554.486399000  -2.47882  -0.357667  1.02155  0  0  0.0127826  0.0323153  -0.0968733  0.0329621  0  0  0  -0  0.176276  0  0  0  0  0  0  0  0  0  0 
1704720554.491400000  -2.47866  -0.358149  1.02171  0  0  0.0128706  0.0323153  -0.0959682  0.0329621  0  0  0  -0  0.18579  0  0  0  0  0  0  0  0  0  0 
1704720554.496376000  -2.4785  -0.358627  1.02188  0  0  0.0129587  0.0323153  -0.095015  0.0329621  0  0  0  -0  0.195553  0  0  0  0  0  0  0  0  0  0 
1704720554.501393000  -2.47834  -0.359099  1.02204  0  0  0.0130467  0.0323153  -0.0940123  0.0329621  0  0  0  -0  0.205566  0  0  0  0  0  0  0  0  0  0 
1704720554.506402000  -2.47818  -0.359567  1.02221  0  0  0.0131347  0.0323153  -0.0929589  0.0329621  0  0  0  -0  0.215829  0  0  0  0  0  0  0  0  0  0 
1704720554.511400000  -2.47802  -0.360029  1.02237  0  0  0.0132227  0.0323153  -0.0918536  0.0329621  0  0  0  -0  0.226342  0  0  0  0  0  0  0  0  0  0 
1704720554.516379000  -2.47785  -0.360485  1.02254  0  0  0.0133107  0.0323153  -0.0906951  0.0329621  0  0  0  -0  0.237105  0  0  0  0  0  0  0  0  0  0 
1704720554.521387000  -2.47769  -0.360936  1.0227  0  0  0.0133988  0.0323153  -0.0894821  0.0329621  0  0  0  -0  0.248119  0  0  0  0  0  0  0  0  0  0 
1704720554.526391000  -2.47753  -0.36138  1.02287  0  0  0.0134868  0.0323153  -0.0882135  0.0329621  0  0  0  -0  0.259382  0  0  0  0  0  0  0  0  0  0 
1704720554.531394000  -2.47737  -0.361818  1.02303  0  0  0.0135748  0.0323153  -0.0868879  0.0329621  0  0  0  -0  0.270895  0  0  0  0  0  0  0  0  0  0 
1704720554.536382000  -2.47721  -0.362249  1.0232  0  0  0.0136628  0.0323153  -0.0855041  0.0329621  0  0  0  -0  0.282658  0  0  0  0  0  0  0  0  0  0 
1704720554.541390000  -2.47705  -0.362673  1.02336  0  0  0.0137508  0.0323153  -0.0840609  0.0329621  0  0  0  -0  0.294671  0  0  0  0  0  0  0  0  0  0 
1704720554.546386000  -2.47688  -0.363089  1.02353  0  0  0.0138388  0.0323153  -0.082557  0.0329621  0  0  0  -0  0.306935  0  0  0  0  0  0  0  0  0  0 
1704720554.551400000  -2.47672  -0.363498  1.02369  0  0  0.0139269  0.0323153  -0.0809911  0.0329621  0  0  0  -0  0.319448  0  0  0  0  0  0  0  0  0  0 
1704720554.556381000  -2.47656  -0.363899  1.02386  0  0  0.0140149  0.0323153  -0.0793621  0.0329621  0  0  0  -0  0.332211  0  0  0  0  0  0  0  0  0  0 
1704720554.561393000  -2.4764  -0.364292  1.02402  0  0  0.0141029  0.0323153  -0.0776686  0.0329621  0  0  0  -0  0.345224  0  0  0  0  0  0  0  0  0  0 
1704720554.566397000  -2.47624  -0.364676  1.02419  0  0  0.0141909  0.0323153  -0.0759094  0.0329621  0  0  0  -0  0.358487  0  0  0  0  0  0  0  0  0  0 
1704720554.571387000  -2.47608  -0.365051  1.02435  0  0  0.0142789  0.0323153  -0.0740833  0.0329621  0  0  0  -0  0.372001  0  0  0  0  0  0  0  0  0  0 
1704720554.576377000  -2.47591  -0.365416  1.02452  0  0  0.014367  0.0323153  -0.072189  0.0329621  0  0  0  -0  0.385764  0  0  0  0  0  0  0  0  0  0 
1704720554.581399000  -2.47575  -0.365772  1.02468  0  0  0.014455  0.0323153  -0.0702252  0.0329621  0  0  0  -0  0.399777  0  0  0  0  0  0  0  0  0  0 
1704720554.586395000  -2.47559  -0.366119  1.02485  0  0  0.014543  0.0323153  -0.0681908  0.0329621  0  0  0  -0  0.41404  0  0  0  0  0  0  0  0  0  0 
1704720554.591390000  -2.47543  -0.366454  1.02501  0  0  0.014631  0.0323153  -0.0660844  0.0329621  0  0  0  -0  0.428553  0  0  0  0  0  0  0  0  0  0 
1704720554.596379000  -2.47527  -0.366779  1.02518  0  0  0.014719  0.0323153  -0.0639049  0.0329621  0  0  0  -0  0.443317  0  0  0  0  0  0  0  0  0  0 
1704720554.601388000  -2.47511  -0.367093  1.02534  0  0  0.0148071  0.0323153  -0.0616508  0.0329621  0  0  0  -0  0.45833  0  0  0  0  0  0  0  0  0  0 
1704720554.606394000  -2.47495  -0.367396  1.0255  0  0  0.0148951  0.0323153  -0.0593211  0.0329621  0  0  0  -0  0.473593  0  0  0  0  0  0  0  0  0  0 
1704720554.611390000  -2.47478  -0.367686  1.02567  0  0  0.0149831  0.0323153  -0.0569145  0.0329621  0  0  0  -0  0.489106  0  0  0  0  0  0  0  0  0  0 
1704720554.616376000  -2.47462  -0.367965  1.02583  0  0  0.0150711  0.0323153  -0.0544299  0.0329621  0  0  0  -0  0.5047  0  0  0  0  0  0  0  0  0  0 
1704720554.621390000  -2.47446  -0.36823  1.026  0  0  0.0151591  0.0323153  -0.0518679  0.0329621  0  0  0  -0  0.520053  0  0  0  0  0  0  0  0  0  0 
1704720554.626394000  -2.4743  -0.368483  1.02616  0  0  0.0152472  0.0323153  -0.0492298  0.0329621  0  0  0  -0  0.535155  0  0  0  0  0  0  0  0  0  0 
1704720554.631390000  -2.47414  -0.368723  1.02633  0  0  0.0153352  0.0323153  -0.0465168  0.0329621  0  0  0  -0  0.550007  0  0  0  0  0  0  0  0  0  0 
1704720554.636377000  -2.47398  -0.368948  1.02649  0  0  0.0154232  0.0323153  -0.0437301  0.0329621  0  0  0  -0  0.564609  0  0  0  0  0  0  0  0  0  0 
1704720554.641391000  -2.47381  -0.36916  1.02666  0  0  0.0155112  0.0323153  -0.0408711  0.0329621  0  0  0  -0  0.578961  0  0  0  0  0  0  0  0  0  0 
1704720554.646386000  -2.47365  -0.369357  1.02682  0  0  0.0155992  0.0323153  -0.0379409  0.0329621  0  0  0  -0  0.593064  0  0  0  0  0  0  0  0  0  0 
1704720554.651394000  -2.47349  -0.369539  1.02699  0  0  0.0156873  0.0323153  -0.0349409  0.0329621  0  0  0  -0  0.606916  0  0  0  0  0  0  0  0  0  0 
1704720554.656378000  -2.47333  -0.369706  1.02715  0  0  0.0157753  0.0323153  -0.0318722  0.0329621  0  0  0  -0  0.620518  0  0  0  0  0  0  0  0  0  0 
1704720554.661406000  -2.47317  -0.369858  1.02732  0  0  0.0158633  0.0323153  -0.0287361  0.0329621  0  0  0  -0  0.63387  0  0  0  0  0  0  0  0  0  0 
1704720554.666388000  -2.47301  -0.369993  1.02748  0  0  0.0159513  0.0323153  -0.0255339  0.0329621  0  0  0  -0  0.646972  0  0  0  0  0  0  0  0  0  0 
1704720554.671393000  -2.47285  -0.370113  1.02765  0  0  0.0160393  0.0323153  -0.0222668  0.0329621  0  0  0  -0  0.659825  0  0  0  0  0  0  0  0  0  0 
1704720554.676377000  -2.47268  -0.370216  1.02781  0  0  0.0161274  0.0323153  -0.0189361  0.0329621  0  0  0  -0  0.672427  0  0  0  0  0  0  0  0  0  0 
1704720554.681386000  -2.47252  -0.370302  1.02798  0  0  0.0162154  0.0323153  -0.015543  0.0329621  0  0  0  -0  0.684779  0  0  0  0  0  0  0  0  0  0 
1704720554.686386000  -2.47236  -0.370371  1.02814  0  0  0.0163034  0.0323153  -0.0120887  0.0329621  0  0  0  -0  0.696881  0  0  0  0  0  0  0  0  0  0 
1704720554.691407000  -2.4722  -0.370423  1.02831  0  0  0.0163914  0.0323153  -0.0085746  0.0329621  0  0  0  -0  0.708733  0  0  0  0  0  0  0  0  0  0 
1704720554.696378000  -2.47204  -0.370457  1.02847  0  0  0.0164794  0.0323153  -0.0050018  0.0329621  0  0  0  -0  0.720336  0  0  0  0  0  0  0  0  0  0 
1704720554.701402000  -2.47188  -0.370473  1.02864  0  0  0.0165675  0.0323153  -0.0013716  0.0329621  0  0  0  -0  0.731688  0  0  0  0  0  0  0  0  0  0 
1704720554.706404000  -2.47171  -0.370471  1.0288  0  0  0.0166555  0.0323153  0.0023147  0.0329621  0  0  0  -0  0.74279  0  0  0  0  0  0  0  0  0  0 
1704720554.711392000  -2.47155  -0.37045  1.02897  0  0  0.0167435  0.0323153  0.0060558  0.0329621  0  0  0  -0  0.753642  0  0  0  0  0  0  0  0  0  0 
1704720554.716382000  -2.47139  -0.37041  1.02913  0  0  0.0168315  0.0323153  0.0098507  0.0329621  0  0  0  -0  0.764244  0  0  0  0  0  0  0  0  0  0 
1704720554.721387000  -2.47123  -0.370351  1.0293  0  0  0.0169195  0.0323153  0.0136979  0.0329621  0  0  0  -0  0.774597  0  0  0  0  0  0  0  0  0  0 
1704720554.726403000  -2.47107  -0.370273  1.02946  0  0  0.0170076  0.0323153  0.0175962  0.0329621  0  0  0  -0  0.784699  0  0  0  0  0  0  0  0  0  0 
1704720554.731389000  -2.47091  -0.370175  1.02962  0  0  0.0170956  0.0323153  0.0215445  0.0329621  0  0  0  -0  0.794551  0  0  0  0  0  0  0  0  0  0 
1704720554.736380000  -2.47074  -0.370057  1.02979  0  0  0.0171836  0.0323153  0.0255413  0.0329621  0  0  0  -0  0.804153  0  0  0  0  0  0  0  0  0  0 
1704720554.741387000  -2.47058  -0.36992  1.02995  0  0  0.0172716  0.0323153  0.0295856  0.0329621  0  0  0  -0  0.813505  0  0  0  0  0  0  0  0  0  0 
1704720554.746396000  -2.47042  -0.369761  1.03012  0  0  0.0173596  0.0323153  0.033676  0.0329621  0  0  0  -0  0.822608  0  0  0  0  0  0  0  0  0  0 
1704720554.751399000  -2.47026  -0.369583  1.03028  0  0  0.0174476  0.0323153  0.0378112  0.0329621  0  0  0  -0  0.83146  0  0  0  0  0  0  0  0  0  0 
1704720554.756379000  -2.4701  -0.369383  1.03045  0  0  0.0175357  0.0323153  0.0419901  0.0329621  0  0  0  -0  0.840062  0  0  0  0  0  0  0  0  0  0 
1704720554.761388000  -2.46994  -0.369163  1.03061  0  0  0.0176237  0.0323153  0.0462114  0.0329621  0  0  0  -0  0.848414  0  0  0  0  0  0  0  0  0  0 
1704720554.766392000  -2.46978  -0.368921  1.03078  0  0  0.0177117  0.0323153  0.0504739  0.0329621  0  0  0  -0  0.856516  0  0  0  0  0  0  0  0  0  0 
1704720554.771391000  -2.46961  -0.368658  1.03094  0  0  0.0177997  0.0323153  0.0547762  0.0329621  0  0  0  -0  0.864369  0  0  0  0  0  0  0  0  0  0 
1704720554.776379000  -2.46945  -0.368373  1.03111  0  0  0.0178877  0.0323153  0.0591171  0.0329621  0  0  0  -0  0.871971  0  0  0  0  0  0  0  0  0  0 
1704720554.781399000  -2.46929  -0.368067  1.03127  0  0  0.0179758  0.0323153  0.0634955  0.0329621  0  0  0  -0  0.879323  0  0  0  0  0  0  0  0  0  0 
1704720554.786395000  -2.46913  -0.367738  1.03144  0  0  0.0180638  0.0323153  0.0679099  0.0329621  0  0  0  -0  0.886425  0  0  0  0  0  0  0  0  0  0 
1704720554.791402000  -2.46897  -0.367388  1.0316  0  0  0.0181518  0.0323153  0.0723593  0.0329621  0  0  0  -0  0.893277  0  0  0  0  0  0  0  0  0  0 
1704720554.796384000  -2.46881  -0.367015  1.03177  0  0  0.0182398  0.0323153  0.0768423  0.0329621  0  0  0  -0  0.89988  0  0  0  0  0  0  0  0  0  0 
1704720554.801393000  -2.46864  -0.366619  1.03193  0  0  0.0183278  0.0323153  0.0813577  0.0329621  0  0  0  -0  0.906232  0  0  0  0  0  0  0  0  0  0 
1704720554.806399000  -2.46848  -0.366201  1.0321  0  0  0.0184159  0.0323153  0.0859042  0.0329621  0  0  0  -0  0.912334  0  0  0  0  0  0  0  0  0  0 
1704720554.811394000  -2.46832  -0.36576  1.03226  0  0  0.0185039  0.0323153  0.0904806  0.0329621  0  0  0  -0  0.918186  0  0  0  0  0  0  0  0  0  0 
1704720554.816382000  -2.46816  -0.365296  1.03243  0  0  0.0185919  0.0323153  0.0950856  0.0329621  0  0  0  -0  0.923788  0  0  0  0  0  0  0  0  0  0 
1704720554.821389000  -2.468  -0.364809  1.03259  0  0  0.0186799  0.0323153  0.0997181  0.0329621  0  0  0  -0  0.929141  0  0  0  0  0  0  0  0  0  0 
1704720554.826394000  -2.46784  -0.364299  1.03276  0  0  0.0187679  0.0323153  0.104377  0.0329621  0  0  0  -0  0.934243  0  0  0  0  0  0  0  0  0  0 
1704720554.831377000  -2.46767  -0.363765  1.03292  0  0  0.018856  0.0323153  0.10906  0.0329621  0  0  0  -0  0.939095  0  0  0  0  0  0  0  0  0  0 
1704720554.836383000  -2.46751  -0.363208  1.03309  0  0  0.018944  0.0323153  0.113767  0.0329621  0  0  0  -0  0.943697  0  0  0  0  0  0  0  0  0  0 
1704720554.841387000  -2.46735  -0.362628  1.03325  0  0  0.019032  0.0323153  0.118497  0.0329621  0  0  0  -0  0.948049  0  0  0  0  0  0  0  0  0  0 
1704720554.846401000  -2.46719  -0.362023  1.03342  0  0  0.01912  0.0323153  0.123247  0.0329621  0  0  0  -0  0.952152  0  0  0  0  0  0  0  0  0  0 
1704720554.851394000  -2.46703  -0.361395  1.03358  0  0  0.019208  0.0323153  0.128018  0.0329621  0  0  0  -0  0.956004  0  0  0  0  0  0  0  0  0  0 
1704720554.856381000  -2.46687  -0.360743  1.03375  0  0  0.0192961  0.0323153  0.132807  0.0329621  0  0  0  -0  0.959606  0  0  0  0  0  0  0  0  0  0 
1704720554.861385000  -2.46671  -0.360067  1.03391  0  0  0.0193841  0.0323153  0.137613  0.0329621  0  0  0  -0  0.962958  0  0  0  0  0  0  0  0  0  0 
1704720554.866403000  -2.46654  -0.359367  1.03407  0  0  0.0194721  0.0323153  0.142436  0.0329621  0  0  0  -0  0.96606  0  0  0  0  0  0  0  0  0  0 
1704720554.871391000  -2.46638  -0.358643  1.03424  0  0  0.0195601  0.0323153  0.147274  0.0329621  0  0  0  -0  0.968913  0  0  0  0  0  0  0  0  0  0 
1704720554.876382000  -2.46622  -0.357894  1.0344  0  0  0.0196481  0.0323153  0.152125  0.0329621  0  0  0  -0  0.971515  0  0  0  0  0  0  0  0  0  0 
1704720554.881387000  -2.46606  -0.357121  1.03457  0  0  0.0197362  0.0323153  0.156988  0.0329621  0  0  0  -0  0.973867  0  0  0  0  0  0  0  0  0  0 
1704720554.886401000  -2.4659  -0.356324  1.03473  0  0  0.0198242  0.0323153  0.161863  0.0329621  0  0  0  -0  0.975969  0  0  0  0  0  0  0  0  0  0 
1704720554.891399000  -2.46574  -0.355503  1.0349  0  0  0.0199122  0.0323153  0.166748  0.0329621  0  0  0  -0  0.977821  0  0  0  0  0  0  0  0  0  0 
1704720554.896392000  -2.46557  -0.354657  1.03506  0  0  0.0200002  0.0323153  0.171641  0.0329621  0  0  0  -0  0.979424  0  0  0  0  0  0  0  0  0  0 
1704720554.901382000  -2.46541  -0.353786  1.03523  0  0  0.0200882  0.0323153  0.176541  0.0329621  0  0  0  -0  0.980776  0  0  0  0  0  0  0  0  0  0 
1704720554.906409000  -2.46525  -0.352891  1.03539  0  0  0.0201763  0.0323153  0.181448  0.0329621  0  0  0  -0  0.981878  0  0  0  0  0  0  0  0  0  0 
1704720554.911390000  -2.46509  -0.351972  1.03556  0  0  0.0202643  0.0323153  0.18636  0.0329621  0  0  0  -0  0.98273  0  0  0  0  0  0  0  0  0  0 
1704720554.916384000  -2.46493  -0.351028  1.03572  0  0  0.0203523  0.0323153  0.191275  0.0329621  0  0  0  -0  0.983332  0  0  0  0  0  0  0  0  0  0 
1704720554.921379000  -2.46477  -0.350059  1.03589  0  0  0.0204403  0.0323153  0.196193  0.0329621  0  0  0  -0  0.983685  0  0  0  0  0  0  0  0  0  0 
1704720554.926394000  -2.4646  -0.349066  1.03605  0  0  0.0205283  0.0323153  0.201111  0.0329621  0  0  0  -0  0.983787  0  0  0  0  0  0  0  0  0  0 
1704720554.931385000  -2.46444  -0.348048  1.03622  0  0  0.0206164  0.0323153  0.20603  0.0329621  0  0  0  -0  0.983639  0  0  0  0  0  0  0  0  0  0 
1704720554.936381000  -2.46428  -0.347005  1.03638  0  0  0.0207044  0.0323153  0.210947  0.0329621  0  0  0  -0  0.983241  0  0  0  0  0  0  0  0  0  0 
1704720554.941382000  -2.46412  -0.345938  1.03655  0  0  0.0207924  0.0323153  0.215862  0.0329621  0  0  0  -0  0.982593  0  0  0  0  0  0  0  0  0  0 
1704720554.946399000  -2.46396  -0.344847  1.03671  0  0  0.0208804  0.0323153  0.220773  0.0329621  0  0  0  -0  0.981696  0  0  0  0  0  0  0  0  0  0 
1704720554.951387000  -2.4638  -0.343731  1.03688  0  0  0.0209684  0.0323153  0.225679  0.0329621  0  0  0  -0  0.980548  0  0  0  0  0  0  0  0  0  0 
1704720554.956390000  -2.46364  -0.34259  1.03704  0  0  0.0210565  0.0323153  0.230578  0.0329621  0  0  0  -0  0.97915  0  0  0  0  0  0  0  0  0  0 
1704720554.961401000  -2.46347  -0.341425  1.03721  0  0  0.0211445  0.0323153  0.23547  0.0329621  0  0  0  -0  0.977502  0  0  0  0  0  0  0  0  0  0 
1704720554.966400000  -2.46331  -0.340235  1.03737  0  0  0.0212325  0.0323153  0.240353  0.0329621  0  0  0  -0  0.975604  0  0  0  0  0  0  0  0  0  0 
1704720554.971390000  -2.46315  -0.339021  1.03754  0  0  0.0213205  0.0323153  0.245225  0.0329621  0  0  0  -0  0.973457  0  0  0  0  0  0  0  0  0  0 
1704720554.976379000  -2.46299  -0.337783  1.0377  0  0  0.0214085  0.0323153  0.250087  0.0329621  0  0  0  -0  0.971059  0  0  0  0  0  0  0  0  0  0 
1704720554.981384000  -2.46283  -0.336521  1.03787  0  0  0.0214965  0.0323153  0.254936  0.0329621  0  0  0  -0  0.968411  0  0  0  0  0  0  0  0  0  0 
1704720554.986402000  -2.46267  -0.335234  1.03803  0  0  0.0215846  0.0323153  0.25977  0.0329621  0  0  0  -0  0.965513  0  0  0  0  0  0  0  0  0  0 
1704720554.991388000  -2.4625  -0.333923  1.0382  0  0  0.0216726  0.0323153  0.26459  0.0329621  0  0  0  -0  0.962365  0  0  0  0  0  0  0  0  0  0 
1704720554.996379000  -2.46234  -0.332588  1.03836  0  0  0.0217606  0.0323153  0.269394  0.0329621  0  0  0  -0  0.958968  0  0  0  0  0  0  0  0  0  0 
1704720555.001385000  -2.46218  -0.331229  1.03852  0  0  0.0218486  0.0323153  0.274179  0.0329621  0  0  0  -0  0.95532  0  0  0  0  0  0  0  0  0  0 
1704720555.006387000  -2.46202  -0.329846  1.03869  0  0  0.0219366  0.0323153  0.278946  0.0329621  0  0  0  -0  0.951422  0  0  0  0  0  0  0  0  0  0 
1704720555.011391000  -2.46186  -0.32844  1.03885  0  0  0.0220247  0.0323153  0.283693  0.0329621  0  0  0  -0  0.947274  0  0  0  0  0  0  0  0  0  0 
1704720555.016383000  -2.4617  -0.327009  1.03902  0  0  0.0221127  0.0323153  0.288419  0.0329621  0  0  0  -0  0.942876  0  0  0  0  0  0  0  0  0  0 
1704720555.021393000  -2.46153  -0.325555  1.03918  0  0  0.0222007  0.0323153  0.293122  0.0329621  0  0  0  -0  0.938229  0  0  0  0  0  0  0  0  0  0 
1704720555.026396000  -2.46137  -0.324078  1.03935  0  0  0.0222887  0.0323153  0.297801  0.0329621  0  0  0  -0  0.933331  0  0  0  0  0  0  0  0  0  0 
1704720555.031388000  -2.46121  -0.322577  1.03951  0  0  0.0223767  0.0323153  0.302455  0.0329621  0  0  0  -0  0.928183  0  0  0  0  0  0  0  0  0  0 
1704720555.036377000  -2.46105  -0.321054  1.03968  0  0  0.0224648  0.0323153  0.307082  0.0329621  0  0  0  -0  0.922785  0  0  0  0  0  0  0  0  0  0 
1704720555.041382000  -2.46089  -0.319507  1.03984  0  0  0.0225528  0.0323153  0.311682  0.0329621  0  0  0  -0  0.917137  0  0  0  0  0  0  0  0  0  0 
1704720555.046400000  -2.46073  -0.317937  1.04001  0  0  0.0226408  0.0323153  0.316253  0.0329621  0  0  0  -0  0.911239  0  0  0  0  0  0  0  0  0  0 
1704720555.051389000  -2.46057  -0.316344  1.04017  0  0  0.0227288  0.0323153  0.320794  0.0329621  0  0  0  -0  0.905092  0  0  0  0  0  0  0  0  0  0 
1704720555.056386000  -2.4604  -0.314729  1.04034  0  0  0.0228168  0.0323153  0.325304  0.0329621  0  0  0  -0  0.898694  0  0  0  0  0  0  0  0  0  0 
1704720555.061381000  -2.46024  -0.313091  1.0405  0  0  0.0229049  0.0323153  0.32978  0.0329621  0  0  0  -0  0.892046  0  0  0  0  0  0  0  0  0  0 
1704720555.066389000  -2.46008  -0.311431  1.04067  0  0  0.0229929  0.0323153  0.334224  0.0329621  0  0  0  -0  0.885148  0  0  0  0  0  0  0  0  0  0 
1704720555.071394000  -2.45992  -0.309749  1.04083  0  0  0.0230809  0.0323153  0.338632  0.0329621  0  0  0  -0  0.878  0  0  0  0  0  0  0  0  0  0 
1704720555.076379000  -2.45976  -0.308045  1.041  0  0  0.0231689  0.0323153  0.343003  0.0329621  0  0  0  -0  0.870603  0  0  0  0  0  0  0  0  0  0 
1704720555.081399000  -2.4596  -0.306319  1.04116  0  0  0.0232569  0.0323153  0.347337  0.0329621  0  0  0  -0  0.862955  0  0  0  0  0  0  0  0  0  0 
1704720555.086398000  -2.45943  -0.304572  1.04133  0  0  0.023345  0.0323153  0.351632  0.0329621  0  0  0  -0  0.855057  0  0  0  0  0  0  0  0  0  0 
1704720555.091394000  -2.45927  -0.302803  1.04149  0  0  0.023433  0.0323153  0.355887  0.0329621  0  0  0  -0  0.846909  0  0  0  0  0  0  0  0  0  0 
1704720555.096393000  -2.45911  -0.301013  1.04166  0  0  0.023521  0.0323153  0.360101  0.0329621  0  0  0  -0  0.838511  0  0  0  0  0  0  0  0  0  0 
1704720555.101393000  -2.45895  -0.299202  1.04182  0  0  0.023609  0.0323153  0.364272  0.0329621  0  0  0  -0  0.829864  0  0  0  0  0  0  0  0  0  0 
1704720555.106397000  -2.45879  -0.29737  1.04199  0  0  0.023697  0.0323153  0.368399  0.0329621  0  0  0  -0  0.820966  0  0  0  0  0  0  0  0  0  0 
1704720555.111395000  -2.45863  -0.295518  1.04215  0  0  0.023785  0.0323153  0.372481  0.0329621  0  0  0  -0  0.811818  0  0  0  0  0  0  0  0  0  0 
1704720555.116395000  -2.45846  -0.293645  1.04232  0  0  0.0238729  0.0323153  0.376517  0.0329621  0  0  0  -0  0.80242  0  0  0  0  0  0  0  0  0  0 
1704720555.121388000  -2.4583  -0.291753  1.04248  0  0  0.0239607  0.0323153  0.380505  0.0329621  0  0  0  -0  0.792772  0  0  0  0  0  0  0  0  0  0 
1704720555.126400000  -2.45814  -0.28984  1.04264  0  0  0.0240483  0.0323153  0.384444  0.0329621  0  0  0  -0  0.782875  0  0  0  0  0  0  0  0  0  0 
1704720555.131399000  -2.45798  -0.287908  1.04281  0  0  0.0241357  0.0323153  0.388333  0.0329621  0  0  0  -0  0.772727  0  0  0  0  0  0  0  0  0  0 
1704720555.136394000  -2.45782  -0.285957  1.04297  0  0  0.0242228  0.0323153  0.392171  0.0329621  0  0  0  -0  0.762329  0  0  0  0  0  0  0  0  0  0 
1704720555.141398000  -2.45766  -0.283987  1.04314  0  0  0.0243095  0.0323153  0.395956  0.0329621  0  0  0  -0  0.751681  0  0  0  0  0  0  0  0  0  0 
1704720555.146405000  -2.4575  -0.281998  1.0433  0  0  0.0243957  0.0323153  0.399687  0.0329621  0  0  0  -0  0.740783  8e-07  0  0  0  0  0  0  0  0  0 
1704720555.151403000  -2.45733  -0.27999  1.04347  0  0  0.0244814  0.0323153  0.403364  0.0329623  0  0  0  -0  0.729636  0.0001461  0  0  0  0  0  0  0  0  0 
1704720555.156399000  -2.45717  -0.277964  1.04363  0  0  0.0245664  0.0323153  0.406983  0.0329639  0  0  0  -0  0.718238  0.0005414  0  0  0  0  0  0  0  0  0 
1704720555.161403000  -2.45701  -0.27592  1.0438  0  0  0.0246506  0.0323153  0.410546  0.0329682  0  0  0  -0  0.70659  0.0011867  0  0  0  0  0  0  0  0  0 
1704720555.166417000  -2.45685  -0.273859  1.04396  0  0  0.0247338  0.0323153  0.414049  0.0329762  0  0  0  -0  0.694692  0.002082  0  0  0  0  0  0  0  0  0 
1704720555.171407000  -2.45669  -0.27178  1.04413  0  0  0.024816  0.0323153  0.417492  0.0329894  0  0  0  -0  0.682544  0.0032273  0  0  0  0  0  0  0  0  0 
1704720555.176401000  -2.45653  -0.269684  1.04429  0  0  0.0248969  0.0323153  0.420874  0.0330089  0  0  0  -0  0.670147  0.0046226  0  0  0  0  0  0  0  0  0 
1704720555.181400000  -2.45636  -0.267571  1.04446  0  0  0.0249764  0.0323153  0.424193  0.033036  0  0  0  -0  0.657499  0.006268  0  0  0  0  0  0  0  0  0 
1704720555.186396000  -2.4562  -0.265442  1.04462  0  0  0.0250544  0.0323153  0.427449  0.033072  0  0  0  -0  0.644601  0.0081633  0  0  0  0  0  0  0  0  0 
1704720555.191405000  -2.45604  -0.263297  1.04479  0  0  0.0251306  0.0323153  0.430639  0.0331181  0  0  0  -0  0.631453  0.0103086  0  0  0  0  0  0  0  0  0 
1704720555.196400000  -2.45588  -0.261136  1.04495  0  0  0.0252049  0.0323153  0.433763  0.0331755  0  0  0  -0  0.618055  0.0127039  0  0  0  0  0  0  0  0  0 
1704720555.201376000  -2.45572  -0.258959  1.04512  0  0  0.025277  0.0323153  0.436819  0.0332455  0  0  0  -0  0.604408  0.0153492  0  0  0  0  0  0  0  0  0 
1704720555.206393000  -2.45556  -0.256768  1.04529  0  0  0.0253467  0.0323153  0.439806  0.0333294  0  0  0  -0  0.59051  0.0182445  0  0  0  0  0  0  0  0  0 
1704720555.211406000  -2.45539  -0.254561  1.04545  0  0  0.0254139  0.0323153  0.442724  0.0334284  0  0  0  -0  0.576362  0.0213898  0  0  0  0  0  0  0  0  0 
1704720555.216399000  -2.45523  -0.252341  1.04562  0  0  0.0254783  0.0323153  0.445569  0.0335437  0  0  0  -0  0.561964  0.0247851  0  0  0  0  0  0  0  0  0 
1704720555.221385000  -2.45507  -0.250106  1.04579  0  0  0.0255397  0.0323153  0.448343  0.0336767  0  0  0  -0  0.547316  0.0284304  0  0  0  0  0  0  0  0  0 
1704720555.226390000  -2.45491  -0.247857  1.04596  0  0  0.0255977  0.0323153  0.451042  0.0338285  0  0  0  -0  0.532419  0.0323257  0  0  0  0  0  0  0  0  0 
1704720555.231391000  -2.45475  -0.245596  1.04613  0  0  0.0256522  0.0323153  0.453667  0.0340003  0  0  0  -0  0.517271  0.036471  0  0  0  0  0  0  0  0  0 
1704720555.236386000  -2.45459  -0.243321  1.0463  0  0  0.0257029  0.0323153  0.456215  0.0341936  0  0  0  -0  0.501873  0.0408663  0  0  0  0  0  0  0  0  0 
1704720555.241387000  -2.45443  -0.241034  1.04647  0  0  0.0257497  0.0323153  0.458685  0.0344094  0  0  0  -0  0.486225  0.0455116  0  0  0  0  0  0  0  0  0 
1704720555.246399000  -2.45426  -0.238734  1.04664  0  0  0.0257922  0.0323153  0.461076  0.0346491  0  0  0  -0  0.470327  0.0504069  0  0  0  0  0  0  0  0  0 
1704720555.251385000  -2.4541  -0.236423  1.04682  0  0  0.0258304  0.0323153  0.463388  0.0349139  0  0  0  -0  0.45418  0.0555522  0  0  0  0  0  0  0  0  0 
1704720555.256375000  -2.45394  -0.2341  1.04699  0  0  0.025864  0.0323153  0.465618  0.0352051  0  0  0  -0  0.437797  0.060941  0  0  0  0  0  0  0  0  0 
1704720555.261393000  -2.45378  -0.231767  1.04717  0  0  0.0258929  0.0323153  0.467766  0.0355232  0  0  0  -0  0.421522  0.0662555  0  0  0  0  0  0  0  0  0 
1704720555.266394000  -2.45362  -0.229423  1.04735  0  0  0.0259168  0.0323153  0.469833  0.0358672  0  0  0  -0  0.405497  0.07132  0  0  0  0  0  0  0  0  0 
1704720555.271406000  -2.45346  -0.227069  1.04753  0  0  0.0259356  0.0323153  0.471821  0.0362359  0  0  0  -0  0.389721  0.0761344  0  0  0  0  0  0  0  0  0 
1704720555.276399000  -2.45329  -0.224705  1.04771  0  0  0.0259493  0.0323153  0.473731  0.0366281  0  0  0  -0  0.374196  0.0806989  0  0  0  0  0  0  0  0  0 
1704720555.281403000  -2.45313  -0.222332  1.04789  0  0  0.0259575  0.0323153  0.475564  0.0370425  0  0  0  -0  0.358921  0.0850134  0  0  0  0  0  0  0  0  0 
1704720555.286402000  -2.45297  -0.219949  1.04808  0  0  0.0259603  0.0323153  0.477321  0.0374778  0  0  0  -0  0.343896  0.0890779  0  0  0  0  0  0  0  0  0 
1704720555.291409000  -2.45281  -0.217558  1.04827  0  0  0.0259574  0.0323153  0.479003  0.0379329  0  0  0  -0  0.329121  0.0928924  0  0  0  0  0  0  0  0  0 
1704720555.296403000  -2.45265  -0.215159  1.04846  0  0  0.0259489  0.0323153  0.480612  0.0384063  0  0  0  -0  0.314595  0.0964569  0  0  0  0  0  0  0  0  0 
1704720555.301401000  -2.45249  -0.212752  1.04865  0  0  0.0259345  0.0323153  0.482149  0.038897  0  0  0  -0  0.30032  0.0997714  0  0  0  0  0  0  0  0  0 
1704720555.306406000  -2.45232  -0.210338  1.04885  0  0  0.0259142  0.0323153  0.483616  0.0394036  0  0  0  -0  0.286295  0.102836  0  0  0  0  0  0  0  0  0 
1704720555.311406000  -2.45216  -0.207916  1.04905  0  0  0.0258879  0.0323153  0.485013  0.039925  0  0  0  -0  0.27252  0.10565  0  0  0  0  0  0  0  0  0 
1704720555.316401000  -2.452  -0.205488  1.04925  0  0  0.0258556  0.0323153  0.486342  0.0404597  0  0  0  -0  0.258995  0.108215  0  0  0  0  0  0  0  0  0 
1704720555.321405000  -2.45184  -0.203053  1.04945  0  0  0.0258172  0.0323151  0.487603  0.0410067  0  0  0  -0.0001183  0.24572  0.110529  0  0  0  0  0  0  0  0  0 
1704720555.326404000  -2.45168  -0.200612  1.04966  0  0  0.0257726  0.0323137  0.488799  0.0415646  0  0  0  -0.0004865  0.232694  0.112594  0  0  0  0  0  0  0  0  0 
1704720555.331406000  -2.45152  -0.198165  1.04987  0  0  0.0257218  0.0323099  0.489931  0.0421322  0  0  0  -0.0011047  0.219919  0.114408  0  0  0  0  0  0  0  0  0 
1704720555.336398000  -2.45136  -0.195713  1.05008  0  0  0.0256648  0.0323023  0.490999  0.0427083  0  0  0  -0.0019729  0.207394  0.115973  0  0  0  0  0  0  0  0  0 
1704720555.341402000  -2.45119  -0.193255  1.05029  0  0  0.0256015  0.0322897  0.492005  0.0432915  0  0  0  -0.0030912  0.195119  0.117287  0  0  0  0  0  0  0  0  0 
1704720555.346405000  -2.45103  -0.190793  1.05051  0  0  0.0255321  0.0322709  0.49295  0.0438807  0  0  0  -0.0044594  0.183094  0.118352  0  0  0  0  0  0  0  0  0 
1704720555.351403000  -2.45087  -0.188326  1.05073  0  0  0.0254563  0.0322447  0.493836  0.0444746  0  0  0  -0.0060776  0.171319  0.119166  0  0  0  0  0  0  0  0  0 
1704720555.356397000  -2.45071  -0.185855  1.05096  0  0  0.0253743  0.0322098  0.494664  0.045072  0  0  0  -0.0079458  0.159793  0.119731  0  0  0  0  0  0  0  0  0 
1704720555.361400000  -2.45055  -0.183379  1.05118  0  0  0.0252861  0.0321648  0.495435  0.0456715  0  0  0  -0.010064  0.148518  0.120045  0  0  0  0  0  0  0  0  0 
1704720555.366408000  -2.45039  -0.1809  1.05141  0  0  0.0251916  0.0321087  0.49615  0.046272  0  0  0  -0.0124322  0.137493  0.12011  0  0  0  0  0  0  0  0  0 
1704720555.371406000  -2.45023  -0.178418  1.05165  0  0  0.0250908  0.0320401  0.49681  0.0468722  0  0  0  -0.0150505  0.126718  0.119924  0  0  0  0  0  0  0  0  0 
1704720555.376409000  -2.45007  -0.175932  1.05188  0  0  0.0249838  0.0319578  0.497417  0.0474708  0  0  0  -0.0179187  0.116193  0.119489  0  0  0  0  0  0  0  0  0 
1704720555.381403000  -2.44991  -0.173444  1.05212  0  0  0.0248706  0.0318605  0.497972  0.0480667  0  0  0  -0.0210369  0.105917  0.118803  0  0  0  0  0  0  0  0  0 
1704720555.386404000  -2.44975  -0.170953  1.05236  0  0  0.0247511  0.031747  0.498477  0.0486585  0  0  0  -0.02436  0.0958923  0.117868  0  0  0  0  0  0  0  0  0 
1704720555.391403000  -2.44959  -0.168459  1.05261  0  0  0.0246253  0.0316172  0.498932  0.0492449  0  0  0  -0.0275158  0.0861171  0.116682  0  0  0  0  0  0  0  0  0 
1704720555.396398000  -2.44943  -0.165963  1.05286  0  0  0.0244934  0.0314723  0.499338  0.0498249  0  0  0  -0.0304215  0.076592  0.115247  0  0  0  0  0  0  0  0  0 
1704720555.401401000  -2.44928  -0.163466  1.05311  0  0  0.0243551  0.0313134  0.499698  0.050397  0  0  0  -0.0330773  0.0673168  0.113561  0  0  0  0  0  0  0  0  0 
1704720555.406408000  -2.44912  -0.160967  1.05336  0  0  0.0242106  0.0311419  0.500012  0.0509601  0  0  0  -0.0354831  0.0582916  0.111626  0  0  0  0  0  0  0  0  0 
1704720555.411399000  -2.44896  -0.158466  1.05362  0  0  0.0240599  0.030959  0.500281  0.0515128  0  0  0  -0.0376389  0.0495164  0.10944  0  0  0  0  0  0  0  0  0 
1704720555.416404000  -2.44881  -0.155964  1.05387  0  0  0.0239029  0.030766  0.500507  0.0520541  0  0  0  -0.0395446  0.0409913  0.107005  0  0  0  0  0  0  0  0  0 
1704720555.421400000  -2.44866  -0.153461  1.05414  0  0  0.0237396  0.030564  0.500692  0.0525825  0  0  0  -0.0412004  0.0327161  0.104319  0  0  0  0  0  0  0  0  0 
1704720555.426404000  -2.44851  -0.150957  1.0544  0  0  0.0235701  0.0303544  0.500835  0.0530968  0  0  0  -0.0426062  0.0246909  0.101384  0  0  0  0  0  0  0  0  0 
1704720555.431402000  -2.44835  -0.148453  1.05467  0  0  0.0233944  0.0301383  0.500939  0.0535959  0  0  0  -0.043762  0.0169157  0.0981983  0  0  0  0  0  0  0  0  0 
1704720555.436399000  -2.4482  -0.145948  1.05494  0  0  0.0232124  0.0299172  0.501005  0.0540784  0  0  0  -0.0446677  0.0093906  0.0947628  0  0  0  0  0  0  0  0  0 
1704720555.441400000  -2.44805  -0.143443  1.05521  0  0  0.0230242  0.0296921  0.501033  0.0545431  0  0  0  -0.0453235  0.0021154  0.0910773  0  0  0  0  0  0  0  0  0 
1704720555.446405000  -2.44791  -0.140937  1.05548  0  0  0.0228297  0.0294643  0.501026  0.0549888  0  0  0  -0.0457293  -0.0049098  0.0871418  0  0  0  0  0  0  0  0  0 
1704720555.451400000  -2.44776  -0.138432  1.05576  0  0  0.0226289  0.0292352  0.500985  0.0554141  0  0  0  -0.0458851  -0.011685  0.0829563  0  0  0  0  0  0  0  0  0 
1704720555.456396000  -2.44761  -0.135928  1.05604  0  0  0.0224219  0.0290059  0.50091  0.0558179  0  0  0  -0.0457908  -0.0182101  0.0785208  0  0  0  0  0  0  0  0  0 
1704720555.461402000  -2.44747  -0.133423  1.05632  0  0  0.0222087  0.0287777  0.500803  0.0561989  0  0  0  -0.0454466  -0.0244853  0.0738353  0  0  0  0  0  0  0  0  0 
1704720555.466403000  -2.44733  -0.13092  1.0566  0  0  0.0219892  0.0285519  0.500665  0.0565558  0  0  0  -0.0448524  -0.0305105  0.0688998  0  0  0  0  0  0  0  0  0 
1704720555.471400000  -2.44718  -0.128417  1.05688  0  0  0.0217634  0.0283296  0.500498  0.0568875  0  0  0  -0.0440082  -0.0362857  0.0637143  0  0  0  0  0  0  0  0  0 
