ts fx fy fz tx ty tz exfx exfy exfz extx exty extz xd yd zd rolld pitchd yawd vxd vyd vzd wxd wyd wzd axd ayd azd e_x e_y e_z e_vx e_vy e_vz e_rx e_ry e_rz e_wx e_wy e_wz
1704720553.498484000  0  0  11.2638  0.087969  -0.134461  0.0191916  nan  nan  nan  nan  nan  nan  -2.5  -0.3  1  0.0111512  -0.0415019  -0.000462683  0  0  0  0  0  0  0  0  0  0.0309874  -0.0013698  -0.00377357  -0.0168944  0.0169857  0.00217755  -0.0145193  0.0347171  -0.0298946  -0.0423607  -0.0504743  0.0590513 
1704720553.502348000  0  0  11.2663  0.0772017  -0.138743  0.0239706  nan  nan  nan  nan  nan  nan  -2.5  -0.3  1  0.0110241  -0.0419542  -0.000462389  0  0  0  0  0  0  0  0  0  0.0310773  -0.00142119  -0.00373915  -0.0165167  0.0169435  0.0019124  -0.0143847  0.0350303  -0.0302609  -0.0220643  -0.0447915  0.002976 
1704720553.507337000  0  0  11.3625  0.0800676  -0.155842  0.026658  nan  nan  nan  nan  nan  nan  -2.5  -0.3  1  0.0114025  -0.0425586  -0.00048515  0  0  0  0  0  0  0  0  0  0.0310126  -0.00133529  -0.00381209  -0.0151591  0.0173474  -0.00595703  -0.0148964  0.0357501  -0.0306779  -0.0230886  -0.0172159  -0.0264464 
1704720553.512411000  0  0  11.3225  0.0910252  -0.165605  0.0201612  nan  nan  nan  nan  nan  nan  -2.5  -0.3  1  0.00979428  -0.0442804  -0.000433567  0  0  0  0  0  0  0  0  0  0.031469  -0.00176645  -0.00346144  -0.014195  0.0162327  -0.00334617  -0.0137447  0.0376225  -0.0297925  -0.0555995  -0.0149162  0.04591 
1704720553.517303000  0  0  11.2664  0.0851107  -0.152204  0.0241238  nan  nan  nan  nan  nan  nan  -2.5  -0.3  1  0.0101449  -0.0434237  -0.000440407  0  0  0  0  0  0  0  0  0  0.0315009  -0.00176912  -0.00341356  -0.015616  0.0166166  0.00122991  -0.0142075  0.0364819  -0.0300768  -0.0395128  -0.0312248  -0.000778981 
1704720553.522348000  0  0  11.3213  0.0772331  -0.146254  0.0280677  nan  nan  nan  nan  nan  nan  -2.5  -0.3  1  0.00980777  -0.0438748  -0.000430189  0  0  0  0  0  0  0  0  0  0.0314361  -0.00169305  -0.00345307  -0.0146395  0.0160853  -0.00325152  -0.013923  0.0365843  -0.0306824  -0.0263745  -0.0440672  -0.0440224 
1704720553.527372000  0  0  11.4002  0.0987013  -0.161608  0.0228093  nan  nan  nan  nan  nan  nan  -2.5  -0.3  1  0.0113115  -0.0431698  -0.000488185  0  0  0  0  0  0  0  0  0  0.0313606  -0.00159587  -0.00352376  -0.0149786  0.0178586  -0.00969839  -0.0158393  0.0360863  -0.0300926  -0.0516814  -0.00877906  0.01581 
1704720553.532349000  0  0  11.2906  0.104396  -0.128282  0.0228766  nan  nan  nan  nan  nan  nan  -2.5  -0.3  1  0.0121079  -0.0409973  -0.000496277  0  0  0  0  0  0  0  0  0  0.031257  -0.00150267  -0.00347262  -0.018003  0.0185135  -0.000681354  -0.0168957  0.0333347  -0.0299901  -0.0533524  -0.0501151  0.0139431 
1704720553.537354000  0  0  11.3229  0.0858072  -0.125714  0.0272811  nan  nan  nan  nan  nan  nan  -2.5  -0.3  1  0.0113478  -0.0419688  -0.000476134  0  0  0  0  0  0  0  0  0  0.0313264  -0.00152385  -0.00347966  -0.0167884  0.0176476  -0.0033292  -0.0161076  0.0338916  -0.0305652  -0.0234243  -0.0603738  -0.035362 
1704720553.542353000  0  0  11.4099  0.1016  -0.135932  0.0249353  nan  nan  nan  nan  nan  nan  -2.5  -0.3  1  0.0127562  -0.0411828  -0.000525217  0  0  0  0  0  0  0  0  0  0.0312415  -0.00141964  -0.00356247  -0.0171891  0.0193102  -0.010421  -0.0178073  0.0331142  -0.0304077  -0.039373  -0.0327859  -0.00761493 
1704720553.547497000  0  0  11.3052  0.0903566  -0.132323  0.0228156  nan  nan  nan  nan  nan  nan  -2.5  -0.3  1  0.0104983  -0.0428085  -0.000449296  0  0  0  0  0  0  0  0  0  0.0317326  -0.0018439  -0.00322678  -0.0167182  0.0172699  -0.00237575  -0.0156955  0.0345866  -0.0300692  -0.0363146  -0.0535501  0.0154971 
1704720553.552500000  0  0  11.3511  0.0746357  -0.137712  0.025594  nan  nan  nan  nan  nan  nan  -2.5  -0.3  1  0.010598  -0.0428384  -0.00045388  0  0  0  0  0  0  0  0  0  0.0317622  -0.00183288  -0.00326509  -0.0165282  0.0174245  -0.00611363  -0.0156406  0.034456  -0.0303658  -0.00537824  -0.0415707  -0.0162669 
1704720553.557307000  0  0  11.3703  0.0790426  -0.135467  0.0244857  nan  nan  nan  nan  nan  nan  -2.5  -0.3  1  0.0112678  -0.0422564  -0.000476015  0  0  0  0  0  0  0  0  0  0.031683  -0.00174589  -0.0033024  -0.0169963  0.0180994  -0.00763894  -0.016345  0.0336908  -0.0302758  -0.00771125  -0.0390224  -0.00331275 
1704720553.562353000  0  0  11.3629  0.0780898  -0.150394  0.0212229  nan  nan  nan  nan  nan  nan  -2.5  -0.3  1  0.00944391  -0.0443987  -0.000419172  0  0  0  0  0  0  0  0  0  0.032076  -0.00206604  -0.00311118  -0.0151982  0.0164999  -0.00739933  -0.0146988  0.035945  -0.0297826  -0.0209503  -0.029906  0.032539 
1704720553.567354000  0  0  11.3423  0.0643335  -0.146332  0.022803  nan  nan  nan  nan  nan  nan  -2.5  -0.3  1  0.0102725  -0.0424823  -0.000436285  0  0  0  0  0  0  0  0  0  0.0319829  -0.00197892  -0.00312804  -0.0175106  0.017329  -0.00565959  -0.0151868  0.0339987  -0.0298422  0.0110519  -0.0201244  0.0133854 
1704720553.572499000  0  0  11.3349  0.0591103  -0.13347  0.0245287  nan  nan  nan  nan  nan  nan  -2.5  -0.3  1  0.010165  -0.0435647  -0.00044271  0  0  0  0  0  0  0  0  0  0.0319977  -0.0019555  -0.00314474  -0.0162149  0.0171322  -0.00497978  -0.0149875  0.0345089  -0.0300184  0.0196645  -0.0505415  -0.0064244 
1704720553.576320000  0  0  11.4347  0.0678667  -0.147574  0.0243759  nan  nan  nan  nan  nan  nan  -2.5  -0.3  1  0.0105583  -0.0437162  -0.000461439  0  0  0  0  0  0  0  0  0  0.0319427  -0.00188724  -0.0032349  -0.0154157  0.0175923  -0.013114  -0.0154592  0.0347427  -0.0300148  0.00649077  -0.0244842  -0.00455098 
1704720553.582356000  0  0  11.3284  0.0728755  -0.152357  0.022525  nan  nan  nan  nan  nan  nan  -2.5  -0.3  1  0.0102202  -0.0425713  -0.000434969  0  0  0  0  0  0  0  0  0  0.03226  -0.00214329  -0.00300634  -0.0180806  0.0176124  -0.00474695  -0.0151776  0.0338931  -0.0297139  -0.00611687  -0.00710226  0.0155763 
1704720553.587360000  0  0  11.299  0.0540459  -0.113518  0.0265003  nan  nan  nan  nan  nan  nan  -2.5  -0.3  1  0.00979232  -0.0434202  -0.000425065  0  0  0  0  0  0  0  0  0  0.032185  -0.00206493  -0.00301034  -0.0169884  0.0168673  -0.00224342  -0.0144612  0.0336844  -0.0302087  0.0249515  -0.0828601  -0.0291667 
1704720553.591340000  0  0  11.4511  0.0609395  -0.153606  0.0267103  nan  nan  nan  nan  nan  nan  -2.5  -0.3  1  0.010308  -0.0451494  -0.000465256  0  0  0  0  0  0  0  0  0  0.0322233  -0.00204138  -0.00313692  -0.0141348  0.0176346  -0.0146525  -0.015049  0.0357319  -0.0303504  0.0165717  -0.0215211  -0.0303741 
1704720553.597377000  0  0  11.3303  0.0847899  -0.140711  0.019708  nan  nan  nan  nan  nan  nan  -2.5  -0.3  1  0.00995687  -0.0426227  -0.000424274  0  0  0  0  0  0  0  0  0  0.0324644  -0.00226136  -0.00295213  -0.0184622  0.0175455  -0.00499685  -0.0150976  0.0332771  -0.0294924  -0.0306814  -0.0247268  0.048575 
1704720553.601421000  0  0  11.2694  0.0642676  -0.0928274  0.0231712  nan  nan  nan  nan  nan  nan  -2.5  -0.3  1  0.00956307  -0.0430118  -0.00041121  2e-07  -2e-07  2e-07  0  0  0  0.000125  -0.000125  0.000125  0.0323977  -0.00219687  -0.00293498  -0.0181017  0.0168258  9.6825e-05  -0.0144689  0.0324385  -0.0297796  0.00457904  -0.11278  0.0081557 
1704720553.607371000  0  0  11.4738  0.0801582  -0.175444  0.0240961  nan  nan  nan  nan  nan  nan  -2.5  -0.3  1  0.00979548  -0.0459307  -0.00044977  1.7e-06  -1.7e-06  1.7e-06  0  0  0  0.0005  -0.0005  0.0005  0.0326619  -0.0023239  -0.00300168  -0.0139357  0.0175719  -0.0167645  -0.0150099  0.0362932  -0.02993  -0.0222254  0.0169912  -0.00190166 
1704720553.612359000  0  0  11.3507  0.107138  -0.141733  0.0151855  nan  nan  nan  nan  nan  nan  -2.5  -0.3  1  0.00965846  -0.0425656  -0.000411007  5.6e-06  -5.6e-06  5.6e-06  0  0  0  0.001125  -0.001125  0.001125  0.0327717  -0.00245347  -0.00289064  -0.0189784  0.0174764  -0.00671708  -0.0155174  0.0327197  -0.0286502  -0.0715157  -0.0175553  0.0966841 
1704720553.616293000  0  0  11.2924  0.0764775  -0.0924488  0.0209028  nan  nan  nan  nan  nan  nan  -2.5  -0.3  1  0.00973898  -0.0426521  -0.000415175  1.33e-05  -1.33e-05  1.33e-05  0  0  0  0.002  -0.002  0.002  0.0327044  -0.00238704  -0.00287616  -0.0188876  0.0172557  -0.00176151  -0.0152386  0.0315864  -0.0290665  -0.0127602  -0.105698  0.02938 
1704720553.622333000  0  0  11.4129  0.0920737  -0.150716  0.0236498  nan  nan  nan  nan  nan  nan  -2.5  -0.3  1  0.00997058  -0.0445288  -0.000443546  2.6e-05  -2.6e-05  2.6e-05  0  0  0  0.003125  -0.003125  0.003125  0.032917  -0.00248049  -0.00289901  -0.016262  0.0177433  -0.011648  -0.0158228  0.0339873  -0.0294053  -0.0385779  -0.0112509  -0.00156982 
1704720553.626293000  0  0  11.402  0.11899  -0.125902  0.0152524  nan  nan  nan  nan  nan  nan  -2.5  -0.3  1  0.0109631  -0.041276  -0.000451903  4.5e-05  -4.5e-05  4.5e-05  0  0  0  0.0045  -0.0045  0.0045  0.0328207  -0.00240467  -0.00292593  -0.0200517  0.0186469  -0.010598  -0.0173569  0.0304901  -0.028272  -0.078297  -0.0287051  0.0920647 
1704720553.632466000  0  0  11.3115  0.0824272  -0.0964333  0.0267733  nan  nan  nan  nan  nan  nan  -2.5  -0.300001  1  0.010832  -0.0418806  -0.000452537  7.15e-05  -7.15e-05  7.15e-05  0  0  0  0.006125  -0.006125  0.006125  0.0329023  -0.00246903  -0.00285171  -0.0196837  0.0183083  -0.00301317  -0.0168829  0.0300427  -0.0292614  -0.00953141  -0.0835265  -0.0420521 
1704720553.637374000  0  0  11.3745  0.0922377  -0.127651  0.0278171  nan  nan  nan  nan  nan  nan  -2.5  -0.300001  1  0.0103736  -0.0431177  -0.000445462  0.0001067  -0.0001067  0.0001067  0  0  0  0.008  -0.008  0.008  0.0330723  -0.00255923  -0.00285443  -0.0179655  0.0177673  -0.00807178  -0.016727  0.0315211  -0.0296017  -0.0305865  -0.0346931  -0.0516965 
1704720553.642370000  0  0  11.4458  0.108471  -0.112358  0.0202952  nan  nan  nan  nan  nan  nan  -2.5  -0.300002  1  0.0117239  -0.0407522  -0.000474964  0.0001519  -0.0001519  0.0001519  0  0  0  0.010125  -0.010125  0.010125  0.0329655  -0.00246043  -0.00293978  -0.0201267  0.0190777  -0.0136617  -0.0183863  0.0288998  -0.028733  -0.0477873  -0.0411619  0.0336397 
1704720553.647363000  0  0  11.2939  0.0948955  -0.098725  0.0267835  nan  nan  nan  nan  nan  nan  -2.5  -0.300003  1  0.0123241  -0.0403026  -0.000492382  0.0002083  -0.0002083  0.0002083  0  0  0  0.0125  -0.0125  0.0125  0.0330309  -0.00250811  -0.0028273  -0.0212233  0.0194376  -0.00101579  -0.0188504  0.0279916  -0.0294165  -0.0163672  -0.0600726  -0.0406289 
1704720553.652362000  0  0  11.3538  0.0875845  -0.115414  0.0276565  nan  nan  nan  nan  nan  nan  -2.5  -0.300004  1  0.0112529  -0.0417267  -0.000463331  0.0002773  -0.0002773  0.0002773  0  0  0  0.015125  -0.015125  0.015125  0.0331568  -0.00261172  -0.0027734  -0.0191055  0.018066  -0.00584379  -0.0178058  0.0295773  -0.029713  -0.0113556  -0.0412834  -0.0485763 
1704720553.657364000  0  0  11.4986  0.106516  -0.125157  0.0207239  nan  nan  nan  nan  nan  nan  -2.49999  -0.300005  1.00001  0.0127323  -0.0402977  -0.000504372  0.00036  -0.00036  0.00036  0  0  0  0.018  -0.018  0.018  0.033051  -0.00251021  -0.00291242  -0.0196589  0.0195466  -0.0173808  -0.0195498  0.0283177  -0.0289176  -0.0331732  -0.0102097  0.0301278 
1704720553.662352000  0  0  11.3262  0.0996688  -0.111155  0.0226195  nan  nan  nan  nan  nan  nan  -2.49999  -0.300007  1.00001  0.0134363  -0.0388275  -0.000509699  0.0004577  -0.0004577  0.0004577  0  0  0  0.021125  -0.021125  0.021125  0.0331265  -0.00256361  -0.00281251  -0.0220538  0.019912  -0.00294887  -0.0201565  0.0266582  -0.0290061  -0.0138981  -0.0229462  0.00731754 
1704720553.667369000  0  0  11.4006  0.0815525  -0.109574  0.0260225  nan  nan  nan  nan  nan  nan  -2.49999  -0.30001  1.00001  0.013238  -0.0391801  -0.000502563  0.0005717  -0.0005717  0.0005717  0  0  0  0.0245  -0.0245  0.0245  0.0330389  -0.00247471  -0.00288705  -0.0206642  0.0191461  -0.00865177  -0.0196615  0.0267763  -0.0294909  0.0177804  -0.027193  -0.0303723 
1704720553.672309000  0  0  11.5422  0.093379  -0.14314  0.0225139  nan  nan  nan  nan  nan  nan  -2.49999  -0.300013  1.00001  0.0140339  -0.0394463  -0.00053238  0.0007031  -0.0007031  0.0007031  0  0  0  0.028125  -0.028125  0.028125  0.033155  -0.00255367  -0.00292118  -0.0195018  0.0200906  -0.0200574  -0.0205237  0.0278666  -0.0290499  0.00205952  0.0299076  0.00907482 
1704720553.677365000  0  0  11.3371  0.0938208  -0.123019  0.0217813  nan  nan  nan  nan  nan  nan  -2.49998  -0.300017  1.00002  0.0145933  -0.0379109  -0.000525854  0.0008533  -0.0008533  0.0008533  0  0  0  0.032  -0.032  0.032  0.0332277  -0.0026106  -0.00282375  -0.022007  0.0201119  -0.0028156  -0.0209952  0.0262308  -0.0288693  0.00551389  0.00471357  0.0164267 
1704720553.682364000  0  0  11.4466  0.0755538  -0.122436  0.0262418  nan  nan  nan  nan  nan  nan  -2.49998  -0.300022  1.00002  0.0145691  -0.0376708  -0.000513937  0.0010235  -0.0010235  0.0010235  0  0  0  0.036125  -0.036125  0.036125  0.0331388  -0.00251871  -0.0029262  -0.0211309  0.0195318  -0.0113337  -0.0205584  0.0259667  -0.0294352  0.0380296  0.0059772  -0.0336704 
1704720553.687367000  0  0  11.5713  0.0818625  -0.153316  0.0240859  nan  nan  nan  nan  nan  nan  -2.49997  -0.300027  1.00003  0.0153708  -0.0378287  -0.000537664  0.001215  -0.001215  0.001215  0  0  0  0.0405  -0.0405  0.0405  0.0332329  -0.00258926  -0.002974  -0.0200581  0.0203663  -0.0212248  -0.0212288  0.0270415  -0.0292274  0.0315801  0.0578502  -0.00879919 
1704720553.692365000  0  0  11.4296  0.08868  -0.138899  0.0224128  nan  nan  nan  nan  nan  nan  -2.49997  -0.300034  1.00003  0.0167806  -0.0361008  -0.000551419  0.001429  -0.001429  0.001429  0  0  0  0.045125  -0.045125  0.045125  0.0331251  -0.00248467  -0.00293731  -0.0220222  0.0210973  -0.00908427  -0.0224819  0.0253894  -0.0290095  0.0294732  0.0442142  0.00993543 
1704720553.697343000  0  0  11.4987  0.0713863  -0.146527  0.0257132  nan  nan  nan  nan  nan  nan  -2.49996  -0.300042  1.00004  0.016094  -0.0357986  -0.000509567  0.0016667  -0.0016667  0.0016667  0  0  0  0.05  -0.05  0.05  0.033231  -0.00255297  -0.00302055  -0.0217502  0.0198838  -0.0142045  -0.0213149  0.0255716  -0.0294546  0.0533248  0.0577943  -0.0268683 
1704720553.702360000  0  0  11.5939  0.0651026  -0.149911  0.0252065  nan  nan  nan  nan  nan  nan  -2.49995  -0.300051  1.00005  0.0165702  -0.0359739  -0.000515321  0.0019294  -0.0019294  0.0019294  0  0  0  0.055125  -0.055125  0.055125  0.0333183  -0.00259617  -0.00312896  -0.0206892  0.0201138  -0.0214201  -0.021313  0.0261202  -0.0295374  0.065874  0.0595156  -0.0197071 
1704720553.707317000  0  0  11.4986  0.0856216  -0.154657  0.0232702  nan  nan  nan  nan  nan  nan  -2.49994  -0.300061  1.00006  0.0183474  -0.0350363  -0.000545964  0.0022183  -0.0022183  0.0022183  0  0  0  0.0605  -0.0605  0.0605  0.0332163  -0.00249057  -0.0031385  -0.0213579  0.0212937  -0.0129796  -0.0230475  0.0255909  -0.0293477  0.0407938  0.0738776  0.00259988 
1704720553.712365000  0  0  11.486  0.0830401  -0.144365  0.0238126  nan  nan  nan  nan  nan  nan  -2.49993  -0.300073  1.00007  0.0181519  -0.0335392  -0.000493752  0.0025348  -0.0025348  0.0025348  0  0  0  0.066125  -0.066125  0.066125  0.0333069  -0.00257763  -0.0031031  -0.0228084  0.0205012  -0.0114852  -0.0225715  0.0246125  -0.0293644  0.0415778  0.0622951  -0.00401446 
1704720553.717365000  0  0  11.5387  0.0729773  -0.118799  0.0264604  nan  nan  nan  nan  nan  nan  -2.49991  -0.300086  1.00009  0.019336  -0.0332608  -0.000507691  0.0028799  -0.00288  0.00288  0  0  0  0.0719294  -0.072  0.0719647  0.0332031  -0.00247419  -0.00320505  -0.0220023  0.021151  -0.0150943  -0.0232079  0.0239974  -0.0297484  0.0675581  0.0168222  -0.0332707 
1704720553.722361000  0  0  11.5554  0.101754  -0.157183  0.0247683  nan  nan  nan  nan  nan  nan  -2.4999  -0.300102  1.0001  0.0203996  -0.0340338  -0.000536039  0.0032537  -0.0032552  0.0032541  0  0  0  0.0775388  -0.078125  0.0776518  0.0333229  -0.00254983  -0.00318399  -0.0204994  0.0219448  -0.0160148  -0.0244903  0.0258141  -0.0296222  0.0218017  0.0768769  -0.0133824 
1704720553.727367000  0  0  11.454  0.117781  -0.121347  0.0212098  nan  nan  nan  nan  nan  nan  -2.49988  -0.300119  1.00012  0.0217254  -0.0300078  -0.000468635  0.0036549  -0.0036617  0.0036561  0  0  0  0.0828982  -0.0845  0.083089  0.0331796  -0.00244198  -0.00317911  -0.0250128  0.0223589  -0.00710329  -0.0258807  0.0217884  -0.029215  0.00254008  0.0422414  0.027027 
1704720553.732318000  0  0  11.5238  0.0933527  -0.102067  0.0269917  nan  nan  nan  nan  nan  nan  -2.49986  -0.300138  1.00014  0.0220411  -0.031652  -0.000486739  0.0040823  -0.0041006  0.0040846  0  0  0  0.0880075  -0.091125  0.0882761  0.0332922  -0.00249167  -0.00323682  -0.0222765  0.0222009  -0.0122633  -0.0256197  0.0229539  -0.0299144  0.0489957  -0.00704245  -0.0382524 
1704720553.737507000  0  0  11.5694  0.136322  -0.152175  0.0233256  nan  nan  nan  nan  nan  nan  -2.49984  -0.30016  1.00016  0.0235903  -0.0315885  -0.000504196  0.0045346  -0.0045733  0.0045384  0  0  0  0.0928669  -0.098  0.0932132  0.0333846  -0.00252705  -0.00329179  -0.0217836  0.0235135  -0.015524  -0.0276449  0.0239908  -0.0297246  -0.0183103  0.0836341  0.0056752 
1704720553.742338000  0  0  11.4757  0.150649  -0.104647  0.0193841  nan  nan  nan  nan  nan  nan  -2.49982  -0.300184  1.00018  0.024891  -0.0283635  -0.000432446  0.0050105  -0.005081  0.0050163  0  0  0  0.0974763  -0.105125  0.0979003  0.0332545  -0.00241689  -0.00328279  -0.0253547  0.0237825  -0.00731969  -0.0291553  0.02042  -0.0292033  -0.0330698  0.0214295  0.0497316 
1704720553.747355000  0  0  11.5563  0.110471  -0.0944414  0.0280247  nan  nan  nan  nan  nan  nan  -2.49979  -0.300211  1.00021  0.0255232  -0.0300475  -0.00045806  0.0055089  -0.005625  0.005517  0  0  0  0.101836  -0.1125  0.102337  0.0333652  -0.00245588  -0.00334853  -0.0226305  0.0239678  -0.0134306  -0.0289841  0.0217212  -0.0302076  0.0457105  -0.0109524  -0.0482318 
1704720553.751315000  0  0  11.5893  0.140828  -0.130688  0.0274836  nan  nan  nan  nan  nan  nan  -2.49976  -0.300241  1.00024  0.0277294  -0.0294208  -0.000469114  0.0060285  -0.0062065  0.0060393  0  0  0  0.105945  -0.120125  0.106525  0.0332725  -0.00234401  -0.00342342  -0.0225977  0.0256908  -0.0156677  -0.0314471  0.0218178  -0.030369  0.00765677  0.0606509  -0.0398548 
1704720553.757353000  0  0  11.5199  0.160305  -0.09697  0.0195158  nan  nan  nan  nan  nan  nan  -2.49973  -0.300273  1.00027  0.0283037  -0.0266412  -0.000366758  0.006568  -0.0068267  0.0065818  0  0  0  0.109804  -0.128  0.110462  0.0332816  -0.00235457  -0.00340728  -0.0259184  0.0252413  -0.00956862  -0.0322942  0.0190018  -0.0294478  -0.0235031  0.0191231  0.050531 
1704720553.762348000  0  0  11.5391  0.121292  -0.100246  0.0281007  nan  nan  nan  nan  nan  nan  -2.4997  -0.300309  1.0003  0.0292984  -0.028058  -0.00039148  0.0071261  -0.0074869  0.0071435  0  0  0  0.113414  -0.136125  0.114149  0.033415  -0.00239824  -0.00340946  -0.0238825  0.025644  -0.0107825  -0.0324077  0.0203551  -0.0304244  0.0555662  0.0132253  -0.0470141 
1704720553.767358000  0  0  11.5416  0.1447  -0.122612  0.0248901  nan  nan  nan  nan  nan  nan  -2.49966  -0.300348  1.00034  0.0310419  -0.0268115  -0.00035585  0.0077017  -0.0081883  0.0077229  0  0  0  0.116773  -0.1445  0.117586  0.0332903  -0.00226828  -0.00346466  -0.0247709  0.0265418  -0.0105728  -0.034217  0.0197698  -0.0303131  0.0253961  0.0633419  -0.00799542 
1704720553.772350000  0  0  11.568  0.141603  -0.108384  0.0199817  nan  nan  nan  nan  nan  nan  -2.49962  -0.300391  1.00038  0.0317252  -0.0258391  -0.000294633  0.0082934  -0.0089323  0.0083189  0  0  0  0.119882  -0.153125  0.120773  0.0333228  -0.00228506  -0.0034819  -0.0256229  0.0264577  -0.01244  -0.0345998  0.0188611  -0.0296984  0.0351131  0.0432452  0.047213 
1704720553.777355000  0  0  11.5057  0.119712  -0.120791  0.0274537  nan  nan  nan  nan  nan  nan  -2.49958  -0.300437  1.00043  0.033021  -0.0258433  -0.000277089  0.0089001  -0.0097197  0.0089302  0  0  0  0.122742  -0.161787  0.12371  0.0334364  -0.00233544  -0.00343354  -0.0256875  0.0269102  -0.00704592  -0.0350381  0.0192839  -0.0306032  0.0829268  0.0641709  -0.0371395 
1704720553.782345000  0  0  11.4634  0.121309  -0.118532  0.025857  nan  nan  nan  nan  nan  nan  -2.49953  -0.300488  1.00047  0.0340543  -0.0253859  -0.000234243  0.0095204  -0.0105498  0.0095556  0  0  0  0.125351  -0.170202  0.126397  0.0333107  -0.00220961  -0.00343478  -0.0257835  0.0267273  -0.00326014  -0.0356265  0.0190724  -0.0306387  0.0851452  0.0615986  -0.0168252 
1704720553.787362000  0  0  11.6382  0.115374  -0.137524  0.0234219  nan  nan  nan  nan  nan  nan  -2.49948  -0.300543  1.00052  0.0345684  -0.025148  -0.00018258  0.0101532  -0.0114213  0.0101938  0  0  0  0.127711  -0.178366  0.128834  0.033348  -0.00222309  -0.00353505  -0.0253842  0.0270507  -0.0173753  -0.0355372  0.0195379  -0.0304352  0.0961932  0.095299  0.0115791 
1704720553.792350000  0  0  11.4606  0.104781  -0.123852  0.0259606  nan  nan  nan  nan  nan  nan  -2.49943  -0.300602  1.00057  0.0372753  -0.0225684  -9.54614e-05  0.0107971  -0.012333  0.0108435  0  0  0  0.12982  -0.18628  0.131022  0.0331977  -0.00208029  -0.00346365  -0.0285694  0.0284996  -0.00251079  -0.0372509  0.017283  -0.0308036  0.133145  0.0887002  -0.0164718 
1704720553.797357000  0  0  11.4496  0.0836427  -0.125038  0.0269418  nan  nan  nan  nan  nan  nan  -2.49937  -0.300666  1.00063  0.0365718  -0.0243408  -8.28951e-05  0.011451  -0.0132837  0.0115036  0  0  0  0.131679  -0.193944  0.132959  0.0332955  -0.00214232  -0.00342092  -0.0263248  0.026724  -0.00145792  -0.0355411  0.0192654  -0.0311074  0.159693  0.0728345  -0.0256985 
1704720553.801389000  0  0  11.6356  0.0853717  -0.152334  0.0255676  nan  nan  nan  nan  nan  nan  -2.49931  -0.300735  1.00069  0.0379966  -0.0239391  -3.83539e-05  0.0121135  -0.014272  0.0121727  0  0  0  0.133289  -0.201358  0.134646  0.0331827  -0.00201107  -0.00358129  -0.0258888  0.0280939  -0.0164512  -0.0362864  0.0196926  -0.0310956  0.163092  0.123496  -0.00863843 
1704720553.807356000  0  0  11.3817  0.0858737  -0.127256  0.0247446  nan  nan  nan  nan  nan  nan  -2.49925  -0.300809  1.00075  0.039694  -0.0216057  7.98976e-05  0.0127834  -0.0152968  0.0128496  0  0  0  0.134648  -0.208522  0.136083  0.0331895  -0.00203232  -0.00338264  -0.0293656  0.0283096  0.00445661  -0.0368502  0.0177098  -0.0311089  0.167274  0.0915813  0.00178092 
1704720553.812388000  0  0  11.4117  0.0668753  -0.112319  0.0284731  nan  nan  nan  nan  nan  nan  -2.49919  -0.300888  1.00082  0.0400392  -0.0222738  0.000114271  0.0134595  -0.0163568  0.0135331  0  0  0  0.135757  -0.215436  0.13727  0.0330664  -0.00189918  -0.00341058  -0.0280351  0.0277075  0.00217013  -0.0360233  0.0182815  -0.0316864  0.197664  0.0564485  -0.0390505 
1704720553.817359000  0  0  11.6164  0.072652  -0.152829  0.0263962  nan  nan  nan  nan  nan  nan  -2.49912  -0.300973  1.00089  0.0408586  -0.0225107  0.000157111  0.0141406  -0.0174507  0.0142219  0  0  0  0.136617  -0.2221  0.138207  0.0331227  -0.00191403  -0.00350856  -0.0272419  0.0288667  -0.0145708  -0.0359549  0.0196435  -0.0317174  0.185481  0.124938  -0.012778 
1704720553.822347000  0  0  11.3826  0.0771176  -0.124256  0.0237897  nan  nan  nan  nan  nan  nan  -2.49904  -0.301063  1.00096  0.0419686  -0.0207849  0.000277338  0.0148253  -0.0185774  0.0149148  0  0  0  0.137226  -0.228514  0.138894  0.0331341  -0.00195785  -0.00331263  -0.0299651  0.0284945  0.00458949  -0.0361233  0.0180633  -0.0314993  0.178099  0.0823299  0.0176214 
1704720553.827350000  0  0  11.3926  0.0523924  -0.121634  0.0288425  nan  nan  nan  nan  nan  nan  -2.49897  -0.301159  1.00104  0.0415275  -0.022345  0.00029641  0.0155124  -0.0197355  0.0156104  0  0  0  0.137585  -0.234678  0.139332  0.0332322  -0.00203103  -0.00324119  -0.0281414  0.0273635  0.00369377  -0.0343451  0.019785  -0.0321921  0.21119  0.0612465  -0.0386101 
1704720553.832350000  0  0  11.5312  0.0669427  -0.14564  0.0265022  nan  nan  nan  nan  nan  nan  -2.49889  -0.30126  1.00112  0.0430425  -0.0218904  0.000358673  0.0162007  -0.0209237  0.0163077  0  0  0  0.137695  -0.240592  0.139519  0.033096  -0.00188449  -0.00333765  -0.0280681  0.0288721  -0.00761014  -0.0350637  0.0201401  -0.0321634  0.1887  0.105991  -0.00964318 
1704720553.837359000  0  0  11.3985  0.0768138  -0.130682  0.023352  nan  nan  nan  nan  nan  nan  -2.49881  -0.301368  1.0012  0.0438618  -0.0205541  0.000477546  0.016889  -0.022141  0.0170052  0  0  0  0.137554  -0.246256  0.139456  0.0331192  -0.00192967  -0.00319826  -0.0301603  0.0286584  0.00317143  -0.0350879  0.0191476  -0.0318629  0.169181  0.0852052  0.0267298 
1704720553.842350000  0  0  11.3512  0.067515  -0.106097  0.0282236  nan  nan  nan  nan  nan  nan  -2.49872  -0.301482  1.00129  0.04538  -0.019537  0.000572257  0.0175759  -0.0233859  0.0177018  0  0  0  0.137164  -0.25167  0.139143  0.0329631  -0.00178577  -0.00316057  -0.0312612  0.0293373  0.00705398  -0.0354593  0.0180007  -0.0324789  0.191195  0.0465876  -0.0280065 
1704720553.847333000  0  0  11.4687  0.0700775  -0.132101  0.0281672  nan  nan  nan  nan  nan  nan  -2.49863  -0.301602  1.00138  0.045047  -0.0215644  0.000568507  0.0182602  -0.0246573  0.0183962  0  0  0  0.136523  -0.256834  0.13858  0.0330493  -0.00184785  -0.00316383  -0.0286959  0.0289911  -0.00276441  -0.0343298  0.0206481  -0.0327215  0.175679  0.0742399  -0.0248748 
1704720553.852350000  0  0  11.4222  0.0859337  -0.13427  0.0239413  nan  nan  nan  nan  nan  nan  -2.49854  -0.301728  1.00147  0.0461202  -0.0202921  0.000686326  0.0189407  -0.0259538  0.0190872  0  0  0  0.135632  -0.261748  0.137767  0.0330506  -0.00186595  -0.00308786  -0.0305459  0.0295395  0.000891104  -0.0347794  0.0199137  -0.0323618  0.148103  0.0853343  0.0243515 
1704720553.857358000  0  0  11.2957  0.0848578  -0.0978945  0.0280307  nan  nan  nan  nan  nan  nan  -2.49844  -0.301861  1.00157  0.0479969  -0.0181295  0.000835421  0.0196161  -0.0272743  0.0197735  0  0  0  0.134492  -0.266412  0.136704  0.0328756  -0.00171734  -0.00299221  -0.0333122  0.0303246  0.0111856  -0.035733  0.0174866  -0.0328904  0.159028  0.0349119  -0.0214795 
1704720553.862345000  0  0  11.4128  0.0819738  -0.125829  0.0295333  nan  nan  nan  nan  nan  nan  -2.49834  -0.302001  1.00167  0.0473804  -0.0210178  0.000793996  0.0202852  -0.0286175  0.0204538  0  0  0  0.133101  -0.270826  0.135391  0.0329427  -0.00176467  -0.00298981  -0.0297372  0.0297169  0.00130704  -0.0344539  0.0208176  -0.0333079  0.153029  0.0601365  -0.036087 
1704720553.867355000  0  0  11.4124  0.118481  -0.139077  0.0238619  nan  nan  nan  nan  nan  nan  -2.49824  -0.302148  1.00177  0.0498713  -0.018557  0.000949423  0.0209467  -0.0299822  0.021127  0  0  0  0.13146  -0.27499  0.133829  0.0327705  -0.00159866  -0.00297547  -0.0326967  0.0319791  0.00119256  -0.0367363  0.0191386  -0.032804  0.101013  0.102079  0.0297659 
1704720553.872352000  0  0  11.2371  0.110738  -0.0903485  0.026231  nan  nan  nan  nan  nan  nan  -2.49813  -0.302301  1.00188  0.0504066  -0.0174056  0.00108334  0.0215994  -0.031367  0.0217917  0  0  0  0.12957  -0.278904  0.132016  0.0327585  -0.00162577  -0.00279875  -0.034717  0.0312387  0.0152861  -0.0365707  0.0174793  -0.0330698  0.114975  0.0198872  0.00281038 
1704720553.877358000  0  0  11.3657  0.0996189  -0.126039  0.0307965  nan  nan  nan  nan  nan  nan  -2.49802  -0.302461  1.00199  0.0500818  -0.020785  0.00100595  0.022242  -0.0327708  0.0224467  0  0  0  0.127429  -0.282568  0.129953  0.0327999  -0.00164079  -0.00280395  -0.0305608  0.0311235  0.00439856  -0.0355909  0.021293  -0.0337809  0.128198  0.0561833  -0.0471481 
1704720553.882355000  0  0  11.3909  0.139049  -0.146801  0.0240978  nan  nan  nan  nan  nan  nan  -2.49791  -0.302629  1.0021  0.0522231  -0.0185761  0.00116357  0.0228732  -0.0341923  0.0230908  0  0  0  0.125038  -0.285982  0.12764  0.0326235  -0.00146945  -0.00279578  -0.0332227  0.0331631  0.00208258  -0.0377398  0.0200097  -0.033226  0.0691073  0.109512  0.0310372 
1704720553.887357000  0  0  11.2153  0.120831  -0.0942314  0.0255912  nan  nan  nan  nan  nan  nan  -2.49779  -0.302803  1.00222  0.0528021  -0.0178179  0.00127995  0.0234919  -0.0356302  0.0237227  0  0  0  0.122398  -0.289146  0.125077  0.0326224  -0.00148608  -0.00261814  -0.0348702  0.0324998  0.0161353  -0.0375588  0.0185954  -0.0333483  0.103878  0.0173848  0.0135921 
1704720553.892349000  0  0  11.3345  0.113476  -0.131376  0.0317259  nan  nan  nan  nan  nan  nan  -2.49767  -0.302985  1.00234  0.0536309  -0.0193757  0.00126903  0.0240968  -0.0370833  0.0243412  0  0  0  0.119507  -0.29206  0.122264  0.0324742  -0.00131845  -0.0026524  -0.0327123  0.0335062  0.00604146  -0.03771  0.0207579  -0.034243  0.11998  0.0717795  -0.0541444 
1704720553.897360000  0  0  11.3612  0.136637  -0.150044  0.0246244  nan  nan  nan  nan  nan  nan  -2.49755  -0.303174  1.00246  0.0542951  -0.0187064  0.00138009  0.0246866  -0.0385504  0.0249449  0  0  0  0.116367  -0.294724  0.119201  0.0324731  -0.00131113  -0.0025958  -0.033904  0.034153  0.00340239  -0.0382325  0.0209255  -0.03367  0.0784656  0.107573  0.0288953 
1704720553.902359000  0  0  11.2718  0.12129  -0.115871  0.0259971  nan  nan  nan  nan  nan  nan  -2.49743  -0.303371  1.00259  0.054725  -0.0188257  0.00145329  0.02526  -0.0400301  0.0255327  0  0  0  0.112976  -0.297138  0.115888  0.0324937  -0.00131829  -0.0024851  -0.0344219  0.033862  0.0103406  -0.0379823  0.0207258  -0.0337567  0.106857  0.041064  0.0126027 
1704720553.907354000  0  0  11.347  0.113741  -0.143845  0.031087  nan  nan  nan  nan  nan  nan  -2.4973  -0.303574  1.00272  0.0556465  -0.0192623  0.00149948  0.0258159  -0.0415213  0.0261034  0  0  0  0.109335  -0.299302  0.112326  0.0323312  -0.00114668  -0.00250139  -0.0338213  0.034829  0.00380354  -0.0381763  0.0218421  -0.0345311  0.123739  0.0867439  -0.0432766 
1704720553.912340000  0  0  11.3708  0.116326  -0.135316  0.0247753  nan  nan  nan  nan  nan  nan  -2.49717  -0.303786  1.00285  0.0566171  -0.0189735  0.00158509  0.026353  -0.0430227  0.0266556  0  0  0  0.105445  -0.301216  0.108513  0.032162  -0.000971201  -0.00249326  -0.0342612  0.0355717  0.00147517  -0.0385336  0.0218071  -0.0339625  0.121858  0.0700065  0.0299342 
1704720553.917352000  0  0  11.3786  0.108256  -0.144722  0.0258451  nan  nan  nan  nan  nan  nan  -2.49704  -0.304005  1.00298  0.0570305  -0.0195437  0.00163268  0.02687  -0.0445331  0.0271881  0  0  0  0.101304  -0.30288  0.10445  0.0321699  -0.000958877  -0.00246713  -0.034072  0.0359075  0.0004115  -0.0381601  0.0227684  -0.0340356  0.134561  0.0799748  0.0172923 
1704720553.922354000  0  0  11.3179  0.0942855  -0.148745  0.0284396  nan  nan  nan  nan  nan  nan  -2.4969  -0.304231  1.00312  0.0568482  -0.0194728  0.00172829  0.0273656  -0.0460511  0.0276997  0  0  0  0.0969134  -0.304294  0.100137  0.0321903  -0.000968361  -0.00240492  -0.0349011  0.0351354  0.0049419  -0.0370953  0.023166  -0.0344486  0.152706  0.084362  -0.0110092 
1704720553.927356000  0  0  11.3917  0.0788314  -0.13611  0.0272321  nan  nan  nan  nan  nan  nan  -2.49676  -0.304465  1.00326  0.0570689  -0.0206827  0.00174286  0.0278387  -0.0475756  0.0281891  0  0  0  0.0922728  -0.305458  0.0955741  0.0320674  -0.00082268  -0.00245095  -0.0335293  0.0354129  -0.0015053  -0.0363217  0.0243055  -0.0344116  0.176497  0.0486089  0.00371461 
1704720553.932352000  0  0  11.4178  0.0924994  -0.167167  0.0265903  nan  nan  nan  nan  nan  nan  -2.49662  -0.304707  1.0034  0.05866  -0.0204664  0.00181054  0.0282879  -0.0491053  0.028655  0  0  0  0.0873821  -0.306372  0.0907612  0.0318978  -0.000633603  -0.00247114  -0.0339964  0.0370647  -0.00405906  -0.0372236  0.0249587  -0.0344082  0.157459  0.104714  0.0117028 
1704720553.937345000  0  0  11.2672  0.0755483  -0.146181  0.0257411  nan  nan  nan  nan  nan  nan  -2.49648  -0.304956  1.00355  0.0576897  -0.0199536  0.00194818  0.0287121  -0.0506389  0.0290962  0  0  0  0.0822415  -0.307036  0.0856983  0.0319647  -0.000712116  -0.00238902  -0.0357872  0.0349549  0.00784007  -0.0352545  0.024565  -0.0343616  0.173245  0.0663647  0.0218518 
1704720553.942355000  0  0  11.3547  0.0458501  -0.131371  0.0296605  nan  nan  nan  nan  nan  nan  -2.49634  -0.305213  1.00369  0.0581271  -0.0215005  0.00193743  0.0291099  -0.0521752  0.0295116  0  0  0  0.0768508  -0.30745  0.0803855  0.0318131  -0.000532561  -0.00242911  -0.0339921  0.0356195  0.000190772  -0.0342688  0.0258364  -0.0348651  0.223572  0.0250483  -0.0221052 
1704720553.947357000  0  0  11.4042  0.07865  -0.171059  0.0269785  nan  nan  nan  nan  nan  nan  -2.49619  -0.305478  1.00384  0.0594104  -0.0215125  0.00199703  0.0294802  -0.053713  0.0298997  0  0  0  0.0712102  -0.307614  0.0748226  0.0316759  -0.000373928  -0.00248133  -0.034278  0.0371963  -0.00432484  -0.0351238  0.0267881  -0.034761  0.165839  0.0956685  0.0103788 
1704720553.952355000  0  0  11.2791  0.0790956  -0.131752  0.0236954  nan  nan  nan  nan  nan  nan  -2.49604  -0.30575  1.00399  0.0596909  -0.0192684  0.00221306  0.0298217  -0.0552509  0.0302594  0  0  0  0.0654077  -0.307528  0.0690138  0.0314718  -0.000200418  -0.00240152  -0.0376859  0.0363399  0.0054169  -0.034634  0.0243692  -0.0343426  0.160442  0.0393078  0.0472338 
1704720553.957345000  0  0  11.3315  0.0430416  -0.120469  0.0315405  nan  nan  nan  nan  nan  nan  -2.49589  -0.30603  1.00415  0.0590432  -0.0218605  0.00216038  0.0301346  -0.0567878  0.03059  0  0  0  0.059814  -0.307192  0.0632645  0.0315272  -0.000249972  -0.00243214  -0.0351402  0.0360308  0.000596053  -0.0325315  0.0266518  -0.0352541  0.213206  -0.00425787  -0.0417157 
1704720553.962352000  0  0  11.3685  0.0775683  -0.159182  0.0277195  nan  nan  nan  nan  nan  nan  -2.49574  -0.306318  1.0043  0.0598201  -0.0222703  0.00220691  0.0304202  -0.0583224  0.0308924  0  0  0  0.0544703  -0.306606  0.0577653  0.0313966  -9.82592e-05  -0.00247546  -0.0349268  0.0369974  -0.00290997  -0.0330207  0.0278127  -0.0351  0.148654  0.0624871  0.00450648 
1704720553.967353000  0  0  11.3193  0.0824818  -0.121558  0.0228615  nan  nan  nan  nan  nan  nan  -2.49559  -0.306614  1.00445  0.0602007  -0.0203153  0.00240421  0.0306797  -0.0598535  0.031168  0  0  0  0.0493765  -0.30577  0.052516  0.0311994  8.23778e-05  -0.00244391  -0.0377296  0.0368475  0.000665433  -0.0328028  0.0255295  -0.0344713  0.136822  0.00824528  0.0589451 
1704720553.972353000  0  0  11.2986  0.0678576  -0.103207  0.0319782  nan  nan  nan  nan  nan  nan  -2.49543  -0.306917  1.00461  0.0612  -0.0209788  0.00243119  0.0309144  -0.0613797  0.031418  0  0  0  0.0445328  -0.304684  0.0475167  0.0310673  0.000231124  -0.00245629  -0.0372713  0.0377718  0.00201051  -0.0328072  0.025638  -0.0355172  0.166111  -0.029455  -0.0445549 
1704720553.977345000  0  0  11.3184  0.0920909  -0.131534  0.0284884  nan  nan  nan  nan  nan  nan  -2.49528  -0.307227  1.00477  0.0611946  -0.022613  0.00241919  0.0311255  -0.0628999  0.0316436  0  0  0  0.0399391  -0.303348  0.0427675  0.0309602  0.00036781  -0.00249442  -0.0355148  0.0377742  -2.58642e-05  -0.0326282  0.0275599  -0.0353997  0.115998  0.00951765  -0.0021086 
1704720553.982331000  0  0  11.3727  0.108484  -0.126645  0.0216997  nan  nan  nan  nan  nan  nan  -2.49512  -0.307546  1.00493  0.0619593  -0.0210093  0.0025893  0.0313142  -0.0644128  0.0318461  0  0  0  0.0355954  -0.301762  0.0382682  0.0307574  0.000565381  -0.00254028  -0.0375213  0.0388686  -0.00484017  -0.0331202  0.0260699  -0.0345253  0.0877389  0.0134471  0.0740073 
1704720553.987350000  0  0  11.269  0.0997184  -0.0986265  0.0294932  nan  nan  nan  nan  nan  nan  -2.49496  -0.307872  1.00509  0.0628797  -0.0208113  0.00267046  0.0314819  -0.0659171  0.0320267  0  0  0  0.0315016  -0.299926  0.034019  0.0306304  0.000704988  -0.00251077  -0.0382567  0.0392283  0.00338548  -0.033401  0.0252989  -0.0352689  0.107853  -0.0354966  -0.0159755 
1704720553.992340000  0  0  11.3501  0.106575  -0.119334  0.0297478  nan  nan  nan  nan  nan  nan  -2.49481  -0.308205  1.00525  0.0626268  -0.0230318  0.00262453  0.0316297  -0.0674116  0.0321867  0  0  0  0.0276579  -0.29784  0.0300197  0.0304728  0.000899231  -0.00256436  -0.0354052  0.0393193  -0.00364252  -0.0329022  0.0275235  -0.0354984  0.0895498  -0.0145482  -0.0168637 
1704720553.997356000  0  0  11.4465  0.136489  -0.139353  0.0227321  nan  nan  nan  nan  nan  nan  -2.49465  -0.308546  1.00541  0.0634715  -0.0219948  0.00275889  0.0317589  -0.0688951  0.0323273  0  0  0  0.0240642  -0.295504  0.0262705  0.0303456  0.00105052  -0.00268125  -0.0366654  0.0410256  -0.0117647  -0.0339146  0.0269771  -0.0346921  0.0390357  0.0305156  0.0627698 
1704720554.002346000  0  0  11.2715  0.118434  -0.100517  0.0262168  nan  nan  nan  nan  nan  nan  -2.49449  -0.308894  1.00557  0.0639362  -0.0213347  0.00287888  0.0318707  -0.0703663  0.0324498  0  0  0  0.0207204  -0.292918  0.0227712  0.0302252  0.00118266  -0.00262368  -0.0380841  0.0404035  0.00239425  -0.033794  0.0256146  -0.0349401  0.0740367  -0.03462  0.0216916 
1704720554.007355000  0  0  11.3747  0.106526  -0.125972  0.0306011  nan  nan  nan  nan  nan  nan  -2.49433  -0.309249  1.00573  0.0634537  -0.0232844  0.00285337  0.0319665  -0.0718239  0.0325555  0  0  0  0.0176267  -0.290082  0.019522  0.0300593  0.00138458  -0.00270399  -0.0353995  0.0404469  -0.00634019  -0.032824  0.0276876  -0.0355603  0.0889282  -0.00278056  -0.0269115 
1704720554.012355000  0  0  11.4689  0.124201  -0.152417  0.0237219  nan  nan  nan  nan  nan  nan  -2.49417  -0.309612  1.0059  0.0625123  -0.0239248  0.0029234  0.0320474  -0.0732667  0.0326455  0  0  0  0.014783  -0.286996  0.0165227  0.0301991  0.0012758  -0.00289356  -0.0350143  0.040552  -0.0141237  -0.031903  0.0289924  -0.034885  0.0451057  0.0381037  0.0523267 
1704720554.017388000  0  0  11.2996  0.109493  -0.122782  0.0246656  nan  nan  nan  nan  nan  nan  -2.49401  -0.309982  1.00606  0.062961  -0.0231077  0.00305212  0.0321147  -0.0746934  0.0327211  0  0  0  0.0121892  -0.28366  0.0137734  0.030008  0.00146919  -0.00281532  -0.0364029  0.0399278  -0.00041085  -0.0317896  0.027735  -0.0348136  0.0734774  -0.00959753  0.0398164 
1704720554.022345000  0  0  11.4068  0.0859145  -0.142548  0.0300732  nan  nan  nan  nan  nan  nan  -2.49385  -0.310359  1.00622  0.0623082  -0.0241823  0.00308824  0.0321697  -0.0761029  0.0327836  0  0  0  0.0098455  -0.280074  0.0112742  0.0298653  0.00169493  -0.00304072  -0.0347496  0.0398095  -0.00910408  -0.0303248  0.0290051  -0.0355285  0.107159  0.0182497  -0.0206301 
1704720554.026318000  0  0  11.4669  0.0965335  -0.149522  0.026379  nan  nan  nan  nan  nan  nan  -2.49369  -0.310743  1.00639  0.0628361  -0.0238187  0.0031863  0.0322136  -0.0774937  0.0328343  0  0  0  0.0077518  -0.276238  0.0090249  0.0296916  0.00194012  -0.00315421  -0.0349425  0.0408416  -0.014066  -0.0306311  0.0289005  -0.0352216  0.0887396  0.033159  0.0224779 
1704720554.032330000  0  0  11.3658  0.0788743  -0.146274  0.0255878  nan  nan  nan  nan  nan  nan  -2.49353  -0.311134  1.00655  0.0611514  -0.0253315  0.00322198  0.0322476  -0.0788648  0.0328743  0  0  0  0.0059081  -0.272152  0.0070257  0.0298552  0.00177061  -0.00317789  -0.0338903  0.0389095  -0.00583521  -0.0282477  0.0304816  -0.035041  0.10213  0.0121176  0.0305625 
1704720554.037329000  0  0  11.3659  0.0632819  -0.143703  0.0283689  nan  nan  nan  nan  nan  nan  -2.49336  -0.311532  1.00672  0.0605105  -0.0247073  0.00336407  0.0322731  -0.0802149  0.0329049  0  0  0  0.0043143  -0.267816  0.0052764  0.0296731  0.00195941  -0.00322143  -0.0344834  0.0382296  -0.00591973  -0.0268569  0.0299318  -0.0354134  0.12052  0.012034  -0.000477271 
1704720554.042323000  0  0  11.4499  0.0487794  -0.150739  0.026834  nan  nan  nan  nan  nan  nan  -2.4932  -0.311936  1.00688  0.0581842  -0.0274961  0.00334746  0.0322912  -0.0815426  0.0329275  0  0  0  0.0029706  -0.263231  0.0037772  0.0299073  0.00181941  -0.00339065  -0.0313862  0.0367431  -0.0127752  -0.0239524  0.0327988  -0.0353246  0.122803  -0.000270477  0.0178202 
1704720554.047332000  0  0  11.4016  0.0474975  -0.172067  0.0259081  nan  nan  nan  nan  nan  nan  -2.49304  -0.312347  1.00705  0.0568484  -0.0292466  0.00337272  0.0323032  -0.0828467  0.0329431  0  0  0  0.0018769  -0.258395  0.0025279  0.0300839  0.00169718  -0.00345045  -0.0298408  0.0356354  -0.00881194  -0.0221762  0.0349035  -0.03524  0.109026  0.023021  0.0285481 
1704720554.052333000  0  0  11.3121  0.0397954  -0.144351  0.0268824  nan  nan  nan  nan  nan  nan  -2.49288  -0.312764  1.00721  0.0562671  -0.0274627  0.00357822  0.0323104  -0.0841261  0.0329532  0  0  0  0.0010331  -0.253309  0.0015287  0.0299157  0.00186701  -0.00342531  -0.0321168  0.0345984  -0.00149238  -0.020958  0.0328676  -0.0353405  0.113223  -0.0136813  0.0173743 
1704720554.057330000  0  0  11.4437  0.0239706  -0.134086  0.0294845  nan  nan  nan  nan  nan  nan  -2.49272  -0.313188  1.00738  0.0552534  -0.0292253  0.00359669  0.032314  -0.0853794  0.0329588  0  0  0  0.0004394  -0.247973  0.0007794  0.0298454  0.00199755  -0.00356206  -0.0293932  0.0345308  -0.0122495  -0.0192866  0.0341133  -0.0357228  0.129495  -0.0456697  -0.0113276 
1704720554.062323000  0  0  11.463  0.0508258  -0.170347  0.0274426  nan  nan  nan  nan  nan  nan  -2.49256  -0.313618  1.00754  0.0542889  -0.0307456  0.00363038  0.0323152  -0.0866054  0.0329614  0  0  0  9.57e-05  -0.242387  0.0002801  0.0300286  0.00186899  -0.00362351  -0.0278416  0.0344279  -0.0138343  -0.0183774  0.036132  -0.035654  0.0674203  0.00827917  0.0135075 
1704720554.067339000  0  0  11.2813  0.0536087  -0.119186  0.0250412  nan  nan  nan  nan  nan  nan  -2.4924  -0.314054  1.00771  0.0536005  -0.0283582  0.00386773  0.0323153  -0.0878029  0.032962  0  0  0  -0  -0.236551  3.09e-05  0.0298581  0.00202794  -0.0035502  -0.0310962  0.0328424  0.00113455  -0.0174881  0.0329767  -0.0353501  0.0536732  -0.0650133  0.0404852 
1704720554.072341000  0  0  11.4596  0.0362911  -0.115135  0.0312868  nan  nan  nan  nan  nan  nan  -2.49223  -0.314496  1.00787  0.052737  -0.0304004  0.00387254  0.0323153  -0.0889705  0.0329621  0  0  0  -0  -0.230465  0  0.0297763  0.00217048  -0.00372021  -0.0277535  0.0332746  -0.0133649  -0.0162248  0.0342984  -0.0361164  0.0766861  -0.085276  -0.0299204 
1704720554.077350000  0  0  11.4828  0.0868563  -0.148655  0.0271275  nan  nan  nan  nan  nan  nan  -2.49207  -0.314944  1.00803  0.0534113  -0.029503  0.00398794  0.0323153  -0.0901071  0.0329621  0  0  0  -0  -0.224129  0  0.0296274  0.0023541  -0.00378583  -0.0285006  0.0346665  -0.015161  -0.0175464  0.0338565  -0.0358253  -0.0122861  -0.014169  0.0191598 
1704720554.082347000  0  0  11.3217  0.0844368  -0.0927281  0.0232529  nan  nan  nan  nan  nan  nan  -2.49191  -0.315397  1.0082  0.0514042  -0.028504  0.00418668  0.0323153  -0.0912114  0.0329621  0  0  0  -0  -0.217543  0  0.0296823  0.00226101  -0.0037294  -0.0304043  0.0322222  -0.00190102  -0.0156593  0.0318705  -0.0352896  -0.024808  -0.107752  0.0622349 
1704720554.086323000  0  0  11.4183  0.0668856  -0.0862309  0.0306263  nan  nan  nan  nan  nan  nan  -2.49175  -0.315856  1.00836  0.051307  -0.0297553  0.00421333  0.0323153  -0.0922821  0.0329621  0  0  0  -0  -0.210707  0  0.0295535  0.00249207  -0.00384978  -0.0282297  0.0330139  -0.00967496  -0.0153536  0.0324285  -0.0361098  0.00748194  -0.125881  -0.0217301 
1704720554.092342000  0  0  11.4608  0.110085  -0.123814  0.0257344  nan  nan  nan  nan  nan  nan  -2.49159  -0.31632  1.00853  0.0508831  -0.029424  0.00433084  0.0323153  -0.093318  0.0329621  0  0  0  -0  -0.203621  0  0.0294735  0.00256165  -0.00393578  -0.0283381  0.0334642  -0.0130705  -0.0158903  0.0323559  -0.035747  -0.0739796  -0.0500468  0.0357904 
1704720554.097349000  0  0  11.3484  0.10301  -0.0725398  0.022236  nan  nan  nan  nan  nan  nan  -2.49143  -0.316789  1.00869  0.0502258  -0.0279819  0.00451069  0.0323153  -0.0943179  0.0329621  0  0  0  -0  -0.196285  0  0.029407  0.002675  -0.00403399  -0.0303812  0.0326693  -0.0034897  -0.0154903  0.0296039  -0.0351401  -0.0635082  -0.127276  0.0734518 
1704720554.102343000  0  0  11.4168  0.0931912  -0.0777518  0.0299999  nan  nan  nan  nan  nan  nan  -2.49126  -0.317263  1.00886  0.0496058  -0.0287875  0.0045761  0.0323153  -0.0952805  0.0329621  0  0  0  -0  -0.188699  0  0.0293288  0.00279098  -0.00414594  -0.0289752  0.0329772  -0.00896071  -0.0150571  0.0298047  -0.035968  -0.0478573  -0.1187  -0.0153186 
1704720554.107338000  0  0  11.471  0.110897  -0.0974837  0.0237228  nan  nan  nan  nan  nan  nan  -2.4911  -0.317742  1.00902  0.0482776  -0.0287802  0.00470277  0.0323153  -0.0962045  0.0329621  0  0  0  -0  -0.180863  0  0.02919  0.00295028  -0.00422521  -0.0285023  0.0322283  -0.0133589  -0.0144602  0.0297782  -0.0353135  -0.0887597  -0.0789918  0.0566001 
1704720554.112340000  0  0  11.4261  0.110161  -0.0833831  0.0232805  nan  nan  nan  nan  nan  nan  -2.49094  -0.318225  1.00919  0.0485614  -0.0275498  0.00484236  0.0323153  -0.0970887  0.0329621  0  0  0  -0  -0.172777  0  0.0290726  0.00309416  -0.00438779  -0.0299563  0.0330475  -0.00926836  -0.0150527  0.0281279  -0.0349675  -0.0818378  -0.0920104  0.0586694 
1704720554.117327000  0  0  11.3794  0.110164  -0.0820754  0.0298532  nan  nan  nan  nan  nan  nan  -2.49078  -0.318713  1.00935  0.047412  -0.0271208  0.00498254  0.0323153  -0.0979318  0.0329621  0  0  0  -0  -0.164441  0  0.0289241  0.00325247  -0.00439858  -0.0303105  0.0320475  -0.00538856  -0.0143955  0.0273239  -0.0357025  -0.087889  -0.0872289  -0.0161406 
1704720554.122323000  0  0  11.4646  0.0982614  -0.0984484  0.0268629  nan  nan  nan  nan  nan  nan  -2.49062  -0.319204  1.00952  0.0456247  -0.0283771  0.00506178  0.0323153  -0.0987327  0.0329621  0  0  0  -0  -0.155855  0  0.028857  0.00336356  -0.00451324  -0.0282979  0.0310757  -0.0123041  -0.0130147  0.0284035  -0.0355057  -0.0767878  -0.0644151  0.0192709 
1704720554.127336000  0  0  11.4334  0.114056  -0.107313  0.025554  nan  nan  nan  nan  nan  nan  -2.49046  -0.3197  1.00968  0.0464489  -0.0266933  0.00520458  0.0323153  -0.0994901  0.0329621  0  0  0  -0  -0.147165  0  0.0286969  0.00353883  -0.0045398  -0.030193  0.0326678  -0.0096279  -0.0144012  0.0267705  -0.0352983  -0.0956221  -0.031662  0.0335574 
1704720554.132341000  0  0  11.3002  0.0899922  -0.104587  0.0277195  nan  nan  nan  nan  nan  nan  -2.4903  -0.320199  1.00985  0.0425082  -0.0286746  0.00531373  0.0323153  -0.100205  0.0329621  0  0  0  -0  -0.138712  0  0.0289768  0.0032621  -0.00434712  -0.0286946  0.0287369  0.000939834  -0.0107297  0.0286805  -0.0355701  -0.0812716  -0.0546875  0.00920617 
1704720554.137351000  0  0  11.4503  0.0604012  -0.129823  0.0296404  nan  nan  nan  nan  nan  nan  -2.49013  -0.320702  1.01001  0.0396773  -0.0315715  0.00536818  0.0323153  -0.100878  0.0329621  0  0  0  -0  -0.130509  0  0.0291796  0.00314284  -0.00441172  -0.024965  0.0271785  -0.0115176  -0.00798989  0.0316878  -0.0359533  -0.0472955  -0.0318817  -0.0109717 
1704720554.142330000  0  0  11.4551  0.0787689  -0.142966  0.0267826  nan  nan  nan  nan  nan  nan  -2.48997  -0.321208  1.01018  0.040135  -0.030216  0.00549611  0.0323153  -0.10151  0.0329621  0  0  0  -0  -0.122556  0  0.0290396  0.00329813  -0.00446575  -0.0263724  0.0284397  -0.0118037  -0.00896644  0.030605  -0.0357115  -0.0750466  0.00436637  0.0223321 
1704720554.147338000  0  0  11.3367  0.0699697  -0.135937  0.0263164  nan  nan  nan  nan  nan  nan  -2.48981  -0.321717  1.01034  0.038083  -0.0300444  0.00565274  0.0323153  -0.102104  0.0329621  0  0  0  -0  -0.114853  0  0.0289567  0.00338811  -0.00444062  -0.0267898  0.0261056  -0.00205511  -0.00734727  0.0303362  -0.0356413  -0.0723445  -0.00721853  0.0274583 
1704720554.152332000  0  0  11.4622  0.0392362  -0.159622  0.0300321  nan  nan  nan  nan  nan  nan  -2.48965  -0.322229  1.01051  0.0355822  -0.0324056  0.00573196  0.0323153  -0.102659  0.0329621  0  0  0  -0  -0.1074  0  0.029178  0.00325106  -0.0045113  -0.0238397  0.0247276  -0.0124446  -0.0048213  0.0330242  -0.0361752  -0.0341164  0.0154207  -0.0136492 
1704720554.157328000  0  0  11.4731  0.0522724  -0.168854  0.0274716  nan  nan  nan  nan  nan  nan  -2.48949  -0.322743  1.01067  0.0354461  -0.0316684  0.00585049  0.0323153  -0.103178  0.0329621  0  0  0  -0  -0.100197  0  0.0290526  0.00338406  -0.00456293  -0.024466  0.025214  -0.0132589  -0.0051017  0.032647  -0.0359984  -0.0576092  0.0373554  0.0165897 
1704720554.162322000  0  0  11.4113  0.0491569  -0.166912  0.0260091  nan  nan  nan  nan  nan  nan  -2.48933  -0.323261  1.01084  0.034334  -0.0311464  0.00599167  0.0323153  -0.103662  0.0329621  0  0  0  -0  -0.0932442  0  0.0289481  0.00358153  -0.00471082  -0.025108  0.0240031  -0.0078467  -0.00426599  0.0323228  -0.0357656  -0.0590668  0.0364548  0.0325427 
1704720554.167337000  0  0  11.4378  0.0332615  -0.156103  0.0293974  nan  nan  nan  nan  nan  nan  -2.48916  -0.32378  1.011  0.0332687  -0.0310483  0.00611625  0.0323153  -0.104111  0.0329621  0  0  0  -0  -0.0865412  0  0.0288181  0.00369878  -0.00477043  -0.0248488  0.0233439  -0.00995666  -0.00321522  0.032207  -0.0361696  -0.0369431  0.0159023  -0.00577159 
1704720554.172341000  0  0  11.4648  0.0394603  -0.170454  0.0276526  nan  nan  nan  nan  nan  nan  -2.489  -0.324302  1.01117  0.0313508  -0.0329149  0.00620534  0.0323153  -0.104527  0.0329621  0  0  0  -0  -0.0800881  0  0.0289825  0.00355475  -0.00471719  -0.0227282  0.0221606  -0.0123877  -0.00170506  0.0344184  -0.0361194  -0.0632341  0.0242578  0.0155362 
1704720554.177344000  0  0  11.4353  0.0562854  -0.168547  0.0252531  nan  nan  nan  nan  nan  nan  -2.48884  -0.324825  1.01133  0.0306093  -0.0316268  0.00635719  0.0323153  -0.104912  0.0329621  0  0  0  -0  -0.0738851  0  0.0288562  0.00366354  -0.00474651  -0.0241914  0.021654  -0.00989655  -0.00166629  0.033354  -0.0357913  -0.0972409  0.0302376  0.0422487 
1704720554.182348000  0  0  11.3769  0.0448816  -0.128123  0.0286444  nan  nan  nan  nan  nan  nan  -2.48868  -0.325351  1.0115  0.0294396  -0.0310524  0.00649911  0.0323153  -0.105267  0.0329621  0  0  0  -0  -0.0679321  0  0.0287978  0.00371604  -0.00476217  -0.0249875  0.0206127  -0.00501135  -0.000819708  0.0321428  -0.0361447  -0.0822218  -0.0394689  0.00339243 
1704720554.187334000  0  0  11.4301  0.05905  -0.134586  0.0297688  nan  nan  nan  nan  nan  nan  -2.48852  -0.325878  1.01166  0.0289512  -0.032932  0.00654788  0.0323153  -0.105592  0.0329621  0  0  0  -0  -0.062229  0  0.0287703  0.00377125  -0.00483487  -0.0223531  0.0207873  -0.00929161  -0.00110425  0.0337367  -0.0364071  -0.107941  -0.0412052  -0.00803853 
1704720554.192331000  0  0  11.4316  0.100741  -0.142088  0.0242323  nan  nan  nan  nan  nan  nan  -2.48836  -0.326407  1.01183  0.0287019  -0.0308314  0.00670448  0.0323153  -0.105889  0.0329621  0  0  0  -0  -0.056776  0  0.0286341  0.00387938  -0.00488707  -0.0247178  0.020913  -0.00932189  -0.00221204  0.0318429  -0.0357606  -0.181132  -0.00877919  0.0547016 
1704720554.197336000  0  0  11.3178  0.0902171  -0.0775385  0.0270866  nan  nan  nan  nan  nan  nan  -2.48819  -0.326937  1.01199  0.0278033  -0.0293251  0.00686207  0.0323153  -0.10616  0.0329621  0  0  0  -0  -0.0515729  0  0.0284843  0.00397809  -0.00484234  -0.0266661  0.0198475  7.90056e-05  -0.00199488  0.0290869  -0.03594  -0.162081  -0.112522  0.0208177 
1704720554.202323000  0  0  11.3942  0.0939678  -0.0935251  0.0317803  nan  nan  nan  nan  nan  nan  -2.48803  -0.327468  1.01216  0.0274136  -0.0319637  0.00688919  0.0323153  -0.106406  0.0329621  0  0  0  -0  -0.0466199  0  0.0284679  0.00402334  -0.00492751  -0.0230377  0.0201456  -0.00610609  -0.00252182  0.0311953  -0.0366276  -0.164735  -0.0999463  -0.0309781 
1704720554.207333000  0  0  11.4229  0.146002  -0.116204  0.0224503  nan  nan  nan  nan  nan  nan  -2.48787  -0.328001  1.01232  0.0270749  -0.0298647  0.00704484  0.0323153  -0.106627  0.0329621  0  0  0  -0  -0.0419169  0  0.028415  0.00405061  -0.00494126  -0.0254857  0.0203254  -0.00849507  -0.00401705  0.0294128  -0.0356144  -0.255047  -0.0381898  0.0755157 
1704720554.212343000  0  0  11.3201  0.125402  -0.0478988  0.025883  nan  nan  nan  nan  nan  nan  -2.48771  -0.328534  1.01248  0.026478  -0.0283283  0.00719135  0.0323153  -0.106825  0.0329621  0  0  0  -0  -0.0374638  0  0.0282706  0.00414805  -0.00489548  -0.0274377  0.0195995  5.43125e-07  -0.00421544  0.0263801  -0.0357572  -0.212022  -0.1469  0.0340336 
1704720554.217329000  0  0  11.3743  0.111902  -0.0930469  0.0325867  nan  nan  nan  nan  nan  nan  -2.48755  -0.329069  1.01265  0.0246938  -0.0325846  0.00722494  0.0323153  -0.107002  0.0329621  0  0  0  -0  -0.0332608  0  0.0285741  0.00392854  -0.00481942  -0.0225442  0.0185698  -0.00470675  -0.00332013  0.0305375  -0.0367185  -0.193258  -0.0948508  -0.0401491 
1704720554.222326000  0  0  11.4054  0.151487  -0.12119  0.0217051  nan  nan  nan  nan  nan  nan  -2.48739  -0.329604  1.01281  0.0225614  -0.0322752  0.00738943  0.0323153  -0.107158  0.0329621  0  0  0  -0  -0.0293077  0  0.0287948  0.00371097  -0.00469879  -0.023298  0.0169416  -0.0076032  -0.00308466  0.0305333  -0.0356337  -0.274595  -0.0385274  0.0850231 
1704720554.227336000  0  0  11.3469  0.12719  -0.0819606  0.0242203  nan  nan  nan  nan  nan  nan  -2.48723  -0.33014  1.01298  0.0225564  -0.0312508  0.00750069  0.0323153  -0.107295  0.0329621  0  0  0  -0  -0.0256047  0  0.0286693  0.00379845  -0.00468896  -0.024524  0.0170554  -0.00273152  -0.00380431  0.0285474  -0.0355738  -0.21938  -0.0987154  0.0529844 
1704720554.232335000  0  0  11.3297  0.122467  -0.131186  0.0336509  nan  nan  nan  nan  nan  nan  -2.48706  -0.330677  1.01314  0.0217473  -0.0327917  0.00758048  0.0323153  -0.107415  0.0329621  0  0  0  -0  -0.0221517  0  0.0286298  0.00383293  -0.00468943  -0.0225483  0.0163737  -0.00132017  -0.00404408  0.030512  -0.0367571  -0.207728  -0.0183393  -0.0530646 
1704720554.237328000  0  0  11.4431  0.134464  -0.141401  0.0242622  nan  nan  nan  nan  nan  nan  -2.4869  -0.331215  1.01331  0.0211809  -0.0317152  0.00770985  0.0323153  -0.107517  0.0329621  0  0  0  -0  -0.0189486  0  0.0285102  0.00391957  -0.00478902  -0.0232377  0.0161386  -0.0105883  -0.00471112  0.0297343  -0.0358265  -0.225585  0.00924734  0.0549873 
1704720554.242330000  0  0  11.3898  0.118403  -0.143165  0.0266105  nan  nan  nan  nan  nan  nan  -2.48674  -0.331752  1.01347  0.0204231  -0.0319341  0.00781753  0.0323153  -0.107604  0.0329621  0  0  0  -0  -0.0159956  0  0.0286148  0.00376842  -0.00464258  -0.0233747  0.0157693  -0.00646791  -0.00463218  0.030128  -0.0359104  -0.19419  0.00915205  0.0264725 
1704720554.247329000  0  0  11.3151  0.104241  -0.159072  0.0324815  nan  nan  nan  nan  nan  nan  -2.48658  -0.332291  1.01364  0.0189421  -0.0326218  0.00793981  0.0323153  -0.107678  0.0329621  0  0  0  -0  -0.0132926  0  0.0285757  0.00378256  -0.00462536  -0.0226732  0.014059  -0.000316493  -0.0039462  0.0311491  -0.0367232  -0.172177  0.0315727  -0.0387877 
1704720554.251315000  0  0  11.4527  0.103133  -0.170693  0.0284833  nan  nan  nan  nan  nan  nan  -2.48642  -0.332829  1.0138  0.0184991  -0.0329684  0.00803586  0.0323153  -0.107738  0.0329621  0  0  0  -0  -0.0108395  0  0.0284644  0.00394937  -0.00476102  -0.0214849  0.0137371  -0.0115171  -0.00416166  0.0318133  -0.0364384  -0.167979  0.0487028  0.0083425 
1704720554.257329000  0  0  11.4494  0.109126  -0.180957  0.0269293  nan  nan  nan  nan  nan  nan  -2.48626  -0.333368  1.01397  0.0190284  -0.0319454  0.00812586  0.0323153  -0.107786  0.0329621  0  0  0  -0  -0.0086365  0  0.0284255  0.00388425  -0.00478697  -0.0227199  0.0148209  -0.0112026  -0.00567392  0.0313738  -0.0362048  -0.166053  0.0732752  0.0254323 
1704720554.262331000  0  0  11.3443  0.0907267  -0.156299  0.0293439  nan  nan  nan  nan  nan  nan  -2.48609  -0.333907  1.01413  0.0176975  -0.0313095  0.00826763  0.0323153  -0.107825  0.0329621  0  0  0  -0  -0.0066834  0  0.0282954  0.00394528  -0.00474929  -0.0235933  0.0130278  -0.00253851  -0.00484487  0.0306411  -0.0365078  -0.136881  0.030699  -0.00172019 
1704720554.267333000  0  0  11.5724  0.078852  -0.168296  0.0289364  nan  nan  nan  nan  nan  nan  -2.48593  -0.334446  1.0143  0.0175109  -0.0323064  0.00834403  0.0323153  -0.107854  0.0329621  0  0  0  -0  -0.0049804  0  0.0282012  0.00402019  -0.00494726  -0.0213106  0.0133072  -0.0211421  -0.00509009  0.0318891  -0.0365604  -0.110875  0.043212  0.00389982 
1704720554.272327000  0  0  11.4907  0.0917392  -0.184257  0.0250723  nan  nan  nan  nan  nan  nan  -2.48577  -0.334985  1.01446  0.0162722  -0.0332235  0.00845723  0.0323153  -0.107875  0.0329621  0  0  0  -0  -0.0035274  0  0.028548  0.00368681  -0.00472813  -0.0211889  0.0125043  -0.0148286  -0.00468765  0.0333998  -0.0361951  -0.140352  0.0612365  0.0485475 
1704720554.276311000  0  0  11.313  0.0824969  -0.150954  0.0249693  nan  nan  nan  nan  nan  nan  -2.48561  -0.335525  1.01463  0.0154445  -0.031864  0.00859372  0.0323153  -0.107889  0.0329621  0  0  0  -0  -0.0023243  0  0.028415  0.00383698  -0.00469099  -0.0232508  0.0109453  -0.000104167  -0.00425822  0.0317229  -0.0360874  -0.125818  0.0100581  0.0487583 
1704720554.282329000  0  0  11.5536  0.0522913  -0.165596  0.0296877  nan  nan  nan  nan  nan  nan  -2.48545  -0.336064  1.01479  0.0132125  -0.0351318  0.00870969  0.0323153  -0.107899  0.0329621  0  0  0  -0  -0.0013713  0  0.0287704  0.00343587  -0.00467275  -0.0189692  0.00955454  -0.0202177  -0.00234664  0.0350612  -0.0366723  -0.0829935  0.00862801  -0.00437385 
1704720554.287331000  0  0  11.4772  0.0801769  -0.178607  0.0256558  nan  nan  nan  nan  nan  nan  -2.48529  -0.336604  1.01496  0.0116333  -0.0358578  0.00884473  0.0323153  -0.107903  0.0329621  0  0  0  -0  -0.0006683  0  0.0290538  0.00309764  -0.00444389  -0.0189528  0.0082802  -0.0143478  -0.0017757  0.0360254  -0.03641  -0.144017  0.0257808  0.0434026 
1704720554.292328000  0  0  11.3357  0.0649729  -0.144063  0.025848  nan  nan  nan  nan  nan  nan  -2.48512  -0.337143  1.01512  0.0107888  -0.034891  0.00897343  0.0323153  -0.107906  0.0329621  0  0  0  -0  -0.0002152  0  0.0289389  0.00312945  -0.00439765  -0.0204716  0.00700896  -0.00265033  -0.00136265  0.0345322  -0.0362888  -0.117409  -0.0295692  0.039788 
1704720554.297326000  0  0  11.491  0.0627453  -0.141286  0.031312  nan  nan  nan  nan  nan  nan  -2.48496  -0.337683  1.01529  0.0108509  -0.0351238  0.00905684  0.0323153  -0.107906  0.0329621  0  0  0  -0  -1.22e-05  0  0.0289059  0.00312949  -0.00454493  -0.0195025  0.00731194  -0.0152707  -0.00195277  0.03448  -0.036951  -0.107525  -0.0346427  -0.0218907 
1704720554.301307000  0  0  11.5026  0.0898374  -0.141619  0.0284291  nan  nan  nan  nan  nan  nan  -2.4848  -0.338222  1.01545  0.0114045  -0.0348043  0.00912904  0.0323153  -0.107906  0.0329621  0  0  0  -0  3.82e-05  0  0.028797  0.0032726  -0.00462891  -0.0196318  0.00772195  -0.0160589  -0.00337097  0.0340627  -0.0367376  -0.148662  -0.0301381  0.0120121 
1704720554.307331000  0  0  11.3644  0.0899431  -0.124358  0.0265042  nan  nan  nan  nan  nan  nan  -2.48464  -0.338762  1.01562  0.0100691  -0.0343127  0.00926846  0.0323153  -0.107905  0.0329621  0  0  0  -0  0.0003014  0  0.0289028  0.00297279  -0.00445466  -0.0210079  0.00655441  -0.00490554  -0.00297573  0.0331325  -0.0364838  -0.152509  -0.056103  0.0335352 
