    ts      x      y      z   roll  pitch    yaw     vx     vy     vz     wx     wy     wz     ax     ay     az    dwx    dwy    dwz
 0.0050000  -2.5000000  -0.3000000   0.9980000   0.0000000   0.0000000   0.0000000   0.0000002  -0.0000002   0.0000002   0.0000000   0.0000000   0.0000000   0.0001250  -0.0001250   0.0001250   0.0000000   0.0000000   0.0000000
 0.0100000  -2.5000000  -0.3000000   0.9980000   0.0000000   0.0000000   0.0000000   0.0000017  -0.0000017   0.0000017   0.0000000   0.0000000   0.0000000   0.0005000  -0.0005000   0.0005000   0.0000000   0.0000000   0.0000000
 0.0150000  -2.5000000  -0.3000000   0.9980000   0.0000000   0.0000000   0.0000000   0.0000056  -0.0000056   0.0000056   0.0000000   0.0000000   0.0000000   0.0011250  -0.0011250   0.0011250   0.0000000   0.0000000   0.0000000
 0.0200000  -2.5000000  -0.3000000   0.9980000   0.0000000   0.0000000   0.0000001   0.0000133  -0.0000133   0.0000133   0.0000000   0.0000000   0.0000000   0.0020000  -0.0020000   0.0020000   0.0000000   0.0000000   0.0000000
 0.0250000  -2.5000000  -0.3000000   0.9980000   0.0000000   0.0000000   0.0000003   0.0000260  -0.0000260   0.0000260   0.0000000   0.0000000   0.0000000   0.0031250  -0.0031250   0.0031250   0.0000000   0.0000000   0.0000000
 0.0300000  -2.5000000  -0.3000000   0.9980000   0.0000000   0.0000000   0.0000005   0.0000450  -0.0000450   0.0000450   0.0000000   0.0000000   0.0000000   0.0045000  -0.0045000   0.0045000   0.0000000   0.0000000   0.0000000
 0.0350000  -2.5000000  -0.3000010   0.9980000   0.0000000   0.0000000   0.0000010   0.0000715  -0.0000715   0.0000715   0.0000000   0.0000000   0.0000000   0.0061250  -0.0061250   0.0061250   0.0000000   0.0000000   0.0000000
 0.0400000  -2.5000000  -0.3000010   0.9980000   0.0000000   0.0000000   0.0000017   0.0001067  -0.0001067   0.0001067   0.0000000   0.0000000   0.0000000   0.0080000  -0.0080000   0.0080000   0.0000000   0.0000000   0.0000000
 0.0450000  -2.5000000  -0.3000020   0.9980000   0.0000000   0.0000000   0.0000027   0.0001519  -0.0001519   0.0001519   0.0000000   0.0000000   0.0000000   0.0101250  -0.0101250   0.0101250   0.0000000   0.0000000   0.0000000
 0.0500000  -2.5000000  -0.3000030   0.9980000   0.0000000   0.0000000   0.0000042   0.0002083  -0.0002083   0.0002083   0.0000000   0.0000000   0.0000000   0.0125000  -0.0125000   0.0125000   0.0000000   0.0000000   0.0000000
 0.0550000  -2.5000000  -0.3000040   0.9980000   0.0000000   0.0000000   0.0000061   0.0002773  -0.0002773   0.0002773   0.0000000   0.0000000   0.0000000   0.0151250  -0.0151250   0.0151250   0.0000000   0.0000000   0.0000000
 0.0600000  -2.4999900  -0.3000050   0.9980100   0.0000000   0.0000000   0.0000086   0.0003600  -0.0003600   0.0003600   0.0000000   0.0000000   0.0000000   0.0180000  -0.0180000   0.0180000   0.0000000   0.0000000   0.0000000
 0.0650000  -2.4999900  -0.3000070   0.9980100   0.0000000   0.0000000   0.0000119   0.0004577  -0.0004577   0.0004577   0.0000000   0.0000000   0.0000000   0.0211250  -0.0211250   0.0211250   0.0000000   0.0000000   0.0000000
 0.0700000  -2.4999900  -0.3000100   0.9980100   0.0000000   0.0000000   0.0000160   0.0005717  -0.0005717   0.0005717   0.0000000   0.0000000   0.0000000   0.0245000  -0.0245000   0.0245000   0.0000000   0.0000000   0.0000000
 0.0750000  -2.4999900  -0.3000130   0.9980100   0.0000000   0.0000000   0.0000211   0.0007031  -0.0007031   0.0007031   0.0000000   0.0000000   0.0000000   0.0281250  -0.0281250   0.0281250   0.0000000   0.0000000   0.0000000
 0.0800000  -2.4999800  -0.3000170   0.9980200   0.0000000   0.0000000   0.0000273   0.0008533  -0.0008533   0.0008533   0.0000000   0.0000000   0.0000000   0.0320000  -0.0320000   0.0320000   0.0000000   0.0000000   0.0000000
 0.0850000  -2.4999800  -0.3000220   0.9980200   0.0000000   0.0000000   0.0000348   0.0010235  -0.0010235   0.0010235   0.0000000   0.0000000   0.0000000   0.0361250  -0.0361250   0.0361250   0.0000000   0.0000000   0.0000000
 0.0900000  -2.4999700  -0.3000270   0.9980300   0.0000000   0.0000000   0.0000437   0.0012150  -0.0012150   0.0012150   0.0000000   0.0000000   0.0000000   0.0405000  -0.0405000   0.0405000   0.0000000   0.0000000   0.0000000
 0.0950000  -2.4999700  -0.3000340   0.9980300   0.0000000   0.0000000   0.0000543   0.0014290  -0.0014290   0.0014290   0.0000000   0.0000000   0.0000000   0.0451250  -0.0451250   0.0451250   0.0000000   0.0000000   0.0000000
 0.1000000  -2.4999600  -0.3000420   0.9980400   0.0000000   0.0000000   0.0000665   0.0016667  -0.0016667   0.0016667   0.0000000   0.0000000   0.0000000   0.0500000  -0.0500000   0.0500000   0.0000000   0.0000000   0.0000000
 0.1050000  -2.4999500  -0.3000510   0.9980500   0.0000000   0.0000000   0.0000807   0.0019294  -0.0019294   0.0019294   0.0000000   0.0000000   0.0000000   0.0551250  -0.0551250   0.0551250   0.0000000   0.0000000   0.0000000
 0.1100000  -2.4999400  -0.3000610   0.9980600   0.0000000   0.0000000   0.0000968   0.0022183  -0.0022183   0.0022183   0.0000000   0.0000000   0.0000000   0.0605000  -0.0605000   0.0605000   0.0000000   0.0000000   0.0000000
 0.1150000  -2.4999300  -0.3000730   0.9980700   0.0000000   0.0000000   0.0001150   0.0025348  -0.0025348   0.0025348   0.0000000   0.0000000   0.0000000   0.0661250  -0.0661250   0.0661250   0.0000000   0.0000000   0.0000000
 0.1200000  -2.4999100  -0.3000860   0.9980900   0.0000000   0.0000000   0.0001354   0.0028799  -0.0028800   0.0028800   0.0000000   0.0000000   0.0000000   0.0719294  -0.0720000   0.0719647   0.0000000   0.0000000   0.0000000
 0.1250000  -2.4999000  -0.3001020   0.9981000   0.0000000   0.0000000   0.0001582   0.0032537  -0.0032552   0.0032541   0.0000000   0.0000000   0.0000000   0.0775388  -0.0781250   0.0776518   0.0000000   0.0000000   0.0000000
 0.1300000  -2.4998800  -0.3001190   0.9981200   0.0000000   0.0000000   0.0001833   0.0036549  -0.0036617   0.0036561   0.0000000   0.0000000   0.0000000   0.0828982  -0.0845000   0.0830890   0.0000000   0.0000000   0.0000000
 0.1350000  -2.4998600  -0.3001380   0.9981400   0.0000000   0.0000000   0.0002109   0.0040823  -0.0041006   0.0040846   0.0000000   0.0000000   0.0000000   0.0880075  -0.0911250   0.0882761   0.0000000   0.0000000   0.0000000
 0.1400000  -2.4998400  -0.3001600   0.9981600   0.0000000   0.0000000   0.0002410   0.0045346  -0.0045733   0.0045384   0.0000000   0.0000000   0.0000000   0.0928669  -0.0980000   0.0932132   0.0000000   0.0000000   0.0000000
 0.1450000  -2.4998200  -0.3001840   0.9981800   0.0000000   0.0000000   0.0002736   0.0050105  -0.0050810   0.0050163   0.0000000   0.0000000   0.0000000   0.0974763  -0.1051250   0.0979003   0.0000000   0.0000000   0.0000000
 0.1500000  -2.4997900  -0.3002110   0.9982100   0.0000000   0.0000000   0.0003089   0.0055089  -0.0056250   0.0055170   0.0000000   0.0000000   0.0000000   0.1018360  -0.1125000   0.1023370   0.0000000   0.0000000   0.0000000
 0.1550000  -2.4997600  -0.3002410   0.9982400   0.0000000   0.0000000   0.0003468   0.0060285  -0.0062065   0.0060393   0.0000000   0.0000000   0.0000000   0.1059450  -0.1201250   0.1065250   0.0000000   0.0000000   0.0000000
 0.1600000  -2.4997300  -0.3002730   0.9982700   0.0000000   0.0000000   0.0003874   0.0065680  -0.0068267   0.0065818   0.0000000   0.0000000   0.0000000   0.1098040  -0.1280000   0.1104620   0.0000000   0.0000000   0.0000000
 0.1650000  -2.4997000  -0.3003090   0.9983000   0.0000000   0.0000000   0.0004307   0.0071261  -0.0074869   0.0071435   0.0000000   0.0000000   0.0000000   0.1134140  -0.1361250   0.1141490   0.0000000   0.0000000   0.0000000
 0.1700000  -2.4996600  -0.3003480   0.9983400   0.0000000   0.0000000   0.0004766   0.0077017  -0.0081883   0.0077229   0.0000000   0.0000000   0.0000000   0.1167730  -0.1445000   0.1175860   0.0000000   0.0000000   0.0000000
 0.1750000  -2.4996200  -0.3003910   0.9983800   0.0000000   0.0000000   0.0005253   0.0082934  -0.0089323   0.0083189   0.0000000   0.0000000   0.0000000   0.1198820  -0.1531250   0.1207730   0.0000000   0.0000000   0.0000000
 0.1800000  -2.4995800  -0.3004370   0.9984300   0.0000000   0.0000000   0.0005765   0.0089001  -0.0097197   0.0089302   0.0000000   0.0000000   0.0000000   0.1227420  -0.1617870   0.1237100   0.0000000   0.0000000   0.0000000
 0.1850000  -2.4995300  -0.3004880   0.9984700   0.0000000   0.0000000   0.0006305   0.0095204  -0.0105498   0.0095556   0.0000000   0.0000000   0.0000000   0.1253510  -0.1702020   0.1263970   0.0000000   0.0000000   0.0000000
 0.1900000  -2.4994800  -0.3005430   0.9985200   0.0000000   0.0000000   0.0006870   0.0101532  -0.0114213   0.0101938   0.0000000   0.0000000   0.0000000   0.1277110  -0.1783660   0.1288340   0.0000000   0.0000000   0.0000000
 0.1950000  -2.4994300  -0.3006020   0.9985700   0.0000000   0.0000000   0.0007461   0.0107971  -0.0123330   0.0108435   0.0000000   0.0000000   0.0000000   0.1298200  -0.1862800   0.1310220   0.0000000   0.0000000   0.0000000
 0.2000000  -2.4993700  -0.3006660   0.9986300   0.0000000   0.0000000   0.0008076   0.0114510  -0.0132837   0.0115036   0.0000000   0.0000000   0.0000000   0.1316790  -0.1939440   0.1329590   0.0000000   0.0000000   0.0000000
 0.2050000  -2.4993100  -0.3007350   0.9986900   0.0000000   0.0000000   0.0008716   0.0121135  -0.0142720   0.0121727   0.0000000   0.0000000   0.0000000   0.1332890  -0.2013580   0.1346460   0.0000000   0.0000000   0.0000000
 0.2100000  -2.4992500  -0.3008090   0.9987500   0.0000000   0.0000000   0.0009379   0.0127834  -0.0152968   0.0128496   0.0000000   0.0000000   0.0000000   0.1346480  -0.2085220   0.1360830   0.0000000   0.0000000   0.0000000
 0.2150000  -2.4991900  -0.3008880   0.9988200   0.0000000   0.0000000   0.0010065   0.0134595  -0.0163568   0.0135331   0.0000000   0.0000000   0.0000000   0.1357570  -0.2154360   0.1372700   0.0000000   0.0000000   0.0000000
 0.2200000  -2.4991200  -0.3009730   0.9988900   0.0000000   0.0000000   0.0010773   0.0141406  -0.0174507   0.0142219   0.0000000   0.0000000   0.0000000   0.1366170  -0.2221000   0.1382070   0.0000000   0.0000000   0.0000000
 0.2250000  -2.4990400  -0.3010630   0.9989600   0.0000000   0.0000000   0.0011501   0.0148253  -0.0185774   0.0149148   0.0000000   0.0000000   0.0000000   0.1372260  -0.2285140   0.1388940   0.0000000   0.0000000   0.0000000
 0.2300000  -2.4989700  -0.3011590   0.9990400   0.0000000   0.0000000   0.0012248   0.0155124  -0.0197355   0.0156104   0.0000000   0.0000000   0.0000000   0.1375850  -0.2346780   0.1393320   0.0000000   0.0000000   0.0000000
 0.2350000  -2.4988900  -0.3012600   0.9991200   0.0000000   0.0000000   0.0013014   0.0162007  -0.0209237   0.0163077   0.0000000   0.0000000   0.0000000   0.1376950  -0.2405920   0.1395190   0.0000000   0.0000000   0.0000000
 0.2400000  -2.4988100  -0.3013680   0.9992000   0.0000000   0.0000000   0.0013796   0.0168890  -0.0221410   0.0170052   0.0000000   0.0000000   0.0000000   0.1375540  -0.2462560   0.1394560   0.0000000   0.0000000   0.0000000
 0.2450000  -2.4987200  -0.3014820   0.9992900   0.0000000   0.0000000   0.0014594   0.0175759  -0.0233859   0.0177018   0.0000000   0.0000000   0.0000000   0.1371640  -0.2516700   0.1391430   0.0000000   0.0000000   0.0000000
 0.2500000  -2.4986300  -0.3016020   0.9993800   0.0000000   0.0000000   0.0015405   0.0182602  -0.0246573   0.0183962   0.0000000   0.0000000   0.0000000   0.1365230  -0.2568340   0.1385800   0.0000000   0.0000000   0.0000000
 0.2550000  -2.4985400  -0.3017280   0.9994700   0.0000000   0.0000000   0.0016228   0.0189407  -0.0259538   0.0190872   0.0000000   0.0000000   0.0000000   0.1356320  -0.2617480   0.1377670   0.0000000   0.0000000   0.0000000
 0.2600000  -2.4984400  -0.3018610   0.9995700   0.0000000   0.0000000   0.0017062   0.0196161  -0.0272743   0.0197735   0.0000000   0.0000000   0.0000000   0.1344920  -0.2664120   0.1367040   0.0000000   0.0000000   0.0000000
 0.2650000  -2.4983400  -0.3020010   0.9996700   0.0000000   0.0000000   0.0017905   0.0202852  -0.0286175   0.0204538   0.0000000   0.0000000   0.0000000   0.1331010  -0.2708260   0.1353910   0.0000000   0.0000000   0.0000000
 0.2700000  -2.4982400  -0.3021480   0.9997700   0.0000000   0.0000000   0.0018756   0.0209467  -0.0299822   0.0211270   0.0000000   0.0000000   0.0000000   0.1314600  -0.2749900   0.1338290   0.0000000   0.0000000   0.0000000
 0.2750000  -2.4981300  -0.3023010   0.9998800   0.0000000   0.0000000   0.0019614   0.0215994  -0.0313670   0.0217917   0.0000000   0.0000000   0.0000000   0.1295700  -0.2789040   0.1320160   0.0000000   0.0000000   0.0000000
 0.2800000  -2.4980200  -0.3024610   0.9999900   0.0000000   0.0000000   0.0020477   0.0222420  -0.0327708   0.0224467   0.0000000   0.0000000   0.0000000   0.1274290  -0.2825680   0.1299530   0.0000000   0.0000000   0.0000000
 0.2850000  -2.4979100  -0.3026290   1.0001000   0.0000000   0.0000000   0.0021345   0.0228732  -0.0341923   0.0230908   0.0000000   0.0000000   0.0000000   0.1250380  -0.2859820   0.1276400   0.0000000   0.0000000   0.0000000
 0.2900000  -2.4977900  -0.3028030   1.0002200   0.0000000   0.0000000   0.0022216   0.0234919  -0.0356302   0.0237227   0.0000000   0.0000000   0.0000000   0.1223980  -0.2891460   0.1250770   0.0000000   0.0000000   0.0000000
 0.2950000  -2.4976700  -0.3029850   1.0003400   0.0000000   0.0000000   0.0023091   0.0240968  -0.0370833   0.0243412   0.0000000   0.0000000   0.0000000   0.1195070  -0.2920600   0.1222640   0.0000000   0.0000000   0.0000000
 0.3000000  -2.4975500  -0.3031740   1.0004600   0.0000000   0.0000000   0.0023967   0.0246866  -0.0385504   0.0249449   0.0000000   0.0000000   0.0000000   0.1163670  -0.2947240   0.1192010   0.0000000   0.0000000   0.0000000
 0.3050000  -2.4974300  -0.3033710   1.0005900   0.0000000   0.0000000   0.0024845   0.0252600  -0.0400301   0.0255327   0.0000000   0.0000000   0.0000000   0.1129760  -0.2971380   0.1158880   0.0000000   0.0000000   0.0000000
 0.3100000  -2.4973000  -0.3035740   1.0007200   0.0000000   0.0000000   0.0025724   0.0258159  -0.0415213   0.0261034   0.0000000   0.0000000   0.0000000   0.1093350  -0.2993020   0.1123260   0.0000000   0.0000000   0.0000000
 0.3150000  -2.4971700  -0.3037860   1.0008500   0.0000000   0.0000000   0.0026604   0.0263530  -0.0430227   0.0266556   0.0000000   0.0000000   0.0000000   0.1054450  -0.3012160   0.1085130   0.0000000   0.0000000   0.0000000
 0.3200000  -2.4970400  -0.3040050   1.0009800   0.0000000   0.0000000   0.0027484   0.0268700  -0.0445331   0.0271881   0.0000000   0.0000000   0.0000000   0.1013040  -0.3028800   0.1044500   0.0000000   0.0000000   0.0000000
 0.3250000  -2.4969000  -0.3042310   1.0011200   0.0000000   0.0000000   0.0028364   0.0273656  -0.0460511   0.0276997   0.0000000   0.0000000   0.0000000   0.0969134  -0.3042940   0.1001370   0.0000000   0.0000000   0.0000000
 0.3300000  -2.4967600  -0.3044650   1.0012600   0.0000000   0.0000000   0.0029244   0.0278387  -0.0475756   0.0281891   0.0000000   0.0000000   0.0000000   0.0922728  -0.3054580   0.0955741   0.0000000   0.0000000   0.0000000
 0.3350000  -2.4966200  -0.3047070   1.0014000   0.0000000   0.0000000   0.0030124   0.0282879  -0.0491053   0.0286550   0.0000000   0.0000000   0.0000000   0.0873821  -0.3063720   0.0907612   0.0000000   0.0000000   0.0000000
 0.3400000  -2.4964800  -0.3049560   1.0015500   0.0000000   0.0000000   0.0031005   0.0287121  -0.0506389   0.0290962   0.0000000   0.0000000   0.0000000   0.0822415  -0.3070360   0.0856983   0.0000000   0.0000000   0.0000000
 0.3450000  -2.4963400  -0.3052130   1.0016900   0.0000000   0.0000000   0.0031885   0.0291099  -0.0521752   0.0295116   0.0000000   0.0000000   0.0000000   0.0768508  -0.3074500   0.0803855   0.0000000   0.0000000   0.0000000
 0.3500000  -2.4961900  -0.3054780   1.0018400   0.0000000   0.0000000   0.0032765   0.0294802  -0.0537130   0.0298997   0.0000000   0.0000000   0.0000000   0.0712102  -0.3076140   0.0748226   0.0000000   0.0000000   0.0000000
 0.3550000  -2.4960400  -0.3057500   1.0019900   0.0000000   0.0000000   0.0033645   0.0298217  -0.0552509   0.0302594   0.0000000   0.0000000   0.0000000   0.0654077  -0.3075280   0.0690138   0.0000000   0.0000000   0.0000000
 0.3600000  -2.4958900  -0.3060300   1.0021500   0.0000000   0.0000000   0.0034525   0.0301346  -0.0567878   0.0305900   0.0000000   0.0000000   0.0000000   0.0598140  -0.3071920   0.0632645   0.0000000   0.0000000   0.0000000
 0.3650000  -2.4957400  -0.3063180   1.0023000   0.0000000   0.0000000   0.0035406   0.0304202  -0.0583224   0.0308924   0.0000000   0.0000000   0.0000000   0.0544703  -0.3066060   0.0577653   0.0000000   0.0000000   0.0000000
 0.3700000  -2.4955900  -0.3066140   1.0024500   0.0000000   0.0000000   0.0036286   0.0306797  -0.0598535   0.0311680   0.0000000   0.0000000   0.0000000   0.0493765  -0.3057700   0.0525160   0.0000000   0.0000000   0.0000000
 0.3750000  -2.4954300  -0.3069170   1.0026100   0.0000000   0.0000000   0.0037166   0.0309144  -0.0613797   0.0314180   0.0000000   0.0000000   0.0000000   0.0445328  -0.3046840   0.0475167   0.0000000   0.0000000   0.0000000
 0.3800000  -2.4952800  -0.3072270   1.0027700   0.0000000   0.0000000   0.0038046   0.0311255  -0.0628999   0.0316436   0.0000000   0.0000000   0.0000000   0.0399391  -0.3033480   0.0427675   0.0000000   0.0000000   0.0000000
 0.3850000  -2.4951200  -0.3075460   1.0029300   0.0000000   0.0000000   0.0038926   0.0313142  -0.0644128   0.0318461   0.0000000   0.0000000   0.0000000   0.0355954  -0.3017620   0.0382682   0.0000000   0.0000000   0.0000000
 0.3900000  -2.4949600  -0.3078720   1.0030900   0.0000000   0.0000000   0.0039807   0.0314819  -0.0659171   0.0320267   0.0000000   0.0000000   0.0000000   0.0315016  -0.2999260   0.0340190   0.0000000   0.0000000   0.0000000
 0.3950000  -2.4948100  -0.3082050   1.0032500   0.0000000   0.0000000   0.0040687   0.0316297  -0.0674116   0.0321867   0.0000000   0.0000000   0.0000000   0.0276579  -0.2978400   0.0300197   0.0000000   0.0000000   0.0000000
 0.4000000  -2.4946500  -0.3085460   1.0034100   0.0000000   0.0000000   0.0041567   0.0317589  -0.0688951   0.0323273   0.0000000   0.0000000   0.0000000   0.0240642  -0.2955040   0.0262705   0.0000000   0.0000000   0.0000000
 0.4050000  -2.4944900  -0.3088940   1.0035700   0.0000000   0.0000000   0.0042447   0.0318707  -0.0703663   0.0324498   0.0000000   0.0000000   0.0000000   0.0207204  -0.2929180   0.0227712   0.0000000   0.0000000   0.0000000
 0.4100000  -2.4943300  -0.3092490   1.0037300   0.0000000   0.0000000   0.0043327   0.0319665  -0.0718239   0.0325555   0.0000000   0.0000000   0.0000000   0.0176267  -0.2900820   0.0195220   0.0000000   0.0000000   0.0000000
 0.4150000  -2.4941700  -0.3096120   1.0039000   0.0000000   0.0000000   0.0044208   0.0320474  -0.0732667   0.0326455   0.0000000   0.0000000   0.0000000   0.0147830  -0.2869960   0.0165227   0.0000000   0.0000000   0.0000000
 0.4200000  -2.4940100  -0.3099820   1.0040600   0.0000000   0.0000000   0.0045088   0.0321147  -0.0746934   0.0327211   0.0000000   0.0000000   0.0000000   0.0121892  -0.2836600   0.0137734   0.0000000   0.0000000   0.0000000
 0.4250000  -2.4938500  -0.3103590   1.0042200   0.0000000   0.0000000   0.0045968   0.0321697  -0.0761029   0.0327836   0.0000000   0.0000000   0.0000000   0.0098455  -0.2800740   0.0112742   0.0000000   0.0000000   0.0000000
 0.4300000  -2.4936900  -0.3107430   1.0043900   0.0000000   0.0000000   0.0046848   0.0322136  -0.0774937   0.0328343   0.0000000   0.0000000   0.0000000   0.0077518  -0.2762380   0.0090249   0.0000000   0.0000000   0.0000000
 0.4350000  -2.4935300  -0.3111340   1.0045500   0.0000000   0.0000000   0.0047728   0.0322476  -0.0788648   0.0328743   0.0000000   0.0000000   0.0000000   0.0059081  -0.2721520   0.0070257   0.0000000   0.0000000   0.0000000
 0.4400000  -2.4933600  -0.3115320   1.0047200   0.0000000   0.0000000   0.0048608   0.0322731  -0.0802149   0.0329049   0.0000000   0.0000000   0.0000000   0.0043143  -0.2678160   0.0052764   0.0000000   0.0000000   0.0000000
 0.4450000  -2.4932000  -0.3119360   1.0048800   0.0000000   0.0000000   0.0049489   0.0322912  -0.0815426   0.0329275   0.0000000   0.0000000   0.0000000   0.0029706  -0.2632310   0.0037772   0.0000000   0.0000000   0.0000000
 0.4500000  -2.4930400  -0.3123470   1.0050500   0.0000000   0.0000000   0.0050369   0.0323032  -0.0828467   0.0329431   0.0000000   0.0000000   0.0000000   0.0018769  -0.2583950   0.0025279   0.0000000   0.0000000   0.0000000
 0.4550000  -2.4928800  -0.3127640   1.0052100   0.0000000   0.0000000   0.0051249   0.0323104  -0.0841261   0.0329532   0.0000000   0.0000000   0.0000000   0.0010331  -0.2533090   0.0015287   0.0000000   0.0000000   0.0000000
 0.4600000  -2.4927200  -0.3131880   1.0053800   0.0000000   0.0000000   0.0052129   0.0323140  -0.0853794   0.0329588   0.0000000   0.0000000   0.0000000   0.0004394  -0.2479730   0.0007794   0.0000000   0.0000000   0.0000000
 0.4650000  -2.4925600  -0.3136180   1.0055400   0.0000000   0.0000000   0.0053009   0.0323152  -0.0866054   0.0329614   0.0000000   0.0000000   0.0000000   0.0000957  -0.2423870   0.0002801   0.0000000   0.0000000   0.0000000
 0.4700000  -2.4924000  -0.3140540   1.0057100   0.0000000   0.0000000   0.0053890   0.0323153  -0.0878029   0.0329620   0.0000000   0.0000000   0.0000000  -0.0000000  -0.2365510   0.0000309   0.0000000   0.0000000   0.0000000
 0.4750000  -2.4922300  -0.3144960   1.0058700   0.0000000   0.0000000   0.0054770   0.0323153  -0.0889705   0.0329621   0.0000000   0.0000000   0.0000000  -0.0000000  -0.2304650   0.0000000   0.0000000   0.0000000   0.0000000
 0.4800000  -2.4920700  -0.3149440   1.0060300   0.0000000   0.0000000   0.0055650   0.0323153  -0.0901071   0.0329621   0.0000000   0.0000000   0.0000000  -0.0000000  -0.2241290   0.0000000   0.0000000   0.0000000   0.0000000
 0.4850000  -2.4919100  -0.3153970   1.0062000   0.0000000   0.0000000   0.0056530   0.0323153  -0.0912114   0.0329621   0.0000000   0.0000000   0.0000000  -0.0000000  -0.2175430   0.0000000   0.0000000   0.0000000   0.0000000
 0.4900000  -2.4917500  -0.3158560   1.0063600   0.0000000   0.0000000   0.0057411   0.0323153  -0.0922821   0.0329621   0.0000000   0.0000000   0.0000000  -0.0000000  -0.2107070   0.0000000   0.0000000   0.0000000   0.0000000
 0.4950000  -2.4915900  -0.3163200   1.0065300   0.0000000   0.0000000   0.0058291   0.0323153  -0.0933180   0.0329621   0.0000000   0.0000000   0.0000000  -0.0000000  -0.2036210   0.0000000   0.0000000   0.0000000   0.0000000
 0.5000000  -2.4914300  -0.3167890   1.0066900   0.0000000   0.0000000   0.0059171   0.0323153  -0.0943179   0.0329621   0.0000000   0.0000000   0.0000000  -0.0000000  -0.1962850   0.0000000   0.0000000   0.0000000   0.0000000
 0.5050000  -2.4912600  -0.3172630   1.0068600   0.0000000   0.0000000   0.0060051   0.0323153  -0.0952805   0.0329621   0.0000000   0.0000000   0.0000000  -0.0000000  -0.1886990   0.0000000   0.0000000   0.0000000   0.0000000
 0.5100000  -2.4911000  -0.3177420   1.0070200   0.0000000   0.0000000   0.0060931   0.0323153  -0.0962045   0.0329621   0.0000000   0.0000000   0.0000000  -0.0000000  -0.1808630   0.0000000   0.0000000   0.0000000   0.0000000
 0.5150000  -2.4909400  -0.3182250   1.0071900   0.0000000   0.0000000   0.0061811   0.0323153  -0.0970887   0.0329621   0.0000000   0.0000000   0.0000000  -0.0000000  -0.1727770   0.0000000   0.0000000   0.0000000   0.0000000
 0.5200000  -2.4907800  -0.3187130   1.0073500   0.0000000   0.0000000   0.0062692   0.0323153  -0.0979318   0.0329621   0.0000000   0.0000000   0.0000000  -0.0000000  -0.1644410   0.0000000   0.0000000   0.0000000   0.0000000
 0.5250000  -2.4906200  -0.3192040   1.0075200   0.0000000   0.0000000   0.0063572   0.0323153  -0.0987327   0.0329621   0.0000000   0.0000000   0.0000000  -0.0000000  -0.1558550   0.0000000   0.0000000   0.0000000   0.0000000
 0.5300000  -2.4904600  -0.3197000   1.0076800   0.0000000   0.0000000   0.0064452   0.0323153  -0.0994901   0.0329621   0.0000000   0.0000000   0.0000000  -0.0000000  -0.1471650   0.0000000   0.0000000   0.0000000   0.0000000
 0.5350000  -2.4903000  -0.3201990   1.0078500   0.0000000   0.0000000   0.0065332   0.0323153  -0.1002050   0.0329621   0.0000000   0.0000000   0.0000000  -0.0000000  -0.1387120   0.0000000   0.0000000   0.0000000   0.0000000
 0.5400000  -2.4901300  -0.3207020   1.0080100   0.0000000   0.0000000   0.0066213   0.0323153  -0.1008780   0.0329621   0.0000000   0.0000000   0.0000000  -0.0000000  -0.1305090   0.0000000   0.0000000   0.0000000   0.0000000
 0.5450000  -2.4899700  -0.3212080   1.0081800   0.0000000   0.0000000   0.0067093   0.0323153  -0.1015100   0.0329621   0.0000000   0.0000000   0.0000000  -0.0000000  -0.1225560   0.0000000   0.0000000   0.0000000   0.0000000
 0.5500000  -2.4898100  -0.3217170   1.0083400   0.0000000   0.0000000   0.0067973   0.0323153  -0.1021040   0.0329621   0.0000000   0.0000000   0.0000000  -0.0000000  -0.1148530   0.0000000   0.0000000   0.0000000   0.0000000
 0.5550000  -2.4896500  -0.3222290   1.0085100   0.0000000   0.0000000   0.0068853   0.0323153  -0.1026590   0.0329621   0.0000000   0.0000000   0.0000000  -0.0000000  -0.1074000   0.0000000   0.0000000   0.0000000   0.0000000
 0.5600000  -2.4894900  -0.3227430   1.0086700   0.0000000   0.0000000   0.0069733   0.0323153  -0.1031780   0.0329621   0.0000000   0.0000000   0.0000000  -0.0000000  -0.1001970   0.0000000   0.0000000   0.0000000   0.0000000
 0.5650000  -2.4893300  -0.3232610   1.0088400   0.0000000   0.0000000   0.0070613   0.0323153  -0.1036620   0.0329621   0.0000000   0.0000000   0.0000000  -0.0000000  -0.0932442   0.0000000   0.0000000   0.0000000   0.0000000
 0.5700000  -2.4891600  -0.3237800   1.0090000   0.0000000   0.0000000   0.0071494   0.0323153  -0.1041110   0.0329621   0.0000000   0.0000000   0.0000000  -0.0000000  -0.0865412   0.0000000   0.0000000   0.0000000   0.0000000
 0.5750000  -2.4890000  -0.3243020   1.0091700   0.0000000   0.0000000   0.0072374   0.0323153  -0.1045270   0.0329621   0.0000000   0.0000000   0.0000000  -0.0000000  -0.0800881   0.0000000   0.0000000   0.0000000   0.0000000
 0.5800000  -2.4888400  -0.3248250   1.0093300   0.0000000   0.0000000   0.0073254   0.0323153  -0.1049120   0.0329621   0.0000000   0.0000000   0.0000000  -0.0000000  -0.0738851   0.0000000   0.0000000   0.0000000   0.0000000
 0.5850000  -2.4886800  -0.3253510   1.0095000   0.0000000   0.0000000   0.0074134   0.0323153  -0.1052670   0.0329621   0.0000000   0.0000000   0.0000000  -0.0000000  -0.0679321   0.0000000   0.0000000   0.0000000   0.0000000
 0.5900000  -2.4885200  -0.3258780   1.0096600   0.0000000   0.0000000   0.0075014   0.0323153  -0.1055920   0.0329621   0.0000000   0.0000000   0.0000000  -0.0000000  -0.0622290   0.0000000   0.0000000   0.0000000   0.0000000
 0.5950000  -2.4883600  -0.3264070   1.0098300   0.0000000   0.0000000   0.0075895   0.0323153  -0.1058890   0.0329621   0.0000000   0.0000000   0.0000000  -0.0000000  -0.0567760   0.0000000   0.0000000   0.0000000   0.0000000
 0.6000000  -2.4881900  -0.3269370   1.0099900   0.0000000   0.0000000   0.0076775   0.0323153  -0.1061600   0.0329621   0.0000000   0.0000000   0.0000000  -0.0000000  -0.0515729   0.0000000   0.0000000   0.0000000   0.0000000
 0.6050000  -2.4880300  -0.3274680   1.0101600   0.0000000   0.0000000   0.0077655   0.0323153  -0.1064060   0.0329621   0.0000000   0.0000000   0.0000000  -0.0000000  -0.0466199   0.0000000   0.0000000   0.0000000   0.0000000
 0.6100000  -2.4878700  -0.3280010   1.0103200   0.0000000   0.0000000   0.0078535   0.0323153  -0.1066270   0.0329621   0.0000000   0.0000000   0.0000000  -0.0000000  -0.0419169   0.0000000   0.0000000   0.0000000   0.0000000
 0.6150000  -2.4877100  -0.3285340   1.0104800   0.0000000   0.0000000   0.0079415   0.0323153  -0.1068250   0.0329621   0.0000000   0.0000000   0.0000000  -0.0000000  -0.0374638   0.0000000   0.0000000   0.0000000   0.0000000
 0.6200000  -2.4875500  -0.3290690   1.0106500   0.0000000   0.0000000   0.0080296   0.0323153  -0.1070020   0.0329621   0.0000000   0.0000000   0.0000000  -0.0000000  -0.0332608   0.0000000   0.0000000   0.0000000   0.0000000
 0.6250000  -2.4873900  -0.3296040   1.0108100   0.0000000   0.0000000   0.0081176   0.0323153  -0.1071580   0.0329621   0.0000000   0.0000000   0.0000000  -0.0000000  -0.0293077   0.0000000   0.0000000   0.0000000   0.0000000
 0.6300000  -2.4872300  -0.3301400   1.0109800   0.0000000   0.0000000   0.0082056   0.0323153  -0.1072950   0.0329621   0.0000000   0.0000000   0.0000000  -0.0000000  -0.0256047   0.0000000   0.0000000   0.0000000   0.0000000
 0.6350000  -2.4870600  -0.3306770   1.0111400   0.0000000   0.0000000   0.0082936   0.0323153  -0.1074150   0.0329621   0.0000000   0.0000000   0.0000000  -0.0000000  -0.0221517   0.0000000   0.0000000   0.0000000   0.0000000
 0.6400000  -2.4869000  -0.3312150   1.0113100   0.0000000   0.0000000   0.0083816   0.0323153  -0.1075170   0.0329621   0.0000000   0.0000000   0.0000000  -0.0000000  -0.0189486   0.0000000   0.0000000   0.0000000   0.0000000
 0.6450000  -2.4867400  -0.3317520   1.0114700   0.0000000   0.0000000   0.0084697   0.0323153  -0.1076040   0.0329621   0.0000000   0.0000000   0.0000000  -0.0000000  -0.0159956   0.0000000   0.0000000   0.0000000   0.0000000
 0.6500000  -2.4865800  -0.3322910   1.0116400   0.0000000   0.0000000   0.0085577   0.0323153  -0.1076780   0.0329621   0.0000000   0.0000000   0.0000000  -0.0000000  -0.0132926   0.0000000   0.0000000   0.0000000   0.0000000
 0.6550000  -2.4864200  -0.3328290   1.0118000   0.0000000   0.0000000   0.0086457   0.0323153  -0.1077380   0.0329621   0.0000000   0.0000000   0.0000000  -0.0000000  -0.0108395   0.0000000   0.0000000   0.0000000   0.0000000
 0.6600000  -2.4862600  -0.3333680   1.0119700   0.0000000   0.0000000   0.0087337   0.0323153  -0.1077860   0.0329621   0.0000000   0.0000000   0.0000000  -0.0000000  -0.0086365   0.0000000   0.0000000   0.0000000   0.0000000
 0.6650000  -2.4860900  -0.3339070   1.0121300   0.0000000   0.0000000   0.0088217   0.0323153  -0.1078250   0.0329621   0.0000000   0.0000000   0.0000000  -0.0000000  -0.0066834   0.0000000   0.0000000   0.0000000   0.0000000
 0.6700000  -2.4859300  -0.3344460   1.0123000   0.0000000   0.0000000   0.0089097   0.0323153  -0.1078540   0.0329621   0.0000000   0.0000000   0.0000000  -0.0000000  -0.0049804   0.0000000   0.0000000   0.0000000   0.0000000
 0.6750000  -2.4857700  -0.3349850   1.0124600   0.0000000   0.0000000   0.0089978   0.0323153  -0.1078750   0.0329621   0.0000000   0.0000000   0.0000000  -0.0000000  -0.0035274   0.0000000   0.0000000   0.0000000   0.0000000
 0.6800000  -2.4856100  -0.3355250   1.0126300   0.0000000   0.0000000   0.0090858   0.0323153  -0.1078890   0.0329621   0.0000000   0.0000000   0.0000000  -0.0000000  -0.0023243   0.0000000   0.0000000   0.0000000   0.0000000
 0.6850000  -2.4854500  -0.3360640   1.0127900   0.0000000   0.0000000   0.0091738   0.0323153  -0.1078990   0.0329621   0.0000000   0.0000000   0.0000000  -0.0000000  -0.0013713   0.0000000   0.0000000   0.0000000   0.0000000
 0.6900000  -2.4852900  -0.3366040   1.0129600   0.0000000   0.0000000   0.0092618   0.0323153  -0.1079030   0.0329621   0.0000000   0.0000000   0.0000000  -0.0000000  -0.0006683   0.0000000   0.0000000   0.0000000   0.0000000
 0.6950000  -2.4851200  -0.3371430   1.0131200   0.0000000   0.0000000   0.0093498   0.0323153  -0.1079060   0.0329621   0.0000000   0.0000000   0.0000000  -0.0000000  -0.0002152   0.0000000   0.0000000   0.0000000   0.0000000
 0.7000000  -2.4849600  -0.3376830   1.0132900   0.0000000   0.0000000   0.0094379   0.0323153  -0.1079060   0.0329621   0.0000000   0.0000000   0.0000000  -0.0000000  -0.0000122   0.0000000   0.0000000   0.0000000   0.0000000
 0.7050000  -2.4848000  -0.3382220   1.0134500   0.0000000   0.0000000   0.0095259   0.0323153  -0.1079060   0.0329621   0.0000000   0.0000000   0.0000000  -0.0000000   0.0000382   0.0000000   0.0000000   0.0000000   0.0000000
 0.7100000  -2.4846400  -0.3387620   1.0136200   0.0000000   0.0000000   0.0096139   0.0323153  -0.1079050   0.0329621   0.0000000   0.0000000   0.0000000  -0.0000000   0.0003014   0.0000000   0.0000000   0.0000000   0.0000000
 0.7150000  -2.4844800  -0.3393010   1.0137800   0.0000000   0.0000000   0.0097019   0.0323153  -0.1079030   0.0329621   0.0000000   0.0000000   0.0000000  -0.0000000   0.0008146   0.0000000   0.0000000   0.0000000   0.0000000
 0.7200000  -2.4843200  -0.3398410   1.0139500   0.0000000   0.0000000   0.0097900   0.0323153  -0.1078970   0.0329621   0.0000000   0.0000000   0.0000000  -0.0000000   0.0015778   0.0000000   0.0000000   0.0000000   0.0000000
 0.7250000  -2.4841600  -0.3403800   1.0141100   0.0000000   0.0000000   0.0098780   0.0323153  -0.1078860   0.0329621   0.0000000   0.0000000   0.0000000  -0.0000000   0.0025910   0.0000000   0.0000000   0.0000000   0.0000000
 0.7300000  -2.4839900  -0.3409200   1.0142800   0.0000000   0.0000000   0.0099660   0.0323153  -0.1078700   0.0329621   0.0000000   0.0000000   0.0000000  -0.0000000   0.0038542   0.0000000   0.0000000   0.0000000   0.0000000
 0.7350000  -2.4838300  -0.3414590   1.0144400   0.0000000   0.0000000   0.0100540   0.0323153  -0.1078470   0.0329621   0.0000000   0.0000000   0.0000000  -0.0000000   0.0053673   0.0000000   0.0000000   0.0000000   0.0000000
 0.7400000  -2.4836700  -0.3419980   1.0146000   0.0000000   0.0000000   0.0101420   0.0323153  -0.1078160   0.0329621   0.0000000   0.0000000   0.0000000  -0.0000000   0.0071305   0.0000000   0.0000000   0.0000000   0.0000000
 0.7450000  -2.4835100  -0.3425370   1.0147700   0.0000000   0.0000000   0.0102300   0.0323153  -0.1077760   0.0329621   0.0000000   0.0000000   0.0000000  -0.0000000   0.0091437   0.0000000   0.0000000   0.0000000   0.0000000
 0.7500000  -2.4833500  -0.3430760   1.0149300   0.0000000   0.0000000   0.0103181   0.0323153  -0.1077240   0.0329621   0.0000000   0.0000000   0.0000000  -0.0000000   0.0114069   0.0000000   0.0000000   0.0000000   0.0000000
 0.7550000  -2.4831900  -0.3436150   1.0151000   0.0000000   0.0000000   0.0104061   0.0323153  -0.1076610   0.0329621   0.0000000   0.0000000   0.0000000  -0.0000000   0.0139201   0.0000000   0.0000000   0.0000000   0.0000000
 0.7600000  -2.4830200  -0.3441530   1.0152600   0.0000000   0.0000000   0.0104941   0.0323153  -0.1075850   0.0329621   0.0000000   0.0000000   0.0000000  -0.0000000   0.0166833   0.0000000   0.0000000   0.0000000   0.0000000
 0.7650000  -2.4828600  -0.3446900   1.0154300   0.0000000   0.0000000   0.0105821   0.0323153  -0.1074940   0.0329621   0.0000000   0.0000000   0.0000000  -0.0000000   0.0196965   0.0000000   0.0000000   0.0000000   0.0000000
 0.7700000  -2.4827000  -0.3452280   1.0155900   0.0000000   0.0000000   0.0106701   0.0323153  -0.1073870   0.0329621   0.0000000   0.0000000   0.0000000  -0.0000000   0.0229597   0.0000000   0.0000000   0.0000000   0.0000000
 0.7750000  -2.4825400  -0.3457640   1.0157600   0.0000000   0.0000000   0.0107582   0.0323153  -0.1072640   0.0329621   0.0000000   0.0000000   0.0000000  -0.0000000   0.0264729   0.0000000   0.0000000   0.0000000   0.0000000
 0.7800000  -2.4823800  -0.3463000   1.0159200   0.0000000   0.0000000   0.0108462   0.0323153  -0.1071220   0.0329621   0.0000000   0.0000000   0.0000000  -0.0000000   0.0302361   0.0000000   0.0000000   0.0000000   0.0000000
 0.7850000  -2.4822200  -0.3468350   1.0160900   0.0000000   0.0000000   0.0109342   0.0323153  -0.1069610   0.0329621   0.0000000   0.0000000   0.0000000  -0.0000000   0.0342493   0.0000000   0.0000000   0.0000000   0.0000000
 0.7900000  -2.4820500  -0.3473700   1.0162500   0.0000000   0.0000000   0.0110222   0.0323153  -0.1067790   0.0329621   0.0000000   0.0000000   0.0000000  -0.0000000   0.0385125   0.0000000   0.0000000   0.0000000   0.0000000
 0.7950000  -2.4818900  -0.3479030   1.0164200   0.0000000   0.0000000   0.0111102   0.0323153  -0.1065760   0.0329621   0.0000000   0.0000000   0.0000000  -0.0000000   0.0430257   0.0000000   0.0000000   0.0000000   0.0000000
 0.8000000  -2.4817300  -0.3484350   1.0165800   0.0000000   0.0000000   0.0111983   0.0323153  -0.1063490   0.0329621   0.0000000   0.0000000   0.0000000  -0.0000000   0.0477889   0.0000000   0.0000000   0.0000000   0.0000000
 0.8050000  -2.4815700  -0.3489670   1.0167500   0.0000000   0.0000000   0.0112863   0.0323153  -0.1060970   0.0329621   0.0000000   0.0000000   0.0000000  -0.0000000   0.0528020   0.0000000   0.0000000   0.0000000   0.0000000
 0.8100000  -2.4814100  -0.3494960   1.0169100   0.0000000   0.0000000   0.0113743   0.0323153  -0.1058200   0.0329621   0.0000000   0.0000000   0.0000000  -0.0000000   0.0580652   0.0000000   0.0000000   0.0000000   0.0000000
 0.8150000  -2.4812500  -0.3500250   1.0170800   0.0000000   0.0000000   0.0114623   0.0323153  -0.1055160   0.0329621   0.0000000   0.0000000   0.0000000  -0.0000000   0.0635784   0.0000000   0.0000000   0.0000000   0.0000000
 0.8200000  -2.4810900  -0.3505520   1.0172400   0.0000000   0.0000000   0.0115503   0.0323153  -0.1051840   0.0329621   0.0000000   0.0000000   0.0000000  -0.0000000   0.0693416   0.0000000   0.0000000   0.0000000   0.0000000
 0.8250000  -2.4809200  -0.3510770   1.0174100   0.0000000   0.0000000   0.0116384   0.0323153  -0.1048220   0.0329621   0.0000000   0.0000000   0.0000000  -0.0000000   0.0753548   0.0000000   0.0000000   0.0000000   0.0000000
 0.8300000  -2.4807600  -0.3516000   1.0175700   0.0000000   0.0000000   0.0117264   0.0323153  -0.1044300   0.0329621   0.0000000   0.0000000   0.0000000  -0.0000000   0.0816180   0.0000000   0.0000000   0.0000000   0.0000000
 0.8350000  -2.4806000  -0.3521210   1.0177400   0.0000000   0.0000000   0.0118144   0.0323153  -0.1040060   0.0329621   0.0000000   0.0000000   0.0000000  -0.0000000   0.0881312   0.0000000   0.0000000   0.0000000   0.0000000
 0.8400000  -2.4804400  -0.3526400   1.0179000   0.0000000   0.0000000   0.0119024   0.0323153  -0.1035480   0.0329621   0.0000000   0.0000000   0.0000000  -0.0000000   0.0948944   0.0000000   0.0000000   0.0000000   0.0000000
 0.8450000  -2.4802800  -0.3531560   1.0180700   0.0000000   0.0000000   0.0119904   0.0323153  -0.1030570   0.0329621   0.0000000   0.0000000   0.0000000  -0.0000000   0.1019080   0.0000000   0.0000000   0.0000000   0.0000000
 0.8500000  -2.4801200  -0.3536700   1.0182300   0.0000000   0.0000000   0.0120785   0.0323153  -0.1025290   0.0329621   0.0000000   0.0000000   0.0000000  -0.0000000   0.1091710   0.0000000   0.0000000   0.0000000   0.0000000
 0.8550000  -2.4799500  -0.3541810   1.0184000   0.0000000   0.0000000   0.0121665   0.0323153  -0.1019640   0.0329621   0.0000000   0.0000000   0.0000000  -0.0000000   0.1166840   0.0000000   0.0000000   0.0000000   0.0000000
 0.8600000  -2.4797900  -0.3546900   1.0185600   0.0000000   0.0000000   0.0122545   0.0323153  -0.1013620   0.0329621   0.0000000   0.0000000   0.0000000  -0.0000000   0.1244470   0.0000000   0.0000000   0.0000000   0.0000000
 0.8650000  -2.4796300  -0.3551950   1.0187300   0.0000000   0.0000000   0.0123425   0.0323153  -0.1007190   0.0329621   0.0000000   0.0000000   0.0000000  -0.0000000   0.1324600   0.0000000   0.0000000   0.0000000   0.0000000
 0.8700000  -2.4794700  -0.3556970   1.0188900   0.0000000   0.0000000   0.0124305   0.0323153  -0.1000370   0.0329621   0.0000000   0.0000000   0.0000000  -0.0000000   0.1407240   0.0000000   0.0000000   0.0000000   0.0000000
 0.8750000  -2.4793100  -0.3561950   1.0190500   0.0000000   0.0000000   0.0125186   0.0323153  -0.0993118   0.0329621   0.0000000   0.0000000   0.0000000  -0.0000000   0.1492370   0.0000000   0.0000000   0.0000000   0.0000000
 0.8800000  -2.4791500  -0.3566900   1.0192200   0.0000000   0.0000000   0.0126066   0.0323153  -0.0985438   0.0329621   0.0000000   0.0000000   0.0000000  -0.0000000   0.1580000   0.0000000   0.0000000   0.0000000   0.0000000
 0.8850000  -2.4789800  -0.3571810   1.0193800   0.0000000   0.0000000   0.0126946   0.0323153  -0.0977314   0.0329621   0.0000000   0.0000000   0.0000000  -0.0000000   0.1670130   0.0000000   0.0000000   0.0000000   0.0000000
 0.8900000  -2.4788200  -0.3576670   1.0195500   0.0000000   0.0000000   0.0127826   0.0323153  -0.0968733   0.0329621   0.0000000   0.0000000   0.0000000  -0.0000000   0.1762760   0.0000000   0.0000000   0.0000000   0.0000000
 0.8950000  -2.4786600  -0.3581490   1.0197100   0.0000000   0.0000000   0.0128706   0.0323153  -0.0959682   0.0329621   0.0000000   0.0000000   0.0000000  -0.0000000   0.1857900   0.0000000   0.0000000   0.0000000   0.0000000
 0.9000000  -2.4785000  -0.3586270   1.0198800   0.0000000   0.0000000   0.0129587   0.0323153  -0.0950150   0.0329621   0.0000000   0.0000000   0.0000000  -0.0000000   0.1955530   0.0000000   0.0000000   0.0000000   0.0000000
 0.9050000  -2.4783400  -0.3590990   1.0200400   0.0000000   0.0000000   0.0130467   0.0323153  -0.0940123   0.0329621   0.0000000   0.0000000   0.0000000  -0.0000000   0.2055660   0.0000000   0.0000000   0.0000000   0.0000000
 0.9100000  -2.4781800  -0.3595670   1.0202100   0.0000000   0.0000000   0.0131347   0.0323153  -0.0929589   0.0329621   0.0000000   0.0000000   0.0000000  -0.0000000   0.2158290   0.0000000   0.0000000   0.0000000   0.0000000
 0.9150000  -2.4780200  -0.3600290   1.0203700   0.0000000   0.0000000   0.0132227   0.0323153  -0.0918536   0.0329621   0.0000000   0.0000000   0.0000000  -0.0000000   0.2263420   0.0000000   0.0000000   0.0000000   0.0000000
 0.9200000  -2.4778500  -0.3604850   1.0205400   0.0000000   0.0000000   0.0133107   0.0323153  -0.0906951   0.0329621   0.0000000   0.0000000   0.0000000  -0.0000000   0.2371050   0.0000000   0.0000000   0.0000000   0.0000000
 0.9250000  -2.4776900  -0.3609360   1.0207000   0.0000000   0.0000000   0.0133988   0.0323153  -0.0894821   0.0329621   0.0000000   0.0000000   0.0000000  -0.0000000   0.2481190   0.0000000   0.0000000   0.0000000   0.0000000
 0.9300000  -2.4775300  -0.3613800   1.0208700   0.0000000   0.0000000   0.0134868   0.0323153  -0.0882135   0.0329621   0.0000000   0.0000000   0.0000000  -0.0000000   0.2593820   0.0000000   0.0000000   0.0000000   0.0000000
 0.9350000  -2.4773700  -0.3618180   1.0210300   0.0000000   0.0000000   0.0135748   0.0323153  -0.0868879   0.0329621   0.0000000   0.0000000   0.0000000  -0.0000000   0.2708950   0.0000000   0.0000000   0.0000000   0.0000000
 0.9400000  -2.4772100  -0.3622490   1.0212000   0.0000000   0.0000000   0.0136628   0.0323153  -0.0855041   0.0329621   0.0000000   0.0000000   0.0000000  -0.0000000   0.2826580   0.0000000   0.0000000   0.0000000   0.0000000
 0.9450000  -2.4770500  -0.3626730   1.0213600   0.0000000   0.0000000   0.0137508   0.0323153  -0.0840609   0.0329621   0.0000000   0.0000000   0.0000000  -0.0000000   0.2946710   0.0000000   0.0000000   0.0000000   0.0000000
 0.9500000  -2.4768800  -0.3630890   1.0215300   0.0000000   0.0000000   0.0138388   0.0323153  -0.0825570   0.0329621   0.0000000   0.0000000   0.0000000  -0.0000000   0.3069350   0.0000000   0.0000000   0.0000000   0.0000000
 0.9550000  -2.4767200  -0.3634980   1.0216900   0.0000000   0.0000000   0.0139269   0.0323153  -0.0809911   0.0329621   0.0000000   0.0000000   0.0000000  -0.0000000   0.3194480   0.0000000   0.0000000   0.0000000   0.0000000
 0.9600000  -2.4765600  -0.3638990   1.0218600   0.0000000   0.0000000   0.0140149   0.0323153  -0.0793621   0.0329621   0.0000000   0.0000000   0.0000000  -0.0000000   0.3322110   0.0000000   0.0000000   0.0000000   0.0000000
 0.9650000  -2.4764000  -0.3642920   1.0220200   0.0000000   0.0000000   0.0141029   0.0323153  -0.0776686   0.0329621   0.0000000   0.0000000   0.0000000  -0.0000000   0.3452240   0.0000000   0.0000000   0.0000000   0.0000000
 0.9700000  -2.4762400  -0.3646760   1.0221900   0.0000000   0.0000000   0.0141909   0.0323153  -0.0759094   0.0329621   0.0000000   0.0000000   0.0000000  -0.0000000   0.3584870   0.0000000   0.0000000   0.0000000   0.0000000
 0.9750000  -2.4760800  -0.3650510   1.0223500   0.0000000   0.0000000   0.0142789   0.0323153  -0.0740833   0.0329621   0.0000000   0.0000000   0.0000000  -0.0000000   0.3720010   0.0000000   0.0000000   0.0000000   0.0000000
 0.9800000  -2.4759100  -0.3654160   1.0225200   0.0000000   0.0000000   0.0143670   0.0323153  -0.0721890   0.0329621   0.0000000   0.0000000   0.0000000  -0.0000000   0.3857640   0.0000000   0.0000000   0.0000000   0.0000000
 0.9850000  -2.4757500  -0.3657720   1.0226800   0.0000000   0.0000000   0.0144550   0.0323153  -0.0702252   0.0329621   0.0000000   0.0000000   0.0000000  -0.0000000   0.3997770   0.0000000   0.0000000   0.0000000   0.0000000
 0.9900000  -2.4755900  -0.3661190   1.0228500   0.0000000   0.0000000   0.0145430   0.0323153  -0.0681908   0.0329621   0.0000000   0.0000000   0.0000000  -0.0000000   0.4140400   0.0000000   0.0000000   0.0000000   0.0000000
 0.9950000  -2.4754300  -0.3664540   1.0230100   0.0000000   0.0000000   0.0146310   0.0323153  -0.0660844   0.0329621   0.0000000   0.0000000   0.0000000  -0.0000000   0.4285530   0.0000000   0.0000000   0.0000000   0.0000000
 1.0000000  -2.4752700  -0.3667790   1.0231800   0.0000000   0.0000000   0.0147190   0.0323153  -0.0639049   0.0329621   0.0000000   0.0000000   0.0000000  -0.0000000   0.4433170   0.0000000   0.0000000   0.0000000   0.0000000
 1.0050000  -2.4751100  -0.3670930   1.0233400   0.0000000   0.0000000   0.0148071   0.0323153  -0.0616508   0.0329621   0.0000000   0.0000000   0.0000000  -0.0000000   0.4583300   0.0000000   0.0000000   0.0000000   0.0000000
 1.0100000  -2.4749500  -0.3673960   1.0235000   0.0000000   0.0000000   0.0148951   0.0323153  -0.0593211   0.0329621   0.0000000   0.0000000   0.0000000  -0.0000000   0.4735930   0.0000000   0.0000000   0.0000000   0.0000000
 1.0150000  -2.4747800  -0.3676860   1.0236700   0.0000000   0.0000000   0.0149831   0.0323153  -0.0569145   0.0329621   0.0000000   0.0000000   0.0000000  -0.0000000   0.4891060   0.0000000   0.0000000   0.0000000   0.0000000
 1.0200000  -2.4746200  -0.3679650   1.0238300   0.0000000   0.0000000   0.0150711   0.0323153  -0.0544299   0.0329621   0.0000000   0.0000000   0.0000000  -0.0000000   0.5047000   0.0000000   0.0000000   0.0000000   0.0000000
 1.0250000  -2.4744600  -0.3682300   1.0240000   0.0000000   0.0000000   0.0151591   0.0323153  -0.0518679   0.0329621   0.0000000   0.0000000   0.0000000  -0.0000000   0.5200530   0.0000000   0.0000000   0.0000000   0.0000000
 1.0300000  -2.4743000  -0.3684830   1.0241600   0.0000000   0.0000000   0.0152472   0.0323153  -0.0492298   0.0329621   0.0000000   0.0000000   0.0000000  -0.0000000   0.5351550   0.0000000   0.0000000   0.0000000   0.0000000
 1.0350000  -2.4741400  -0.3687230   1.0243300   0.0000000   0.0000000   0.0153352   0.0323153  -0.0465168   0.0329621   0.0000000   0.0000000   0.0000000  -0.0000000   0.5500070   0.0000000   0.0000000   0.0000000   0.0000000
 1.0400000  -2.4739800  -0.3689480   1.0244900   0.0000000   0.0000000   0.0154232   0.0323153  -0.0437301   0.0329621   0.0000000   0.0000000   0.0000000  -0.0000000   0.5646090   0.0000000   0.0000000   0.0000000   0.0000000
 1.0450000  -2.4738100  -0.3691600   1.0246600   0.0000000   0.0000000   0.0155112   0.0323153  -0.0408711   0.0329621   0.0000000   0.0000000   0.0000000  -0.0000000   0.5789610   0.0000000   0.0000000   0.0000000   0.0000000
 1.0500000  -2.4736500  -0.3693570   1.0248200   0.0000000   0.0000000   0.0155992   0.0323153  -0.0379409   0.0329621   0.0000000   0.0000000   0.0000000  -0.0000000   0.5930640   0.0000000   0.0000000   0.0000000   0.0000000
 1.0550000  -2.4734900  -0.3695390   1.0249900   0.0000000   0.0000000   0.0156873   0.0323153  -0.0349409   0.0329621   0.0000000   0.0000000   0.0000000  -0.0000000   0.6069160   0.0000000   0.0000000   0.0000000   0.0000000
 1.0600000  -2.4733300  -0.3697060   1.0251500   0.0000000   0.0000000   0.0157753   0.0323153  -0.0318722   0.0329621   0.0000000   0.0000000   0.0000000  -0.0000000   0.6205180   0.0000000   0.0000000   0.0000000   0.0000000
 1.0650000  -2.4731700  -0.3698580   1.0253200   0.0000000   0.0000000   0.0158633   0.0323153  -0.0287361   0.0329621   0.0000000   0.0000000   0.0000000  -0.0000000   0.6338700   0.0000000   0.0000000   0.0000000   0.0000000
 1.0700000  -2.4730100  -0.3699930   1.0254800   0.0000000   0.0000000   0.0159513   0.0323153  -0.0255339   0.0329621   0.0000000   0.0000000   0.0000000  -0.0000000   0.6469720   0.0000000   0.0000000   0.0000000   0.0000000
 1.0750000  -2.4728500  -0.3701130   1.0256500   0.0000000   0.0000000   0.0160393   0.0323153  -0.0222668   0.0329621   0.0000000   0.0000000   0.0000000  -0.0000000   0.6598250   0.0000000   0.0000000   0.0000000   0.0000000
 1.0800000  -2.4726800  -0.3702160   1.0258100   0.0000000   0.0000000   0.0161274   0.0323153  -0.0189361   0.0329621   0.0000000   0.0000000   0.0000000  -0.0000000   0.6724270   0.0000000   0.0000000   0.0000000   0.0000000
 1.0850000  -2.4725200  -0.3703020   1.0259800   0.0000000   0.0000000   0.0162154   0.0323153  -0.0155430   0.0329621   0.0000000   0.0000000   0.0000000  -0.0000000   0.6847790   0.0000000   0.0000000   0.0000000   0.0000000
 1.0900000  -2.4723600  -0.3703710   1.0261400   0.0000000   0.0000000   0.0163034   0.0323153  -0.0120887   0.0329621   0.0000000   0.0000000   0.0000000  -0.0000000   0.6968810   0.0000000   0.0000000   0.0000000   0.0000000
 1.0950000  -2.4722000  -0.3704230   1.0263100   0.0000000   0.0000000   0.0163914   0.0323153  -0.0085746   0.0329621   0.0000000   0.0000000   0.0000000  -0.0000000   0.7087330   0.0000000   0.0000000   0.0000000   0.0000000
 1.1000000  -2.4720400  -0.3704570   1.0264700   0.0000000   0.0000000   0.0164794   0.0323153  -0.0050018   0.0329621   0.0000000   0.0000000   0.0000000  -0.0000000   0.7203360   0.0000000   0.0000000   0.0000000   0.0000000
 1.1050000  -2.4718800  -0.3704730   1.0266400   0.0000000   0.0000000   0.0165675   0.0323153  -0.0013716   0.0329621   0.0000000   0.0000000   0.0000000  -0.0000000   0.7316880   0.0000000   0.0000000   0.0000000   0.0000000
 1.1100000  -2.4717100  -0.3704710   1.0268000   0.0000000   0.0000000   0.0166555   0.0323153   0.0023147   0.0329621   0.0000000   0.0000000   0.0000000  -0.0000000   0.7427900   0.0000000   0.0000000   0.0000000   0.0000000
 1.1150000  -2.4715500  -0.3704500   1.0269700   0.0000000   0.0000000   0.0167435   0.0323153   0.0060558   0.0329621   0.0000000   0.0000000   0.0000000  -0.0000000   0.7536420   0.0000000   0.0000000   0.0000000   0.0000000
 1.1200000  -2.4713900  -0.3704100   1.0271300   0.0000000   0.0000000   0.0168315   0.0323153   0.0098507   0.0329621   0.0000000   0.0000000   0.0000000  -0.0000000   0.7642440   0.0000000   0.0000000   0.0000000   0.0000000
 1.1250000  -2.4712300  -0.3703510   1.0273000   0.0000000   0.0000000   0.0169195   0.0323153   0.0136979   0.0329621   0.0000000   0.0000000   0.0000000  -0.0000000   0.7745970   0.0000000   0.0000000   0.0000000   0.0000000
 1.1300000  -2.4710700  -0.3702730   1.0274600   0.0000000   0.0000000   0.0170076   0.0323153   0.0175962   0.0329621   0.0000000   0.0000000   0.0000000  -0.0000000   0.7846990   0.0000000   0.0000000   0.0000000   0.0000000
 1.1350000  -2.4709100  -0.3701750   1.0276200   0.0000000   0.0000000   0.0170956   0.0323153   0.0215445   0.0329621   0.0000000   0.0000000   0.0000000  -0.0000000   0.7945510   0.0000000   0.0000000   0.0000000   0.0000000
 1.1400000  -2.4707400  -0.3700570   1.0277900   0.0000000   0.0000000   0.0171836   0.0323153   0.0255413   0.0329621   0.0000000   0.0000000   0.0000000  -0.0000000   0.8041530   0.0000000   0.0000000   0.0000000   0.0000000
 1.1450000  -2.4705800  -0.3699200   1.0279500   0.0000000   0.0000000   0.0172716   0.0323153   0.0295856   0.0329621   0.0000000   0.0000000   0.0000000  -0.0000000   0.8135050   0.0000000   0.0000000   0.0000000   0.0000000
 1.1500000  -2.4704200  -0.3697610   1.0281200   0.0000000   0.0000000   0.0173596   0.0323153   0.0336760   0.0329621   0.0000000   0.0000000   0.0000000  -0.0000000   0.8226080   0.0000000   0.0000000   0.0000000   0.0000000
 1.1550000  -2.4702600  -0.3695830   1.0282800   0.0000000   0.0000000   0.0174476   0.0323153   0.0378112   0.0329621   0.0000000   0.0000000   0.0000000  -0.0000000   0.8314600   0.0000000   0.0000000   0.0000000   0.0000000
 1.1600000  -2.4701000  -0.3693830   1.0284500   0.0000000   0.0000000   0.0175357   0.0323153   0.0419901   0.0329621   0.0000000   0.0000000   0.0000000  -0.0000000   0.8400620   0.0000000   0.0000000   0.0000000   0.0000000
 1.1650000  -2.4699400  -0.3691630   1.0286100   0.0000000   0.0000000   0.0176237   0.0323153   0.0462114   0.0329621   0.0000000   0.0000000   0.0000000  -0.0000000   0.8484140   0.0000000   0.0000000   0.0000000   0.0000000
 1.1700000  -2.4697800  -0.3689210   1.0287800   0.0000000   0.0000000   0.0177117   0.0323153   0.0504739   0.0329621   0.0000000   0.0000000   0.0000000  -0.0000000   0.8565160   0.0000000   0.0000000   0.0000000   0.0000000
 1.1750000  -2.4696100  -0.3686580   1.0289400   0.0000000   0.0000000   0.0177997   0.0323153   0.0547762   0.0329621   0.0000000   0.0000000   0.0000000  -0.0000000   0.8643690   0.0000000   0.0000000   0.0000000   0.0000000
 1.1800000  -2.4694500  -0.3683730   1.0291100   0.0000000   0.0000000   0.0178877   0.0323153   0.0591171   0.0329621   0.0000000   0.0000000   0.0000000  -0.0000000   0.8719710   0.0000000   0.0000000   0.0000000   0.0000000
 1.1850000  -2.4692900  -0.3680670   1.0292700   0.0000000   0.0000000   0.0179758   0.0323153   0.0634955   0.0329621   0.0000000   0.0000000   0.0000000  -0.0000000   0.8793230   0.0000000   0.0000000   0.0000000   0.0000000
 1.1900000  -2.4691300  -0.3677380   1.0294400   0.0000000   0.0000000   0.0180638   0.0323153   0.0679099   0.0329621   0.0000000   0.0000000   0.0000000  -0.0000000   0.8864250   0.0000000   0.0000000   0.0000000   0.0000000
 1.1950000  -2.4689700  -0.3673880   1.0296000   0.0000000   0.0000000   0.0181518   0.0323153   0.0723593   0.0329621   0.0000000   0.0000000   0.0000000  -0.0000000   0.8932770   0.0000000   0.0000000   0.0000000   0.0000000
 1.2000000  -2.4688100  -0.3670150   1.0297700   0.0000000   0.0000000   0.0182398   0.0323153   0.0768423   0.0329621   0.0000000   0.0000000   0.0000000  -0.0000000   0.8998800   0.0000000   0.0000000   0.0000000   0.0000000
 1.2050000  -2.4686400  -0.3666190   1.0299300   0.0000000   0.0000000   0.0183278   0.0323153   0.0813577   0.0329621   0.0000000   0.0000000   0.0000000  -0.0000000   0.9062320   0.0000000   0.0000000   0.0000000   0.0000000
 1.2100000  -2.4684800  -0.3662010   1.0301000   0.0000000   0.0000000   0.0184159   0.0323153   0.0859042   0.0329621   0.0000000   0.0000000   0.0000000  -0.0000000   0.9123340   0.0000000   0.0000000   0.0000000   0.0000000
 1.2150000  -2.4683200  -0.3657600   1.0302600   0.0000000   0.0000000   0.0185039   0.0323153   0.0904806   0.0329621   0.0000000   0.0000000   0.0000000  -0.0000000   0.9181860   0.0000000   0.0000000   0.0000000   0.0000000
 1.2200000  -2.4681600  -0.3652960   1.0304300   0.0000000   0.0000000   0.0185919   0.0323153   0.0950856   0.0329621   0.0000000   0.0000000   0.0000000  -0.0000000   0.9237880   0.0000000   0.0000000   0.0000000   0.0000000
 1.2250000  -2.4680000  -0.3648090   1.0305900   0.0000000   0.0000000   0.0186799   0.0323153   0.0997181   0.0329621   0.0000000   0.0000000   0.0000000  -0.0000000   0.9291410   0.0000000   0.0000000   0.0000000   0.0000000
 1.2300000  -2.4678400  -0.3642990   1.0307600   0.0000000   0.0000000   0.0187679   0.0323153   0.1043770   0.0329621   0.0000000   0.0000000   0.0000000  -0.0000000   0.9342430   0.0000000   0.0000000   0.0000000   0.0000000
 1.2350000  -2.4676700  -0.3637650   1.0309200   0.0000000   0.0000000   0.0188560   0.0323153   0.1090600   0.0329621   0.0000000   0.0000000   0.0000000  -0.0000000   0.9390950   0.0000000   0.0000000   0.0000000   0.0000000
 1.2400000  -2.4675100  -0.3632080   1.0310900   0.0000000   0.0000000   0.0189440   0.0323153   0.1137670   0.0329621   0.0000000   0.0000000   0.0000000  -0.0000000   0.9436970   0.0000000   0.0000000   0.0000000   0.0000000
 1.2450000  -2.4673500  -0.3626280   1.0312500   0.0000000   0.0000000   0.0190320   0.0323153   0.1184970   0.0329621   0.0000000   0.0000000   0.0000000  -0.0000000   0.9480490   0.0000000   0.0000000   0.0000000   0.0000000
 1.2500000  -2.4671900  -0.3620230   1.0314200   0.0000000   0.0000000   0.0191200   0.0323153   0.1232470   0.0329621   0.0000000   0.0000000   0.0000000  -0.0000000   0.9521520   0.0000000   0.0000000   0.0000000   0.0000000
 1.2550000  -2.4670300  -0.3613950   1.0315800   0.0000000   0.0000000   0.0192080   0.0323153   0.1280180   0.0329621   0.0000000   0.0000000   0.0000000  -0.0000000   0.9560040   0.0000000   0.0000000   0.0000000   0.0000000
 1.2600000  -2.4668700  -0.3607430   1.0317500   0.0000000   0.0000000   0.0192961   0.0323153   0.1328070   0.0329621   0.0000000   0.0000000   0.0000000  -0.0000000   0.9596060   0.0000000   0.0000000   0.0000000   0.0000000
 1.2650000  -2.4667100  -0.3600670   1.0319100   0.0000000   0.0000000   0.0193841   0.0323153   0.1376130   0.0329621   0.0000000   0.0000000   0.0000000  -0.0000000   0.9629580   0.0000000   0.0000000   0.0000000   0.0000000
 1.2700000  -2.4665400  -0.3593670   1.0320700   0.0000000   0.0000000   0.0194721   0.0323153   0.1424360   0.0329621   0.0000000   0.0000000   0.0000000  -0.0000000   0.9660600   0.0000000   0.0000000   0.0000000   0.0000000
 1.2750000  -2.4663800  -0.3586430   1.0322400   0.0000000   0.0000000   0.0195601   0.0323153   0.1472740   0.0329621   0.0000000   0.0000000   0.0000000  -0.0000000   0.9689130   0.0000000   0.0000000   0.0000000   0.0000000
 1.2800000  -2.4662200  -0.3578940   1.0324000   0.0000000   0.0000000   0.0196481   0.0323153   0.1521250   0.0329621   0.0000000   0.0000000   0.0000000  -0.0000000   0.9715150   0.0000000   0.0000000   0.0000000   0.0000000
 1.2850000  -2.4660600  -0.3571210   1.0325700   0.0000000   0.0000000   0.0197362   0.0323153   0.1569880   0.0329621   0.0000000   0.0000000   0.0000000  -0.0000000   0.9738670   0.0000000   0.0000000   0.0000000   0.0000000
 1.2900000  -2.4659000  -0.3563240   1.0327300   0.0000000   0.0000000   0.0198242   0.0323153   0.1618630   0.0329621   0.0000000   0.0000000   0.0000000  -0.0000000   0.9759690   0.0000000   0.0000000   0.0000000   0.0000000
 1.2950000  -2.4657400  -0.3555030   1.0329000   0.0000000   0.0000000   0.0199122   0.0323153   0.1667480   0.0329621   0.0000000   0.0000000   0.0000000  -0.0000000   0.9778210   0.0000000   0.0000000   0.0000000   0.0000000
 1.3000000  -2.4655700  -0.3546570   1.0330600   0.0000000   0.0000000   0.0200002   0.0323153   0.1716410   0.0329621   0.0000000   0.0000000   0.0000000  -0.0000000   0.9794240   0.0000000   0.0000000   0.0000000   0.0000000
 1.3050000  -2.4654100  -0.3537860   1.0332300   0.0000000   0.0000000   0.0200882   0.0323153   0.1765410   0.0329621   0.0000000   0.0000000   0.0000000  -0.0000000   0.9807760   0.0000000   0.0000000   0.0000000   0.0000000
 1.3100000  -2.4652500  -0.3528910   1.0333900   0.0000000   0.0000000   0.0201763   0.0323153   0.1814480   0.0329621   0.0000000   0.0000000   0.0000000  -0.0000000   0.9818780   0.0000000   0.0000000   0.0000000   0.0000000
 1.3150000  -2.4650900  -0.3519720   1.0335600   0.0000000   0.0000000   0.0202643   0.0323153   0.1863600   0.0329621   0.0000000   0.0000000   0.0000000  -0.0000000   0.9827300   0.0000000   0.0000000   0.0000000   0.0000000
