ts fx fy fz tx ty tz exfx exfy exfz extx exty extz xd yd zd rolld pitchd yawd vxd vyd vzd wxd wyd wzd axd ayd azd e_x e_y e_z e_vx e_vy e_vz e_rx e_ry e_rz e_wx e_wy e_wz
1699954817.297391000  0  0  11.4793  0.140189  -0.0991617  0.0051045  nan  nan  nan  nan  nan  nan  -1  0  1  0.0161114  -0.0294693  -0.000474762  0  0  0  0  0  0  0  0  0  0.0228504  -0.000210329  -0.0145657  -0.0131676  0.0210115  0.00234253  -0.0294107  0.0203774  -0.00625205  -0.00979998  0.0108514  -0.00128569 
1699954817.301350000  0  0  11.4902  0.121755  -0.0869683  0.00596568  nan  nan  nan  nan  nan  nan  -1  0  1  0.0158089  -0.0300988  -0.000475797  0  0  0  0  0  0  0  0  0  0.0228864  -0.000241958  -0.0145612  -0.0124086  0.0207144  0.0014457  -0.0287998  0.0207363  -0.00634108  0.0214491  -0.0168373  -0.0111601 
1699954817.306394000  0  0  11.4802  0.155507  -0.103262  0.00504041  nan  nan  nan  nan  nan  nan  -1  0  1  0.0164377  -0.0298126  -0.000490023  0  0  0  0  0  0  0  0  0  0.022824  -0.000137207  -0.0145437  -0.0126671  0.0212667  0.00222  -0.029954  0.0206956  -0.00626306  -0.0354377  0.0161238  -0.000374464 
1699954817.311396000  0  0  11.4802  0.1391  -0.108244  0.00527521  nan  nan  nan  nan  nan  nan  -1  0  1  0.0159648  -0.0298875  -0.000477118  0  0  0  0  0  0  0  0  0  0.022852  -0.000191701  -0.0145372  -0.0126342  0.0207846  0.00220681  -0.0294167  0.0209545  -0.00629283  -0.0075652  0.0237068  -0.00301188 
1699954817.316809000  0  0  11.5119  0.0995401  -0.0986291  0.00648369  nan  nan  nan  nan  nan  nan  -1  0  1  0.0154663  -0.030285  -0.000468362  0  0  0  0  0  0  0  0  0  0.0228897  -0.00023399  -0.0145494  -0.0121056  0.0202962  -0.000375572  -0.0281545  0.0212178  -0.0064776  0.0599409  0.00205443  -0.0162701 
1699954817.321326000  0  0  11.5137  0.133264  -0.10558  0.00514383  nan  nan  nan  nan  nan  nan  -1  0  1  0.0158307  -0.0300508  -0.000475692  0  0  0  0  0  0  0  0  0  0.0228356  -0.00014356  -0.0145477  -0.0122781  0.0205651  -0.000552115  -0.0289529  0.0211576  -0.00635615  -0.000161144  0.0165102  -0.000736421 
1699954817.326374000  0  0  11.5086  0.104836  -0.108372  0.0051264  nan  nan  nan  nan  nan  nan  -1  0  1  0.0154995  -0.0302318  -0.000468545  0  0  0  0  0  0  0  0  0  0.0228915  -0.000209337  -0.0145523  -0.0121888  0.0202784  -9.59425e-05  -0.0281421  0.0214375  -0.00635474  0.0492347  0.0195182  -0.000532677 
1699954817.331522000  0  0  11.5609  0.0924273  -0.106768  0.00539792  nan  nan  nan  nan  nan  nan  -1  0  1  0.0158373  -0.0300115  -0.000475269  0  0  0  0  0  0  0  0  0  0.0228318  -0.00010648  -0.0145852  -0.0121634  0.0205736  -0.00438111  -0.0278707  0.0212827  -0.00640429  0.071556  0.0177341  -0.00343108 
1699954817.337026000  0  0  11.5476  0.113628  -0.112306  0.00508308  nan  nan  nan  nan  nan  nan  -1  0  1  0.0151632  -0.0304612  -0.000461853  0  0  0  0  0  0  0  0  0  0.0228739  -0.000146185  -0.0145988  -0.0117245  0.0197735  -0.00324349  -0.0273895  0.0218831  -0.00636852  0.0247286  0.0232879  0.000146705 
1699954817.349814000  0  0  11.5797  0.109766  -0.112714  0.00476904  nan  nan  nan  nan  nan  nan  -1  0  1  0.0142208  -0.0307008  -0.000436552  0  0  0  0  0  0  0  0  0  0.0229314  -0.000225651  -0.0146559  -0.0114371  0.0187913  -0.00577361  -0.0259569  0.0223284  -0.00636311  0.0192725  0.0200075  0.00401812 
1699954817.353352000  0  0  11.503  0.121061  -0.0994877  0.00501072  nan  nan  nan  nan  nan  nan  -1  0  1  0.014858  -0.030582  -0.000454351  0  0  0  0  0  0  0  0  0  0.0228901  -0.000156752  -0.0146168  -0.0117581  0.0193315  0.000529002  -0.0267285  0.0220108  -0.00637007  0.00377899  -0.00352377  0.00106676 
1699954817.358386000  0  0  11.5105  0.0990885  -0.102816  0.00525368  nan  nan  nan  nan  nan  nan  -1  0  1  0.0147949  -0.0306797  -0.000453867  0  0  0  0  0  0  0  0  0  0.0229295  -0.000214125  -0.0146304  -0.0116955  0.0193904  -5.86739e-05  -0.0262247  0.0221336  -0.00640313  0.0430902  0.00200236  -0.0016397 
1699954817.363401000  0  0  11.553  0.112391  -0.105136  0.00558163  nan  nan  nan  nan  nan  nan  -1  0  1  0.0151118  -0.0302552  -0.000457175  0  0  0  0  0  0  0  0  0  0.0228717  -0.00011925  -0.0146659  -0.0119668  0.0196565  -0.00353689  -0.0265817  0.0218197  -0.00644928  0.0197701  0.00953131  -0.0052776 
1699954817.368996000  0  0  11.4378  0.124339  -0.0824956  0.00568184  nan  nan  nan  nan  nan  nan  -1  -0  1  0.0150921  -0.0307598  -0.000464191  6e-07  -6e-07  6e-07  0  0  0  0  0  0  0.0229011  -0.000154319  -0.0146054  -0.0117783  0.0195154  0.00595275  -0.0267452  0.0218133  -0.00646493  -0.00262144  -0.0356912  -0.00637366 
1699954817.373321000  0  0  11.417  0.120957  -0.0864334  0.00575311  nan  nan  nan  nan  nan  nan  -1  -0  1  0.0162898  -0.0300065  -0.00048877  5e-06  -5e-06  5e-06  0  0  0  0  0  0  0.0228449  -6.27265e-05  -0.0145813  -0.0126791  0.0207969  0.0076209  -0.0277454  0.0210644  -0.00649403  0.0133437  -0.0209253  -0.00697359 
1699954817.378361000  0  0  11.4927  0.129118  -0.0953238  0.00558765  nan  nan  nan  nan  nan  nan  -1  -1e-07  1  0.0152319  -0.0302642  -0.000460946  1.69e-05  -1.69e-05  1.69e-05  0  0  0  0  0  0  0.0228886  -0.000136687  -0.0146167  -0.0121958  0.0197473  0.00139212  -0.0269332  0.0214202  -0.00651885  -0.01045  -0.00641805  -0.00465704 
1699954817.383797000  0  0  11.4119  0.132117  -0.0741502  0.00567445  nan  nan  nan  nan  nan  nan  -1  -2e-07  1  0.0152653  -0.0305274  -0.000465875  4e-05  -4e-05  4e-05  0  0  0  0  0  0  0.0229094  -0.000164761  -0.0145622  -0.0121801  0.0197151  0.00801895  -0.0271031  0.0211571  -0.00652581  -0.0148859  -0.0463453  -0.00567247 
1699954817.388371000  0  0  11.4509  0.135905  -0.0856053  0.00503509  nan  nan  nan  nan  nan  nan  -1  -5e-07  1  0.0161833  -0.0295535  -0.000478044  7.81e-05  -7.81e-05  7.81e-05  0  0  0  0  0  0  0.0228491  -7.04137e-05  -0.0145613  -0.0131523  0.0207403  0.00474482  -0.0280499  0.0203085  -0.00646787  -0.0137504  -0.015628  0.0017401 
1699954817.393365000  0  0  11.5077  0.139981  -0.0824413  0.00511263  nan  nan  nan  nan  nan  nan  -0.999999  -1e-06  1  0.0153711  -0.0297358  -0.00045664  0.000135  -0.000135  0.000135  0  0  0  0  0  0  0.0228889  -0.000128656  -0.0145931  -0.012822  0.0199332  8.76118e-05  -0.0274628  0.0203363  -0.00646635  -0.0273036  -0.0222112  0.000755571 
1699954817.398372000  0  0  11.4315  0.144537  -0.0613589  0.00435119  nan  nan  nan  nan  nan  nan  -0.999998  -1.9e-06  1  0.016451  -0.029433  -0.000483575  0.0002141  -0.0002144  0.0002134  0  0  0  0  0  0  0.0228244  -2.48912e-05  -0.0145267  -0.0133141  0.0209442  0.00629205  -0.0286512  0.0195035  -0.00633651  -0.0254835  -0.0567143  0.00897531 
1699954817.403366000  0  0  11.4649  0.144029  -0.0744279  0.00404847  nan  nan  nan  nan  nan  nan  -0.999997  -3.2e-06  1  0.016272  -0.029095  -0.000472608  0.0003149  -0.00032  0.0003113  0  0  0  0  0  0  0.0228498  -6.57346e-05  -0.0145496  -0.0136923  0.0208683  0.00355099  -0.0285952  0.0191779  -0.00624762  -0.0249825  -0.0275811  0.0118703 
1699954817.409330000  0  0  11.5115  0.13321  -0.0690635  0.00458314  nan  nan  nan  nan  nan  nan  -0.999995  -5.1e-06  1.00001  0.0157708  -0.0292316  -0.000459977  0.0004338  -0.0004556  0.0004249  0  0  0  0  0  0  0.0228606  -9.50852e-05  -0.0145857  -0.0133917  0.0203766  -0.000247817  -0.0280592  0.0190533  -0.00624635  -0.00827406  -0.0371633  0.00517422 
1699954817.413375000  0  0  11.4362  0.146986  -0.0586649  0.00508135  nan  nan  nan  nan  nan  nan  -0.999992  -7.8e-06  1.00001  0.016883  -0.0290089  -0.000488535  0.0005669  -0.000625  0.0005504  0  0  0  0  0  0  0.0228055  -7.66683e-06  -0.0145269  -0.0137955  0.0214639  0.00589394  -0.0293662  0.018468  -0.00626766  -0.0238036  -0.0525755  -0.000840225 
1699954817.418372000  0  0  11.4841  0.145293  -0.0825206  0.00478982  nan  nan  nan  nan  nan  nan  -0.999989  -1.14e-05  1.00001  0.0164759  -0.028562  -0.000469165  0.0007105  -0.0008319  0.0006841  0  0  0  0  0  0  0.0228335  -7.06565e-05  -0.0145617  -0.0142739  0.0211749  0.00196107  -0.0291106  0.0183041  -0.00622455  -0.0227683  -0.0033564  0.00237279 
1699954817.423327000  0  0  11.5431  0.133915  -0.0782159  0.00534459  nan  nan  nan  nan  nan  nan  -0.999985  -1.62e-05  1.00001  0.0171113  -0.0279288  -0.000476283  0.000861  -0.00108  0.0008222  0  0  0  0  0  0  0.0227637  3.39674e-05  -0.0145876  -0.0147437  0.0218657  -0.00290484  -0.0295312  0.0176291  -0.00628749  0.00385809  -0.00575549  -0.00393239 
1699954817.429324000  0  0  11.4882  0.139351  -0.0720386  0.00573018  nan  nan  nan  nan  nan  nan  -0.999981  -2.23e-05  1.00002  0.0172763  -0.0281198  -0.000484089  0.0010145  -0.0013731  0.000961  0  0  0  0  0  0  0.0227545  4.27366e-05  -0.0145608  -0.0146497  0.0219522  0.00161701  -0.0297679  0.0175668  -0.00634752  -0.00483798  -0.0175371  -0.00815198 
1699954817.434383000  0  0  11.5404  0.131649  -0.0933284  0.00561979  nan  nan  nan  nan  nan  nan  -0.999975  -3e-05  1.00002  0.0180858  -0.0270188  -0.000486851  0.0011672  -0.001715  0.0010968  0  0  0  0  0  0  0.0226746  0.000155517  -0.0145847  -0.0157202  0.0228412  -0.00270937  -0.0303695  0.0169804  -0.006362  0.0161011  0.0304371  -0.00662741 
1699954817.438374000  0  0  11.5767  0.110173  -0.0821693  0.00599091  nan  nan  nan  nan  nan  nan  -0.999969  -3.96e-05  1.00003  0.0176449  -0.0275072  -0.000483652  0.0013155  -0.0021094  0.0012257  0  0  0  0  0  0  0.0227162  8.64865e-05  -0.0146452  -0.0150762  0.0224995  -0.00558504  -0.0294708  0.0173085  -0.00642095  0.0507862  0.00510084  -0.0106768 
1699954817.443374000  0  0  11.5627  0.119983  -0.0892902  0.00600213  nan  nan  nan  nan  nan  nan  -0.999962  -5.12e-05  1.00004  0.0174675  -0.0279993  -0.000487664  0.0014556  -0.0025587  0.0013441  0  0  0  0  0  0  0.0227423  5.1885e-05  -0.014673  -0.0145445  0.0223205  -0.00435262  -0.0292632  0.0178666  -0.0064585  0.0292553  0.0142077  -0.0104416 
1699954817.448376000  0  0  11.5731  0.1214  -0.110876  0.00586693  nan  nan  nan  nan  nan  nan  -0.999954  -6.52e-05  1.00004  0.0185435  -0.0271707  -0.000502934  0.0015837  -0.0030604  0.0014482  0  0  0  0  0  0  0.0226645  0.000167095  -0.014689  -0.0154039  0.0234693  -0.00520753  -0.0301546  0.0176333  -0.00647764  0.034623  0.0595257  -0.00856031 
1699954817.453374000  0  0  11.6075  0.0896956  -0.104278  0.006887  nan  nan  nan  nan  nan  nan  -0.999946  -8.19e-05  1.00005  0.0183293  -0.0275873  -0.000505648  0.0016961  -0.0036108  0.0015342  0  0  0  0  0  0  0.0226904  0.000132775  -0.0147642  -0.0148207  0.0233392  -0.00789119  -0.0291338  0.0181592  -0.00665148  0.0886401  0.0414913  -0.0195727 
1699954817.458374000  0  0  11.5839  0.105811  -0.107192  0.00637341  nan  nan  nan  nan  nan  nan  -0.999938  -0.0001014  1.00006  0.0181736  -0.028421  -0.000517798  0.001789  -0.0042061  0.0015988  0  0  0  0  0  0  0.0227408  9.9711e-05  -0.0148099  -0.0139315  0.0231634  -0.00581951  -0.0289155  0.0191106  -0.00665129  0.0543999  0.0385666  -0.0131547 
1699954817.463375000  0  0  11.5694  0.112314  -0.123892  0.00565762  nan  nan  nan  nan  nan  nan  -0.999928  -0.000124  1.00007  0.0195026  -0.0278032  -0.000545334  0.0018593  -0.0048425  0.0016434  0  0  0  0  0  0  0.0226661  0.000220889  -0.0148293  -0.0146034  0.0245744  -0.00459963  -0.030031  0.0190759  -0.00660631  0.0516574  0.0722855  -0.00465714 
1699954817.468375000  0  0  11.5785  0.0946972  -0.119181  0.00553232  nan  nan  nan  nan  nan  nan  -0.999919  -0.0001499  1.00007  0.0194533  -0.0282571  -0.00055519  0.0019086  -0.0055164  0.0016716  0  0  0  0  0  0  0.0227076  0.00018713  -0.0148714  -0.0140837  0.0246047  -0.0052475  -0.0293499  0.0197344  -0.00659589  0.0806248  0.0568048  -0.00319509 
1699954817.473375000  0  0  11.5591  0.124576  -0.111351  0.00487218  nan  nan  nan  nan  nan  nan  -0.999909  -0.0001792  1.00008  0.0204227  -0.0281049  -0.000582681  0.0019405  -0.0062239  0.0016872  0  0  0  0  0  0  0.0226379  0.000310525  -0.0148867  -0.0141835  0.025534  -0.00361472  -0.0304722  0.0196577  -0.00650695  0.0311914  0.041851  0.00416734 
1699954817.478380000  0  0  11.541  0.121918  -0.123535  0.00496785  nan  nan  nan  nan  nan  nan  -0.9999  -0.0002122  1.00009  0.0203206  -0.0286769  -0.000595431  0.0019589  -0.0069612  0.0016939  0  0  0  0  0  0  0.0227159  0.000229402  -0.014904  -0.013679  0.0255417  -0.00206835  -0.0302189  0.0206103  -0.00647519  0.0341788  0.0574543  0.00265379 
1699954817.483846000  0  0  11.5499  0.111298  -0.123903  0.00553002  nan  nan  nan  nan  nan  nan  -0.99989  -0.0002489  1.0001  0.0202824  -0.0290789  -0.000607587  0.0019674  -0.0077248  0.0016954  0  0  0  0  0  0  0.022757  0.000197812  -0.0149254  -0.0132259  0.0255821  -0.00275276  -0.0297483  0.0212931  -0.0065276  0.0510889  0.0519099  -0.00384929 
1699954817.488372000  0  0  11.5429  0.14474  -0.105908  0.0052024  nan  nan  nan  nan  nan  nan  -0.99988  -0.0002895  1.00011  0.0212889  -0.028802  -0.000637169  0.0019699  -0.0085107  0.0016955  0  0  0  0  0  0  0.022696  0.000318207  -0.0149386  -0.0134659  0.0265903  -0.00216451  -0.0311357  0.0208663  -0.00648346  -0.00303184  0.0198468  -0.00019531 
1699954817.494332000  0  0  11.4987  0.144185  -0.111108  0.00553671  nan  nan  nan  nan  nan  nan  -0.99987  -0.000334  1.00012  0.0222822  -0.0289664  -0.000676952  0.0019701  -0.0093153  0.0016955  0  0  0  0  0  0  0.0227235  0.000314534  -0.0149118  -0.0134559  0.0277633  0.0014498  -0.0320712  0.0212361  -0.00649983  0.00668423  0.0268433  -0.00421059 
1699954817.498338000  0  0  11.5333  0.143073  -0.111237  0.00583036  nan  nan  nan  nan  nan  nan  -0.99986  -0.0003826  1.00013  0.0230747  -0.0285062  -0.000698298  0.0019701  -0.0101348  0.0016955  0  0  0  0  0  0  0.022667  0.00043341  -0.0149385  -0.0138075  0.0286007  -0.00138407  -0.0327263  0.0209234  -0.00654568  0.0149369  0.0299792  -0.00742277 
1699954817.503399000  0  0  11.5365  0.166698  -0.0908589  0.00555574  nan  nan  nan  nan  nan  nan  -0.99985  -0.0004354  1.00013  0.0242327  -0.02809  -0.000731841  0.0019701  -0.0109655  0.0016955  0  0  0  0  0  0  0.0225968  0.000579158  -0.0149395  -0.0141725  0.0297704  -0.00166974  -0.0342039  0.0202585  -0.00651496  -0.0187208  -0.00465993  -0.00429718 
1699954817.508952000  0  0  11.5006  0.153137  -0.0961663  0.00524996  nan  nan  nan  nan  nan  nan  -0.999841  -0.0004923  1.00014  0.0238405  -0.0292827  -0.000761645  0.0019701  -0.0118035  0.0016955  0  0  0  0  0  0  0.0227584  0.000397863  -0.014928  -0.0131184  0.0295731  0.00131731  -0.0336896  0.0213821  -0.00644257  0.00366978  -0.00438249  -0.00119879 
1699954817.513341000  0  0  11.5485  0.155569  -0.102893  0.00532  nan  nan  nan  nan  nan  nan  -0.999831  -0.0005534  1.00015  0.0249047  -0.0285198  -0.000788326  0.0019701  -0.0126452  0.0016955  0  0  0  0  0  0  0.0226964  0.000535562  -0.0149622  -0.0138018  0.0307608  -0.00262404  -0.0346801  0.0208096  -0.00644151  0.00791827  0.0143383  -0.00208483 
1699954817.518339000  0  0  11.5583  0.156979  -0.0831386  0.00585152  nan  nan  nan  nan  nan  nan  -0.999821  -0.0006188  1.00016  0.0250172  -0.0288421  -0.000816399  0.0019701  -0.0134869  0.0016955  0  0  0  0  0  0  0.0227261  0.000562573  -0.0149928  -0.013422  0.030871  -0.00336148  -0.0347883  0.0207602  -0.00646352  0.00609442  -0.0247164  -0.00850879 
1699954817.523397000  0  0  11.5176  0.156896  -0.0841627  0.00616078  nan  nan  nan  nan  nan  nan  -0.999811  -0.0006883  1.00017  0.0267029  -0.0284737  -0.000874407  0.0019701  -0.0143246  0.0016955  0  0  0  0  0  0  0.0226574  0.00072416  -0.0149786  -0.0138674  0.032557  -1.54507e-05  -0.0362729  0.0203012  -0.00650516  0.0199198  -0.0184454  -0.0119582 
1699954817.528392000  0  0  11.5606  0.148193  -0.105327  0.00570429  nan  nan  nan  nan  nan  nan  -0.999801  -0.000762  1.00018  0.0267085  -0.0286294  -0.000900525  0.0019701  -0.0151548  0.0016955  0  0  0  0  0  0  0.0226977  0.000735759  -0.0150208  -0.01362  0.0326648  -0.00350524  -0.035989  0.0208099  -0.00645879  0.0347124  0.019204  -0.0067157 
1699954817.533393000  0  0  11.5648  0.139028  -0.079143  0.00543583  nan  nan  nan  nan  nan  nan  -0.999791  -0.0008398  1.00018  0.0263249  -0.0293633  -0.000933654  0.0019701  -0.0159736  0.0016955  0  0  0  0  0  0  0.022741  0.000726839  -0.0150239  -0.0127593  0.0322013  -0.00382075  -0.0353209  0.0210227  -0.0064084  0.0468955  -0.035123  -0.0038639 
1699954817.539341000  0  0  11.5204  0.143762  -0.0881972  0.00505064  nan  nan  nan  nan  nan  nan  -0.999781  -0.0009217  1.00019  0.0281702  -0.0288413  -0.00100117  0.0019701  -0.0167773  0.0016955  0  0  0  0  0  0  0.0226633  0.000912366  -0.0150072  -0.0133956  0.034022  -0.000162468  -0.0368101  0.0205016  -0.00633614  0.0511292  -0.0122204  0.000228347 
1699954817.543399000  0  0  11.5652  0.136635  -0.116299  0.00454525  nan  nan  nan  nan  nan  nan  -0.999772  -0.0010076  1.0002  0.0274936  -0.0289847  -0.00101688  0.0019701  -0.0175622  0.0016955  0  0  0  0  0  0  0.0227381  0.000854221  -0.0150514  -0.0132343  0.0334199  -0.00379707  -0.0358847  0.021191  -0.00624531  0.0568681  0.0376402  0.00563739 
1699954817.548404000  0  0  11.5537  0.121513  -0.0851277  0.00573736  nan  nan  nan  nan  nan  nan  -0.999762  -0.0010973  1.00021  0.0283248  -0.0289944  -0.00107627  0.0019701  -0.0183245  0.0016955  0  0  0  0  0  0  0.0226764  0.00101956  -0.0150611  -0.0131192  0.0340828  -0.00279657  -0.0360752  0.0207295  -0.00633362  0.0888656  -0.0204557  -0.00838079 
1699954817.553394000  0  0  11.5331  0.123423  -0.104652  0.00484295  nan  nan  nan  nan  nan  nan  -0.999752  -0.0011908  1.00022  0.0286146  -0.029254  -0.001131  0.0019701  -0.0190604  0.0016955  0  0  0  0  0  0  0.0227115  0.00103327  -0.0150422  -0.0129288  0.0343568  -0.00111053  -0.0359636  0.0212634  -0.00620669  0.0840196  0.0136798  0.00153002 
1699954817.558387000  0  0  11.5598  0.117836  -0.115266  0.00463749  nan  nan  nan  nan  nan  nan  -0.999742  -0.0012879  1.00023  0.0294848  -0.0286103  -0.0011805  0.0019701  -0.0197662  0.0016955  0  0  0  0  0  0  0.0226441  0.00120528  -0.0150721  -0.0135165  0.035177  -0.00326978  -0.0362741  0.0210111  -0.00613227  0.0980502  0.03723  0.00335415 
1699954817.564343000  0  0  11.5369  0.0957108  -0.0940757  0.00524543  nan  nan  nan  nan  nan  nan  -0.999732  -0.0013884  1.00024  0.0293429  -0.0292911  -0.00124361  0.0019701  -0.0204382  0.0016955  0  0  0  0  0  0  0.0226481  0.00125349  -0.0150743  -0.0127244  0.0348083  -0.00131153  -0.0350895  0.0213313  -0.00614944  0.131402  -0.00809667  -0.00407348 
1699954817.568397000  0  0  11.552  0.109408  -0.118838  0.00493874  nan  nan  nan  nan  nan  nan  -0.999722  -0.0014922  1.00024  0.0289695  -0.0293731  -0.00128674  0.0019701  -0.0210726  0.0016955  0  0  0  0  0  0  0.0227032  0.00121786  -0.0150803  -0.0126915  0.0344548  -0.00255026  -0.0345135  0.0218653  -0.00607724  0.0987071  0.0365156  -0.000961883 
1699954817.574334000  0  0  11.5638  0.0893149  -0.117974  0.00562277  nan  nan  nan  nan  nan  nan  -0.999712  -0.001599  1.00025  0.0282678  -0.0295269  -0.00132686  0.0019701  -0.0216656  0.0016955  0  0  0  0  0  0  0.0227489  0.0012  -0.0151012  -0.0125575  0.0336272  -0.00346653  -0.0329146  0.0222606  -0.00612366  0.124185  0.0311502  -0.00904803 
1699954817.578336000  0  0  11.5245  0.0854266  -0.0974809  0.00643328  nan  nan  nan  nan  nan  nan  -0.999703  -0.0017087  1.00026  0.0290089  -0.0296774  -0.00141422  0.0019701  -0.0222136  0.0016955  0  0  0  0  0  0  0.0227014  0.00135607  -0.0150903  -0.0123847  0.0341029  -0.000190738  -0.0330428  0.0221002  -0.00618447  0.133141  -0.00835998  -0.0185713 
1699954817.583343000  0  0  11.5187  0.0974647  -0.112133  0.0059603  nan  nan  nan  nan  nan  nan  -0.999693  -0.0018211  1.00027  0.027984  -0.0302011  -0.00146464  0.0019701  -0.0227126  0.0016955  0  0  0  0  0  0  0.0227879  0.00126872  -0.0150655  -0.0119259  0.032962  0.000259255  -0.0316955  0.0227673  -0.00616062  0.0966691  0.0148062  -0.0128976 
1699954817.588479000  0  0  11.5306  0.0777803  -0.10764  0.00596549  nan  nan  nan  nan  nan  nan  -0.999683  -0.0019358  1.00028  0.0288749  -0.0293806  -0.00153928  0.0019701  -0.0231591  0.0016955  0  0  0  0  0  0  0.0227218  0.00143818  -0.0150775  -0.0127873  0.0337624  -0.000692174  -0.0317034  0.0221127  -0.00616038  0.136111  0.011844  -0.0129649 
1699954817.594333000  0  0  11.5082  0.0829829  -0.0978467  0.00573966  nan  nan  nan  nan  nan  nan  -0.999673  -0.0020526  1.00029  0.0279862  -0.0300246  -0.00160777  0.0019701  -0.0235507  0.0016955  0  0  0  0  0  0  0.0227726  0.00139554  -0.0150373  -0.0121496  0.0326435  0.00111486  -0.0302498  0.022539  -0.00613622  0.112332  -0.0116656  -0.0103836 
1699954817.598383000  0  0  11.4999  0.113828  -0.111494  0.00466933  nan  nan  nan  nan  nan  nan  -0.999663  -0.0021712  1.0003  0.0287753  -0.0295809  -0.00170071  0.0019701  -0.0238899  0.0016955  0  0  0  0  0  0  0.0227196  0.00155247  -0.0150337  -0.0126214  0.0332757  0.00178849  -0.0311714  0.0223472  -0.00596139  0.059122  0.0173944  0.0012472 
1699954817.604340000  0  0  11.5097  0.0847156  -0.108057  0.00538206  nan  nan  nan  nan  nan  nan  -0.999653  -0.0022914  1.0003  0.0276726  -0.0295878  -0.00175586  0.0019701  -0.0241806  0.0016955  0  0  0  0  0  0  0.0227865  0.00146567  -0.0149947  -0.0127304  0.0320852  0.000915748  -0.0292347  0.0223231  -0.00601974  0.0995283  0.0107419  -0.00707838 
1699954817.609339000  0  0  11.4963  0.0913238  -0.0886587  0.00537339  nan  nan  nan  nan  nan  nan  -0.999643  -0.0024129  1.00031  0.0266039  -0.0304529  -0.00184053  0.0019701  -0.0244265  0.0016955  0  0  0  0  0  0  0.0228582  0.00141275  -0.0149472  -0.0118284  0.0307898  0.00195566  -0.0279692  0.0226783  -0.00597208  0.0746687  -0.031323  -0.00744661 
1699954817.613343000  0  0  11.4623  0.135217  -0.0997803  0.00449248  nan  nan  nan  nan  nan  nan  -0.999634  -0.0025356  1.00032  0.0274626  -0.0300282  -0.00195404  0.0019701  -0.0246313  0.0016955  0  0  0  0  0  0  0.0228076  0.00156353  -0.0149213  -0.0123659  0.0314462  0.00471507  -0.0293893  0.022393  -0.00577637  -5.27006e-05  -0.00645498  0.0016077 
1699954817.618387000  0  0  11.4722  0.109777  -0.0999999  0.00527035  nan  nan  nan  nan  nan  nan  -0.999624  -0.0026592  1.00033  0.0268532  -0.0300921  -0.00204234  0.0019701  -0.0247989  0.0016955  0  0  0  0  0  0  0.022846  0.00154363  -0.0148894  -0.0123356  0.030739  0.00383635  -0.028348  0.0223794  -0.00578047  0.0412481  -0.00589069  -0.00807472 
1699954817.623382000  0  0  11.48  0.118606  -0.0789064  0.00528804  nan  nan  nan  nan  nan  nan  -0.999614  -0.0027835  1.00034  0.0272246  -0.0296413  -0.00215205  0.0019701  -0.0249328  0.0016955  0  0  0  0  0  0  0.0227844  0.00169572  -0.0148795  -0.0127435  0.0308946  0.00317559  -0.028618  0.0214969  -0.00573662  0.0260722  -0.0399591  -0.00873428 
1699954817.629323000  0  0  11.4474  0.141137  -0.0791553  0.00459804  nan  nan  nan  nan  nan  nan  -0.999604  -0.0029085  1.00035  0.0268782  -0.0297262  -0.00226096  0.0019701  -0.025037  0.0016955  0  0  0  0  0  0  0.0228041  0.0017008  -0.0148274  -0.012784  0.0303398  0.00577904  -0.0287535  0.0213199  -0.00557273  -0.0177413  -0.0378327  -0.00174818 
1699954817.633802000  0  0  11.4504  0.111566  -0.0752563  0.00517417  nan  nan  nan  nan  nan  nan  -0.999594  -0.0030339  1.00035  0.0268725  -0.0298072  -0.00238587  0.0019701  -0.0251151  0.0016955  0  0  0  0  0  0  0.0228245  0.00172441  -0.0147969  -0.0127126  0.0302835  0.00548212  -0.0282596  0.0210898  -0.00553766  0.0368563  -0.0435132  -0.00930057 
1699954817.638383000  0  0  11.4836  0.122657  -0.0689424  0.00541044  nan  nan  nan  nan  nan  nan  -0.999584  -0.0031596  1.00036  0.0268031  -0.0292568  -0.00249815  0.0019701  -0.0251709  0.0016955  0  0  0  0  0  0  0.0227645  0.00186766  -0.0148007  -0.0131684  0.0299723  0.00272582  -0.0282189  0.0202779  -0.00551217  0.0142991  -0.0486714  -0.0125088 
1699954817.643324000  0  0  11.4613  0.13711  -0.0670531  0.00488455  nan  nan  nan  nan  nan  nan  -0.999575  -0.0032855  1.00037  0.0264071  -0.0296188  -0.00263131  0.0019701  -0.0252082  0.0016955  0  0  0  0  0  0  0.0227859  0.00189305  -0.0147879  -0.0128242  0.0293389  0.00456009  -0.0281281  0.0202902  -0.0053674  -0.0154429  -0.0525639  -0.00738287 
1699954817.648375000  0  0  11.4542  0.124559  -0.0668608  0.00425893  nan  nan  nan  nan  nan  nan  -0.999565  -0.0034116  1.00038  0.0272166  -0.0288156  -0.00277485  0.0019701  -0.0252306  0.0016955  0  0  0  0  0  0  0.0227161  0.00204424  -0.0147607  -0.0137076  0.03001  0.0050952  -0.0286463  0.0193155  -0.00518244  0.0144288  -0.0439806  -0.0014122 
1699954817.653347000  0  0  11.4977  0.123957  -0.0660116  0.00412526  nan  nan  nan  nan  nan  nan  -0.999555  -0.0035378  1.00039  0.0263161  -0.0291082  -0.00290428  0.0019701  -0.025242  0.0016955  0  0  0  0  0  0  0.0227419  0.00208129  -0.0147784  -0.0132506  0.0289016  0.00151483  -0.0277566  0.0192887  -0.00502736  0.00744777  -0.0454328  -0.00129211 
1699954817.658386000  0  0  11.477  0.126209  -0.0654191  0.00399041  nan  nan  nan  nan  nan  nan  -0.999545  -0.003664  1.0004  0.0260253  -0.0293006  -0.00305472  0.0019701  -0.0252461  0.0016955  0  0  0  0  0  0  0.0227562  0.00210007  -0.014751  -0.0131002  0.0284219  0.00318967  -0.0276077  0.019212  -0.00487203  0.00157282  -0.0459123  -0.00115982 
1699954817.663398000  0  0  11.4546  0.118744  -0.0735891  0.00428741  nan  nan  nan  nan  nan  nan  -0.999535  -0.0037903  1.00041  0.0268725  -0.0287143  -0.00322401  0.0019701  -0.0252466  0.0016955  0  0  0  0  0  0  0.0226878  0.00224632  -0.0147192  -0.0137588  0.0291072  0.00498567  -0.0281796  0.0186591  -0.00476809  0.0217653  -0.0244857  -0.00591179 
1699954817.669324000  0  0  11.5068  0.118781  -0.0795093  0.00395264  nan  nan  nan  nan  nan  nan  -0.999525  -0.0039165  1.00041  0.025709  -0.0291923  -0.00336926  0.0019701  -0.0252462  0.0016955  0  0  0  0  0  0  0.0227029  0.00225844  -0.0147312  -0.0130142  0.0277395  0.000669232  -0.0270937  0.0191243  -0.00460999  0.0117002  -0.0169246  -0.0033081 
1699954817.673363000  0  0  11.4776  0.113707  -0.0841276  0.00355184  nan  nan  nan  nan  nan  nan  -0.999515  -0.0040427  1.00042  0.0263077  -0.0289277  -0.00355249  0.0019701  -0.0252424  0.0016955  0  0  0  0  0  0  0.0226472  0.00239696  -0.0147079  -0.0133145  0.0281068  0.00305616  -0.027504  0.0188981  -0.00440981  0.0256233  -0.00560715  -0.000299799 
1699954817.679325000  0  0  11.4735  0.107919  -0.0975359  0.00333722  nan  nan  nan  nan  nan  nan  -0.999506  -0.0041689  1.00043  0.0264076  -0.0286054  -0.00372577  0.0019701  -0.0252316  0.0016955  0  0  0  0  0  0  0.0226121  0.00246509  -0.0146782  -0.0136543  0.0280658  0.00333133  -0.0273455  0.0188946  -0.00423047  0.0357411  0.0212416  0.000589392 
1699954817.684325000  0  0  11.5107  0.103924  -0.101958  0.00397438  nan  nan  nan  nan  nan  nan  -0.999496  -0.004295  1.00044  0.0253248  -0.0291016  -0.00389255  0.0019701  -0.02521  0.0016955  0  0  0  0  0  0  0.0226376  0.00248132  -0.0146809  -0.0129571  0.0267443  0.00023823  -0.0261892  0.0195379  -0.00413401  0.0330926  0.0241673  -0.00833959 
1699954817.688376000  0  0  11.4606  0.102409  -0.0989197  0.003834  nan  nan  nan  nan  nan  nan  -0.999486  -0.004421  1.00045  0.0257899  -0.0291057  -0.0040976  0.0019701  -0.0251737  0.0016955  0  0  0  0  0  0  0.0225843  0.00261436  -0.0146448  -0.0129875  0.0268931  0.00434896  -0.0264536  0.0195517  -0.00396218  0.0385543  0.0179637  -0.00830322 
1699954817.693373000  0  0  11.4767  0.0986402  -0.125982  0.00341655  nan  nan  nan  nan  nan  nan  -0.999476  -0.0045467  1.00046  0.0253459  -0.0288191  -0.0042751  0.0019701  -0.0251192  0.0016955  0  0  0  0  0  0  0.0225809  0.00265101  -0.0146407  -0.0132893  0.026286  0.00298299  -0.0258388  0.0199397  -0.0037864  0.0404367  0.0685182  -0.00484284 
1699954817.698383000  0  0  11.5061  0.0967354  -0.12163  0.00356432  nan  nan  nan  nan  nan  nan  -0.999466  -0.0046722  1.00046  0.0254398  -0.0284013  -0.00447108  0.0019701  -0.0250426  0.0016955  0  0  0  0  0  0  0.0225146  0.00278104  -0.0146385  -0.0135749  0.0261945  0.000524829  -0.0256864  0.0198004  -0.00365198  0.0428439  0.0610961  -0.00803427 
1699954817.704324000  0  0  11.444  0.0978865  -0.115969  0.00348637  nan  nan  nan  nan  nan  nan  -0.999456  -0.0047971  1.00047  0.0249142  -0.0292734  -0.00468797  0.0019701  -0.0249402  0.0016955  0  0  0  0  0  0  0.0225427  0.0027935  -0.0145912  -0.012721  0.0253107  0.0056107  -0.0250109  0.0207586  -0.00347826  0.0343271  0.0409583  -0.00879699 
1699954817.708400000  0  0  11.4968  0.0973783  -0.14261  0.00375503  nan  nan  nan  nan  nan  nan  -0.999446  -0.0049215  1.00048  0.0243042  -0.0293155  -0.00488753  0.0019701  -0.0248082  0.0016955  0  0  0  0  0  0  0.0225972  0.00280478  -0.0146248  -0.012613  0.0246439  0.00126854  -0.0243427  0.0214645  -0.00333755  0.0291964  0.0877461  -0.0135624 
1699954817.713334000  0  0  11.523  0.0922165  -0.130418  0.00423975  nan  nan  nan  nan  nan  nan  -0.999437  -0.0050451  1.00049  0.0244301  -0.0289082  -0.00510397  0.0019701  -0.0246429  0.0016955  0  0  0  0  0  0  0.0225361  0.00292694  -0.0146333  -0.0129059  0.0245981  -0.000891287  -0.0242033  0.0212361  -0.00327277  0.0382371  0.0654647  -0.0202692 
1699954817.718344000  0  0  11.4259  0.110016  -0.112049  0.00423958  nan  nan  nan  nan  nan  nan  -0.999427  -0.0051679  1.0005  0.0237454  -0.0303621  -0.00534758  0.0019701  -0.0244405  0.0016955  0  0  0  0  0  0  0.0226054  0.00291207  -0.0145672  -0.0115237  0.0234812  0.00706809  -0.0238046  0.0224096  -0.00313295  -0.00102968  0.0179292  -0.0216653 
1699954817.723837000  0  0  11.4489  0.110793  -0.132651  0.00380065  nan  nan  nan  nan  nan  nan  -0.999417  -0.0052895  1.00051  0.0230108  -0.0304958  -0.00556355  0.0019701  -0.0241973  0.0016955  0  0  0  0  0  0  0.0226649  0.00288893  -0.0145701  -0.0114057  0.0226492  0.00514049  -0.0232286  0.0230792  -0.00295745  -0.00788369  0.0529736  -0.0179337 
1699954817.728354000  0  0  11.4896  0.0990819  -0.111834  0.00397707  nan  nan  nan  nan  nan  nan  -0.999407  -0.0054098  1.00052  0.0229444  -0.0300704  -0.00579316  0.0019701  -0.0239095  0.0016955  0  0  0  0  0  0  0.0226121  0.00300078  -0.0145827  -0.0116877  0.0224124  0.00178728  -0.0229193  0.0224959  -0.00285146  0.0126934  0.0167054  -0.0211988 
1699954817.733501000  0  0  11.398  0.136232  -0.103207  0.0028569  nan  nan  nan  nan  nan  nan  -0.999397  -0.0055285  1.00052  0.0220033  -0.0307915  -0.00602842  0.0019701  -0.0235734  0.0016955  0  0  0  0  0  0  0.022671  0.00298146  -0.0145118  -0.011212  0.0210172  0.00926068  -0.0227461  0.0230196  -0.00257475  -0.0631987  -0.0053659  -0.00996376 
1699954817.738497000  0  0  11.4441  0.126435  -0.106148  0.00359821  nan  nan  nan  nan  nan  nan  -0.999387  -0.0056454  1.00053  0.0224973  -0.0297575  -0.00627428  0.0019701  -0.0231852  0.0016955  0  0  0  0  0  0  0.0226091  0.00309218  -0.0145122  -0.0122206  0.0215096  0.00541207  -0.0233358  0.0221375  -0.00247675  -0.0381805  0.00863054  -0.0202102 
1699954817.743831000  0  0  11.4599  0.115812  -0.0930241  0.00344126  nan  nan  nan  nan  nan  nan  -0.999378  -0.0057603  1.00054  0.0216707  -0.0302178  -0.00651984  0.0019701  -0.0227412  0.0016955  0  0  0  0  0  0  0.0226598  0.00307911  -0.0145106  -0.0116944  0.0205116  0.00409451  -0.0225411  0.0223123  -0.00229138  -0.0242452  -0.0192246  -0.020102 
1699954817.748352000  0  0  11.3874  0.145857  -0.0763511  0.00282657  nan  nan  nan  nan  nan  nan  -0.999368  -0.0058727  1.00055  0.0216818  -0.0301634  -0.0067854  0.0019701  -0.0222377  0.0016955  0  0  0  0  0  0  0.0226076  0.00318006  -0.0144402  -0.0118841  0.0201187  0.00998332  -0.0232835  0.0218092  -0.00203987  -0.077505  -0.0479424  -0.0149334 
1699954817.753496000  0  0  11.4117  0.152689  -0.087143  0.00271961  nan  nan  nan  nan  nan  nan  -0.999358  -0.0059825  1.00056  0.0212756  -0.0298303  -0.00703866  0.0019701  -0.0216708  0.0016955  0  0  0  0  0  0  0.02265  0.00316527  -0.0144411  -0.0123156  0.0196875  0.0079504  -0.0234999  0.0215186  -0.00180557  -0.0891796  -0.0236855  -0.0159395 
1699954817.759343000  0  0  11.4556  0.130565  -0.0729132  0.00309113  nan  nan  nan  nan  nan  nan  -0.999348  -0.0060893  1.00057  0.0201666  -0.0304521  -0.0072971  0.0019701  -0.0210368  0.0016955  0  0  0  0  0  0  0.0227043  0.00312503  -0.0144582  -0.0115017  0.0184517  0.00433785  -0.0225339  0.0216294  -0.00165471  -0.0538178  -0.0531643  -0.0220921 
1699954817.764409000  0  0  11.3961  0.157948  -0.069228  0.00197896  nan  nan  nan  nan  nan  nan  -0.999338  -0.0061928  1.00057  0.0197357  -0.0299466  -0.0075591  0.0019701  -0.0203326  0.0016955  0  0  0  0  0  0  0.022643  0.00321066  -0.0143796  -0.0122054  0.0175781  0.00911917  -0.0229866  0.0208404  -0.00135868  -0.104419  -0.0532759  -0.0111502 
1699954817.769341000  0  0  11.4236  0.144682  -0.0739243  0.00177691  nan  nan  nan  nan  nan  nan  -0.999328  -0.0062925  1.00058  0.0189098  -0.0298244  -0.00782346  0.0019701  -0.0195595  0.0016955  0  0  0  0  0  0  0.0226866  0.00317184  -0.0143901  -0.0123669  0.0166663  0.0068436  -0.0224745  0.020577  -0.00108846  -0.0825987  -0.0414595  -0.0113268 
1699954817.773341000  0  0  11.4558  0.126407  -0.0691868  0.00198478  nan  nan  nan  nan  nan  nan  -0.999318  -0.0063883  1.00059  0.0185873  -0.0294595  -0.00810476  0.0019701  -0.0187213  0.0016955  0  0  0  0  0  0  0.0226367  0.00325603  -0.0143883  -0.0126103  0.0161281  0.0041574  -0.022068  0.02  -0.000894957  -0.0497885  -0.0456268  -0.0158602 
1699954817.778333000  0  0  11.4278  0.138256  -0.0775878  0.0013557  nan  nan  nan  nan  nan  nan  -0.999309  -0.0064796  1.0006  0.0169728  -0.0301205  -0.0083723  0.0019701  -0.0178216  0.0016955  0  0  0  0  0  0  0.0226867  0.00322385  -0.0143975  -0.0119847  0.0140744  0.00651634  -0.0210631  0.020551  -0.000584735  -0.0827317  -0.0338931  -0.0110989 
1699954817.783342000  0  0  11.4372  0.124501  -0.0805277  0.00184106  nan  nan  nan  nan  nan  nan  -0.999299  -0.0065664  1.00061  0.0160893  -0.0301198  -0.00865587  0.0019701  -0.0168643  0.0016955  0  0  0  0  0  0  0.0227262  0.00318307  -0.0144181  -0.0120458  0.0130482  0.00577909  -0.0203121  0.0204288  -0.000400609  -0.0621298  -0.0268901  -0.0190071 
1699954817.789321000  0  0  11.5176  0.0929881  -0.0855008  0.00274445  nan  nan  nan  nan  nan  nan  -0.999289  -0.0066482  1.00062  0.0156367  -0.0296066  -0.00895062  0.0019701  -0.0158531  0.0016955  0  0  0  0  0  0  0.022658  0.00324331  -0.014444  -0.0122804  0.0124705  -0.000865308  -0.0194265  0.0199505  -0.000373985  -0.00725272  -0.0125427  -0.0305658 
1699954817.793340000  0  0  11.49  0.107345  -0.0980709  0.00192891  nan  nan  nan  nan  nan  nan  -0.999279  -0.0067248  1.00063  0.0135329  -0.0304013  -0.00922178  0.0019701  -0.0147918  0.0016955  0  0  0  0  0  0  0.0227235  0.00314933  -0.0144646  -0.0115214  0.00992578  0.00148121  -0.0178531  0.0208735  -9.11738e-05  -0.0504406  0.00410564  -0.0231997 
1699954817.798387000  0  0  11.4717  0.0853936  -0.0975906  0.0024567  nan  nan  nan  nan  nan  nan  -0.999269  -0.006796  1.00063  0.0134399  -0.0298413  -0.00954033  0.0019701  -0.0136841  0.0016955  0  0  0  0  0  0  0.0226619  0.00320208  -0.0144312  -0.0121567  0.00965717  0.00293929  -0.0175554  0.0203888  2.18569e-05  -0.00927785  0.00760407  -0.0309273 
1699954817.804340000  0  0  11.5533  0.0681761  -0.103695  0.00278336  nan  nan  nan  nan  nan  nan  -0.999259  -0.0068616  1.00064  0.0113563  -0.03005  -0.00981572  0.0019701  -0.0125337  0.0016955  0  0  0  0  0  0  0.0227082  0.00306091  -0.0145118  -0.0117415  0.00740119  -0.0036874  -0.0153747  0.0207456  7.77871e-05  0.00509494  0.0165305  -0.0355699 
1699954817.808391000  0  0  11.4916  0.0806697  -0.107918  0.00215588  nan  nan  nan  nan  nan  nan  -0.999249  -0.0069213  1.00065  0.00940458  -0.0307686  -0.0101052  0.0019701  -0.0113444  0.0016955  0  0  0  0  0  0  0.0227301  0.00296913  -0.0144936  -0.0111002  0.00501628  0.00141931  -0.0138601  0.0215927  0.000340359  -0.0338265  0.0171832  -0.030352 
1699954817.813339000  0  0  11.4479  0.0634295  -0.104295  0.00202734  nan  nan  nan  nan  nan  nan  -0.99924  -0.006975  1.00066  0.00911213  -0.0304163  -0.0104406  0.0019701  -0.01012  0.0016955  0  0  0  0  0  0  0.0226736  0.002997  -0.0144597  -0.0115729  0.00452943  0.00499042  -0.0133566  0.0212645  0.000523892  -0.00397777  0.0129563  -0.0305807 
1699954817.819339000  0  0  11.5679  0.0542829  -0.119509  0.00072685  nan  nan  nan  nan  nan  nan  -0.99923  -0.0070225  1.00067  0.00710579  -0.0303398  -0.0107331  0.0019701  -0.0088642  0.0016955  0  0  0  0  0  0  0.0227083  0.00284976  -0.0145691  -0.011366  0.00238394  -0.00477675  -0.0113574  0.0216437  0.000807085  -0.00407751  0.0398956  -0.0171565 
1699954817.823369000  0  0  11.5053  0.0713423  -0.107666  -0.000190321  nan  nan  nan  nan  nan  nan  -0.99922  -0.0070636  1.00068  0.00603406  -0.0303611  -0.0110608  0.0019701  -0.0075807  0.0016955  0  0  0  0  0  0  0.0226619  0.00286145  -0.0145324  -0.0114596  0.000927343  0.000361015  -0.0107924  0.0215547  0.00118103  -0.0433945  0.0170282  -0.00943125 
1699954817.828398000  0  0  11.448  0.0562854  -0.107699  -0.000413473  nan  nan  nan  nan  nan  nan  -0.99921  -0.0070982  1.00069  0.00499946  -0.030566  -0.0112848  0.0019701  -0.0062733  0.0016955  0  0  0  0  0  0  0.0226573  0.00275856  -0.0144835  -0.0113957  -0.000208226  0.00503874  -0.00965289  0.0219075  0.00141999  -0.0237642  0.0138489  -0.00903149 
1699954817.833345000  0  0  11.5322  0.0567283  -0.118192  -1.58267e-05  nan  nan  nan  nan  nan  nan  -0.9992  -0.0071263  1.00069  0.00328918  -0.0303116  -0.0112317  0.0019701  -0.0049458  0.0016954  0  0  0  0  0  0  0.0226569  0.00263767  -0.0145083  -0.0114592  -0.00208226  -0.001933  -0.00815618  0.0220436  0.00133205  -0.0384197  0.0335837  -0.0131226 
1699954817.838387000  0  0  11.4771  0.0768394  -0.0957433  0.00111314  nan  nan  nan  nan  nan  nan  -0.99919  -0.0071477  1.0007  0.00240542  -0.0300735  -0.0112043  0.0019701  -0.0036019  0.0016932  0  0  0  0  0  0  0.0225987  0.00262283  -0.0144731  -0.0118324  -0.00319016  0.00258846  -0.00799058  0.0215065  0.00109818  -0.0801655  -0.00637291  -0.0248961 
1699954817.843395000  0  0  11.3981  0.0737916  -0.0910968  0.00214991  nan  nan  nan  nan  nan  nan  -0.999181  -0.0071623  1.00071  0.00159428  -0.0302675  -0.0111802  0.0019701  -0.0022454  0.0016853  0  0  0  0  0  0  0.0226126  0.00250837  -0.0144314  -0.0118935  -0.00398327  0.00909501  -0.00742884  0.0215985  0.000899002  -0.0792378  -0.0165124  -0.0358639 
1699954817.848346000  0  0  11.4826  0.0814314  -0.0982442  0.00242806  nan  nan  nan  nan  nan  nan  -0.999171  -0.0071701  1.00072  0.000835441  -0.0292623  -0.0111564  0.0019701  -0.0008799  0.001668  0  0  0  0  0  0  0.0225492  0.00248473  -0.0144659  -0.012762  -0.00487208  0.00211484  -0.00725768  0.0207771  0.000695856  -0.0960922  0.00533875  -0.0373093 
1699954817.854337000  0  0  11.4117  0.0953076  -0.069332  0.00265958  nan  nan  nan  nan  nan  nan  -0.999161  -0.0071711  1.00073  -0.000660076  -0.0297384  -0.0111124  0.0019701  0.0004907  0.0016374  0  0  0  0  0  0  0.0226039  0.00229963  -0.0144519  -0.0125319  -0.00636644  0.00800767  -0.00673227  0.0205442  0.000444603  -0.128678  -0.0503428  -0.0376908 
1699954817.858385000  0  0  11.3786  0.0971016  -0.0721301  0.00218092  nan  nan  nan  nan  nan  nan  -0.999151  -0.0071652  1.00074  -0.00234028  -0.0300306  -0.0110617  0.0019701  0.0018626  0.0015898  0  0  0  0  0  0  0.0226613  0.00210064  -0.0144466  -0.0124232  -0.00804739  0.0107713  -0.00576736  0.0206514  0.000322636  -0.141144  -0.0457328  -0.0304879 
1699954817.864332000  0  0  11.5039  0.106572  -0.079676  0.00217775  nan  nan  nan  nan  nan  nan  -0.999141  -0.0071525  1.00074  -0.00270624  -0.0290537  -0.0110534  0.0019701  0.0032323  0.0015215  0  0  0  0  0  0  0.0225884  0.00205333  -0.014486  -0.0130976  -0.00843312  0.000406664  -0.00641056  0.0197225  0.000171234  -0.154166  -0.0220945  -0.0289342 
1699954817.868396000  0  0  11.4741  0.107754  -0.0645767  0.00191495  nan  nan  nan  nan  nan  nan  -0.999131  -0.0071329  1.00075  -0.00434816  -0.0294406  -0.011004  0.0019701  0.0045958  0.0014287  0  0  0  0  0  0  0.0226082  0.00188008  -0.0144615  -0.0127677  -0.0101353  0.0028544  -0.00547603  0.0197333  9.95032e-05  -0.165128  -0.052393  -0.0249319 
1699954817.873346000  0  0  11.3989  0.126406  -0.0588412  0.00209945  nan  nan  nan  nan  nan  nan  -0.999121  -0.0071065  1.00076  -0.00481292  -0.0286691  -0.010994  0.0019701  0.0059495  0.0013081  0  0  0  0  0  0  0.0225391  0.00182893  -0.0143958  -0.0138435  -0.0105601  0.0089773  -0.00618435  0.0186682  -3.71723e-05  -0.195916  -0.0540652  -0.0258713 
1699954817.878335000  0  0  11.508  0.114786  -0.0706339  0.00186744  nan  nan  nan  nan  nan  nan  -0.999112  -0.0070734  1.00076  -0.00613998  -0.0286272  -0.0109563  0.0019701  0.0072895  0.0011611  0  0  0  0  0  0  0.0225758  0.0016188  -0.0144601  -0.0136506  -0.0118504  3.06994e-05  -0.00562586  0.0186716  -0.000137063  -0.177814  -0.0305106  -0.0219724 
1699954817.883345000  0  0  11.5112  0.110825  -0.0627509  0.00194109  nan  nan  nan  nan  nan  nan  -0.999102  -0.0070336  1.00077  -0.00761598  -0.0291264  -0.0109102  0.0019701  0.0086123  0.0009912  0  0  0  0  0  0  0.0226063  0.0014338  -0.0144939  -0.0130907  -0.0133348  -0.000136155  -0.00501919  0.018793  -0.000271562  -0.175474  -0.0473943  -0.021548 
1699954817.888396000  0  0  11.4384  0.12931  -0.0596221  0.00213323  nan  nan  nan  nan  nan  nan  -0.999092  -0.0069873  1.00077  -0.00774579  -0.0284268  -0.0109118  0.0019701  0.0099139  0.0008024  0  0  0  0  0  0  0.0225353  0.00136954  -0.0144288  -0.014059  -0.0132831  0.00578641  -0.00612292  0.0178462  -0.000396743  -0.202288  -0.044941  -0.022698 
1699954817.893772000  0  0  11.5358  0.118229  -0.0706985  0.00328102  nan  nan  nan  nan  nan  nan  -0.999082  -0.0069346  1.00078  -0.00879126  -0.0283174  -0.0108831  0.0019701  0.0111906  0.0005983  0  0  0  0  0  0  0.0225326  0.00119266  -0.0144917  -0.0139012  -0.0143147  -0.00218779  -0.00594127  0.0177442  -0.000664244  -0.181798  -0.0218495  -0.0343703 
1699954817.898336000  0  0  11.5275  0.120508  -0.0665099  0.00330263  nan  nan  nan  nan  nan  nan  -0.999072  -0.0068755  1.00078  -0.00926334  -0.0283445  -0.0108695  0.0019701  0.0124388  0.0003827  0  0  0  0  0  0  0.0224726  0.00112017  -0.0144863  -0.0137657  -0.0147499  -0.00150942  -0.0062566  0.017586  -0.000807194  -0.183456  -0.0287714  -0.033211 
1699954817.903395000  0  0  11.4728  0.129382  -0.0812136  0.0027081  nan  nan  nan  nan  nan  nan  -0.999062  -0.0068102  1.00078  -0.0107248  -0.0284449  -0.010827  0.0019701  0.0136546  0.0001593  0  0  0  0  0  0  0.0225115  0.000873032  -0.0144852  -0.0139158  -0.0160056  0.00306008  -0.00596728  0.0178406  -0.00088749  -0.203865  -0.00170617  -0.0249763 
1699954817.908819000  0  0  11.5511  0.112994  -0.0891906  0.00381612  nan  nan  nan  nan  nan  nan  -0.999052  -0.006739  1.00078  -0.0118581  -0.0287604  -0.010791  0.0019701  0.0148343  -6.81e-05  0  0  0  0  0  0  0.022563  0.000659457  -0.0145913  -0.0133948  -0.0170845  -0.00322039  -0.00554617  0.0182774  -0.00115122  -0.174964  0.010229  -0.0361893 
1699954817.914335000  0  0  11.5294  0.126006  -0.0920636  0.00350539  nan  nan  nan  nan  nan  nan  -0.999043  -0.0066619  1.00078  -0.0122109  -0.0289073  -0.010779  0.0019701  0.0159741  -0.0002958  0  0  0  0  0  0  0.0224969  0.000570974  -0.0145877  -0.0131332  -0.0173123  -0.00141954  -0.00633791  0.0185005  -0.00128925  -0.193703  0.0139231  -0.0309249 
1699954817.918383000  0  0  11.4905  0.131889  -0.107424  0.00242439  nan  nan  nan  nan  nan  nan  -0.999033  -0.0065793  1.00078  -0.0133131  -0.0289199  -0.010747  0.0019701  0.0170704  -0.00052  0  0  0  0  0  0  0.0225426  0.000350951  -0.0146051  -0.0133581  -0.0181756  0.00186317  -0.00614383  0.0188718  -0.00126485  -0.207256  0.0412281  -0.0176564 
1699954817.923399000  0  0  11.5734  0.112525  -0.105914  0.00278592  nan  nan  nan  nan  nan  nan  -0.999023  -0.0064913  1.00077  -0.0131582  -0.0279926  -0.0107637  0.0019701  0.0181193  -0.000737  0  0  0  0  0  0  0.0224721  0.000261771  -0.014656  -0.0141265  -0.0178915  -0.00496037  -0.0067989  0.0182007  -0.00138887  -0.162501  0.0443813  -0.0209354 
1699954817.929329000  0  0  11.5888  0.110064  -0.102705  0.00210982  nan  nan  nan  nan  nan  nan  -0.999013  -0.0063982  1.00077  -0.0143956  -0.0290096  -0.0107144  0.0019701  0.019117  -0.000943  0  0  0  0  0  0  0.022517  2.61677e-05  -0.0147188  -0.0128858  -0.0189969  -0.00608169  -0.00643196  0.019245  -0.00141299  -0.160954  0.0283554  -0.0122429 
1699954817.933330000  0  0  11.5573  0.1208  -0.113836  0.00171823  nan  nan  nan  nan  nan  nan  -0.999003  -0.0063002  1.00077  -0.0143933  -0.0285299  -0.0107214  0.0019701  0.02006  -0.0011342  0  0  0  0  0  0  0.0224598  -6.6543e-05  -0.0147192  -0.0134754  -0.0187303  -0.00347753  -0.00725168  0.0191526  -0.0013963  -0.174885  0.0514691  -0.00751481 
1699954817.939323000  0  0  11.6094  0.0946683  -0.110488  0.0022921  nan  nan  nan  nan  nan  nan  -0.998993  -0.0061977  1.00076  -0.0149986  -0.0285903  -0.0107032  0.0019701  0.0209443  -0.001307  0  0  0  0  0  0  0.0225071  -0.000322675  -0.0148052  -0.0133466  -0.0190272  -0.00763041  -0.00700669  0.0193704  -0.00152403  -0.124875  0.0427694  -0.0134109 
1699954817.943376000  0  0  11.6059  0.104969  -0.105611  0.00298437  nan  nan  nan  nan  nan  nan  -0.998984  -0.0060909  1.00075  -0.0170834  -0.0300814  -0.0106181  0.0019701  0.0217663  -0.0014575  0  0  0  0  0  0  0.0226182  -0.000623704  -0.0148441  -0.0117098  -0.0210586  -0.00720211  -0.00573412  0.0207401  -0.00169397  -0.157184  0.0204124  -0.0203649 
1699954817.949343000  0  0  11.5786  0.0994569  -0.122696  0.00437825  nan  nan  nan  nan  nan  nan  -0.998974  -0.0059802  1.00074  -0.0174396  -0.0301134  -0.0106069  0.0019703  0.0225221  -0.0015821  0  0  0  0  0  0  0.0226666  -0.000876442  -0.0148761  -0.0118714  -0.0209026  -0.00486301  -0.00616273  0.0212394  -0.0019798  -0.142217  0.0499884  -0.0349301 
1699954817.953323000  0  0  11.594  0.0907738  -0.12024  0.00511684  nan  nan  nan  nan  nan  nan  -0.998964  -0.0058658  1.00074  -0.0171545  -0.029633  -0.0106237  0.0019731  0.0232082  -0.0016769  0  0  0  0  0  0  0.0226161  -0.000980721  -0.0149143  -0.0123232  -0.020328  -0.00608294  -0.00674116  0.0209311  -0.00219643  -0.119529  0.0479136  -0.0419962 
1699954817.958376000  0  0  11.5894  0.111728  -0.113322  0.00536665  nan  nan  nan  nan  nan  nan  -0.998954  -0.0057482  1.00073  -0.0182836  -0.0303911  -0.0105764  0.0019823  0.0238206  -0.0017383  0  0  0  0  0  0  0.0226863  -0.00125204  -0.0149317  -0.0115329  -0.021179  -0.00563485  -0.00668962  0.0216941  -0.00242454  -0.161911  0.0270576  -0.0428377 
1699954817.963318000  0  0  11.551  0.12683  -0.115743  0.00532961  nan  nan  nan  nan  nan  nan  -0.998944  -0.0056277  1.00072  -0.0175411  -0.0299232  -0.0106071  0.0020015  0.0243556  -0.0017624  0  0  0  0  0  0  0.0226268  -0.0013518  -0.0149311  -0.0121195  -0.0199199  -0.0024704  -0.00842769  0.0214448  -0.00258694  -0.176125  0.034193  -0.0407508 
1699954817.969333000  0  0  11.5823  0.106412  -0.11485  0.00533196  nan  nan  nan  nan  nan  nan  -0.998934  -0.0055048  1.00071  -0.0176591  -0.0300281  -0.0106018  0.0020346  0.0248096  -0.0017455  0  0  0  0  0  0  0.0226738  -0.0015937  -0.0149841  -0.0119869  -0.0195977  -0.00497076  -0.00870979  0.0216779  -0.00280107  -0.132693  0.0302634  -0.0386388 
1699954817.973315000  0  0  11.5854  0.123867  -0.101056  0.00431395  nan  nan  nan  nan  nan  nan  -0.998924  -0.0053798  1.0007  -0.017533  -0.0296094  -0.0106129  0.0020853  0.0251787  -0.0016839  0  0  0  0  0  0  0.0226237  -0.00169941  -0.0150022  -0.0124025  -0.0192013  -0.00520542  -0.00967029  0.0211088  -0.00279312  -0.158767  0.00791054  -0.0259932 
1699954817.979333000  0  0  11.536  0.137756  -0.0929659  0.00319019  nan  nan  nan  nan  nan  nan  -0.998913  -0.0052531  1.00069  -0.0171711  -0.0298767  -0.010619  0.0021573  0.0254592  -0.0015738  0  0  0  0  0  0  0.0226665  -0.00190285  -0.0150231  -0.012311  -0.0181916  -0.00106154  -0.0111478  0.0211481  -0.00271333  -0.172953  -0.00863114  -0.0127442 
1699954817.983319000  0  0  11.5719  0.124556  -0.0985625  0.00328073  nan  nan  nan  nan  nan  nan  -0.998902  -0.0051253  1.00069  -0.017623  -0.0303817  -0.0105966  0.0022544  0.0256473  -0.0014115  0  0  0  0  0  0  0.0227625  -0.0021808  -0.0150582  -0.0117626  -0.0182309  -0.00395949  -0.0110358  0.0216375  -0.00276319  -0.147582  -0.0019404  -0.0133773 
1699954817.989335000  0  0  11.6084  0.150171  -0.0820424  0.00318381  nan  nan  nan  nan  nan  nan  -0.99889  -0.0049968  1.00068  -0.0169235  -0.0298354  -0.0106271  0.0023803  0.0257393  -0.0011932  0  0  0  0  0  0  0.0226946  -0.0022673  -0.0151091  -0.0121838  -0.0172031  -0.00693275  -0.0130375  0.0207741  -0.00279628  -0.180397  -0.0270366  -0.0118348 
1699954817.993315000  0  0  11.5795  0.152651  -0.0763843  0.00287437  nan  nan  nan  nan  nan  nan  -0.998878  -0.0048681  1.00067  -0.0168365  -0.0299746  -0.0106274  0.0025388  0.0257315  -0.0009152  0  0  0  0  0  0  0.0227459  -0.00250356  -0.0150812  -0.0122125  -0.0165128  -0.00458541  -0.0137813  0.0206603  -0.00277688  -0.178514  -0.0373063  -0.00816076 
1699954817.998367000  0  0  11.621  0.157612  -0.0809336  0.00326778  nan  nan  nan  nan  nan  nan  -0.998865  -0.0047397  1.00067  -0.0157054  -0.0290251  -0.0106762  0.0027337  0.0256201  -0.0005737  0  0  0  0  0  0  0.0226809  -0.00258278  -0.0151356  -0.0131408  -0.0149443  -0.00798544  -0.0157114  0.0197269  -0.00284145  -0.17068  -0.0196204  -0.0124328 
1699954818.003367000  0  0  11.6558  0.156849  -0.0767308  0.00355455  nan  nan  nan  nan  nan  nan  -0.998851  -0.0046121  1.00067  -0.0160797  -0.0295173  -0.0106574  0.0029687  0.0254013  -0.0001649  0  0  0  0  0  0  0.022719  -0.00282077  -0.0151537  -0.012481  -0.0149685  -0.01084  -0.0160422  0.0200485  -0.00288475  -0.16611  -0.0309842  -0.0155844 
1699954818.009332000  0  0  11.6201  0.162288  -0.0679159  0.00441956  nan  nan  nan  nan  nan  nan  -0.998835  -0.0044858  1.00067  -0.0140304  -0.0287707  -0.0107284  0.0032475  0.0250714  0.0003148  0  0  0  0  0  0  0.0226431  -0.00287179  -0.0151743  -0.0133635  -0.0121366  -0.00789943  -0.0188716  0.0189849  -0.00306443  -0.150958  -0.038829  -0.0246003 
1699954818.013317000  0  0  11.6555  0.166159  -0.077949  0.00442511  nan  nan  nan  nan  nan  nan  -0.998818  -0.0043615  1.00067  -0.0140743  -0.0283965  -0.0107324  0.0035738  0.0246267  0.0008692  0  0  0  0  0  0  0.0226962  -0.00312426  -0.0152126  -0.0138538  -0.011684  -0.0107895  -0.0194588  0.0187479  -0.0031448  -0.153296  -0.0165827  -0.0238658 
1699954818.018316000  0  0  11.696  0.162595  -0.0762696  0.0047951  nan  nan  nan  nan  nan  nan  -0.998799  -0.0042398  1.00068  -0.0137555  -0.0286605  -0.0107378  0.0039516  0.0240634  0.0015022  0  0  0  0  0  0  0.0227201  -0.00331067  -0.0152777  -0.0134316  -0.0109243  -0.0140419  -0.0203227  0.0188949  -0.00327445  -0.13822  -0.021294  -0.0271943 
1699954818.023367000  0  0  11.6743  0.166428  -0.0786741  0.00456421  nan  nan  nan  nan  nan  nan  -0.998779  -0.0041211  1.00069  -0.0118633  -0.0281573  -0.010798  0.0043844  0.0233777  0.0022173  0  0  0  0  0  0  0.0226539  -0.00335608  -0.0153208  -0.0139783  -0.00833021  -0.0122166  -0.0226994  0.0183355  -0.00333984  -0.124022  -0.011338  -0.0236542 
1699954818.029332000  0  0  11.6999  0.167291  -0.0932845  0.00397625  nan  nan  nan  nan  nan  nan  -0.998755  -0.0040062  1.0007  -0.0110947  -0.0272365  -0.0108298  0.004876  0.0225659  0.0030185  0  0  0  0  0  0  0.0226401  -0.00353786  -0.015369  -0.0150534  -0.00694996  -0.014306  -0.0239852  0.0178566  -0.00334237  -0.113919  0.0222886  -0.0162794 
1699954818.033316000  0  0  11.7228  0.156246  -0.0805214  0.00462401  nan  nan  nan  nan  nan  nan  -0.99873  -0.0038957  1.00072  -0.0110009  -0.0276924  -0.0108274  0.0054303  0.0216242  0.0039094  0  0  0  0  0  0  0.0226923  -0.0037482  -0.015444  -0.0145047  -0.00639581  -0.0160569  -0.0242933  0.0180055  -0.00349635  -0.0889947  -0.00460805  -0.0228365 
1699954818.038316000  0  0  11.6821  0.159785  -0.0758711  0.0040054  nan  nan  nan  nan  nan  nan  -0.998701  -0.0037902  1.00074  -0.00878029  -0.0271481  -0.0108937  0.0060509  0.020549  0.0048937  0  0  0  0  0  0  0.0226201  -0.0037702  -0.0154838  -0.0151426  -0.00340765  -0.0126666  -0.0267358  0.017336  -0.00348573  -0.0736008  -0.00774886  -0.0152101 
1699954818.043366000  0  0  11.724  0.155124  -0.104138  0.00322395  nan  nan  nan  nan  nan  nan  -0.998669  -0.0036904  1.00077  -0.00779024  -0.0261432  -0.0109284  0.0067415  0.0193364  0.0059753  0  0  0  0  0  0  0.0226483  -0.00393945  -0.0155809  -0.0163735  -0.00177074  -0.016015  -0.0278743  0.01698  -0.00345775  -0.0538046  0.0520603  -0.00572185 
1699954818.049333000  0  0  11.7487  0.145906  -0.0741626  0.0036129  nan  nan  nan  nan  nan  nan  -0.998633  -0.0035971  1.0008  -0.00571686  -0.0254173  -0.0109867  0.0075047  0.0179827  0.0071579  0  0  0  0  0  0  0.0225608  -0.00392837  -0.0156784  -0.0170243  0.000898421  -0.0179392  -0.0297658  0.0158991  -0.00351647  -0.0179671  0.00205323  -0.00999662 
1699954818.053317000  0  0  11.7353  0.152672  -0.0805292  0.00361084  nan  nan  nan  nan  nan  nan  -0.998594  -0.0035108  1.00084  -0.0049194  -0.0254024  -0.011007  0.0083378  0.0164841  0.0084452  0  0  0  0  0  0  0.022593  -0.00410973  -0.0157034  -0.0171406  0.00235005  -0.0168035  -0.0307728  0.0160076  -0.00355305  -0.0222346  0.0137883  -0.00960505 
1699954818.058366000  0  0  11.7753  0.150577  -0.108173  0.00509277  nan  nan  nan  nan  nan  nan  -0.99855  -0.0034325  1.00088  -0.00335833  -0.0243334  -0.0110503  0.009237  0.0148369  0.009841  0  0  0  0  0  0  0.0225502  -0.00420689  -0.0157544  -0.0183079  0.00460016  -0.0201094  -0.0322768  0.0157092  -0.00378156  -0.00420706  0.0718214  -0.0258441 
1699954818.063318000  0  0  11.8046  0.137782  -0.0807075  0.00674627  nan  nan  nan  nan  nan  nan  -0.998501  -0.0033627  1.00094  -0.00100784  -0.0232884  -0.0111085  0.0101986  0.0130374  0.011349  0  0  0  0  0  0  0.022458  -0.00417921  -0.0158692  -0.0193596  0.00762489  -0.02238  -0.034101  0.014456  -0.00411374  0.0381655  0.0284196  -0.043191 
1699954818.069333000  0  0  11.7666  0.154346  -0.0840985  0.00685903  nan  nan  nan  nan  nan  nan  -0.998448  -0.0033023  1.001  0.000288105  -0.0234925  -0.0111388  0.0112189  0.0110818  0.012973  0  0  0  0  0  0  0.0224739  -0.00433372  -0.015883  -0.0192057  0.00966508  -0.0192379  -0.0354438  0.0148492  -0.0043235  0.0173909  0.0315849  -0.0425028 
1699954818.073366000  0  0  11.8153  0.155556  -0.109406  0.00725769  nan  nan  nan  nan  nan  nan  -0.998389  -0.0032522  1.00107  0.00312926  -0.0217431  -0.0112  0.012294  0.0089663  0.0147168  0  0  0  0  0  0  0.0223765  -0.00429461  -0.0160013  -0.0211157  0.0133349  -0.023164  -0.0379915  0.0139121  -0.00453444  0.0384103  0.090821  -0.0453766 
1699954818.078315000  0  0  11.8331  0.132679  -0.0781879  0.00726625  nan  nan  nan  nan  nan  nan  -0.998325  -0.003213  1.00115  0.00481573  -0.0209755  -0.011233  0.0134203  0.0066872  0.016584  0  0  0  0  0  0  0.0223166  -0.00433591  -0.0160625  -0.0219241  0.0156619  -0.0245439  -0.0387358  0.0129963  -0.00469551  0.091012  0.0368099  -0.043873 
1699954818.083369000  0  0  11.7872  0.157673  -0.0704288  0.00602096  nan  nan  nan  nan  nan  nan  -0.998255  -0.0031856  1.00123  0.00663506  -0.0204143  -0.0112674  0.0145941  0.0042408  0.0185784  0  0  0  0  0  0  0.0222591  -0.00438035  -0.0160524  -0.0226106  0.0181297  -0.0207991  -0.0404424  0.0124905  -0.00468276  0.0567245  0.0259454  -0.0284343 
1699954818.089331000  0  0  11.8174  0.161347  -0.0903118  0.00499728  nan  nan  nan  nan  nan  nan  -0.998179  -0.0031708  1.00133  0.010171  -0.0187144  -0.0113223  0.0158114  0.0016233  0.0207039  0  0  0  0  0  0  0.0221311  -0.00425473  -0.016181  -0.0244353  0.0225439  -0.0231691  -0.0434369  0.0115856  -0.00468265  0.0769249  0.0740365  -0.0156394 
1699954818.093316000  0  0  11.8353  0.153194  -0.0776208  0.004977  nan  nan  nan  nan  nan  nan  -0.998097  -0.0031696  1.00144  0.0116  -0.0182771  -0.011344  0.0170687  -0.0011691  0.022964  0  0  0  0  0  0  0.0221082  -0.00434862  -0.0162159  -0.0249007  0.0246597  -0.0246083  -0.0442039  0.0112722  -0.00467994  0.100287  0.051537  -0.015413 
1699954818.098367000  0  0  11.8136  0.191893  -0.0698624  0.00375423  nan  nan  nan  nan  nan  nan  -0.998008  -0.0031828  1.00156  0.0148762  -0.017149  -0.0113871  0.0183621  -0.0041401  0.0253627  0  0  0  0  0  0  0.0219818  -0.00421612  -0.0163126  -0.0260942  0.0286606  -0.0227147  -0.0475139  0.0102886  -0.00457438  0.0533419  0.0450702  -0.00118409 
1699954818.103369000  0  0  11.8528  0.188443  -0.0975397  0.00394145  nan  nan  nan  nan  nan  nan  -0.997913  -0.0032113  1.00169  0.0177554  -0.0159573  -0.0114153  0.0196879  -0.0072916  0.0279036  0  0  0  0  0  0  0.0219243  -0.00421187  -0.0163882  -0.0274164  0.0325304  -0.0258999  -0.0497248  0.0101106  -0.00458263  0.0805818  0.102062  -0.0034418 
1699954818.109331000  0  0  11.8895  0.176334  -0.0926191  0.00542996  nan  nan  nan  nan  nan  nan  -0.997811  -0.003256  1.00184  0.0197768  -0.0153076  -0.0114348  0.0210424  -0.0106205  0.0305904  0  0  0  0  0  0  0.0218707  -0.00420813  -0.0164609  -0.0280593  0.0352778  -0.0288371  -0.0507369  0.0100385  -0.00479567  0.114112  0.092884  -0.0199178 
1699954818.113316000  0  0  11.8896  0.199143  -0.0814465  0.00626591  nan  nan  nan  nan  nan  nan  -0.997703  -0.0033178  1.002  0.0234513  -0.014214  -0.0114654  0.0224217  -0.0141232  0.033427  0  0  0  0  0  0  0.0217382  -0.00404565  -0.0165901  -0.0291527  0.0397974  -0.0286766  -0.0541201  0.00911436  -0.00497317  0.0996181  0.0790409  -0.0285922 
1699954818.118367000  0  0  11.8849  0.1934  -0.0956533  0.00654823  nan  nan  nan  nan  nan  nan  -0.997587  -0.0033976  1.00217  0.0262791  -0.0135179  -0.0114873  0.0238222  -0.0177958  0.0364171  0  0  0  0  0  0  0.0216764  -0.00401415  -0.0166379  -0.0298985  0.0434676  -0.0282367  -0.056041  0.00918735  -0.00511852  0.128778  0.106783  -0.0306677 
1699954818.123372000  0  0  11.9673  0.180449  -0.0932851  0.00719237  nan  nan  nan  nan  nan  nan  -0.997464  -0.0034961  1.00236  0.0297474  -0.0118646  -0.011485  0.0252401  -0.0216346  0.0395644  0  0  0  0  0  0  0.0215208  -0.0037905  -0.016829  -0.0315739  0.0478571  -0.0347492  -0.0582652  0.00812026  -0.00539248  0.175143  0.111864  -0.0359797 
1699954818.128366000  0  0  11.9697  0.184145  -0.0807255  0.00704093  nan  nan  nan  nan  nan  nan  -0.997335  -0.0036142  1.00257  0.0314841  -0.0121147  -0.0115135  0.0266717  -0.0256359  0.0428717  0  0  0  0  0  0  0.0215242  -0.00381769  -0.016883  -0.0312173  0.0502358  -0.0348325  -0.059078  0.00858027  -0.0055042  0.175227  0.0825125  -0.0329696 
1699954818.133315000  0  0  11.9577  0.186275  -0.0968672  0.00591173  nan  nan  nan  nan  nan  nan  -0.997198  -0.0037527  1.00279  0.0338243  -0.0119956  -0.0115379  0.0281131  -0.029796  0.0463367  0  0  0  0  0  0  0.0215251  -0.00383847  -0.0169292  -0.031357  0.0533583  -0.0337468  -0.0604038  0.00919031  -0.00548039  0.183165  0.109183  -0.0190927 
