ts x y z roll pitch yaw vx vy vz wx wy wz ax ay az dwx dwy dwz jx jy jz ddwx ddwy ddwz
1704467688.740665000  -2.5  -0.3  1  0  0  0  -2e-07  2e-07  -2e-07  0  0  0  -0.000125  0.000125  -0.000125  0  0  0  0  0  0  0  0  0 
1704467688.745633000  -2.5  -0.3  1  0  0  0  -1.7e-06  1.7e-06  -1.7e-06  0  0  0  -0.0005  0.0005  -0.0005  0  0  0  0  0  0  0  0  0 
1704467688.750630000  -2.5  -0.3  1  0  0  0  -5.6e-06  5.6e-06  -5.6e-06  0  0  0  -0.001125  0.001125  -0.001125  0  0  0  0  0  0  0  0  0 
1704467688.755637000  -2.5  -0.3  1  0  0  1e-07  -1.33e-05  1.33e-05  -1.33e-05  0  0  0  -0.002  0.002  -0.002  0  0  0  0  0  0  0  0  0 
1704467688.760632000  -2.5  -0.3  1  0  0  3e-07  -2.6e-05  2.6e-05  -2.6e-05  0  0  0  -0.003125  0.003125  -0.003125  0  0  0  0  0  0  0  0  0 
1704467688.765635000  -2.5  -0.3  1  0  0  5e-07  -4.5e-05  4.5e-05  -4.5e-05  0  0  0  -0.0045  0.0045  -0.0045  0  0  0  0  0  0  0  0  0 
1704467688.770631000  -2.5  -0.299999  0.999999  0  0  1e-06  -7.15e-05  7.15e-05  -7.15e-05  0  0  0  -0.0061191  0.006125  -0.006125  0  0  0  0  0  0  0  0  0 
1704467688.775631000  -2.5  -0.299999  0.999999  0  0  1.7e-06  -0.000106  0.0001067  -0.0001067  0  0  0  -0.0076674  0.008  -0.008  0  0  0  0  0  0  0  0  0 
1704467688.780632000  -2.5  -0.299998  0.999998  0  0  2.7e-06  -0.0001477  0.0001519  -0.0001519  0  0  0  -0.0089656  0.010125  -0.010125  0  0  0  0  0  0  0  0  0 
1704467688.785639000  -2.5  -0.299997  0.999997  0  0  4.2e-06  -0.0001953  0.0002083  -0.0002083  0  0  0  -0.0100139  0.0125  -0.0125  0  0  0  0  0  0  0  0  0 
1704467688.790652000  -2.5  -0.299996  0.999996  0  0  6.1e-06  -0.0002474  0.0002773  -0.0002773  0  0  0  -0.0108122  0.015125  -0.015125  0  0  0  0  0  0  0  0  0 
1704467688.795636000  -2.50001  -0.299995  0.999995  0  0  8.6e-06  -0.000303  0.00036  -0.00036  0  0  0  -0.0113604  0.018  -0.018  0  0  0  0  0  0  0  0  0 
1704467688.800633000  -2.50001  -0.299993  0.999993  0  0  1.19e-05  -0.0003606  0.0004577  -0.0004577  0  0  0  -0.0116587  0.021125  -0.021125  0  0  0  0  0  0  0  0  0 
1704467688.805646000  -2.50001  -0.29999  0.99999  0  0  1.6e-05  -0.0004191  0.0005717  -0.0005717  0  0  0  -0.011707  0.0245  -0.0245  0  0  0  0  0  0  0  0  0 
1704467688.810647000  -2.50001  -0.299987  0.999987  0  0  2.11e-05  -0.0004773  0.0007031  -0.0007031  0  0  0  -0.0115052  0.028125  -0.028125  0  0  0  0  0  0  0  0  0 
1704467688.815644000  -2.50001  -0.299983  0.999983  0  0  2.73e-05  -0.0005338  0.0008533  -0.0008533  0  0  0  -0.0110535  0.032  -0.032  0  0  0  0  0  0  0  0  0 
1704467688.820645000  -2.50002  -0.299978  0.999978  0  0  3.48e-05  -0.0005874  0.0010235  -0.0010235  0  0  0  -0.0103518  0.036125  -0.036125  0  0  0  0  0  0  0  0  0 
1704467688.825647000  -2.50002  -0.299973  0.999973  0  0  4.37e-05  -0.0006369  0.001215  -0.001215  0  0  0  -0.0094  0.0405  -0.0405  0  0  0  0  0  0  0  0  0 
1704467688.830656000  -2.50002  -0.299966  0.999966  0  0  5.43e-05  -0.000681  0.001429  -0.001429  0  0  0  -0.0081983  0.045125  -0.045125  0  0  0  0  0  0  0  0  0 
1704467688.835638000  -2.50003  -0.299958  0.999958  0  0  6.66e-05  -0.0007184  0.0016667  -0.0016667  0  0  0  -0.0067466  0.05  -0.05  0  0  0  0  0  0  0  0  0 
1704467688.840638000  -2.50003  -0.299949  0.999949  0  0  8.1e-05  -0.0007481  0.0019294  -0.0019294  0  0  0  -0.0050978  0.055125  -0.055125  0  0  0  0  0  0  0  0  0 
1704467688.845636000  -2.50003  -0.299939  0.999939  0  0  9.74e-05  -0.0007698  0.0022183  -0.0022183  0  0  0  -0.0036263  0.0605  -0.0605  0  0  0  0  0  0  0  0  0 
1704467688.850636000  -2.50004  -0.299927  0.999927  0  0  0.000116  -0.0007847  0.0025347  -0.0025348  0  0  0  -0.0024048  0.0660084  -0.066125  0  0  0  0  0  0  0  0  0 
1704467688.855645000  -2.50004  -0.299914  0.999914  0  0  0.0001371  -0.0007942  0.002878  -0.00288  0  0  0  -0.0014332  0.0712918  -0.072  0  0  0  0  0  0  0  0  0 
1704467688.860634000  -2.50005  -0.299898  0.999898  0  0  0.0001606  -0.0007995  0.0032472  -0.0032552  0  0  0  -0.0007117  0.0763253  -0.078125  0  0  0  0  0  0  0  0  0 
1704467688.865641000  -2.50005  -0.299881  0.999881  0  0  0.0001868  -0.0008018  0.0036409  -0.0036617  0  0  0  -0.0002402  0.0811088  -0.0845  0  0  0  0  0  0  0  0  0 
1704467688.870644000  -2.50005  -0.299862  0.999862  0  0  0.0002157  -0.0008023  0.0040578  -0.0041006  0  0  0  -1.86e-05  0.0856423  -0.091125  0  0  0  0  0  0  0  0  0 
1704467688.875635000  -2.50006  -0.29984  0.99984  0  0  0.0002474  -0.0008023  0.0044969  -0.0045733  0  0  0  0  0.0899258  -0.0979992  0  0  0  0  0  0  0  0  0 
1704467688.880639000  -2.50006  -0.299817  0.999816  0  0  0.000282  -0.0008023  0.0049567  -0.0050805  0  0  0  0  0.0939593  -0.104845  0  0  0  0  0  0  0  0  0 
1704467688.885635000  -2.50007  -0.299791  0.999789  0  0  0.0003195  -0.0008023  0.005436  -0.0056214  0  0  0  0  0.0977427  -0.111441  0  0  0  0  0  0  0  0  0 
1704467688.890641000  -2.50007  -0.299762  0.99976  0  0  0.0003601  -0.0008023  0.0059337  -0.0061945  0  0  0  0  0.101276  -0.117787  0  0  0  0  0  0  0  0  0 
1704467688.895648000  -2.50007  -0.299732  0.999727  0  0  0.0004038  -0.0008023  0.0064484  -0.0067988  0  0  0  0  0.10456  -0.123883  0  0  0  0  0  0  0  0  0 
1704467688.900638000  -2.50008  -0.299698  0.999692  0  0  0.0004506  -0.0008023  0.0069789  -0.007433  0  0  0  0  0.107593  -0.129729  0  0  0  0  0  0  0  0  0 
1704467688.905634000  -2.50008  -0.299662  0.999653  0  0  0.0005006  -0.0008023  0.0075239  -0.0080957  0  0  0  0  0.110377  -0.135326  0  0  0  0  0  0  0  0  0 
1704467688.910637000  -2.50009  -0.299623  0.999611  0  0  0.0005537  -0.0008023  0.0080822  -0.0087858  0  0  0  0  0.11291  -0.140672  0  0  0  0  0  0  0  0  0 
1704467688.915641000  -2.50009  -0.299581  0.999565  0  0  0.0006101  -0.0008023  0.0086526  -0.009502  0  0  0  0  0.115194  -0.145768  0  0  0  0  0  0  0  0  0 
1704467688.920650000  -2.50009  -0.299536  0.999515  0  0  0.0006696  -0.0008023  0.0092337  -0.0102431  0  0  0  0  0.117227  -0.150614  0  0  0  0  0  0  0  0  0 
1704467688.925645000  -2.5001  -0.299489  0.999462  0  0  0.0007323  -0.0008023  0.0098244  -0.0110077  0  0  0  0  0.119011  -0.15521  0  0  0  0  0  0  0  0  0 
1704467688.930644000  -2.5001  -0.299438  0.999405  0  0  0.0007982  -0.0008023  0.0104234  -0.0117947  0  0  0  0  0.120544  -0.159556  0  0  0  0  0  0  0  0  0 
1704467688.935640000  -2.50011  -0.299384  0.999344  0  0  0.0008673  -0.0008023  0.0110295  -0.0126029  0  0  0  0  0.121828  -0.163652  0  0  0  0  0  0  0  0  0 
1704467688.940639000  -2.50011  -0.299328  0.999279  0  0  0.0009394  -0.0008023  0.0116413  -0.0134308  0  0  0  0  0.122861  -0.167498  0  0  0  0  0  0  0  0  0 
1704467688.945648000  -2.50011  -0.299268  0.99921  0  0  0.0010147  -0.0008023  0.0122577  -0.0142774  0  0  0  0  0.123645  -0.171094  0  0  0  0  0  0  0  0  0 
1704467688.950648000  -2.50012  -0.299205  0.999136  0  0  0.0010929  -0.0008023  0.0128773  -0.0151414  0  0  0  0  0.124178  -0.17444  0  0  0  0  0  0  0  0  0 
1704467688.955641000  -2.50012  -0.299139  0.999059  0  0  0.001174  -0.0008023  0.013499  -0.0160214  0  0  0  0  0.124461  -0.177536  0  0  0  0  0  0  0  0  0 
1704467688.960639000  -2.50013  -0.29907  0.998976  0  0  0.001258  -0.0008023  0.0141215  -0.0169163  0  0  0  0  0.124495  -0.180382  0  0  0  0  0  0  0  0  0 
1704467688.965643000  -2.50013  -0.298998  0.998889  0  0  0.0013448  -0.0008023  0.0147435  -0.0178248  0  0  0  0  0.124278  -0.182978  0  0  0  0  0  0  0  0  0 
1704467688.970634000  -2.50013  -0.298923  0.998798  0  0  0.0014343  -0.0008023  0.0153639  -0.0187457  0  0  0  0  0.123812  -0.185324  0  0  0  0  0  0  0  0  0 
1704467688.975638000  -2.50014  -0.298844  0.998702  0  0  0.0015263  -0.0008023  0.0159812  -0.0196776  0  0  0  0  0.123095  -0.18742  0  0  0  0  0  0  0  0  0 
1704467688.980635000  -2.50014  -0.298763  0.998601  0  0  0.0016208  -0.0008023  0.0165944  -0.0206195  0  0  0  0  0.122129  -0.189266  0  0  0  0  0  0  0  0  0 
1704467688.985644000  -2.50015  -0.298678  0.998496  0  0  0.0017176  -0.0008023  0.0172021  -0.0215699  0  0  0  0  0.120912  -0.190862  0  0  0  0  0  0  0  0  0 
1704467688.990634000  -2.50015  -0.298591  0.998385  0  0  0.0018165  -0.0008023  0.0178031  -0.0225277  0  0  0  0  0.119446  -0.192208  0  0  0  0  0  0  0  0  0 
1704467688.995655000  -2.50015  -0.2985  0.99827  0  0  0.0019176  -0.0008023  0.0183962  -0.0234916  0  0  0  0  0.117729  -0.193305  0  0  0  0  0  0  0  0  0 
1704467689.000646000  -2.50016  -0.298407  0.998151  0  0  0.0020205  -0.0008023  0.01898  -0.0244603  0  0  0  0  0.115763  -0.194151  0  0  0  0  0  0  0  0  0 
1704467689.005656000  -2.50016  -0.29831  0.998026  0  0  0.0021251  -0.0008023  0.0195534  -0.0254326  0  0  0  0  0.113546  -0.194747  0  0  0  0  0  0  0  0  0 
1704467689.010649000  -2.50017  -0.298211  0.997896  0  0  0.0022312  -0.0008023  0.020115  -0.0264073  0  0  0  0  0.11108  -0.195093  0  0  0  0  0  0  0  0  0 
1704467689.015639000  -2.50017  -0.298109  0.997762  0  0  0.0023387  -0.0008023  0.0206638  -0.0273832  0  0  0  0  0.108363  -0.195189  0  0  0  0  0  0  0  0  0 
1704467689.020646000  -2.50017  -0.298005  0.997622  0  0  0.0024475  -0.0008023  0.0211983  -0.0283588  0  0  0  0  0.105397  -0.195035  0  0  0  0  0  0  0  0  0 
1704467689.025640000  -2.50018  -0.297897  0.997478  0  0  0.0025572  -0.0008023  0.0217173  -0.0293331  0  0  0  0  0.10218  -0.194631  0  0  0  0  0  0  0  0  0 
1704467689.030639000  -2.50018  -0.297788  0.997329  0  0  0.0026679  -0.0008023  0.0222196  -0.0303047  0  0  0  0  0.0987137  -0.193977  0  0  0  0  0  0  0  0  0 
1704467689.035642000  -2.50019  -0.297675  0.997175  0  0  0.0027794  -0.0008023  0.022704  -0.0312724  0  0  0  0  0.0949972  -0.193073  0  0  0  0  0  0  0  0  0 
1704467689.040642000  -2.50019  -0.297561  0.997016  0  0  0.0028916  -0.0008023  0.0231692  -0.032235  0  0  0  0  0.0910307  -0.191919  0  0  0  0  0  0  0  0  0 
1704467689.045635000  -2.50019  -0.297444  0.996853  0  0  0.0030043  -0.0008023  0.0236139  -0.0331912  0  0  0  0  0.0868142  -0.190515  0  0  0  0  0  0  0  0  0 
1704467689.050648000  -2.5002  -0.297324  0.996684  0  0  0.0031174  -0.0008023  0.0240369  -0.0341398  0  0  0  0  0.0823476  -0.188861  0  0  0  0  0  0  0  0  0 
1704467689.055646000  -2.5002  -0.297203  0.996511  0  0  0.0032309  -0.0008023  0.024437  -0.0350794  0  0  0  0  0.0776311  -0.186957  0  0  0  0  0  0  0  0  0 
1704467689.060647000  -2.50021  -0.29708  0.996334  0  0  0.0033448  -0.0008023  0.0248128  -0.0360089  0  0  0  0  0.0726646  -0.184803  0  0  0  0  0  0  0  0  0 
1704467689.065640000  -2.50021  -0.296955  0.996151  0  0  0.0034588  -0.0008023  0.0251632  -0.036927  0  0  0  0  0.0674481  -0.182399  0  0  0  0  0  0  0  0  0 
1704467689.070656000  -2.50021  -0.296829  0.995964  0  0  0.003573  -0.0008023  0.0254869  -0.0378325  0  0  0  0  0.0619822  -0.179745  0  0  0  0  0  0  0  0  0 
1704467689.075654000  -2.50022  -0.2967  0.995773  0  0  0.0036872  -0.0008023  0.0257831  -0.0387241  0  0  0  0  0.0565402  -0.176841  0  0  0  0  0  0  0  0  0 
1704467689.080633000  -2.50022  -0.296571  0.995577  0  0  0.0038016  -0.0008023  0.0260527  -0.0396005  0  0  0  0  0.0513482  -0.173687  0  0  0  0  0  0  0  0  0 
1704467689.085633000  -2.50023  -0.29644  0.995377  0  0  0.003916  -0.0008023  0.026297  -0.0404605  0  0  0  0  0.0464063  -0.170284  0  0  0  0  0  0  0  0  0 
1704467689.090651000  -2.50023  -0.296308  0.995173  0  0  0.0040304  -0.0008023  0.0265172  -0.0413029  0  0  0  0  0.0417143  -0.16663  0  0  0  0  0  0  0  0  0 
1704467689.095645000  -2.50023  -0.296175  0.994964  0  0  0.0041447  -0.0008023  0.0267145  -0.0421264  0  0  0  0  0.0372724  -0.162726  0  0  0  0  0  0  0  0  0 
1704467689.100634000  -2.50024  -0.296041  0.994751  0  0  0.0042591  -0.0008023  0.0268903  -0.0429297  0  0  0  0  0.0330804  -0.158572  0  0  0  0  0  0  0  0  0 
1704467689.105647000  -2.50024  -0.295906  0.994535  0  0  0.0043735  -0.0008023  0.0270458  -0.0437117  0  0  0  0  0.0291384  -0.154168  0  0  0  0  0  0  0  0  0 
1704467689.110636000  -2.50025  -0.29577  0.994314  0  0  0.0044879  -0.0008023  0.0271821  -0.044471  0  0  0  0  0.0254465  -0.149514  0  0  0  0  0  0  0  0  0 
1704467689.115638000  -2.50025  -0.295634  0.99409  0  0  0.0046023  -0.0008023  0.0273006  -0.0452064  0  0  0  0  0.0220045  -0.14461  0  0  0  0  0  0  0  0  0 
1704467689.120652000  -2.50025  -0.295497  0.993862  0  0  0.0047167  -0.0008023  0.0274026  -0.0459167  0  0  0  0  0.0188125  -0.139456  0  0  0  0  0  0  0  0  0 
1704467689.125649000  -2.50026  -0.29536  0.993631  0  0  0.0048311  -0.0008023  0.0274892  -0.0466006  0  0  0  0  0.0158706  -0.134052  0  0  0  0  0  0  0  0  0 
1704467689.130640000  -2.50026  -0.295222  0.993396  0  0  0.0049455  -0.0008023  0.0275617  -0.0472568  0  0  0  0  0.0131786  -0.128398  0  0  0  0  0  0  0  0  0 
1704467689.135649000  -2.50027  -0.295084  0.993158  0  0  0.0050599  -0.0008023  0.0276214  -0.0478841  0  0  0  0  0.0107366  -0.122494  0  0  0  0  0  0  0  0  0 
1704467689.140660000  -2.50027  -0.294946  0.992918  0  0  0.0051743  -0.0008023  0.0276695  -0.0484813  0  0  0  0  0.0085447  -0.11634  0  0  0  0  0  0  0  0  0 
1704467689.145649000  -2.50027  -0.294808  0.992674  0  0  0.0052887  -0.0008023  0.0277073  -0.0490471  0  0  0  0  0.0066027  -0.109936  0  0  0  0  0  0  0  0  0 
1704467689.150658000  -2.50028  -0.294669  0.992427  0  0  0.0054031  -0.0008023  0.0277359  -0.0495803  0  0  0  0  0.0049108  -0.103282  0  0  0  0  0  0  0  0  0 
1704467689.155635000  -2.50028  -0.29453  0.992178  0  0  0.0055175  -0.0008023  0.0277568  -0.0500795  0  0  0  0  0.0034688  -0.0963859  0  0  0  0  0  0  0  0  0 
1704467689.160646000  -2.50029  -0.294392  0.991926  0  0  0.0056318  -0.0008023  0.027771  -0.0505443  0  0  0  0  0.0022768  -0.0895688  0  0  0  0  0  0  0  0  0 
1704467689.165636000  -2.50029  -0.294253  0.991673  0  0  0.0057462  -0.0008023  0.02778  -0.0509756  0  0  0  0  0.0013349  -0.0830017  0  0  0  0  0  0  0  0  0 
1704467689.170647000  -2.50029  -0.294114  0.991417  0  0  0.0058606  -0.0008023  0.0277848  -0.0513747  0  0  0  0  0.0006429  -0.0766845  0  0  0  0  0  0  0  0  0 
1704467689.175640000  -2.5003  -0.293975  0.991159  0  0  0.005975  -0.0008023  0.0277868  -0.0517429  0  0  0  0  0.0002009  -0.0706174  0  0  0  0  0  0  0  0  0 
1704467689.180636000  -2.5003  -0.293836  0.990899  0  0  0.0060894  -0.0008023  0.0277872  -0.0520813  0  0  0  0  9e-06  -0.0648003  0  0  0  0  0  0  0  0  0 
1704467689.185655000  -2.50031  -0.293697  0.990638  0  0  0.0062038  -0.0008023  0.0277872  -0.0523913  0  0  0  0  0  -0.0592332  0  0  0  0  0  0  0  0  0 
1704467689.190658000  -2.50031  -0.293558  0.990375  0  0  0.0063182  -0.0008023  0.0277872  -0.0526741  0  0  0  0  0  -0.0539161  0  0  0  0  0  0  0  0  0 
1704467689.195638000  -2.50031  -0.293419  0.990111  0  0  0.0064326  -0.0008023  0.0277872  -0.0529309  0  0  0  0  0  -0.048849  0  0  0  0  0  0  0  0  0 
1704467689.200645000  -2.50032  -0.29328  0.989846  0  0  0.006547  -0.0008023  0.0277872  -0.053163  0  0  0  0  0  -0.0440319  0  0  0  0  0  0  0  0  0 
1704467689.205637000  -2.50032  -0.293141  0.98958  0  0  0.0066614  -0.0008023  0.0277872  -0.0533716  0  0  0  0  0  -0.0394647  0  0  0  0  0  0  0  0  0 
1704467689.210660000  -2.50033  -0.293002  0.989312  0  0  0.0067758  -0.0008023  0.0277872  -0.053558  0  0  0  0  0  -0.0351476  0  0  0  0  0  0  0  0  0 
1704467689.215643000  -2.50033  -0.292863  0.989044  0  0  0.0068902  -0.0008023  0.0277872  -0.0537235  0  0  0  0  0  -0.0310805  0  0  0  0  0  0  0  0  0 
1704467689.220642000  -2.50033  -0.292724  0.988775  0  0  0.0070046  -0.0008023  0.0277872  -0.0538693  0  0  0  0  0  -0.0272634  0  0  0  0  0  0  0  0  0 
1704467689.225646000  -2.50034  -0.292586  0.988506  0  0  0.0071189  -0.0008023  0.0277872  -0.0539966  0  0  0  0  0  -0.0236963  0  0  0  0  0  0  0  0  0 
1704467689.230645000  -2.50034  -0.292447  0.988235  0  0  0.0072333  -0.0008023  0.0277872  -0.0541066  0  0  0  0  0  -0.0203792  0  0  0  0  0  0  0  0  0 
1704467689.235635000  -2.50035  -0.292308  0.987965  0  0  0.0073477  -0.0008023  0.0277872  -0.0542008  0  0  0  0  0  -0.0173121  0  0  0  0  0  0  0  0  0 
1704467689.240644000  -2.50035  -0.292169  0.987693  0  0  0.0074621  -0.0008023  0.0277872  -0.0542802  0  0  0  0  0  -0.014495  0  0  0  0  0  0  0  0  0 
1704467689.245650000  -2.50035  -0.29203  0.987422  0  0  0.0075765  -0.0008023  0.0277872  -0.0543461  0  0  0  0  0  -0.0119278  0  0  0  0  0  0  0  0  0 
1704467689.250643000  -2.50036  -0.291891  0.98715  0  0  0.0076909  -0.0008023  0.0277872  -0.0543999  0  0  0  0  0  -0.0096107  0  0  0  0  0  0  0  0  0 
1704467689.255661000  -2.50036  -0.291752  0.986878  0  0  0.0078053  -0.0008023  0.0277872  -0.0544427  0  0  0  0  0  -0.0075436  0  0  0  0  0  0  0  0  0 
1704467689.260644000  -2.50037  -0.291613  0.986606  0  0  0.0079197  -0.0008023  0.0277872  -0.0544757  0  0  0  0  0  -0.0057265  0  0  0  0  0  0  0  0  0 
1704467689.265644000  -2.50037  -0.291474  0.986333  0  0  0.0080341  -0.0008023  0.0277872  -0.0545003  0  0  0  0  0  -0.0041594  0  0  0  0  0  0  0  0  0 
1704467689.270638000  -2.50037  -0.291335  0.986061  0  0  0.0081485  -0.0008023  0.0277872  -0.0545177  0  0  0  0  0  -0.0028423  0  0  0  0  0  0  0  0  0 
1704467689.275647000  -2.50038  -0.291196  0.985788  0  0  0.0082629  -0.0008023  0.0277872  -0.0545292  0  0  0  0  0  -0.0017752  0  0  0  0  0  0  0  0  0 
1704467689.280634000  -2.50038  -0.291057  0.985515  0  0  0.0083773  -0.0008023  0.0277872  -0.0545359  0  0  0  0  0  -0.000958  0  0  0  0  0  0  0  0  0 
1704467689.285653000  -2.50039  -0.290918  0.985243  0  0  0.0084917  -0.0008023  0.0277872  -0.0545392  0  0  0  0  0  -0.0003909  0  0  0  0  0  0  0  0  0 
1704467689.290634000  -2.50039  -0.290779  0.98497  0  0  0.0086061  -0.0008023  0.0277872  -0.0545402  0  0  0  0  0  -7.38e-05  0  0  0  0  0  0  0  0  0 
1704467689.295641000  -2.50039  -0.29064  0.984697  0  0  0.0087204  -0.0008023  0.0277872  -0.0545403  0  0  0  0  0  4e-06  0  0  0  0  0  0  0  0  0 
1704467689.300633000  -2.5004  -0.290501  0.984424  0  0  0.0088348  -0.0008023  0.0277872  -0.05454  0  0  0  0  0  0.0001739  0  0  0  0  0  0  0  0  0 
1704467689.305652000  -2.5004  -0.290363  0.984152  0  0  0.0089492  -0.0008023  0.0277872  -0.0545382  0  0  0  0  0  0.0005937  0  0  0  0  0  0  0  0  0 
1704467689.310632000  -2.50041  -0.290224  0.983879  0  0  0.0090636  -0.0008023  0.0277872  -0.0545336  0  0  0  0  0  0.0012636  0  0  0  0  0  0  0  0  0 
1704467689.315642000  -2.50041  -0.290085  0.983606  0  0  0.009178  -0.0008023  0.0277872  -0.0545251  0  0  0  0  0  0.0021834  0  0  0  0  0  0  0  0  0 
1704467689.320636000  -2.50041  -0.289946  0.983334  0  0  0.0092924  -0.0008023  0.0277872  -0.0545114  0  0  0  0  0  0.0033533  0  0  0  0  0  0  0  0  0 
1704467689.325634000  -2.50042  -0.289807  0.983061  0  0  0.0094068  -0.0008023  0.0277872  -0.0544912  0  0  0  0  0  0.0047731  0  0  0  0  0  0  0  0  0 
1704467689.330630000  -2.50042  -0.289668  0.982789  0  0  0.0095212  -0.0008023  0.0277872  -0.0544632  0  0  0  0  0  0.006443  0  0  0  0  0  0  0  0  0 
1704467689.335657000  -2.50043  -0.289529  0.982517  0  0  0.0096356  -0.0008023  0.0277872  -0.0544263  0  0  0  0  0  0.0083628  0  0  0  0  0  0  0  0  0 
1704467689.340634000  -2.50043  -0.28939  0.982245  0  0  0.00975  -0.0008023  0.0277872  -0.0543792  0  0  0  0  0  0.0105327  0  0  0  0  0  0  0  0  0 
1704467689.345653000  -2.50043  -0.289251  0.981973  0  0  0.0098644  -0.0008023  0.0277872  -0.0543206  0  0  0  0  0  0.0129525  0  0  0  0  0  0  0  0  0 
1704467689.350655000  -2.50044  -0.289112  0.981701  0  0  0.0099788  -0.0008023  0.0277872  -0.0542493  0  0  0  0  0  0.0156224  0  0  0  0  0  0  0  0  0 
1704467689.355670000  -2.50044  -0.288973  0.98143  0  0  0.0100932  -0.0008023  0.0277872  -0.0541639  0  0  0  0  0  0.0185422  0  0  0  0  0  0  0  0  0 
1704467689.360652000  -2.50045  -0.288834  0.98116  0  0  0.0102075  -0.0008023  0.0277872  -0.0540634  0  0  0  0  0  0.0217121  0  0  0  0  0  0  0  0  0 
1704467689.365729000  -2.50045  -0.288695  0.98089  0  0  0.0103219  -0.0008023  0.0277872  -0.0539464  0  0  0  0  0  0.0251319  0  0  0  0  0  0  0  0  0 
1704467689.370656000  -2.50045  -0.288556  0.98062  0  0  0.0104363  -0.0008023  0.0277872  -0.0538117  0  0  0  0  0  0.0288018  0  0  0  0  0  0  0  0  0 
1704467689.375655000  -2.50046  -0.288417  0.980352  0  0  0.0105507  -0.0008023  0.0277872  -0.053658  0  0  0  0  0  0.0327216  0  0  0  0  0  0  0  0  0 
1704467689.380655000  -2.50046  -0.288279  0.980084  0  0  0.0106651  -0.0008023  0.0277872  -0.053484  0  0  0  0  0  0.0368915  0  0  0  0  0  0  0  0  0 
1704467689.385654000  -2.50047  -0.28814  0.979817  0  0  0.0107795  -0.0008023  0.0277872  -0.0532886  0  0  0  0  0  0.0413113  0  0  0  0  0  0  0  0  0 
1704467689.390655000  -2.50047  -0.288001  0.979551  0  0  0.0108939  -0.0008023  0.0277872  -0.0530705  0  0  0  0  0  0.0459812  0  0  0  0  0  0  0  0  0 
1704467689.395656000  -2.50047  -0.287862  0.979286  0  0  0.0110083  -0.0008023  0.0277872  -0.0528284  0  0  0  0  0  0.050901  0  0  0  0  0  0  0  0  0 
1704467689.400659000  -2.50048  -0.287723  0.979023  0  0  0.0111227  -0.0008023  0.0277872  -0.0525611  0  0  0  0  0  0.0560709  0  0  0  0  0  0  0  0  0 
1704467689.405660000  -2.50048  -0.287584  0.978761  0  0  0.0112371  -0.0008023  0.0277872  -0.0522673  0  0  0  0  0  0.0614907  0  0  0  0  0  0  0  0  0 
1704467689.410661000  -2.50049  -0.287445  0.9785  0  0  0.0113515  -0.0008023  0.0277872  -0.0519458  0  0  0  0  0  0.0671606  0  0  0  0  0  0  0  0  0 
1704467689.415739000  -2.50049  -0.287306  0.978241  0  0  0.0114659  -0.0008023  0.0277872  -0.0515953  0  0  0  0  0  0.0730805  0  0  0  0  0  0  0  0  0 
1704467689.420661000  -2.50049  -0.287167  0.977984  0  0  0.0115803  -0.0008023  0.0277872  -0.0512145  0  0  0  0  0  0.0792503  0  0  0  0  0  0  0  0  0 
1704467689.425669000  -2.5005  -0.287028  0.977729  0  0  0.0116946  -0.0008023  0.0277872  -0.0508023  0  0  0  0  0  0.0856702  0  0  0  0  0  0  0  0  0 
1704467689.430663000  -2.5005  -0.286889  0.977476  0  0  0.011809  -0.0008023  0.0277872  -0.0503574  0  0  0  0  0  0.09234  0  0  0  0  0  0  0  0  0 
1704467689.435666000  -2.50051  -0.28675  0.977226  0  0  0.0119234  -0.0008023  0.0277872  -0.0498785  0  0  0  0  0  0.0992599  0  0  0  0  0  0  0  0  0 
1704467689.440662000  -2.50051  -0.286611  0.976978  0  0  0.0120378  -0.0008023  0.0277872  -0.0493644  0  0  0  0  0  0.10643  0  0  0  0  0  0  0  0  0 
1704467689.445661000  -2.50051  -0.286472  0.976732  0  0  0.0121522  -0.0008023  0.0277872  -0.0488138  0  0  0  0  0  0.11385  0  0  0  0  0  0  0  0  0 
1704467689.450642000  -2.50052  -0.286333  0.97649  0  0  0.0122666  -0.0008023  0.0277872  -0.0482255  0  0  0  0  0  0.121519  0  0  0  0  0  0  0  0  0 
1704467689.455668000  -2.50052  -0.286194  0.97625  0  0  0.012381  -0.0008023  0.0277872  -0.0475982  0  0  0  0  0  0.129439  0  0  0  0  0  0  0  0  0 
1704467689.460658000  -2.50053  -0.286056  0.976014  0  0  0.0124954  -0.0008023  0.0277872  -0.0469307  0  0  0  0  0  0.137609  0  0  0  0  0  0  0  0  0 
1704467689.465653000  -2.50053  -0.285917  0.975781  0  0  0.0126098  -0.0008023  0.0277872  -0.0462217  0  0  0  0  0  0.146029  0  0  0  0  0  0  0  0  0 
1704467689.470638000  -2.50053  -0.285778  0.975551  0  0  0.0127242  -0.0008023  0.0277872  -0.04547  0  0  0  0  0  0.154699  0  0  0  0  0  0  0  0  0 
1704467689.475641000  -2.50054  -0.285639  0.975326  0  0  0.0128386  -0.0008023  0.0277872  -0.0446743  0  0  0  0  0  0.163619  0  0  0  0  0  0  0  0  0 
1704467689.480635000  -2.50054  -0.2855  0.975105  0  0  0.012953  -0.0008023  0.0277872  -0.0438334  0  0  0  0  0  0.172789  0  0  0  0  0  0  0  0  0 
1704467689.485636000  -2.50055  -0.285361  0.974888  0  0  0.0130674  -0.0008023  0.0277872  -0.042946  0  0  0  0  0  0.182208  0  0  0  0  0  0  0  0  0 
1704467689.490653000  -2.50055  -0.285222  0.974675  0  0  0.0131817  -0.0008023  0.0277872  -0.0420109  0  0  0  0  0  0.191878  0  0  0  0  0  0  0  0  0 
1704467689.495649000  -2.50055  -0.285083  0.974468  0  0  0.0132961  -0.0008023  0.0277872  -0.0410268  0  0  0  0  0  0.201798  0  0  0  0  0  0  0  0  0 
1704467689.500636000  -2.50056  -0.284944  0.974265  0  0  0.0134105  -0.0008023  0.0277872  -0.0399925  0  0  0  0  0  0.211968  0  0  0  0  0  0  0  0  0 
1704467689.505636000  -2.50056  -0.284805  0.974068  0  0  0.0135249  -0.0008023  0.0277872  -0.0389067  0  0  0  0  0  0.222388  0  0  0  0  0  0  0  0  0 
1704467689.510633000  -2.50057  -0.284666  0.973876  0  0  0.0136393  -0.0008023  0.0277872  -0.0377682  0  0  0  0  0  0.233058  0  0  0  0  0  0  0  0  0 
1704467689.515650000  -2.50057  -0.284527  0.97369  0  0  0.0137537  -0.0008023  0.0277872  -0.0365757  0  0  0  0  0  0.243977  0  0  0  0  0  0  0  0  0 
1704467689.520640000  -2.50057  -0.284388  0.973511  0  0  0.0138681  -0.0008023  0.0277872  -0.0353283  0  0  0  0  0  0.254936  0  0  0  0  0  0  0  0  0 
1704467689.525655000  -2.50058  -0.284249  0.973337  0  0  0.0139825  -0.0008023  0.0277872  -0.0340268  0  0  0  0  0  0.265646  0  0  0  0  0  0  0  0  0 
1704467689.530644000  -2.50058  -0.28411  0.97317  0  0  0.0140969  -0.0008023  0.0277872  -0.0326723  0  0  0  0  0  0.276106  0  0  0  0  0  0  0  0  0 
1704467689.535645000  -2.50059  -0.283971  0.973011  0  0  0.0142113  -0.0008023  0.0277872  -0.0312661  0  0  0  0  0  0.286317  0  0  0  0  0  0  0  0  0 
1704467689.540644000  -2.50059  -0.283833  0.972858  0  0  0.0143257  -0.0008023  0.0277872  -0.0298095  0  0  0  0  0  0.296277  0  0  0  0  0  0  0  0  0 
1704467689.545636000  -2.50059  -0.283694  0.972713  0  0  0.0144401  -0.0008023  0.0277872  -0.0283038  0  0  0  0  0  0.305987  0  0  0  0  0  0  0  0  0 
1704467689.550649000  -2.5006  -0.283555  0.972575  0  0  0.0145545  -0.0008023  0.0277872  -0.0267501  0  0  0  0  0  0.315447  0  0  0  0  0  0  0  0  0 
1704467689.555652000  -2.5006  -0.283416  0.972445  0  0  0.0146688  -0.0008023  0.0277872  -0.0251497  0  0  0  0  0  0.324658  0  0  0  0  0  0  0  0  0 
1704467689.560656000  -2.50061  -0.283277  0.972323  0  0  0.0147832  -0.0008023  0.0277872  -0.0235039  0  0  0  0  0  0.333618  0  0  0  0  0  0  0  0  0 
1704467689.565662000  -2.50061  -0.283138  0.97221  0  0  0.0148976  -0.0008023  0.0277872  -0.0218139  0  0  0  0  0  0.342328  0  0  0  0  0  0  0  0  0 
1704467689.570659000  -2.50062  -0.282999  0.972105  0  0  0.015012  -0.0008023  0.0277872  -0.020081  0  0  0  0  0  0.350788  0  0  0  0  0  0  0  0  0 
1704467689.575654000  -2.50062  -0.28286  0.972009  0  0  0.0151264  -0.0008023  0.0277872  -0.0183065  0  0  0  0  0  0.358998  0  0  0  0  0  0  0  0  0 
1704467689.580637000  -2.50062  -0.282721  0.971922  0  0  0.0152408  -0.0008023  0.0277872  -0.0164915  0  0  0  0  0  0.366959  0  0  0  0  0  0  0  0  0 
1704467689.585642000  -2.50063  -0.282582  0.971845  0  0  0.0153552  -0.0008023  0.0277872  -0.0146373  0  0  0  0  0  0.374669  0  0  0  0  0  0  0  0  0 
1704467689.590642000  -2.50063  -0.282443  0.971776  0  0  0.0154696  -0.0008023  0.0277872  -0.0127452  0  0  0  0  0  0.382129  0  0  0  0  0  0  0  0  0 
1704467689.595645000  -2.50064  -0.282304  0.971717  0  0  0.015584  -0.0008023  0.0277872  -0.0108164  0  0  0  0  0  0.389339  0  0  0  0  0  0  0  0  0 
1704467689.600658000  -2.50064  -0.282165  0.971668  0  0  0.0156984  -0.0008023  0.0277872  -0.0088522  0  0  0  0  0  0.396299  0  0  0  0  0  0  0  0  0 
1704467689.605634000  -2.50064  -0.282026  0.971629  0  0  0.0158128  -0.0008023  0.0277872  -0.0068538  0  0  0  0  0  0.40301  0  0  0  0  0  0  0  0  0 
1704467689.610652000  -2.50065  -0.281887  0.971599  0  0  0.0159272  -0.0008023  0.0277872  -0.0048226  0  0  0  0  0  0.40947  0  0  0  0  0  0  0  0  0 
1704467689.615659000  -2.50065  -0.281749  0.97158  0  0  0.0160416  -0.0008023  0.0277872  -0.0027596  0  0  0  0  0  0.41568  0  0  0  0  0  0  0  0  0 
1704467689.620645000  -2.50066  -0.28161  0.971572  0  0  0.0161559  -0.0008023  0.0277872  -0.0006662  0  0  0  0  0  0.42164  0  0  0  0  0  0  0  0  0 
1704467689.625643000  -2.50066  -0.281471  0.971574  0  0  0.0162703  -0.0008023  0.0277872  0.0014564  0  0  0  0  0  0.427351  0  0  0  0  0  0  0  0  0 
1704467689.630642000  -2.50066  -0.281332  0.971587  0  0  0.0163847  -0.0008023  0.0277872  0.0036069  0  0  0  0  0  0.432811  0  0  0  0  0  0  0  0  0 
1704467689.635652000  -2.50067  -0.281193  0.97161  0  0  0.0164991  -0.0008023  0.0277872  0.0057841  0  0  0  0  0  0.438021  0  0  0  0  0  0  0  0  0 
1704467689.640655000  -2.50067  -0.281054  0.971644  0  0  0.0166135  -0.0008023  0.0277872  0.0079867  0  0  0  0  0  0.442981  0  0  0  0  0  0  0  0  0 
1704467689.645634000  -2.50068  -0.280915  0.97169  0  0  0.0167279  -0.0008023  0.0277872  0.0102135  0  0  0  0  0  0.447691  0  0  0  0  0  0  0  0  0 
1704467689.650635000  -2.50068  -0.280776  0.971747  0  0  0.0168423  -0.0008023  0.0277872  0.0124632  0  0  0  0  0  0.452152  0  0  0  0  0  0  0  0  0 
1704467689.655649000  -2.50068  -0.280637  0.971815  0  0  0.0169567  -0.0008023  0.0277873  0.0147346  0  0  0  0  4.44e-05  0.456362  0  0  0  0  0  0  0  0  0 
1704467689.660644000  -2.50069  -0.280498  0.971894  0  0  0.0170711  -0.0008023  0.0277881  0.0170264  0  0  0  0  0.0003185  0.460322  0  0  0  0  0  0  0  0  0 
1704467689.665641000  -2.50069  -0.280359  0.971985  0  0  0.0171855  -0.0008023  0.0277909  0.0193374  0  0  0  0  0.0008426  0.464032  0  0  0  0  0  0  0  0  0 
1704467689.670643000  -2.5007  -0.28022  0.972087  0  0  0.0172999  -0.0008023  0.0277969  0.0216663  0  0  0  0  0.0016166  0.467492  0  0  0  0  0  0  0  0  0 
1704467689.675657000  -2.5007  -0.280081  0.972202  0  0  0.0174143  -0.0008023  0.0278075  0.0240119  0  0  0  0  0.0026407  0.470703  0  0  0  0  0  0  0  0  0 
1704467689.680655000  -2.5007  -0.279942  0.972328  0  0  0.0175287  -0.0008023  0.0278237  0.0263729  0  0  0  0  0.0039147  0.473663  0  0  0  0  0  0  0  0  0 
1704467689.685651000  -2.50071  -0.279803  0.972465  0  0  0.017643  -0.0008023  0.027847  0.0287481  0  0  0  0  0.0054388  0.476373  0  0  0  0  0  0  0  0  0 
1704467689.690655000  -2.50071  -0.279664  0.972615  0  0  0.0177574  -0.0008023  0.0278786  0.0311362  0  0  0  0  0.0072128  0.478833  0  0  0  0  0  0  0  0  0 
1704467689.695645000  -2.50072  -0.279524  0.972777  0  0  0.0178718  -0.0008023  0.0279196  0.033536  0  0  0  0  0.0092369  0.481044  0  0  0  0  0  0  0  0  0 
1704467689.700654000  -2.50072  -0.279384  0.97295  0  0  0.0179862  -0.0008023  0.0279713  0.0359463  0  0  0  0  0.011511  0.483004  0  0  0  0  0  0  0  0  0 
1704467689.705643000  -2.50072  -0.279244  0.973136  0  0  0.0181006  -0.0008023  0.0280351  0.0383657  0  0  0  0  0.014035  0.484714  0  0  0  0  0  0  0  0  0 
1704467689.710651000  -2.50073  -0.279104  0.973334  0  0  0.018215  -0.0008023  0.0281121  0.040793  0  0  0  0  0.0168091  0.486174  0  0  0  0  0  0  0  0  0 
1704467689.715661000  -2.50073  -0.278963  0.973544  0  0  0.0183294  -0.0008023  0.0282036  0.043227  0  0  0  0  0.0198332  0.487384  0  0  0  0  0  0  0  0  0 
1704467689.720646000  -2.50074  -0.278822  0.973766  0  0  0.0184438  -0.0008023  0.0283109  0.0456664  0  0  0  1e-07  0.0231072  0.488345  0  0  0  0  0  0  0  0  0 
1704467689.725644000  -2.50074  -0.27868  0.974001  0  0  0.0185582  -0.0008021  0.0284351  0.04811  0  0  0  0.0001324  0.0266313  0.489055  0  0  0  0  0  0  0  0  0 
1704467689.730645000  -2.50074  -0.278538  0.974247  0  0  0.0186726  -0.0008006  0.0285776  0.0505565  0  0  0  0.0005147  0.0304053  0.489515  0  0  0  0  0  0  0  0  0 
1704467689.735647000  -2.50075  -0.278394  0.974506  0  0  0.018787  -0.0007965  0.0287396  0.0530048  0  0  0  0.001147  0.0344294  0.489725  0  0  0  0  0  0  0  0  0 
1704467689.740645000  -2.50075  -0.27825  0.974777  0  0  0.0189014  -0.0007887  0.0289223  0.0554534  0  0  0  0.0020294  0.0387034  0.489685  0  0  0  0  0  0  0  0  0 
1704467689.745647000  -2.50076  -0.278105  0.975061  0  0  0.0190158  -0.0007758  0.029127  0.0579012  0  0  0  0.0031617  0.0432275  0.489396  0  0  0  0  0  0  0  0  0 
1704467689.750653000  -2.50076  -0.277959  0.975357  0  0  0.0191301  -0.0007567  0.029355  0.0603469  0  0  0  0.004544  0.0480016  0.488856  0  0  0  0  0  0  0  0  0 
1704467689.755634000  -2.50076  -0.277811  0.975664  0  0  0.0192445  -0.00073  0.0296074  0.0627893  0  0  0  0.0061763  0.0530256  0.488066  0  0  0  0  0  0  0  0  0 
1704467689.760635000  -2.50077  -0.277663  0.975984  0  0  0.0193589  -0.0006945  0.0298857  0.0652272  0  0  0  0.0080586  0.0582997  0.487026  0  0  0  0  0  0  0  0  0 
1704467689.765642000  -2.50077  -0.277513  0.976317  0  0  0.0194733  -0.000649  0.0301909  0.0676592  0  0  0  0.0101909  0.0638237  0.485737  0  0  0  0  0  0  0  0  0 
1704467689.770641000  -2.50077  -0.277361  0.976661  0  0  0.0195877  -0.0005922  0.0305243  0.0700841  0  0  0  0.0125733  0.0695978  0.484197  0  0  0  0  0  0  0  0  0 
1704467689.775643000  -2.50078  -0.277207  0.977017  0  0  0.0197021  -0.0005228  0.0308873  0.0725007  0  0  0  0.0152056  0.0756219  0.482407  0  0  0  0  0  0  0  0  0 
1704467689.780647000  -2.50078  -0.277052  0.977386  0  0  0.0198165  -0.0004397  0.0312809  0.0749078  0  0  0  0.0180879  0.0818959  0.480367  0  0  0  0  0  0  0  0  0 
1704467689.785659000  -2.50078  -0.276894  0.977766  0  0  0.0199309  -0.0003415  0.0317066  0.077304  0  0  0  0.0212202  0.08842  0.478077  0  0  0  0  0  0  0  0  0 
1704467689.790658000  -2.50078  -0.276735  0.978159  0  0  0.0200453  -0.0002271  0.0321656  0.0796881  0  0  0  0.0246025  0.095194  0.475538  0  0  0  0  0  0  0  0  0 
1704467689.795654000  -2.50078  -0.276573  0.978563  0  0  0.0201597  -9.51e-05  0.032659  0.0820589  0  0  0  0.0282348  0.102218  0.472748  0  0  0  0  0  0  0  0  0 
1704467689.800653000  -2.50078  -0.276408  0.97898  0  0  0.0202741  5.57e-05  0.0331882  0.0844152  0  0  0  0.0321172  0.109492  0.469708  0  0  0  0  0  0  0  0  0 
1704467689.805658000  -2.50078  -0.276241  0.979407  0  0  0.0203885  0.0002265  0.0337543  0.0867556  0  0  0  0.0362495  0.117016  0.466418  0  0  0  0  0  0  0  0  0 
1704467689.810662000  -2.50078  -0.27607  0.979847  0  0  0.0205029  0.0004186  0.0343587  0.089079  0  0  0  0.0406318  0.12479  0.462878  0  0  0  0  0  0  0  0  0 
1704467689.815638000  -2.50078  -0.275897  0.980298  0  0  0.0206172  0.0006332  0.0350026  0.091384  0  0  0  0.0452641  0.132814  0.459089  0  0  0  0  0  0  0  0  0 
1704467689.820637000  -2.50077  -0.27572  0.980761  0  0  0.0207316  0.0008717  0.0356873  0.0936694  0  0  0  0.0501464  0.141088  0.455049  0  0  0  0  0  0  0  0  0 
1704467689.825643000  -2.50077  -0.27554  0.981235  0  0  0.020846  0.0011351  0.0364139  0.0959341  0  0  0  0.0552787  0.149612  0.450759  0  0  0  0  0  0  0  0  0 
1704467689.830642000  -2.50076  -0.275356  0.98172  0  0  0.0209604  0.0014249  0.0371838  0.0981766  0  0  0  0.060661  0.158387  0.446219  0  0  0  0  0  0  0  0  0 
1704467689.835638000  -2.50075  -0.275168  0.982217  0  0  0.0210748  0.0017422  0.0379982  0.100396  0  0  0  0.0662934  0.167411  0.44143  0  0  0  0  0  0  0  0  0 
1704467689.840639000  -2.50074  -0.274976  0.982724  0  0  0.0211892  0.0020882  0.0388584  0.10259  0  0  0  0.0721757  0.176685  0.43639  0  0  0  0  0  0  0  0  0 
1704467689.845644000  -2.50073  -0.27478  0.983242  0  0  0.0213036  0.0024643  0.0397655  0.104759  0  0  0  0.078308  0.186209  0.4311  0  0  0  0  0  0  0  0  0 
1704467689.850655000  -2.50072  -0.274578  0.983772  0  0  0.021418  0.0028717  0.0407209  0.106901  0  0  0  0.0846903  0.195983  0.42556  0  0  0  0  0  0  0  0  0 
1704467689.855639000  -2.5007  -0.274372  0.984311  0  0  0.0215324  0.0033116  0.0417257  0.109014  0  0  0  0.0913226  0.206007  0.41977  0  0  0  0  0  0  0  0  0 
1704467689.860632000  -2.50069  -0.274161  0.984862  0  0  0.0216468  0.0037854  0.0427814  0.111098  0  0  0  0.0982049  0.216281  0.413731  0  0  0  0  0  0  0  0  0 
1704467689.865657000  -2.50067  -0.273944  0.985422  0  0  0.0217612  0.0042941  0.043889  0.113151  0  0  0  0.105337  0.226805  0.407441  0  0  0  0  0  0  0  0  0 
1704467689.870643000  -2.50064  -0.273722  0.985993  0  0  0.0218756  0.0048392  0.0450498  0.115172  0  0  0  0.11272  0.237579  0.400901  0  0  0  0  0  0  0  0  0 
1704467689.875634000  -2.50062  -0.273494  0.986574  0  0  0.02199  0.0054217  0.0462652  0.11716  0  0  0  0.120352  0.248603  0.394111  0  0  0  0  0  0  0  0  0 
1704467689.880636000  -2.50059  -0.273259  0.987165  0  0  0.0221043  0.0060431  0.0475363  0.119113  0  0  0  0.128234  0.259877  0.387071  0  0  0  0  0  0  0  0  0 
1704467689.885628000  -2.50056  -0.273018  0.987765  0  0  0.0222187  0.0067045  0.0488644  0.12103  0  0  0  0.136367  0.271401  0.379782  0  0  0  0  0  0  0  0  0 
1704467689.890663000  -2.50052  -0.272771  0.988375  0  0  0.0223331  0.0074072  0.0502507  0.12291  0  0  0  0.144749  0.283175  0.372242  0  0  0  0  0  0  0  0  0 
1704467689.895647000  -2.50048  -0.272516  0.988994  0  0  0.0224475  0.0081524  0.0516965  0.124752  0  0  0  0.153381  0.295199  0.364452  0  0  0  0  0  0  0  0  0 
1704467689.900653000  -2.50044  -0.272253  0.989622  0  0  0.0225619  0.0089414  0.0532031  0.126555  0  0  0  0.162263  0.307473  0.356412  0  0  0  0  0  0  0  0  0 
1704467689.905649000  -2.50039  -0.271984  0.99026  0  0  0.0226763  0.0097754  0.0547717  0.128316  0  0  0  0.171396  0.319997  0.348123  0  0  0  0  0  0  0  0  0 
1704467689.910651000  -2.50034  -0.271706  0.990906  0  0  0.0227907  0.0106558  0.0564035  0.130035  0  0  0  0.180778  0.332771  0.339583  0  0  0  0  0  0  0  0  0 
1704467689.915653000  -2.50029  -0.271419  0.99156  0  0  0.0229051  0.0115836  0.0580998  0.131711  0  0  0  0.19041  0.345796  0.330793  0  0  0  0  0  0  0  0  0 
1704467689.920650000  -2.50023  -0.271125  0.992223  0  0  0.0230195  0.0125603  0.0598619  0.133343  0  0  0  0.200271  0.35907  0.321753  0  0  0  0  0  0  0  0  0 
1704467689.925655000  -2.50016  -0.270821  0.992893  0  0  0.0231339  0.0135861  0.0616909  0.134929  0  0  0  0.210007  0.372594  0.312463  0  0  0  0  0  0  0  0  0 
1704467689.930659000  -2.50009  -0.270508  0.993572  0  0  0.0232483  0.0146599  0.0635882  0.136467  0  0  0  0.219493  0.386368  0.302924  0  0  0  0  0  0  0  0  0 
1704467689.935638000  -2.50002  -0.270185  0.994258  0  0  0.0233627  0.0157806  0.065555  0.137957  0  0  0  0.228729  0.400392  0.293134  0  0  0  0  0  0  0  0  0 
1704467689.940652000  -2.49993  -0.269852  0.994951  0  0  0.0234771  0.0169468  0.0675926  0.139398  0  0  0  0.237715  0.414666  0.283094  0  0  0  0  0  0  0  0  0 
1704467689.945639000  -2.49985  -0.269509  0.995652  0  0  0.0235914  0.0181573  0.0697021  0.140788  0  0  0  0.24645  0.42919  0.272804  0  0  0  0  0  0  0  0  0 
1704467689.950642000  -2.49975  -0.269155  0.996359  0  0  0.0237058  0.0194109  0.0718849  0.142126  0  0  0  0.254936  0.443964  0.262264  0  0  0  0  0  0  0  0  0 
1704467689.955645000  -2.49965  -0.26879  0.997073  0  0  0.0238202  0.0207063  0.0741421  0.14341  0  0  0  0.263172  0.458988  0.251475  0  0  0  0  0  0  0  0  0 
1704467689.960636000  -2.49954  -0.268413  0.997793  0  0  0.0239346  0.0220422  0.0764752  0.14464  0  0  0  0.271158  0.474262  0.240435  0  0  0  0  0  0  0  0  0 
1704467689.965651000  -2.49943  -0.268025  0.998519  0  0  0.024049  0.0234174  0.0788852  0.145814  0  0  0  0.278894  0.489786  0.229145  0  0  0  0  0  0  0  0  0 
1704467689.970643000  -2.49931  -0.267624  0.999251  0  0  0.0241634  0.0248307  0.0813734  0.146931  0  0  0  0.286379  0.50556  0.217605  0  0  0  0  0  0  0  0  0 
1704467689.975640000  -2.49918  -0.267211  0.999988  0  0  0.0242778  0.0262808  0.0839412  0.14799  0  0  0  0.293615  0.521584  0.205816  0  0  0  0  0  0  0  0  0 
1704467689.980636000  -2.49905  -0.266785  1.00073  0  0  0.0243922  0.0277664  0.0865897  0.148989  0  0  0  0.300601  0.537858  0.193776  0  0  0  0  0  0  0  0  0 
1704467689.985642000  -2.4989  -0.266345  1.00148  0  0  0.0245066  0.0292864  0.0893202  0.149927  0  0  0  0.307337  0.554382  0.181486  0  0  0  0  0  0  0  0  0 
1704467689.990650000  -2.49875  -0.265891  1.00223  0  0  0.024621  0.0308394  0.0921339  0.150803  0  0  0  0.313823  0.571156  0.168946  0  0  0  0  0  0  0  0  0 
1704467689.995656000  -2.4986  -0.265423  1.00299  0  0  0.0247354  0.0324242  0.0950322  0.151616  0  0  0  0.320058  0.58818  0.156156  0  0  0  0  0  0  0  0  0 
1704467690.000638000  -2.49843  -0.264941  1.00375  0  0  0.0248498  0.0340396  0.0980162  0.152364  0  0  0  0.326044  0.605455  0.143117  0  0  0  0  0  0  0  0  0 
1704467690.005644000  -2.49826  -0.264443  1.00451  0  0  0.0249642  0.0356842  0.101087  0.153047  0  0  0  0.33178  0.622979  0.129827  0  0  0  0  0  0  0  0  0 
1704467690.010646000  -2.49807  -0.26393  1.00528  0  0  0.0250786  0.037357  0.104246  0.153662  0  0  0  0.337266  0.640753  0.116287  0  0  0  0  0  0  0  0  0 
1704467690.015649000  -2.49788  -0.2634  1.00605  0  0  0.0251929  0.0390565  0.107495  0.154209  0  0  0  0.342502  0.658741  0.102497  0  0  0  0  0  0  0  0  0 
1704467690.020639000  -2.49768  -0.262855  1.00682  0  0  0.0253073  0.0407816  0.110833  0.154687  0  0  0  0.347488  0.676577  0.0884574  0  0  0  0  0  0  0  0  0 
1704467690.025651000  -2.49747  -0.262292  1.00759  0  0  0.0254217  0.0425309  0.11426  0.155093  0  0  0  0.352223  0.694162  0.0741676  0  0  0  0  0  0  0  0  0 
1704467690.030643000  -2.49726  -0.261712  1.00837  0  0  0.0255361  0.0443034  0.117775  0.155428  0  0  0  0.356709  0.711498  0.0596279  0  0  0  0  0  0  0  0  0 
1704467690.035640000  -2.49703  -0.261114  1.00915  0  0  0.0256505  0.0460976  0.121375  0.155689  0  0  0  0.360945  0.728583  0.0448381  0  0  0  0  0  0  0  0  0 
1704467690.040634000  -2.4968  -0.260498  1.00993  0  0  0.0257649  0.0479124  0.12506  0.155876  0  0  0  0.364931  0.745419  0.0297983  0  0  0  0  0  0  0  0  0 
1704467690.045649000  -2.49655  -0.259863  1.01071  0  0  0.0258793  0.0497465  0.128829  0.155987  0  0  0  0.368667  0.762004  0.0145085  0  0  0  0  0  0  0  0  0 
1704467690.050634000  -2.4963  -0.25921  1.01149  0  0  0.0259937  0.0515987  0.13268  0.156021  0  0  0  0.372152  0.77834  -0.0010313  0  0  0  0  0  0  0  0  0 
1704467690.055638000  -2.49604  -0.258536  1.01227  0  0  0.0261081  0.0534676  0.136612  0.155976  0  0  0  0.375388  0.794425  -0.0168211  0  0  0  0  0  0  0  0  0 
1704467690.060637000  -2.49576  -0.257843  1.01305  0  0  0.0262225  0.0553521  0.140624  0.155852  0  0  0  0.378374  0.810261  -0.0328609  0  0  0  0  0  0  0  0  0 
1704467690.065647000  -2.49548  -0.25713  1.01382  0  0  0.026337  0.0572509  0.144714  0.155647  0  0  0  0.38111  0.825846  -0.0491117  0  0  0  0  0  0  0  0  0 
1704467690.070640000  -2.49519  -0.256396  1.0146  0  0  0.0264516  0.0591628  0.148882  0.155361  0  0  0  0.383596  0.841182  -0.065204  0  0  0  0  0  0  0  0  0 
1704467690.075656000  -2.49489  -0.255641  1.01538  0  0  0.0265664  0.0610865  0.153125  0.154995  0  0  0  0.385831  0.856267  -0.0810464  0  0  0  0  0  0  0  0  0 
1704467690.080644000  -2.49458  -0.254865  1.01615  0  0  0.0266813  0.0630207  0.157444  0.154551  0  0  0  0.387817  0.871103  -0.0966388  0  0  0  0  0  0  0  0  0 
1704467690.085650000  -2.49426  -0.254067  1.01692  0  0  0.0267966  0.0649642  0.161836  0.154029  0  0  0  0.389553  0.885688  -0.111981  0  0  0  0  0  0  0  0  0 
1704467690.090643000  -2.49393  -0.253246  1.01769  0  0  0.0269122  0.0669158  0.1663  0.153432  0  0  0  0.391039  0.900024  -0.127074  0  0  0  0  0  0  0  0  0 
1704467690.095646000  -2.49359  -0.252403  1.01846  0  0  0.0270282  0.0688742  0.170836  0.152759  0  0  0  0.392275  0.914109  -0.141916  0  0  0  0  0  0  0  0  0 
1704467690.100645000  -2.49324  -0.251538  1.01922  0  0  0.0271448  0.0708381  0.175441  0.152013  0  0  0  0.393261  0.927945  -0.156508  0  0  0  0  0  0  0  0  0 
1704467690.105651000  -2.49288  -0.250649  1.01998  0  0  0.0272621  0.0728064  0.180115  0.151195  0  0  0  0.393996  0.94153  -0.170851  0  0  0  0  0  0  0  0  0 
1704467690.110657000  -2.49251  -0.249737  1.02073  0  0  0.0273801  0.0747777  0.184856  0.150305  0  0  0  0.394482  0.954866  -0.184943  0  0  0  0  0  0  0  0  0 
1704467690.115654000  -2.49214  -0.2488  1.02148  0  0  0.027499  0.0767508  0.189663  0.149345  0  0  0  0.394718  0.967951  -0.198785  0  0  0  0  0  0  0  0  0 
1704467690.120645000  -2.49175  -0.24784  1.02222  0  0  0.027619  0.0787245  0.194535  0.148317  0  0  0  0.394704  0.980787  -0.212378  0  0  0  0  0  0  0  0  0 
1704467690.125636000  -2.49135  -0.246855  1.02296  0  0  0.0277402  0.0806974  0.19947  0.147222  0  0  0  0.39444  0.993372  -0.22572  0  0  0  0  0  0  0  0  0 
1704467690.130654000  -2.49094  -0.245845  1.0237  0  0  0.0278627  0.0826684  0.204468  0.146061  0  0  0  0.393925  1.00571  -0.238812  0  0  0  0  0  0  0  0  0 
1704467690.135635000  -2.49052  -0.24481  1.02442  0  0  0.0279868  0.0846363  0.209527  0.144834  0  0  0  0.393161  1.01779  -0.251655  0  0  0  0  0  0  0  0  0 
1704467690.140643000  -2.49009  -0.24375  1.02514  0  0  0.0281126  0.0865996  0.214646  0.143545  0  0  0  0.392147  1.02963  -0.264247  0  0  0  0  0  0  0  0  0 
1704467690.145649000  -2.48966  -0.242663  1.02586  0  0  0.0282402  0.0885573  0.219823  0.142192  0  0  0  0.390883  1.04121  -0.27659  0  0  0  0  0  0  0  0  0 
1704467690.150651000  -2.48921  -0.241551  1.02657  0  0  0.02837  0.090508  0.225058  0.140779  0  0  0  0.389369  1.05255  -0.288682  0  0  0  0  0  0  0  0  0 
1704467690.155647000  -2.48875  -0.240413  1.02727  0  0  0.0285021  0.0924506  0.230348  0.139306  0  0  0  0.387605  1.06364  -0.300524  0  0  0  0  0  0  0  0  0 
1704467690.160668000  -2.48828  -0.239248  1.02796  0  0  0.0286367  0.0943837  0.235693  0.137774  0  0  0  0.38559  1.07447  -0.312117  0  0  0  0  0  0  0  0  0 
1704467690.165652000  -2.48781  -0.238056  1.02864  0  0  0.028774  0.0963061  0.241092  0.136185  0  0  0  0.383326  1.08506  -0.323459  0  0  0  0  0  0  0  0  0 
1704467690.170648000  -2.48732  -0.236837  1.02932  0  0  0.0289143  0.0982165  0.246544  0.13454  0  0  0  0.380812  1.09539  -0.334551  0  0  0  0  0  0  0  0  0 
1704467690.175642000  -2.48682  -0.23559  1.02999  0  0  0.0290579  0.100114  0.252046  0.13284  0  0  0  0.378048  1.10548  -0.345394  0  0  0  0  0  0  0  0  0 
1704467690.180653000  -2.48632  -0.234316  1.03065  0  0  0.029205  0.101997  0.257598  0.131087  0  0  0  0.375034  1.11531  -0.355986  0  0  0  0  0  0  0  0  0 
1704467690.185640000  -2.4858  -0.233014  1.0313  0  0  0.0293557  0.103864  0.263199  0.129281  0  0  0  0.371769  1.1249  -0.366328  0  0  0  0  0  0  0  0  0 
1704467690.190649000  -2.48528  -0.231684  1.03194  0  0  0.0295104  0.105714  0.268847  0.127424  0  0  0  0.368255  1.13423  -0.376421  0  0  0  0  0  0  0  0  0 
1704467690.195646000  -2.48475  -0.230326  1.03257  0  0  0.0296693  0.107546  0.274541  0.125517  0  0  0  0.364491  1.14332  -0.386263  0  0  0  0  0  0  0  0  0 
1704467690.200647000  -2.48421  -0.228939  1.0332  0  0  0.0298324  0.109358  0.280279  0.123561  0  0  0  0.360477  1.15216  -0.395856  0  0  0  0  0  0  0  0  0 
1704467690.205652000  -2.48365  -0.227523  1.03381  0  0  0.0300002  0.11115  0.286062  0.121559  0  0  0  0.356213  1.16074  -0.405198  0  0  0  0  0  0  0  0  0 
1704467690.210644000  -2.48309  -0.226078  1.03441  0  0  0.0301726  0.11292  0.291886  0.11951  0  0  0  0.351698  1.16908  -0.41429  0  0  0  0  0  0  0  0  0 
1704467690.215638000  -2.48252  -0.224604  1.03501  0  0  0.0303499  0.114667  0.297752  0.117416  0  0  0  0.346934  1.17716  -0.423133  0  0  0  0  0  0  0  0  0 
1704467690.220648000  -2.48195  -0.2231  1.03559  0  0  0.0305322  0.116389  0.303658  0.115279  0  0  0  0.34192  1.185  -0.431725  0  0  0  0  0  0  0  0  0 
1704467690.225650000  -2.48136  -0.221567  1.03616  0  0  0.0307198  0.118086  0.309602  0.113099  0  0  0  0.336656  1.19258  -0.440067  0  0  0  0  0  0  0  0  0 
1704467690.230653000  -2.48077  -0.220004  1.03672  0  0  0.0309126  0.119755  0.315583  0.110879  0  0  0  0.331142  1.19992  -0.44816  0  0  0  0  0  0  0  0  0 
1704467690.235657000  -2.48016  -0.218411  1.03727  0  0  0.031111  0.121397  0.3216  0.108618  0  0  0  0.325378  1.207  -0.456002  0  0  0  0  0  0  0  0  0 
1704467690.240635000  -2.47955  -0.216788  1.0378  0  0  0.0313149  0.123008  0.327653  0.106319  0  0  0  0.319363  1.21384  -0.463595  0  0  0  0  0  0  0  0  0 
1704467690.245630000  -2.47893  -0.215135  1.03833  0  0  0.0315245  0.12459  0.333738  0.103983  0  0  0  0.313099  1.22042  -0.470937  0  0  0  0  0  0  0  0  0 
1704467690.250653000  -2.47831  -0.213451  1.03884  0  0  0.0317399  0.126139  0.339856  0.10161  0  0  0  0.306585  1.22676  -0.478029  0  0  0  0  0  0  0  0  0 
1704467690.255651000  -2.47767  -0.211736  1.03935  0  0  0.0319612  0.127655  0.346006  0.0992028  0  0  0  0.299849  1.23285  -0.484872  0  0  0  0  0  0  0  0  0 
1704467690.260651000  -2.47703  -0.209991  1.03984  0  0  0.0321885  0.129138  0.352184  0.0967619  0  0  0  0.293252  1.23868  -0.491464  0  0  0  0  0  0  0  0  0 
1704467690.265651000  -2.47638  -0.208214  1.04031  0  0  0.0324218  0.130588  0.358392  0.0942886  0  0  0  0.286905  1.24427  -0.497806  0  0  0  0  0  0  0  0  0 
1704467690.270635000  -2.47572  -0.206407  1.04078  0  0  0.0326612  0.132007  0.364627  0.0917843  0  0  0  0.280808  1.2496  -0.503899  0  0  0  0  0  0  0  0  0 
1704467690.275634000  -2.47506  -0.204568  1.04123  0  0  0.0329067  0.133397  0.370888  0.08925  0  0  0  0.27496  1.25469  -0.509741  0  0  0  0  0  0  0  0  0 
1704467690.280634000  -2.47439  -0.202698  1.04167  0  0  0.0331584  0.134757  0.377173  0.0866873  0  0  0  0.269363  1.25952  -0.515333  0  0  0  0  0  0  0  0  0 
1704467690.285641000  -2.47371  -0.200796  1.0421  0  0  0.0334164  0.136091  0.383482  0.0840971  0  0  0  0.264016  1.26411  -0.520676  0  0  0  0  0  0  0  0  0 
1704467690.290653000  -2.47303  -0.198863  1.04251  0  0  0.0336805  0.137398  0.389814  0.0814809  0  0  0  0.258919  1.26844  -0.525768  0  0  0  0  0  0  0  0  0 
1704467690.295659000  -2.47234  -0.196898  1.04291  0  0  0.033951  0.13868  0.396166  0.0788399  0  0  0  0.254072  1.27253  -0.530611  0  0  0  0  0  0  0  0  0 
1704467690.300666000  -2.47164  -0.194901  1.0433  0  0  0.0342277  0.139939  0.402539  0.0761752  0  0  0  0.249475  1.27637  -0.535203  0  0  0  0  0  0  0  0  0 
1704467690.305647000  -2.47094  -0.192873  1.04367  0  0  0.0345106  0.141175  0.40893  0.0734883  0  0  0  0.245128  1.27995  -0.539545  0  0  0  0  0  0  0  0  0 
1704467690.310638000  -2.47023  -0.190812  1.04404  0  0  0.0347998  0.142391  0.415338  0.0707802  0  0  0  0.241031  1.28329  -0.543638  0  0  0  0  0  0  0  0  0 
1704467690.315682000  -2.46952  -0.188719  1.04438  0  0  0.0350952  0.143586  0.421762  0.0680523  0  0  0  0.237184  1.28637  -0.54748  0  0  0  0  0  0  0  0  0 
1704467690.320669000  -2.4688  -0.186594  1.04472  0  0  0.0353969  0.144763  0.428201  0.0653058  0  0  0  0.233587  1.28921  -0.551072  0  0  0  0  0  0  0  0  0 
1704467690.325635000  -2.46807  -0.184437  1.04504  0  0  0.0357048  0.145922  0.434654  0.062542  0  0  0  0.23024  1.29179  -0.554415  0  0  0  0  0  0  0  0  0 
1704467690.330639000  -2.46734  -0.182248  1.04534  0  0  0.036019  0.147066  0.441119  0.0597621  0  0  0  0.227143  1.29413  -0.557507  0  0  0  0  0  0  0  0  0 
1704467690.335638000  -2.4666  -0.180026  1.04563  0  0  0.0363394  0.148194  0.447595  0.0569673  0  0  0  0.224296  1.29621  -0.560349  0  0  0  0  0  0  0  0  0 
1704467690.340644000  -2.46585  -0.177772  1.04591  0  0  0.0366661  0.149309  0.45408  0.054159  0  0  0  0.221699  1.29805  -0.562942  0  0  0  0  0  0  0  0  0 
1704467690.345647000  -2.4651  -0.175485  1.04617  0  0  0.036999  0.150412  0.460575  0.0513383  0  0  0  0.219351  1.29964  -0.565284  0  0  0  0  0  0  0  0  0 
1704467690.350650000  -2.46435  -0.173166  1.04642  0  0  0.0373382  0.151503  0.467076  0.0485066  0  0  0  0.217254  1.30097  -0.567377  0  0  0  0  0  0  0  0  0 
1704467690.355646000  -2.46359  -0.170814  1.04666  0  0  0.0376836  0.152585  0.473584  0.045665  0  0  0  0.215407  1.30206  -0.569219  0  0  0  0  0  0  0  0  0 
1704467690.360648000  -2.46282  -0.16843  1.04688  0  0  0.0380353  0.153658  0.480096  0.0428148  0  0  0  0.21381  1.30289  -0.570811  0  0  0  0  0  0  0  0  0 
1704467690.365649000  -2.46205  -0.166013  1.04709  0  0  0.0383932  0.154723  0.486612  0.0399573  0  0  0  0.212463  1.30348  -0.572154  0  0  0  0  0  0  0  0  0 
1704467690.370649000  -2.46128  -0.163564  1.04728  0  0  0.0387574  0.155783  0.493131  0.0370937  0  0  0  0.211366  1.30381  -0.573246  0  0  0  0  0  0  0  0  0 
1704467690.375642000  -2.4605  -0.161082  1.04746  0  0  0.0391278  0.156837  0.49965  0.0342252  0  0  0  0.210519  1.3039  -0.574088  0  0  0  0  0  0  0  0  0 
1704467690.380634000  -2.45971  -0.158568  1.04762  0  0  0.0395045  0.157888  0.506169  0.0313532  0  0  0  0.209922  1.30373  -0.574681  0  0  0  0  0  0  0  0  0 
1704467690.385631000  -2.45892  -0.15602  1.04777  0  0  0.0398874  0.158937  0.512687  0.0284788  0  0  0  0.209575  1.30342  -0.575023  0  0  0  0  0  0  0  0  0 
1704467690.390631000  -2.45811  -0.1537  1.0479  0  0  0.040064  0.159929  0.518496  0.0259855  0  0  0  0.209476  1.30332  -0.575118  0  0  0  0  0  0  0  0  0 
1704467690.395630000  -2.45731  -0.151091  1.04802  0  0  0.0404576  0.160976  0.525012  0.0231102  0  0  0  0.209351  1.3032  -0.574993  0  0  0  0  0  0  0  0  0 
1704467690.400637000  -2.45651  -0.14845  1.04813  0  0  0.0408574  0.162022  0.531528  0.020236  0  0  0  0.208976  1.30282  -0.574618  0  0  0  0  0  0  0  0  0 
1704467690.405645000  -2.45569  -0.145776  1.04822  0  0  0.0412635  0.163066  0.53804  0.0173644  0  0  0  0.208351  1.3022  -0.573993  0  0  0  0  0  0  0  0  0 
1704467690.410640000  -2.45487  -0.143069  1.0483  0  0  0.0416758  0.164105  0.544549  0.0144965  0  0  0  0.207476  1.30132  -0.573118  0  0  0  0  0  0  0  0  0 
1704467690.415634000  -2.45405  -0.14033  1.04837  0  0  0.0420942  0.16514  0.551053  0.0116336  0  0  0  0.206351  1.3002  -0.571993  0  0  0  0  0  0  0  0  0 
1704467690.420631000  -2.45322  -0.137559  1.04842  0  0  0.0425188  0.166168  0.557551  0.008777  0  0  0  0.204976  1.29882  -0.570618  0  0  0  0  0  0  0  0  0 
1704467690.425640000  -2.45239  -0.134755  1.04846  0  0  0.0429494  0.167189  0.564041  0.0059279  0  0  0  0.203351  1.2972  -0.568993  0  0  0  0  0  0  0  0  0 
1704467690.430636000  -2.45155  -0.131918  1.04848  0  0  0.0433861  0.168201  0.570522  0.0030875  0  0  0  0.201476  1.29532  -0.567118  0  0  0  0  0  0  0  0  0 
1704467690.435634000  -2.45071  -0.12905  1.04849  0  0  0.0438286  0.169204  0.576994  0.0002571  0  0  0  0.199351  1.2932  -0.564993  0  0  0  0  0  0  0  0  0 
1704467690.440630000  -2.44986  -0.126148  1.04848  0  0  0.044277  0.170195  0.583454  -0.002562  0  0  0  0.196976  1.29082  -0.562618  0  0  0  0  0  0  0  0  0 
1704467690.445640000  -2.44901  -0.123215  1.04846  0  0  0.0447312  0.171173  0.589901  -0.0053686  0  0  0  0.194351  1.2882  -0.559993  0  0  0  0  0  0  0  0  0 
1704467690.450640000  -2.44815  -0.120249  1.04843  0  0  0.045191  0.172138  0.596335  -0.0081615  0  0  0  0.191476  1.28532  -0.557118  0  0  0  0  0  0  0  0  0 
1704467690.455634000  -2.44728  -0.117252  1.04838  0  0  0.0456563  0.173087  0.602754  -0.0109394  0  0  0  0.188351  1.2822  -0.553993  0  0  0  0  0  0  0  0  0 
1704467690.460643000  -2.44642  -0.114222  1.04832  0  0  0.0461271  0.174021  0.609157  -0.013701  0  0  0  0.184976  1.27882  -0.550618  0  0  0  0  0  0  0  0  0 
1704467690.465656000  -2.44554  -0.11116  1.04824  0  0  0.0466031  0.174937  0.615542  -0.0164452  0  0  0  0.181351  1.2752  -0.546993  0  0  0  0  0  0  0  0  0 
1704467690.470663000  -2.44467  -0.108067  1.04815  0  0  0.0470842  0.175834  0.621908  -0.0191705  0  0  0  0.177476  1.27132  -0.543118  0  0  0  0  0  0  0  0  0 
1704467690.475659000  -2.44379  -0.104941  1.04805  0  0  0.0475703  0.176711  0.628255  -0.0218759  0  0  0  0.173351  1.2672  -0.538993  0  0  0  0  0  0  0  0  0 
1704467690.480655000  -2.4429  -0.101784  1.04793  0  0  0.0480612  0.177567  0.63458  -0.0245601  0  0  0  0.168976  1.26282  -0.534618  0  0  0  0  0  0  0  0  0 
1704467690.485657000  -2.44201  -0.0985953  1.04781  0  0  0.0485568  0.1784  0.640883  -0.0272217  0  0  0  0.164351  1.2582  -0.529993  0  0  0  0  0  0  0  0  0 
1704467690.490649000  -2.44112  -0.0953752  1.04766  0  0  0.0490567  0.17921  0.647162  -0.0298596  0  0  0  0.159476  1.25332  -0.525118  0  0  0  0  0  0  0  0  0 
1704467690.495663000  -2.44022  -0.0921238  1.04751  0  0  0.049561  0.179995  0.653415  -0.0324724  0  0  0  0.154351  1.2482  -0.519993  0  0  0  0  0  0  0  0  0 
1704467690.500645000  -2.43932  -0.0888411  1.04734  0  0  0.0500692  0.180753  0.659643  -0.0350591  0  0  0  0.148976  1.24282  -0.514618  0  0  0  0  0  0  0  0  0 
1704467690.505639000  -2.43841  -0.0855274  1.04716  0  0  0.0505813  0.181484  0.665843  -0.0376182  0  0  0  0.143351  1.2372  -0.508993  0  0  0  0  0  0  0  0  0 
1704467690.510641000  -2.4375  -0.0821827  1.04696  0  0  0.0510971  0.182186  0.672015  -0.0401486  0  0  0  0.137476  1.23132  -0.503118  0  0  0  0  0  0  0  0  0 
1704467690.515638000  -2.43659  -0.0788073  1.04675  0  0  0.0516161  0.182858  0.678156  -0.042649  0  0  0  0.131351  1.2252  -0.496993  0  0  0  0  0  0  0  0  0 
1704467690.520641000  -2.43567  -0.0754012  1.04654  0  0  0.0521383  0.183499  0.684266  -0.0451181  0  0  0  0.124976  1.21882  -0.490618  0  0  0  0  0  0  0  0  0 
1704467690.525638000  -2.43475  -0.0719647  1.0463  0  0  0.0526634  0.184108  0.690344  -0.0475547  0  0  0  0.118351  1.2122  -0.483993  0  0  0  0  0  0  0  0  0 
1704467690.530646000  -2.43383  -0.0684978  1.04606  0  0  0.0531911  0.184682  0.696388  -0.0499576  0  0  0  0.111476  1.20532  -0.477118  0  0  0  0  0  0  0  0  0 
1704467690.535642000  -2.43291  -0.0650009  1.0458  0  0  0.0537211  0.185222  0.702397  -0.0523255  0  0  0  0.104351  1.1982  -0.469993  0  0  0  0  0  0  0  0  0 
1704467690.540639000  -2.43198  -0.0614739  1.04554  0  0  0.0542531  0.185726  0.708369  -0.0546571  0  0  0  0.0969763  1.19082  -0.462618  0  0  0  0  0  0  0  0  0 
1704467690.545641000  -2.43105  -0.0579172  1.04526  0  0  0.0547869  0.186191  0.714304  -0.0569512  0  0  0  0.0893513  1.1832  -0.454993  0  0  0  0  0  0  0  0  0 
1704467690.550639000  -2.43012  -0.0543309  1.04497  0  0  0.0553222  0.186619  0.720201  -0.0592066  0  0  0  0.0814763  1.17532  -0.447118  0  0  0  0  0  0  0  0  0 
1704467690.555641000  -2.42918  -0.0507153  1.04467  0  0  0.0558585  0.187006  0.726057  -0.061422  0  0  0  0.0733513  1.1672  -0.438993  0  0  0  0  0  0  0  0  0 
1704467690.560637000  -2.42825  -0.0470704  1.04435  0  0  0.0563957  0.187352  0.731872  -0.0635961  0  0  0  0.0649763  1.15882  -0.430618  0  0  0  0  0  0  0  0  0 
1704467690.565655000  -2.42731  -0.0433966  1.04403  0  0  0.0569333  0.187655  0.737645  -0.0657278  0  0  0  0.0563513  1.1502  -0.421993  0  0  0  0  0  0  0  0  0 
1704467690.570660000  -2.42637  -0.0396941  1.0437  0  0  0.0574711  0.187915  0.743374  -0.0678156  0  0  0  0.0474763  1.14132  -0.413118  0  0  0  0  0  0  0  0  0 
