ts fx fy fz tx ty tz exfx exfy exfz extx exty extz xd yd zd rolld pitchd yawd vxd vyd vzd wxd wyd wzd axd ayd azd e_x e_y e_z e_vx e_vy e_vz e_rx e_ry e_rz e_wx e_wy e_wz
1704467688.646519000  0  0  11.5551  -0.00490235  -0.148401  0.0249182  nan  nan  nan  nan  nan  nan  -2.5  -0.3  1  0.0182233  -0.0236926  -0.000431765  0  0  0  0  0  0  0  0  0  0.020013  0.00497159  -0.0180316  -0.0172614  0.0086155  0.00437624  -0.0148931  0.0288125  -0.028688  0.14901  0.0156922  -0.0520736 
1704467688.650991000  0  0  11.7306  0.00868689  -0.205071  0.0278313  nan  nan  nan  nan  nan  nan  -2.5  -0.3  1  0.0186399  -0.02672  -0.000498056  0  0  0  0  0  0  0  0  0  0.0202614  0.00494917  -0.0184564  -0.0141864  0.0093939  -0.00869961  -0.0151146  0.032659  -0.029484  0.124923  0.0887483  -0.0832776 
1704467688.655575000  0  0  11.5942  0.0512293  -0.163611  0.0181791  nan  nan  nan  nan  nan  nan  -2.5  -0.3  1  0.018464  -0.0248947  -0.000459659  0  0  0  0  0  0  0  0  0  0.0201753  0.00499056  -0.0183967  -0.0162545  0.00889277  0.00194106  -0.015207  0.0306065  -0.0285407  0.0438845  0.0281621  0.0367471 
1704467688.660461000  0  0  11.5303  0.0174117  -0.152987  0.0211573  nan  nan  nan  nan  nan  nan  -2.5  -0.3  1  0.0173624  -0.0257727  -0.000447473  0  0  0  0  0  0  0  0  0  0.020219  0.00501829  -0.0186033  -0.015574  0.00757692  0.00735736  -0.0133452  0.0313421  -0.0287864  0.0915433  0.000815364  -0.000732816 
1704467688.665539000  0  0  11.6514  0.0162243  -0.179573  0.0241455  nan  nan  nan  nan  nan  nan  -2.5  -0.3  1  0.0180818  -0.0264927  -0.000479032  0  0  0  0  0  0  0  0  0  0.0201523  0.00506964  -0.0186793  -0.0143898  0.00841816  -0.00204706  -0.013541  0.0325159  -0.02939  0.0956643  0.0409999  -0.0348306 
1704467688.670478000  0  0  11.5878  0.0536315  -0.167405  0.0163208  nan  nan  nan  nan  nan  nan  -2.5  -0.3  1  0.0184393  -0.0260512  -0.000480367  0  0  0  0  0  0  0  0  0  0.0201312  0.00509436  -0.0187074  -0.0149616  0.00863737  0.00301834  -0.0142727  0.0320461  -0.028308  0.0305031  0.0219758  0.0593534 
1704467688.675898000  0  0  11.541  0.0374671  -0.161693  0.019777  nan  nan  nan  nan  nan  nan  -2.5  -0.3  1  0.017459  -0.0272988  -0.000476597  0  0  0  0  0  0  0  0  0  0.0203284  0.00503712  -0.0188728  -0.0141822  0.00765448  0.0069982  -0.0130741  0.033044  -0.0284804  0.0503911  0.00162596  0.0147509 
1704467688.680475000  0  0  11.5889  0.038834  -0.1527  0.0235762  nan  nan  nan  nan  nan  nan  -2.5  -0.3  1  0.0170342  -0.0268429  -0.000457236  0  0  0  0  0  0  0  0  0  0.0202633  0.00506943  -0.0188905  -0.0144065  0.00721656  0.00326857  -0.0125213  0.0324413  -0.0290485  0.0425791  -0.0100399  -0.0305588 
1704467688.686500000  0  0  11.5864  0.0771156  -0.149263  0.0186064  nan  nan  nan  nan  nan  nan  -2.5  -0.3  1  0.0184055  -0.0276302  -0.00050854  0  0  0  0  0  0  0  0  0  0.0202635  0.00512679  -0.0190598  -0.0135847  0.0085304  0.00377833  -0.0144141  0.0330256  -0.0283278  -0.0133848  -0.0221328  0.028933 
1704467688.691650000  0  0  11.545  0.0860685  -0.136002  0.0206546  nan  nan  nan  nan  nan  nan  -2.5  -0.3  1  0.0181773  -0.0263425  -0.000478833  0  0  0  0  0  0  0  0  0  0.0201822  0.00516606  -0.0190157  -0.0148656  0.00814095  0.00696193  -0.014462  0.0314929  -0.0285216  -0.030172  -0.033298  0.00340039 
1704467688.696599000  0  0  11.6281  0.0883549  -0.137292  0.0231874  nan  nan  nan  nan  nan  nan  -2.5  -0.3  1  0.0182985  -0.028627  -0.000523818  0  0  0  0  0  0  0  0  0  0.0203582  0.00513202  -0.0191963  -0.0126287  0.00847563  0.00074683  -0.0149526  0.0332706  -0.0288775  -0.0299768  -0.047476  -0.02703 
1704467688.701527000  0  0  11.6056  0.124381  -0.14651  0.0208674  nan  nan  nan  nan  nan  nan  -2.5  -0.3  1  0.0195766  -0.0287936  -0.000563673  0  0  0  0  0  0  0  0  0  0.0204311  0.00515085  -0.0193502  -0.0126634  0.00974194  0.00279538  -0.0171184  0.0333315  -0.0285134  -0.0790397  -0.0302996  0.000470656 
1704467688.706486000  0  0  11.5301  0.133431  -0.1338  0.0189202  nan  nan  nan  nan  nan  nan  -2.5  -0.3  1  0.0194828  -0.0266808  -0.000519821  0  0  0  0  0  0  0  0  0  0.0203481  0.0051928  -0.0192844  -0.0148949  0.00942317  0.0086244  -0.0175423  0.0310515  -0.0281977  -0.0924896  -0.0334021  0.0234527 
1704467688.711572000  0  0  11.5946  0.105595  -0.121304  0.0236995  nan  nan  nan  nan  nan  nan  -2.5  -0.3  1  0.019258  -0.0283527  -0.000546012  0  0  0  0  0  0  0  0  0  0.0204566  0.00518683  -0.019387  -0.0132104  0.0093121  0.00375221  -0.0173282  0.0319361  -0.028804  -0.0409046  -0.0657514  -0.0346105 
1704467688.716477000  0  0  11.5918  0.1334  -0.138905  0.0229622  nan  nan  nan  nan  nan  nan  -2.5  -0.3  1  0.0204868  -0.0285865  -0.000585647  0  0  0  0  0  0  0  0  0  0.0203965  0.00524216  -0.0193666  -0.0128439  0.0104808  0.00392704  -0.0192145  0.0322028  -0.028837  -0.0767588  -0.0343632  -0.0244109 
1704467688.721455000  0  0  11.5486  0.143231  -0.14213  0.0198262  nan  nan  nan  nan  nan  nan  -2.5  -0.3  1  0.0201627  -0.0279116  -0.000562775  0  0  0  0  0  0  0  0  0  0.0204581  0.00523394  -0.0194052  -0.0137918  0.0100797  0.00738756  -0.0195971  0.0314355  -0.0283889  -0.0921002  -0.020964  0.0131937 
1704467688.726457000  0  0  11.599  0.110522  -0.138171  0.0231199  nan  nan  nan  nan  nan  nan  -2.5  -0.3  1  0.0199491  -0.0284816  -0.000568183  0  0  0  0  0  0  0  0  0  0.0205448  0.00524486  -0.0194885  -0.0132479  0.00992368  0.00358849  -0.0191875  0.0315902  -0.0288161  -0.0329669  -0.0300351  -0.0267279 
1704467688.731529000  0  0  11.615  0.123066  -0.156717  0.0229652  nan  nan  nan  nan  nan  nan  -2.5  -0.3  1  0.020308  -0.0294311  -0.000597681  0  0  0  0  0  0  0  0  0  0.0204906  0.00529667  -0.0194805  -0.0120919  0.0102209  0.0022957  -0.0199638  0.0327239  -0.0289116  -0.0498403  -0.00495336  -0.0237182 
1704467688.736473000  0  0  11.6108  0.120935  -0.162434  0.0201811  nan  nan  nan  nan  nan  nan  -2.5  -0.3  1  0.0200983  -0.0296443  -0.000595795  0  0  0  0  0  0  0  0  0  0.0205554  0.00529593  -0.0195329  -0.0120147  0.00999438  0.00271522  -0.0200799  0.0329174  -0.0284924  -0.044651  0.00423906  0.0094569 
1704467688.741485000  0  0  11.6191  0.0945002  -0.151169  0.0215011  nan  nan  nan  nan  nan  nan  -2.5  -0.3  1  0.0202431  -0.0277719  -0.000562194  -2e-07  2e-07  -2e-07  0  0  0  -0.000125  0.000125  -0.000125  0.0204792  0.00534599  -0.019524  -0.0138181  0.0100702  0.00205227  -0.0197671  0.0310021  -0.0286684  0.00331182  0.000501829  -0.00649543 
1704467688.746521000  0  0  11.636  0.0704663  -0.156595  0.021446  nan  nan  nan  nan  nan  nan  -2.5  -0.3  1  0.0196339  -0.0310675  -0.000609958  -1.7e-06  1.7e-06  -1.7e-06  0  0  0  -0.0005  0.0005  -0.0005  0.0205758  0.00537233  -0.0196148  -0.0105413  0.00944053  0.000859311  -0.0188109  0.0338771  -0.0286973  0.0406221  -0.0159966  -0.00547392 
1704467688.751867000  0  0  11.6788  0.0791924  -0.181245  0.0188016  nan  nan  nan  nan  nan  nan  -2.5  -0.3  1  0.0202976  -0.0306163  -0.000621425  -5.6e-06  5.6e-06  -5.6e-06  0  0  0  -0.001125  0.001125  -0.001125  0.0206085  0.00541031  -0.0197149  -0.0110307  0.0102037  -0.00239376  -0.0193953  0.0338049  -0.0283369  0.0292987  0.0321387  0.0264072 
1704467688.756465000  0  0  11.6066  0.0675999  -0.149164  0.0184213  nan  nan  nan  nan  nan  nan  -2.5  -0.3  1  0.0197251  -0.0278925  -0.000550082  -1.33e-05  1.33e-05  -1.33e-05  0  0  0  -0.002  0.002  -0.002  0.0205306  0.00545008  -0.0196699  -0.0140256  0.00947728  0.00315288  -0.0184516  0.030838  -0.0281924  0.0427737  -0.00182074  0.0300822 
1704467688.761502000  0  0  11.6909  0.0269791  -0.148159  0.0240874  nan  nan  nan  nan  nan  nan  -2.5  -0.3  1  0.0191088  -0.0325328  -0.00062133  -2.6e-05  2.6e-05  -2.6e-05  0  0  0  -0.003125  0.003125  -0.003125  0.0206241  0.00546619  -0.0197829  -0.00920817  0.00905438  -0.00335396  -0.0170083  0.0346902  -0.0289351  0.107452  -0.0398574  -0.0385194 
1704467688.766493000  0  0  11.7303  0.0635253  -0.179672  0.0215796  nan  nan  nan  nan  nan  nan  -2.5  -0.3  1  0.020061  -0.031861  -0.00063864  -4.5e-05  4.5e-05  -4.5e-05  0  0  0  -0.0045  0.0045  -0.0045  0.0205661  0.00552327  -0.0198186  -0.00982484  0.0101567  -0.00653435  -0.0181547  0.0345863  -0.0287491  0.0478352  0.0217862  -0.00675376 
1704467688.771577000  0  0  11.5356  0.0484324  -0.105264  0.0188135  nan  nan  nan  nan  nan  nan  -2.5  -0.299999  0.999999  0.0181087  -0.0281474  -0.000508701  -7.15e-05  7.15e-05  -7.15e-05  0  0  0  -0.0061191  0.006125  -0.006125  0.0205763  0.00549189  -0.0197509  -0.0144635  0.0079992  0.00857085  -0.0159628  0.0298046  -0.0282671  0.0563518  -0.0766562  0.0255624 
1704467688.776477000  0  0  11.5986  0.0182306  -0.115642  0.0254824  nan  nan  nan  nan  nan  nan  -2.5  -0.299999  0.999999  0.017835  -0.0314501  -0.000559178  -0.000106  0.0001067  -0.0001067  0  0  0  -0.0076674  0.008  -0.008  0.0206573  0.0055115  -0.0198401  -0.0111615  0.00796521  0.00362822  -0.0149871  0.0324547  -0.0291984  0.105354  -0.0815119  -0.0546196 
1704467688.781533000  0  0  11.668  0.0795602  -0.178693  0.0225149  nan  nan  nan  nan  nan  nan  -2.5  -0.299998  0.999998  0.0191011  -0.0309824  -0.000589073  -0.0001477  0.0001519  -0.0001519  0  0  0  -0.0089656  0.010125  -0.010125  0.0205969  0.00557137  -0.0198858  -0.0114627  0.00950967  -0.00198612  -0.0169544  0.03306  -0.0291468  0.00571541  0.0342059  -0.015378 
1704467688.786527000  0  0  11.5265  0.0616813  -0.0980647  0.0189414  nan  nan  nan  nan  nan  nan  -2.5  -0.299997  0.999997  0.0177508  -0.0280395  -0.000493511  -0.0001953  0.0002083  -0.0002083  0  0  0  -0.0100139  0.0125  -0.0125  0.0205906  0.00555402  -0.0198461  -0.0150334  0.00813848  0.00891613  -0.0153202  0.0288245  -0.0287076  0.0248221  -0.0813311  0.0281749 
1704467688.791590000  0  0  11.5864  0.0259758  -0.120772  0.0295241  nan  nan  nan  nan  nan  nan  -2.5  -0.299996  0.999996  0.017817  -0.0319557  -0.000563219  -0.0002474  0.0002773  -0.0002773  0  0  0  -0.0108122  0.015125  -0.015125  0.0205593  0.00560294  -0.0198659  -0.0107849  0.00847004  0.00401929  -0.0145804  0.0322848  -0.0302469  0.0866308  -0.0700435  -0.0984599 
1704467688.796465000  0  0  11.6273  0.0805879  -0.161703  0.0214888  nan  nan  nan  nan  nan  nan  -2.50001  -0.299995  0.999995  0.0178035  -0.0314178  -0.000550713  -0.000303  0.00036  -0.00036  0  0  0  -0.0113604  0.018  -0.018  0.0206111  0.00562334  -0.0199337  -0.0113984  0.00877679  0.000639012  -0.0154215  0.0322593  -0.0295176  -0.0106291  0.00899982  0.00200676 
1704467688.801816000  0  0  11.4827  0.0718284  -0.107997  0.0198325  nan  nan  nan  nan  nan  nan  -2.50001  -0.299993  0.999993  0.0176361  -0.0298026  -0.000513679  -0.0003606  0.0004577  -0.0004577  0  0  0  -0.0116587  0.021125  -0.021125  0.0206236  0.00562038  -0.0198626  -0.0135497  0.00869932  0.0116427  -0.0152334  0.0296248  -0.029122  0.00447309  -0.0697096  0.020308 
1704467688.806523000  0  0  11.505  0.0485505  -0.139373  0.028514  nan  nan  nan  nan  nan  nan  -2.50001  -0.29999  0.99999  0.0171841  -0.0323892  -0.000540535  -0.0004191  0.0005717  -0.0005717  0  0  0  -0.011707  0.0245  -0.0245  0.0205865  0.00565972  -0.0198442  -0.0107191  0.00852883  0.00954922  -0.0143959  0.032267  -0.0303588  0.0414399  -0.0340629  -0.0838314 
1704467688.811572000  0  0  11.5754  0.0998692  -0.164802  0.0190557  nan  nan  nan  nan  nan  nan  -2.50001  -0.299987  0.999987  0.0169999  -0.0317875  -0.000519247  -0.0004773  0.0007031  -0.0007031  0  0  0  -0.0115052  0.028125  -0.028125  0.0206305  0.00565426  -0.0198886  -0.0112151  0.00883231  0.00373771  -0.0152421  0.0320848  -0.0293187  -0.0494317  0.0166003  0.0326448 
1704467688.816809000  0  0  11.4678  0.0848961  -0.133295  0.0221688  nan  nan  nan  nan  nan  nan  -2.50001  -0.299983  0.999983  0.0169654  -0.0312151  -0.00050224  -0.0005338  0.0008533  -0.0008533  0  0  0  -0.0110535  0.032  -0.032  0.0206831  0.00565678  -0.0198425  -0.0121846  0.00902616  0.0117917  -0.0152462  0.0308703  -0.0295412  -0.0205661  -0.0326762  -0.00686817 
1704467688.821484000  0  0  11.426  0.0753424  -0.140284  0.0268686  nan  nan  nan  nan  nan  nan  -2.50002  -0.299978  0.999978  0.015929  -0.0318077  -0.000471822  -0.0005874  0.0010235  -0.0010235  0  0  0  -0.0103518  0.036125  -0.036125  0.0206426  0.00569081  -0.0197756  -0.0115325  0.0082446  0.0145896  -0.0142212  0.0314139  -0.0303248  -0.011778  -0.0243145  -0.0621259 
1704467688.826520000  0  0  11.5652  0.104836  -0.15902  0.0199678  nan  nan  nan  nan  nan  nan  -2.50002  -0.299973  0.999973  0.0160005  -0.0322042  -0.000471536  -0.0006369  0.001215  -0.001215  0  0  0  -0.0094  0.0405  -0.0405  0.0205915  0.00574035  -0.0198244  -0.0105096  0.00886831  0.00331452  -0.0149882  0.0320798  -0.0296077  -0.0613737  0.00551709  0.0232652 
1704467688.831573000  0  0  11.4842  0.111805  -0.150527  0.0190573  nan  nan  nan  nan  nan  nan  -2.50002  -0.299966  0.999966  0.0161671  -0.0307412  -0.000442661  -0.000681  0.001429  -0.001429  0  0  0  -0.0081983  0.045125  -0.045125  0.0206162  0.00574857  -0.0197838  -0.0121966  0.00938595  0.00919592  -0.0156207  0.0305072  -0.0293263  -0.0688622  0.00390353  0.0326982 
1704467688.836472000  0  0  11.4238  0.0887189  -0.141152  0.022224  nan  nan  nan  nan  nan  nan  -2.50003  -0.299958  0.999958  0.0146859  -0.0315251  -0.000396332  -0.0007184  0.0016667  -0.0016667  0  0  0  -0.0067466  0.05  -0.05  0.0207036  0.00573766  -0.0197537  -0.0115887  0.00829228  0.0134709  -0.014209  0.0309431  -0.0296827  -0.0376464  -0.0182328  -0.00621976 
1704467688.841522000  0  0  11.5764  0.0949279  -0.166899  0.0228293  nan  nan  nan  nan  nan  nan  -2.50003  -0.299949  0.999949  0.0147079  -0.0331841  -0.000407014  -0.0007481  0.0019294  -0.0019294  0  0  0  -0.0050978  0.055125  -0.055125  0.0206657  0.00578726  -0.019812  -0.00916144  0.00894339  0.00108948  -0.0145636  0.0328642  -0.0298556  -0.0462768  0.0133336  -0.0126298 
1704467688.846487000  0  0  11.5255  0.100151  -0.166009  0.0196575  nan  nan  nan  nan  nan  nan  -2.50003  -0.299939  0.999939  0.0141963  -0.0318788  -0.000355116  -0.0007698  0.0022183  -0.0022183  0  0  0  -0.0036263  0.0605  -0.0605  0.0207006  0.00578675  -0.0198009  -0.0106  0.00889961  0.00458168  -0.0144531  0.0316703  -0.0294473  -0.0573672  0.0228099  0.0258457 
1704467688.851535000  0  0  11.4498  0.057755  -0.126606  0.0249114  nan  nan  nan  nan  nan  nan  -2.50004  -0.299927  0.999927  0.0124249  -0.0324876  -0.000287603  -0.0007847  0.0025347  -0.0025348  0  0  0  -0.0024048  0.0660084  -0.066125  0.020799  0.00577039  -0.0197703  -0.0102701  0.00756982  0.0100112  -0.0123356  0.0314023  -0.0301092  0.00441089  -0.0505388  -0.0380272 
1704467688.856478000  0  0  11.5357  0.0563014  -0.153574  0.0266191  nan  nan  nan  nan  nan  nan  -2.50004  -0.299914  0.999914  0.0119129  -0.0340031  -0.000267918  -0.0007942  0.002878  -0.00288  0  0  0  -0.0014332  0.0712918  -0.072  0.0207646  0.0058113  -0.0197965  -0.00826029  0.00759216  0.00276525  -0.0118561  0.0331113  -0.0306132  0.00271519  -0.0146352  -0.0559525 
1704467688.861513000  0  0  11.4914  0.0694488  -0.153771  0.0199219  nan  nan  nan  nan  nan  nan  -2.50005  -0.299898  0.999898  0.0111142  -0.0315771  -0.000190312  -0.0007995  0.0032472  -0.0032552  0  0  0  -0.0007117  0.0763253  -0.078125  0.0208055  0.00579653  -0.0197956  -0.0109358  0.00726627  0.00569044  -0.0114523  0.030893  -0.0298516  -0.0263811  0.00653221  0.0262749 
1704467688.866496000  0  0  11.4263  0.0326745  -0.12224  0.0233666  nan  nan  nan  nan  nan  nan  -2.50005  -0.299881  0.999881  0.0100053  -0.0311076  -0.000124402  -0.0008018  0.0036409  -0.0036617  0  0  0  -0.0002402  0.0811088  -0.0845  0.0207471  0.00582785  -0.0197307  -0.0114385  0.00648293  0.0101477  -0.00977738  0.0298097  -0.0302966  0.0287226  -0.0440204  -0.0154959 
1704467688.871667000  0  0  11.5509  0.0517716  -0.16927  0.022847  nan  nan  nan  nan  nan  nan  -2.50005  -0.299862  0.999862  0.00938105  -0.0335354  -9.88477e-05  -0.0008023  0.0040578  -0.0041006  0  0  0  -1.86e-05  0.0856423  -0.091125  0.0208637  0.00581102  -0.01982  -0.00876747  0.00644782  -0.000111084  -0.0096019  0.0326834  -0.0303994  -0.00968875  0.0195936  -0.00752717 
1704467688.876473000  0  0  11.5266  0.0537174  -0.160587  0.0185087  nan  nan  nan  nan  nan  nan  -2.50006  -0.29984  0.99984  0.00849212  -0.0331404  -3.39878e-05  -0.0008023  0.0044969  -0.0045733  0  0  0  0  0.0899258  -0.0979992  0.0209271  0.00577729  -0.0198181  -0.009386  0.00601443  0.00118234  -0.00892806  0.032173  -0.0297729  -0.0197498  0.00766055  0.0444311 
1704467688.881681000  0  0  11.3986  0.0304881  -0.135391  0.0221894  nan  nan  nan  nan  nan  nan  -2.50006  -0.299817  0.999816  0.00748906  -0.0323615  3.96804e-05  -0.0008023  0.0049567  -0.0050805  0  0  0  0  0.0939593  -0.104845  0.0208654  0.00580527  -0.0197198  -0.0104464  0.00524016  0.010479  -0.00760645  0.0309562  -0.0301095  0.012587  -0.0294461  -0.00156553 
1704467688.886615000  0  0  11.4673  0.0447424  -0.139677  0.0209641  nan  nan  nan  nan  nan  nan  -2.50007  -0.299791  0.999789  0.0068343  -0.033495  9.06246e-05  -0.0008023  0.005436  -0.0056214  0  0  0  0  0.0977427  -0.111441  0.0209684  0.00577271  -0.0197638  -0.009284  0.00506789  0.00456496  -0.00736482  0.0318639  -0.0300057  -0.0171207  -0.0297008  0.0138281 
1704467688.891884000  0  0  11.4535  0.0564007  -0.13858  0.0196515  nan  nan  nan  nan  nan  nan  -2.50007  -0.299762  0.99976  0.00619246  -0.0342916  0.000147789  -0.0008023  0.0059337  -0.0061945  0  0  0  0  0.101276  -0.117787  0.0210381  0.00573352  -0.0197562  -0.00864582  0.00484298  0.00507277  -0.00717869  0.0323324  -0.0297654  -0.0413102  -0.0362023  0.0290499 
1704467688.896531000  0  0  11.3638  0.0569107  -0.134737  0.021077  nan  nan  nan  nan  nan  nan  -2.50007  -0.299732  0.999727  0.00595763  -0.031737  0.000214752  -0.0008023  0.0064484  -0.0067988  0  0  0  0  0.10456  -0.123883  0.0209715  0.00575582  -0.0196757  -0.0114161  0.00484459  0.0114365  -0.00709571  0.0298274  -0.0299024  -0.0430698  -0.0201262  0.0113024 
1704467688.901541000  0  0  11.3829  0.0527776  -0.104713  0.0227322  nan  nan  nan  nan  nan  nan  -2.50008  -0.299698  0.999692  0.00440027  -0.0324772  0.000307716  -0.0008023  0.0069789  -0.007433  0  0  0  0  0.107593  -0.129729  0.021063  0.00570601  -0.019667  -0.0107906  0.00367025  0.00941538  -0.00590943  0.0296592  -0.0301548  -0.0462298  -0.0763541  -0.00839034 
1704467688.906475000  0  0  11.4818  0.0702878  -0.128223  0.023289  nan  nan  nan  nan  nan  nan  -2.50008  -0.299662  0.999653  0.00525789  -0.0347362  0.000317996  -0.0008023  0.0075239  -0.0080957  0  0  0  0  0.110377  -0.135326  0.0210351  0.00573711  -0.0197002  -0.00809075  0.00482556  0.0011919  -0.00732629  0.0318302  -0.030304  -0.0666632  -0.0514368  -0.0143826 
1704467688.911698000  0  0  11.3115  0.0975994  -0.109589  0.0199885  nan  nan  nan  nan  nan  nan  -2.50009  -0.299623  0.999611  0.00433468  -0.0303987  0.000421951  -0.0008023  0.0080822  -0.0087858  0  0  0  0  0.11291  -0.140672  0.021061  0.00569471  -0.0195867  -0.0131277  0.00415025  0.0139024  -0.00738574  0.0273352  -0.0299001  -0.118688  -0.0451876  0.0258587 
1704467688.916488000  0  0  11.2707  0.0827047  -0.0733507  0.0238416  nan  nan  nan  nan  nan  nan  -2.50009  -0.299581  0.999565  0.00333496  -0.0299009  0.000510396  -0.0008023  0.0086526  -0.009502  0  0  0  0  0.115194  -0.145768  0.0210005  0.00570631  -0.0195139  -0.0136217  0.00332746  0.0165409  -0.00669063  0.0259055  -0.0304357  -0.096526  -0.101556  -0.0204914 
1704467688.921523000  0  0  11.3971  0.103409  -0.124705  0.0249968  nan  nan  nan  nan  nan  nan  -2.50009  -0.299536  0.999515  0.0046866  -0.0319649  0.000519818  -0.0008023  0.0092337  -0.0102431  0  0  0  0  0.117227  -0.150614  0.0209934  0.005726  -0.0195498  -0.011133  0.00493165  0.0062099  -0.00876927  0.0282882  -0.0308226  -0.116908  -0.0250154  -0.0321672 
1704467688.926519000  0  0  11.234  0.119493  -0.093336  0.0179862  nan  nan  nan  nan  nan  nan  -2.5001  -0.299489  0.999462  0.00303549  -0.0280721  0.000647098  -0.0008023  0.0098244  -0.0110077  0  0  0  0  0.119011  -0.15521  0.0210306  0.00566013  -0.0194267  -0.0156459  0.00350586  0.0184072  -0.00815156  0.0240768  -0.0299675  -0.153662  -0.0459413  0.0533408 
1704467688.931522000  0  0  11.2418  0.0790946  -0.0648713  0.0246927  nan  nan  nan  nan  nan  nan  -2.5001  -0.299438  0.999405  0.00235977  -0.0287727  0.000730312  -0.0008023  0.0104234  -0.0117947  0  0  0  0  0.120544  -0.159556  0.0209672  0.0056746  -0.0193663  -0.0147799  0.00295078  0.0173194  -0.00740619  0.0238284  -0.0307843  -0.0828698  -0.0984159  -0.02847 
1704467688.936545000  0  0  11.3102  0.103486  -0.115979  0.0254677  nan  nan  nan  nan  nan  nan  -2.50011  -0.299384  0.999344  0.00352703  -0.0300622  0.000761285  -0.0008023  0.0110295  -0.0126029  0  0  0  0  0.121828  -0.163652  0.0209194  0.00570414  -0.0193454  -0.0131797  0.00423405  0.0115062  -0.00937639  0.0256108  -0.0311062  -0.111366  -0.0167236  -0.0356886 
1704467688.941824000  0  0  11.2564  0.121769  -0.11662  0.0178379  nan  nan  nan  nan  nan  nan  -2.50011  -0.299328  0.999279  0.00155511  -0.0285658  0.000894983  -0.0008023  0.0116413  -0.0134308  0  0  0  0  0.122861  -0.167498  0.0211073  0.00558594  -0.0192989  -0.0152462  0.00256394  0.0153109  -0.00874302  0.0242227  -0.0300632  -0.152501  -0.00248038  0.0562667 
1704467688.946671000  0  0  11.2758  0.068393  -0.110772  0.027972  nan  nan  nan  nan  nan  nan  -2.50011  -0.299268  0.99921  0.00169001  -0.02991  0.000964159  -0.0008023  0.0122577  -0.0142774  0  0  0  0  0.123645  -0.171094  0.0210485  0.00560005  -0.0192441  -0.0136994  0.00275923  0.0133707  -0.00849157  0.025199  -0.0313213  -0.0520948  -0.0228898  -0.0671209 
1704467688.951643000  0  0  11.3128  0.0988996  -0.156078  0.0232851  nan  nan  nan  nan  nan  nan  -2.50012  -0.299205  0.999136  0.00144337  -0.0309894  0.00104818  -0.0008023  0.0128773  -0.0151414  0  0  0  0  0.124178  -0.17444  0.0211271  0.0055576  -0.0192279  -0.012657  0.00266035  0.0101088  -0.00920888  0.0269495  -0.0310183  -0.104106  0.0479312  -0.00731783 
1704467688.956467000  0  0  11.2683  0.109497  -0.152114  0.0166779  nan  nan  nan  nan  nan  nan  -2.50012  -0.299139  0.999059  0.000857664  -0.029342  0.00114884  -0.0008023  0.013499  -0.0160214  0  0  0  0  0.124461  -0.177536  0.0210476  0.00556354  -0.0191427  -0.0142963  0.00207452  0.0131706  -0.00933423  0.0256357  -0.0300849  -0.123334  0.0526116  0.0720179 
1704467688.961496000  0  0  11.2715  0.0603533  -0.146768  0.0257392  nan  nan  nan  nan  nan  nan  -2.50013  -0.29907  0.998976  0.000857399  -0.0291813  0.00123298  -0.0008023  0.0141215  -0.0169163  0  0  0  0  0.124495  -0.180382  0.0210233  0.00555641  -0.0190869  -0.0144011  0.00209532  0.0125633  -0.00880691  0.0255159  -0.0312259  -0.033661  0.0434425  -0.03815 
1704467688.966967000  0  0  11.2774  0.0753132  -0.179171  0.020618  nan  nan  nan  nan  nan  nan  -2.50013  -0.298998  0.998889  2.92064e-06  -0.0313087  0.00134471  -0.0008023  0.0147435  -0.0178248  0  0  0  0  0.124278  -0.182978  0.0211209  0.00548495  -0.0190621  -0.0124149  0.00135696  0.0118068  -0.00856838  0.0283005  -0.0308074  -0.0646981  0.0797301  0.0263365 
1704467688.971493000  0  0  11.2853  0.0788744  -0.184324  0.0179247  nan  nan  nan  nan  nan  nan  -2.50013  -0.298923  0.998798  -0.000187819  -0.0309953  0.00144012  -0.0008023  0.0153639  -0.0187457  0  0  0  0  0.123812  -0.185324  0.0210593  0.00548343  -0.0190086  -0.0125827  0.00111964  0.0108624  -0.00872122  0.0284676  -0.0303637  -0.0701221  0.0880847  0.058055 
1704467688.976939000  0  0  11.2411  0.0525862  -0.161629  0.0245177  nan  nan  nan  nan  nan  nan  -2.50014  -0.298844  0.998702  -0.000270863  -0.0293499  0.00153425  -0.0008023  0.0159812  -0.0196776  0  0  0  0  0.123095  -0.18742  0.0210284  0.00547186  -0.0189309  -0.0143179  0.000986295  0.0140074  -0.00836166  0.0269421  -0.0311878  -0.0228801  0.0586871  -0.0221624 
1704467688.981524000  0  0  11.2089  0.0578317  -0.16362  0.0239441  nan  nan  nan  nan  nan  nan  -2.50014  -0.298763  0.998601  -0.000613367  -0.0305377  0.00163953  -0.0008023  0.0165944  -0.0206195  0  0  0  0  0.122129  -0.189266  0.0209731  0.00546715  -0.0188437  -0.01308  0.000554381  0.0162184  -0.00830142  0.0282896  -0.031284  -0.0335437  0.0498928  -0.0135361 
1704467688.986529000  0  0  11.2771  0.0707523  -0.181294  0.0211276  nan  nan  nan  nan  nan  nan  -2.50015  -0.298678  0.998496  -0.000433541  -0.031357  0.00173119  -0.0008023  0.0172021  -0.0215699  0  0  0  0  0.120912  -0.190862  0.0209783  0.00544369  -0.0188437  -0.0120647  0.000662473  0.0106918  -0.00893508  0.0296362  -0.0309397  -0.0524807  0.0713  0.0208088 
1704467688.991566000  0  0  11.2076  0.07136  -0.152869  0.0211875  nan  nan  nan  nan  nan  nan  -2.50015  -0.298591  0.998385  -0.000195561  -0.0275902  0.00182189  -0.0008023  0.0178031  -0.0225277  0  0  0  0  0.119446  -0.192208  0.0208751  0.00544977  -0.0187384  -0.0158711  0.000738183  0.0158342  -0.0093495  0.0260203  -0.0309284  -0.0497668  0.0504608  0.019896 
1704467688.996609000  0  0  11.181  0.0551656  -0.137693  0.0244638  nan  nan  nan  nan  nan  nan  -2.50015  -0.2985  0.99827  -0.000732233  -0.0302483  0.00193975  -0.0008023  0.0183962  -0.0234916  0  0  0  0  0.117729  -0.193305  0.0208989  0.00541068  -0.0186635  -0.0132937  0.000108212  0.0177141  -0.00883333  0.0282186  -0.0314199  -0.0234258  0.000640856  -0.0191621 
1704467689.001527000  0  0  11.2505  0.0911693  -0.167468  0.0206292  nan  nan  nan  nan  nan  nan  -2.50016  -0.298407  0.998151  -7.92796e-05  -0.030201  0.00202289  -0.0008023  0.01898  -0.0244603  0  0  0  0  0.115763  -0.194151  0.0209172  0.00537612  -0.0186496  -0.0131904  0.00064144  0.0121122  -0.0102365  0.028776  -0.0310565  -0.0795927  0.0527424  0.0286327 
1704467689.006469000  0  0  11.2092  0.0988987  -0.1298  0.0180343  nan  nan  nan  nan  nan  nan  -2.50016  -0.29831  0.998026  0.000190314  -0.0264749  0.00212006  -0.0008023  0.0195534  -0.0254326  0  0  0  0  0.113546  -0.194747  0.020813  0.00537744  -0.0185535  -0.0168699  0.000678384  0.0151325  -0.0109185  0.0248563  -0.0306134  -0.0880818  0.0169559  0.0590397 
1704467689.011580000  0  0  11.1931  0.0758644  -0.114763  0.0234339  nan  nan  nan  nan  nan  nan  -2.50017  -0.298211  0.997896  -8.53972e-06  -0.0281889  0.00223144  -0.0008023  0.020115  -0.0264073  0  0  0  0  0.11108  -0.195093  0.0208986  0.00531791  -0.0185533  -0.0153498  0.000353609  0.0163802  -0.0106472  0.0261409  -0.0312336  -0.046278  -0.0240327  -0.00719606 
1704467689.016459000  0  0  11.2415  0.0972745  -0.130271  0.0226541  nan  nan  nan  nan  nan  nan  -2.50017  -0.298109  0.997762  0.000579465  -0.027996  0.00232248  -0.0008023  0.0206638  -0.0273832  0  0  0  0  0.108363  -0.195189  0.0208238  0.00531934  -0.018509  -0.0152664  0.000671067  0.0124604  -0.011815  0.0261819  -0.0312478  -0.0765533  0.00543994  0.0033873 
1704467689.021515000  0  0  11.2583  0.100964  -0.112649  0.0192285  nan  nan  nan  nan  nan  nan  -2.50017  -0.298005  0.997622  0.000491774  -0.0271755  0.00243414  -0.0008023  0.0211983  -0.0283588  0  0  0  0  0.105397  -0.195035  0.0209305  0.00523787  -0.0186063  -0.0162849  0.000448571  0.0113296  -0.0121396  0.0252666  -0.0306868  -0.0806149  -0.0199103  0.043763 
1704467689.026476000  0  0  11.2343  0.0909333  -0.106666  0.0230603  nan  nan  nan  nan  nan  nan  -2.50018  -0.297897  0.997478  0.000707295  -0.027838  0.00253751  -0.0008023  0.0217173  -0.0293331  0  0  0  0  0.10218  -0.194631  0.0210081  0.00517855  -0.018605  -0.0158334  0.000463585  0.0132577  -0.0124472  0.0256827  -0.031168  -0.0584205  -0.0353287  -0.00283636 
1704467689.031537000  0  0  11.2468  0.101446  -0.112977  0.0221129  nan  nan  nan  nan  nan  nan  -2.50018  -0.297788  0.997329  0.00105233  -0.028526  0.00263789  -0.0008023  0.0222196  -0.0303047  0  0  0  0  0.0987137  -0.193977  0.0209366  0.00518107  -0.0185494  -0.0149512  0.000457286  0.0122225  -0.0132524  0.0262654  -0.0311644  -0.0711149  -0.0286373  0.00981868 
1704467689.036508000  0  0  11.3439  0.112611  -0.120394  0.020593  nan  nan  nan  nan  nan  nan  -2.50019  -0.297675  0.997175  0.00189675  -0.0285712  0.00272521  -0.0008023  0.022704  -0.0312724  0  0  0  0  0.0949972  -0.193073  0.0209519  0.00513433  -0.0185553  -0.0146878  0.00105195  0.00465247  -0.0145987  0.0263297  -0.0309354  -0.0799916  -0.0149612  0.0279281 
1704467689.041836000  0  0  11.2575  0.105478  -0.110988  0.02184  nan  nan  nan  nan  nan  nan  -2.50019  -0.297561  0.997016  0.00210474  -0.0271807  0.0028344  -0.0008023  0.0231692  -0.032235  0  0  0  0  0.0910307  -0.191919  0.0210215  0.00507948  -0.0185649  -0.016477  0.000953185  0.0115696  -0.0149598  0.0249537  -0.0310255  -0.0628758  -0.020176  0.0121093 
1704467689.046521000  0  0  11.2557  0.0937675  -0.105614  0.0232831  nan  nan  nan  nan  nan  nan  -2.50019  -0.297444  0.996853  0.00197087  -0.0284505  0.00294824  -0.0008023  0.0236139  -0.0331912  0  0  0  0  0.0868142  -0.190515  0.0209586  0.00506973  -0.0185041  -0.0150542  0.000408197  0.0117385  -0.0148904  0.0258608  -0.0312871  -0.04098  -0.0390221  -0.00465202 
1704467689.051521000  0  0  11.4785  0.0991921  -0.160583  0.0225596  nan  nan  nan  nan  nan  nan  -2.5002  -0.297324  0.996684  0.00287293  -0.0316177  0.00302658  -0.0008023  0.0240369  -0.0341398  0  0  0  0  0.0823476  -0.188861  0.0210787  0.00500972  -0.0187047  -0.0114394  0.001065  -0.00532213  -0.0160685  0.0298323  -0.0312202  -0.0403834  0.0295878  0.00438271 
1704467689.056451000  0  0  11.3405  0.117135  -0.147066  0.0188408  nan  nan  nan  nan  nan  nan  -2.5002  -0.297203  0.996511  0.00394222  -0.027223  0.00312359  -0.0008023  0.024437  -0.0350794  0  0  0  0  0.0776311  -0.186957  0.0209673  0.00501781  -0.0185953  -0.0161204  0.0016109  0.00548905  -0.0175253  0.0258109  -0.0306918  -0.0612758  0.0412506  0.0490054 
1704467689.061519000  0  0  11.3392  0.0647533  -0.114652  0.0252819  nan  nan  nan  nan  nan  nan  -2.50021  -0.29708  0.996334  0.00192431  -0.0305985  0.00328593  -0.0008023  0.0248128  -0.0360089  0  0  0  0  0.0726646  -0.184803  0.0211542  0.00488038  -0.0185811  -0.0130432  -0.000670723  0.00581565  -0.0149822  0.0282933  -0.0315202  0.01574  -0.0444177  -0.0291353 
1704467689.066457000  0  0  11.4539  0.0873155  -0.168118  0.0254127  nan  nan  nan  nan  nan  nan  -2.50021  -0.296955  0.996151  0.00370549  -0.0315234  0.00334201  -0.0008023  0.0251632  -0.036927  0  0  0  0  0.0674481  -0.182399  0.0210972  0.00489053  -0.018629  -0.01165  0.00064362  -0.00296119  -0.0170184  0.0300093  -0.0317796  -0.00861578  0.0424357  -0.0283394 
1704467689.071557000  0  0  11.2922  0.0989533  -0.131481  0.0177254  nan  nan  nan  nan  nan  nan  -2.50021  -0.296829  0.995964  0.00363939  -0.0272596  0.0034738  -0.0008023  0.0254869  -0.0378325  0  0  0  0  0.0619822  -0.179745  0.0211382  0.00481422  -0.0186028  -0.0165618  0.000104495  0.00995889  -0.0172057  0.0258484  -0.0307331  -0.0292656  0.0108939  0.0643523 
1704467689.076465000  0  0  11.2559  0.0213008  -0.137039  0.0275113  nan  nan  nan  nan  nan  nan  -2.50022  -0.2967  0.995773  -0.000520624  -0.036918  0.00370642  -0.0008023  0.0257831  -0.0387241  0  0  0  0  0.0565402  -0.176841  0.0220688  0.00427373  -0.0184202  -0.0087411  -0.00353302  0.0128325  -0.0123177  0.0348178  -0.0318873  0.0744266  -0.0624623  -0.0553915 
1704467689.081506000  0  0  11.4057  0.0690959  -0.213929  0.0261162  nan  nan  nan  nan  nan  nan  -2.50022  -0.296571  0.995577  0.00170026  -0.0376063  0.00373767  -0.0008023  0.0260527  -0.0396005  0  0  0  0  0.0513482  -0.173687  0.0220323  0.0042769  -0.0184809  -0.00745703  -0.00178205  0.00135827  -0.0150002  0.0367141  -0.0321399  0.00754784  0.0678001  -0.0342253 
1704467689.086469000  0  0  11.2695  0.0931885  -0.177533  0.0183528  nan  nan  nan  nan  nan  nan  -2.50023  -0.29644  0.995377  0.00190222  -0.034509  0.00385037  -0.0008023  0.026297  -0.0404605  0  0  0  0  0.0464063  -0.170284  0.0220581  0.00419554  -0.0183732  -0.011141  -0.00194615  0.0121905  -0.0156244  0.0335014  -0.0311724  -0.0329865  0.0278367  0.0602615 
1704467689.092004000  0  0  11.1969  0.0225564  -0.148487  0.0285713  nan  nan  nan  nan  nan  nan  -2.50023  -0.296308  0.995173  0.000798142  -0.0377669  0.00400026  -0.0008023  0.0265172  -0.0413029  0  0  0  0  0.0417143  -0.16663  0.022231  0.00408225  -0.0182694  -0.00842232  -0.00330783  0.0181125  -0.0134381  0.0356125  -0.0324739  0.0825089  -0.0478697  -0.0638303 
1704467689.096464000  0  0  11.3421  0.0433252  -0.193516  0.0289399  nan  nan  nan  nan  nan  nan  -2.50023  -0.296175  0.994964  0.00207607  -0.0388634  0.00406404  -0.0008023  0.0267145  -0.0421264  0  0  0  0  0.0372724  -0.162726  0.0222038  0.00406365  -0.0182884  -0.00674464  -0.00239451  0.00702945  -0.0147763  0.0373611  -0.0328819  0.0550651  0.0224365  -0.0647621 
1704467689.101533000  0  0  11.207  0.0746202  -0.156324  0.0189784  nan  nan  nan  nan  nan  nan  -2.50024  -0.296041  0.994751  0.00269984  -0.0367908  0.00415979  -0.0008023  0.0268903  -0.0429297  0  0  0  0  0.0330804  -0.158572  0.0222602  0.00397762  -0.0181434  -0.00944756  -0.00204584  0.0177724  -0.0157969  0.0348713  -0.0316619  0.00437894  -0.0258357  0.0566887 
1704467689.106595000  0  0  11.2094  0.039649  -0.145825  0.0283923  nan  nan  nan  nan  nan  nan  -2.50024  -0.295906  0.994535  0.0028312  -0.0377367  0.00426668  -0.0008023  0.0270458  -0.0437117  0  0  0  0  0.0291384  -0.154168  0.0222206  0.00396539  -0.0180703  -0.00839728  -0.00228526  0.017876  -0.015209  0.0353047  -0.0328756  0.0661981  -0.0501089  -0.0574887 
1704467689.111585000  0  0  11.2751  0.0648707  -0.169585  0.0252085  nan  nan  nan  nan  nan  nan  -2.50025  -0.29577  0.994314  0.00313749  -0.0393078  0.0043646  -0.0008023  0.0271821  -0.044471  0  0  0  0  0.0254465  -0.149514  0.0224025  0.00384467  -0.0180234  -0.00694963  -0.00207117  0.0130242  -0.0158483  0.036906  -0.0327465  0.023631  -0.0193721  -0.0161115 
1704467689.116467000  0  0  11.2352  0.0921275  -0.152291  0.0193143  nan  nan  nan  nan  nan  nan  -2.50025  -0.295634  0.99409  0.0046233  -0.0380136  0.00442659  -0.0008023  0.0273006  -0.0452064  0  0  0  0  0.0220045  -0.14461  0.0223519  0.00383981  -0.0179228  -0.00831071  -0.00091928  0.0164145  -0.0176098  0.0352657  -0.0319935  -0.0123374  -0.0372956  0.0554445 
1704467689.121516000  0  0  11.1469  0.0778181  -0.127264  0.0234307  nan  nan  nan  nan  nan  nan  -2.50025  -0.295497  0.993862  0.00417483  -0.037397  0.00456061  -0.0008023  0.0274026  -0.0459167  0  0  0  0  0.0188125  -0.139456  0.0224958  0.00369615  -0.0177717  -0.00953983  -0.00143638  0.0235772  -0.017037  0.0339087  -0.0324119  0.009844  -0.072762  0.00441743 
1704467689.126580000  0  0  11.2578  0.0947844  -0.133035  0.0215833  nan  nan  nan  nan  nan  nan  -2.50026  -0.29536  0.993631  0.00418925  -0.0397102  0.00466479  -0.0008023  0.0274892  -0.0466006  0  0  0  0  0.0158706  -0.134052  0.0226999  0.00354482  -0.0177068  -0.00723342  -0.00134861  0.0152358  -0.0174324  0.0356732  -0.0322101  -0.0191152  -0.0781869  0.0271803 
1704467689.131485000  0  0  11.2299  0.126412  -0.126983  0.0187139  nan  nan  nan  nan  nan  nan  -2.50026  -0.295222  0.993396  0.00579765  -0.0382167  0.00472398  -0.0008023  0.0275617  -0.0472568  0  0  0  0  0.0131786  -0.128398  0.0226494  0.00354275  -0.0176001  -0.00875535  -1.60002e-06  0.0177196  -0.0195557  0.0338297  -0.0317462  -0.060108  -0.0725631  0.0610588 
1704467689.136510000  0  0  11.133  0.113116  -0.109127  0.0203566  nan  nan  nan  nan  nan  nan  -2.50027  -0.295084  0.993158  0.00532209  -0.0374644  0.00486056  -0.0008023  0.0276214  -0.0478841  0  0  0  0  0.0107366  -0.122494  0.0228196  0.00338219  -0.0174123  -0.0102073  -0.000447394  0.0255589  -0.0191082  0.0324151  -0.031754  -0.0387036  -0.0936831  0.0391333 
1704467689.141797000  0  0  11.2595  0.0941816  -0.101798  0.0251974  nan  nan  nan  nan  nan  nan  -2.50027  -0.294946  0.992918  0.00480529  -0.0393421  0.0049853  -0.0008023  0.0276695  -0.0484813  0  0  0  0  0.0085447  -0.11634  0.0228857  0.00331832  -0.0173906  -0.00800016  -0.000989388  0.0161576  -0.0185346  0.0333754  -0.0324416  -0.00762557  -0.116793  -0.0189556 
1704467689.146468000  0  0  11.3212  0.11773  -0.116705  0.0226886  nan  nan  nan  nan  nan  nan  -2.50027  -0.294808  0.992674  0.00709577  -0.0387778  0.00501361  -0.0008023  0.0277073  -0.0490471  0  0  0  0  0.0066027  -0.109936  0.022844  0.00332312  -0.0173308  -0.00828259  0.00117596  0.0117333  -0.02111  0.0326714  -0.032197  -0.0288268  -0.0814965  0.0122468 
1704467689.151545000  0  0  11.2347  0.102369  -0.0849124  0.0221775  nan  nan  nan  nan  nan  nan  -2.50028  -0.294669  0.992427  0.00652993  -0.0372964  0.00515961  -0.0008023  0.0277359  -0.0495803  0  0  0  0  0.0049108  -0.103282  0.0228885  0.00325354  -0.0172013  -0.0101877  0.000511652  0.0189256  -0.0204793  0.0303062  -0.0320942  -0.00516241  -0.120538  0.0180823 
1704467689.156456000  0  0  11.3371  0.0867551  -0.0882979  0.0255553  nan  nan  nan  nan  nan  nan  -2.50028  -0.29453  0.992178  0.00698904  -0.0375889  0.00525485  -0.0008023  0.0277568  -0.0500795  0  0  0  0  0.0034688  -0.0963859  0.0228468  0.0032541  -0.0171737  -0.00945752  0.00090068  0.011446  -0.0206014  0.0300662  -0.0326175  0.0260417  -0.111771  -0.0220226 
1704467689.161603000  0  0  11.3427  0.120428  -0.115027  0.0198368  nan  nan  nan  nan  nan  nan  -2.50029  -0.294392  0.991926  0.00831794  -0.0375589  0.00531945  -0.0008023  0.027771  -0.0505443  0  0  0  0  0.0022768  -0.0895688  0.0228928  0.00322107  -0.0171308  -0.00957258  0.002219  0.0115113  -0.0224184  0.0301162  -0.0319168  -0.0217587  -0.0607794  0.0476937 
1704467689.166463000  0  0  11.3425  0.114809  -0.110634  0.0191185  nan  nan  nan  nan  nan  nan  -2.50029  -0.294253  0.991673  0.00861494  -0.0368581  0.00542873  -0.0008023  0.02778  -0.0509756  0  0  0  0  0.0013349  -0.0830017  0.0228398  0.00322453  -0.0170567  -0.0101853  0.00241956  0.0119855  -0.0226418  0.0291249  -0.0316983  -0.00884797  -0.0599469  0.055169 
1704467689.171578000  0  0  11.3751  0.0948476  -0.115397  0.022008  nan  nan  nan  nan  nan  nan  -2.50029  -0.294114  0.991417  0.0090542  -0.0358833  0.00553577  -0.0008023  0.0277848  -0.0513747  0  0  0  0  0.0006429  -0.0766845  0.0228722  0.00318261  -0.0170292  -0.0111536  0.00291312  0.00993842  -0.0226515  0.0280329  -0.0319442  0.0296745  -0.0405425  0.0188806 
1704467689.176455000  0  0  11.3824  0.0948489  -0.114727  0.0208245  nan  nan  nan  nan  nan  nan  -2.5003  -0.293975  0.991159  0.00902463  -0.0371534  0.00563977  -0.0008023  0.0277868  -0.0517429  0  0  0  0  0.0002009  -0.0706174  0.0229392  0.00312407  -0.0169814  -0.00996146  0.00297762  0.00983555  -0.022565  0.028959  -0.0317119  0.0288613  -0.0505131  0.0324514 
1704467689.181456000  0  0  11.4553  0.0817517  -0.147528  0.0209733  nan  nan  nan  nan  nan  nan  -2.5003  -0.293836  0.990899  0.00929914  -0.0380127  0.00573599  -0.0008023  0.0277872  -0.0520813  0  0  0  0  9e-06  -0.0648003  0.0228988  0.00313783  -0.0169724  -0.0087418  0.00328389  0.00460762  -0.0224076  0.0301846  -0.031689  0.052601  0.00115235  0.0302331 
1704467689.186468000  0  0  11.4371  0.0900652  -0.143713  0.0212376  nan  nan  nan  nan  nan  nan  -2.50031  -0.293697  0.990638  0.0101949  -0.0350846  0.00584618  -0.0008023  0.0277872  -0.0523913  0  0  0  0  0  -0.0592332  0.0229223  0.0031124  -0.0169722  -0.0118951  0.00423499  0.00650304  -0.023087  0.027536  -0.0316743  0.0429631  0.0186293  0.0265489 
1704467689.191605000  0  0  11.4122  0.0661358  -0.120153  0.0233954  nan  nan  nan  nan  nan  nan  -2.50031  -0.293558  0.990375  0.00998502  -0.0363524  0.00595529  -0.0008023  0.0277872  -0.0526741  0  0  0  0  0  -0.0539161  0.0228739  0.00313037  -0.0169138  -0.0105622  0.00396847  0.00887424  -0.0222288  0.0281649  -0.0319654  0.0809905  -0.0326238  0.000505396 
1704467689.196444000  0  0  11.5336  0.0702578  -0.167148  0.0233075  nan  nan  nan  nan  nan  nan  -2.50031  -0.293419  0.990111  0.0104036  -0.0382885  0.00603434  -0.0008023  0.0277872  -0.0529309  0  0  0  0  0  -0.048849  0.0229548  0.00308038  -0.0169732  -0.00831184  0.00463925  -0.000124094  -0.0223776  0.0307652  -0.0319987  0.0744493  0.0334834  0.00200949 
1704467689.201906000  0  0  11.4205  0.0803067  -0.136697  0.017966  nan  nan  nan  nan  nan  nan  -2.50032  -0.29328  0.989846  0.010717  -0.0332199  0.00619103  -0.0008023  0.0277872  -0.053163  0  0  0  0  0  -0.0440319  0.0229619  0.00305278  -0.0169441  -0.0139687  0.00488471  0.00912828  -0.0224309  0.0258892  -0.0312257  0.0556023  0.0205551  0.0659651 
1704467689.206583000  0  0  11.4981  0.0313582  -0.126789  0.0257391  nan  nan  nan  nan  nan  nan  -2.50032  -0.293141  0.98958  0.0104241  -0.0367207  0.00627869  -0.0008023  0.0277872  -0.0533716  0  0  0  0  0  -0.0394647  0.0229339  0.00306285  -0.0169376  -0.0100293  0.00466173  0.00348122  -0.0210502  0.0287491  -0.032149  0.136901  -0.0253236  -0.0290843 
1704467689.211577000  0  0  11.6112  0.0936289  -0.194841  0.0205334  nan  nan  nan  nan  nan  nan  -2.50033  -0.293002  0.989312  0.0121431  -0.0365412  0.00633216  -0.0008023  0.0277872  -0.053558  0  0  0  0  0  -0.0351476  0.0229892  0.00304948  -0.0170395  -0.00996843  0.00660919  -0.00491457  -0.0231822  0.0298845  -0.0316234  0.0369941  0.0950532  0.035482 
1704467689.216449000  0  0  11.4947  0.102531  -0.130549  0.0156025  nan  nan  nan  nan  nan  nan  -2.50033  -0.292863  0.989044  0.0123824  -0.03185  0.00649587  -0.0008023  0.0277872  -0.0537235  0  0  0  0  0  -0.0310805  0.022889  0.00307443  -0.0169497  -0.0150339  0.00664814  0.00444143  -0.0233205  0.0247458  -0.0308735  0.0211516  0.0194328  0.0941656 
1704467689.221530000  0  0  11.5034  0.0369011  -0.100788  0.0252289  nan  nan  nan  nan  nan  nan  -2.50033  -0.292724  0.988775  0.0104393  -0.0360692  0.00662813  -0.0008023  0.0277872  -0.0538693  0  0  0  0  0  -0.0272634  0.0231645  0.00288758  -0.0169262  -0.0111805  0.00505943  0.00415292  -0.0201478  0.0278737  -0.0319335  0.117773  -0.0671778  -0.0243668 
1704467689.226807000  0  0  11.6106  0.073831  -0.168616  0.0230365  nan  nan  nan  nan  nan  nan  -2.50034  -0.292586  0.988506  0.0104534  -0.0389277  0.00671206  -0.0008023  0.0277872  -0.0539966  0  0  0  0  0  -0.0236963  0.0234728  0.0027229  -0.0169342  -0.00847042  0.00554885  -0.00396399  -0.0204043  0.0316889  -0.0317748  0.0490764  0.0276547  0.00343973 
1704467689.231729000  0  0  11.4264  0.0995514  -0.0824755  0.0139048  nan  nan  nan  nan  nan  nan  -2.50034  -0.292447  0.988235  0.0108636  -0.0330009  0.00687484  -0.0008023  0.0277872  -0.0541066  0  0  0  0  0  -0.0203792  0.0233631  0.00274887  -0.0168037  -0.0150315  0.00570238  0.0105748  -0.0211814  0.024774  -0.0303215  0.00684066  -0.0733847  0.111485 
1704467689.236518000  0  0  11.4403  0.053362  -0.0861253  0.0248366  nan  nan  nan  nan  nan  nan  -2.50035  -0.292308  0.987965  0.0104624  -0.0362825  0.00696817  -0.0008023  0.0277872  -0.0542008  0  0  0  0  0  -0.0173121  0.0235233  0.00265442  -0.0167772  -0.0119244  0.00552646  0.00977113  -0.0200429  0.0273261  -0.0314931  0.0850981  -0.0902752  -0.0234372 
1704467689.241962000  0  0  11.5173  0.0852145  -0.132846  0.022556  nan  nan  nan  nan  nan  nan  -2.50035  -0.292169  0.987693  0.0109361  -0.0373105  0.00705415  -0.0008023  0.0277872  -0.0542802  0  0  0  0  0  -0.014495  0.0235955  0.00260723  -0.0168066  -0.0107543  0.00620602  0.00400471  -0.0208364  0.0287501  -0.031399  0.0312103  -0.0136722  0.00618604 
1704467689.246532000  0  0  11.4699  0.105983  -0.102993  0.015884  nan  nan  nan  nan  nan  nan  -2.50035  -0.29203  0.987422  0.0118377  -0.0343377  0.00717008  -0.0008023  0.0277872  -0.0543461  0  0  0  0  0  -0.0119278  0.0235148  0.00262818  -0.0167293  -0.0138422  0.00703241  0.00779285  -0.0219406  0.0254126  -0.030445  0.0015745  -0.0398673  0.0861876 
1704467689.251558000  0  0  11.458  0.0712573  -0.110709  0.0266343  nan  nan  nan  nan  nan  nan  -2.50036  -0.291891  0.98715  0.0116943  -0.0358275  0.00727199  -0.0008023  0.0277872  -0.0543999  0  0  0  0  0  -0.0096107  0.0236382  0.00256669  -0.0166785  -0.0125925  0.00701485  0.00887393  -0.0212928  0.0266503  -0.0315721  0.0623585  -0.0366126  -0.0467403 
1704467689.256482000  0  0  11.4824  0.0896949  -0.136225  0.0238184  nan  nan  nan  nan  nan  nan  -2.50036  -0.291752  0.986878  0.0119749  -0.0360742  0.00737339  -0.0008023  0.0277872  -0.0544427  0  0  0  0  0  -0.0075436  0.0235797  0.00259838  -0.016652  -0.0121367  0.0072725  0.00708011  -0.0216519  0.0272112  -0.0315302  0.030227  0.00725561  -0.00943455 
1704467689.261485000  0  0  11.5492  0.109828  -0.141006  0.0188293  nan  nan  nan  nan  nan  nan  -2.50037  -0.291613  0.986606  0.0127963  -0.0355392  0.007465  -0.0008023  0.0277872  -0.0544757  0  0  0  0  0  -0.0057265  0.0235636  0.00261168  -0.0166595  -0.012452  0.0081775  0.00197783  -0.0227169  0.0268594  -0.0308373  0.00144527  0.0197585  0.0505885 
1704467689.266516000  0  0  11.447  0.0957629  -0.122987  0.0222718  nan  nan  nan  nan  nan  nan  -2.50037  -0.291474  0.986333  0.0136079  -0.0334415  0.00757909  -0.0008023  0.0277872  -0.0545003  0  0  0  0  0  -0.0041594  0.0234776  0.00265607  -0.0165686  -0.0147836  0.00879198  0.00998983  -0.0230911  0.0246487  -0.031228  0.0320316  0.0057854  0.008314 
1704467689.271655000  0  0  11.5564  0.0860554  -0.145423  0.0222705  nan  nan  nan  nan  nan  nan  -2.50037  -0.291335  0.986061  0.0135107  -0.035298  0.00767167  -0.0008023  0.0277872  -0.0545177  0  0  0  0  0  -0.0028423  0.0234698  0.00267808  -0.0166003  -0.0124933  0.00880005  0.00156687  -0.0227149  0.0267524  -0.0313602  0.0471956  0.029265  0.00963029 
1704467689.276911000  0  0  11.6179  0.111152  -0.163265  0.0195269  nan  nan  nan  nan  nan  nan  -2.50038  -0.291196  0.985788  0.0152569  -0.0346324  0.00773458  -0.0008023  0.0277872  -0.0545292  0  0  0  0  0  -0.0017752  0.0234564  0.00271247  -0.0166276  -0.0129836  0.0106401  -0.00316639  -0.0246169  0.026639  -0.0309631  0.0167027  0.0646773  0.0424795 
1704467689.281526000  0  0  11.4399  0.0914882  -0.133055  0.0198797  nan  nan  nan  nan  nan  nan  -2.50038  -0.291057  0.985515  0.0148643  -0.0319148  0.00790296  -0.0008023  0.0277872  -0.0545359  0  0  0  0  0  -0.000958  0.0233629  0.00274083  -0.0164761  -0.0161608  0.00990555  0.0106391  -0.0237576  0.0238623  -0.0309449  0.0465078  0.0325369  0.0375761 
1704467689.286529000  0  0  11.5428  0.0723223  -0.146679  0.0241361  nan  nan  nan  nan  nan  nan  -2.50039  -0.290918  0.985243  0.0146044  -0.0345187  0.00798764  -0.0008023  0.0277872  -0.0545392  0  0  0  0  0  -0.0003909  0.0234158  0.00276426  -0.016571  -0.0132518  0.00975073  0.00279362  -0.0230003  0.0266513  -0.0314599  0.0763101  0.0326307  -0.01438 
1704467689.291593000  0  0  11.6276  0.0949579  -0.174156  0.0208819  nan  nan  nan  nan  nan  nan  -2.50039  -0.290779  0.98497  0.0165347  -0.033618  0.00805029  -0.0008023  0.0277872  -0.0545402  0  0  0  0  0  -7.38e-05  0.0233383  0.00283441  -0.016616  -0.0137898  0.0117464  -0.00381315  -0.0248312  0.0265198  -0.0311848  0.0498888  0.0867629  0.0265068 
1704467689.296525000  0  0  11.4864  0.0805569  -0.146093  0.0191426  nan  nan  nan  nan  nan  nan  -2.50039  -0.29064  0.984697  0.0158733  -0.0320491  0.00821172  -0.0008023  0.0277872  -0.0545403  0  0  0  0  0  4e-06  0.023339  0.00284148  -0.0165611  -0.0158503  0.0108194  0.00721604  -0.0237264  0.0250345  -0.0308569  0.0672609  0.0466547  0.0465843 
1704467689.302102000  0  0  11.5517  0.0463745  -0.152548  0.0237037  nan  nan  nan  nan  nan  nan  -2.5004  -0.290501  0.984424  0.0153935  -0.034512  0.0083036  -0.0008023  0.0277872  -0.05454  0  0  0  0  0  0.0001739  0.023464  0.00285175  -0.016662  -0.0133439  0.0104162  0.002303  -0.0222588  0.0277746  -0.0313139  0.119317  0.0334025  -0.0100223 
1704467689.306526000  0  0  11.6101  0.0717502  -0.170417  0.0201554  nan  nan  nan  nan  nan  nan  -2.5004  -0.290363  0.984152  0.016548  -0.0339044  0.0083882  -0.0008023  0.0277872  -0.0545382  0  0  0  0  0  0.0005937  0.0233989  0.00289376  -0.0166614  -0.0136753  0.0116234  -0.0022822  -0.0233154  0.0277053  -0.0309896  0.080364  0.0684548  0.0343215 
1704467689.311574000  0  0  11.5132  0.0627903  -0.152451  0.018718  nan  nan  nan  nan  nan  nan  -2.50041  -0.290224  0.983879  0.0163065  -0.0330349  0.00852497  -0.0008023  0.0277872  -0.0545336  0  0  0  0  0  0.0012636  0.0234242  0.00290369  -0.0166181  -0.0149327  0.0111992  0.00533743  -0.0225713  0.0269624  -0.0306626  0.0906415  0.040828  0.0503637 
1704467689.316529000  0  0  11.5219  0.0450371  -0.144631  0.0240107  nan  nan  nan  nan  nan  nan  -2.50041  -0.290085  0.983606  0.0164629  -0.0327353  0.00863913  -0.0008023  0.0277872  -0.0545251  0  0  0  0  0  0.0021834  0.0233494  0.00295743  -0.0166036  -0.0150662  0.0112634  0.00471863  -0.0219323  0.0266798  -0.0313108  0.118833  0.0284203  -0.0141638 
1704467689.321541000  0  0  11.5825  0.0559809  -0.164214  0.0217548  nan  nan  nan  nan  nan  nan  -2.50041  -0.289946  0.983334  0.0159974  -0.0352673  0.00872829  -0.0008023  0.0277872  -0.0545114  0  0  0  0  0  0.0033533  0.0235913  0.00285378  -0.0165234  -0.0127352  0.0111121  -8.54149e-05  -0.0212424  0.0296086  -0.0311197  0.0912969  0.0386755  0.0141758 
1704467689.326463000  0  0  11.5557  0.056468  -0.173313  0.0207735  nan  nan  nan  nan  nan  nan  -2.50042  -0.289807  0.983061  0.015458  -0.0366493  0.00884036  -0.0008023  0.0277872  -0.0544912  0  0  0  0  0  0.0047731  0.0238017  0.00274331  -0.0163785  -0.0118122  0.0107575  0.00189589  -0.0204021  0.0312799  -0.0309812  0.0824843  0.0405313  0.0259596 
1704467689.331508000  0  0  11.5132  0.04858  -0.150386  0.0232607  nan  nan  nan  nan  nan  nan  -2.50042  -0.289668  0.982789  0.015469  -0.0347814  0.00898323  -0.0008023  0.0277872  -0.0544632  0  0  0  0  0  0.006443  0.0237233  0.00279517  -0.0163385  -0.0137401  0.010586  0.00532346  -0.0198269  0.029331  -0.0313313  0.09228  0.0146547  -0.00391647 
1704467689.336463000  0  0  11.5465  0.0354439  -0.162015  0.0238662  nan  nan  nan  nan  nan  nan  -2.50043  -0.289529  0.982517  0.0138048  -0.0396384  0.00908851  -0.0008023  0.0277872  -0.0544263  0  0  0  0  0  0.0083628  0.0242178  0.00256202  -0.0161072  -0.00957857  0.00943452  0.00249387  -0.0177971  0.0340171  -0.0315022  0.0985484  -0.00687287  -0.0103493 
1704467689.341517000  0  0  11.5322  0.0684542  -0.179701  0.021207  nan  nan  nan  nan  nan  nan  -2.50043  -0.28939  0.982245  0.0152392  -0.0382908  0.00916658  -0.0008023  0.0277872  -0.0543792  0  0  0  0  0  0.0105327  0.0241562  0.00262136  -0.0160863  -0.0109229  0.0107805  0.00374805  -0.0193095  0.0331331  -0.0312588  0.049168  0.0354608  0.0228793 
1704467689.347573000  0  0  11.4212  0.0501572  -0.133835  0.022038  nan  nan  nan  nan  nan  nan  -2.50043  -0.289251  0.981973  0.0137185  -0.0374301  0.009351  -0.0008023  0.0277872  -0.0543206  0  0  0  0  0  0.0129525  0.0243732  0.00250985  -0.0158804  -0.0126435  0.00928207  0.0123617  -0.0173458  0.0315404  -0.0313378  0.0659922  -0.0379154  0.0125239 
1704467689.351568000  0  0  11.5418  0.0367  -0.166778  0.0258371  nan  nan  nan  nan  nan  nan  -2.50044  -0.289112  0.981701  0.0142166  -0.0424077  0.00937605  -0.0008023  0.0277872  -0.0542493  0  0  0  0  0  0.0156224  0.0245271  0.00244046  -0.0157773  -0.00735698  0.0101549  0.00294828  -0.0174345  0.0364718  -0.0319063  0.0927321  -0.0207071  -0.0327806 
1704467689.356459000  0  0  11.5524  0.0772617  -0.185473  0.0220259  nan  nan  nan  nan  nan  nan  -2.50044  -0.288973  0.98143  0.0155707  -0.0412078  0.0094517  -0.0008023  0.0277872  -0.0541639  0  0  0  0  0  0.0185422  0.0244721  0.00249547  -0.0157511  -0.00847103  0.0114622  0.00229724  -0.0190849  0.0356887  -0.0315684  0.0301072  0.0226248  0.0149499 
1704467689.361518000  0  0  11.4197  0.070383  -0.121354  0.0201012  nan  nan  nan  nan  nan  nan  -2.50045  -0.288834  0.98116  0.0135858  -0.0397183  0.009668  -0.0008023  0.0277872  -0.0540634  0  0  0  0  0  0.0217121  0.0246326  0.00237489  -0.01549  -0.0108297  0.00946237  0.0125885  -0.0171003  0.033133  -0.0312627  0.0247519  -0.0768712  0.0377294 
1704467689.366465000  0  0  11.5051  0.0530473  -0.126552  0.0262052  nan  nan  nan  nan  nan  nan  -2.50045  -0.288695  0.98089  0.0147518  -0.0422761  0.00969839  -0.0008023  0.0277872  -0.0539464  0  0  0  0  0  0.0251319  0.024607  0.00243085  -0.0154925  -0.00781498  0.0106966  0.00621152  -0.0177293  0.0351059  -0.0320942  0.0640223  -0.0853526  -0.0358671 
1704467689.371558000  0  0  11.4846  0.150106  -0.17793  0.0152467  nan  nan  nan  nan  nan  nan  -2.50045  -0.288556  0.98062  0.0164957  -0.0396359  0.00978259  -0.0008023  0.0277872  -0.0538117  0  0  0  0  0  0.0288018  0.0246237  0.00245175  -0.0153792  -0.0106931  0.0124161  0.00786705  -0.0210953  0.033519  -0.0307313  -0.091297  0.0284351  0.0975348 
1704467689.376462000  0  0  11.4162  0.130658  -0.125449  0.0154845  nan  nan  nan  nan  nan  nan  -2.50046  -0.288417  0.980352  0.016061  -0.0384905  0.0099326  -0.0008023  0.0277872  -0.053658  0  0  0  0  0  0.0327216  0.0246546  0.00244197  -0.015221  -0.0121872  0.0118755  0.0133339  -0.0207178  0.0314791  -0.0303899  -0.0573912  -0.0534868  0.0909974 
1704467689.381515000  0  0  11.4956  0.121301  -0.130887  0.0246536  nan  nan  nan  nan  nan  nan  -2.50046  -0.288279  0.980084  0.0173379  -0.0405009  0.00996302  -0.0008023  0.0277872  -0.053484  0  0  0  0  0  0.0368915  0.0246186  0.00251388  -0.0152187  -0.00975571  0.0131958  0.00748412  -0.0219015  0.0329787  -0.0314814  -0.0282838  -0.0570707  -0.0211012 
1704467689.386518000  0  0  11.4689  0.169827  -0.132827  0.0145448  nan  nan  nan  nan  nan  nan  -2.50047  -0.28814  0.979817  0.0179002  -0.0379514  0.0101003  -0.0008023  0.0277872  -0.0532886  0  0  0  0  0  0.0413113  0.024574  0.00256725  -0.0151466  -0.0124169  0.0136032  0.00980286  -0.0234948  0.0305432  -0.0302416  -0.106777  -0.0305121  0.102129 
1704467689.391856000  0  0  11.3989  0.146775  -0.0862343  0.0169661  nan  nan  nan  nan  nan  nan  -2.50047  -0.288001  0.979551  0.0185427  -0.0357905  0.0102303  -0.0008023  0.0277872  -0.0530705  0  0  0  0  0  0.0459812  0.0245171  0.0026333  -0.0150441  -0.0147794  0.0139926  0.0155591  -0.0240693  0.0273903  -0.0301661  -0.057012  -0.0906666  0.0689553 
1704467689.396510000  0  0  11.4549  0.1242  -0.103431  0.0242549  nan  nan  nan  nan  nan  nan  -2.50047  -0.287862  0.979286  0.0185478  -0.0366495  0.0103286  -0.0008023  0.0277872  -0.0528284  0  0  0  0  0  0.050901  0.0244638  0.00268693  -0.0150017  -0.0135977  0.0139942  0.0115317  -0.0237658  0.0280414  -0.031215  -0.0163941  -0.0636615  -0.0183759 
1704467689.401516000  0  0  11.4978  0.129308  -0.110428  0.0181853  nan  nan  nan  nan  nan  nan  -2.50048  -0.287723  0.979023  0.018943  -0.0362585  0.0104359  -0.0008023  0.0277872  -0.0525611  0  0  0  0  0  0.0560709  0.0244044  0.00275819  -0.0149708  -0.0137445  0.0143295  0.00855307  -0.0243049  0.0275794  -0.0305049  -0.0211755  -0.0458602  0.0559506 
1704467689.406463000  0  0  11.5002  0.118993  -0.0979454  0.0198764  nan  nan  nan  nan  nan  nan  -2.50048  -0.287584  0.978761  0.0198917  -0.0349007  0.0105429  -0.0008023  0.0277872  -0.0522673  0  0  0  0  0  0.0614907  0.0243737  0.00281529  -0.0149344  -0.0151003  0.0151906  0.00878459  -0.0249494  0.025996  -0.0305319  0.00472284  -0.0550533  0.0335638 
1704467689.411559000  0  0  11.463  0.0834655  -0.0975157  0.0252281  nan  nan  nan  nan  nan  nan  -2.50049  -0.287445  0.9785  0.0185078  -0.035225  0.0106996  -0.0008023  0.0277872  -0.0519458  0  0  0  0  0  0.0671606  0.0243811  0.0028654  -0.0148755  -0.0148846  0.0135883  0.0121389  -0.0228698  0.0261922  -0.0313177  0.0536332  -0.0577198  -0.0304034 
1704467689.416453000  0  0  11.5613  0.0687245  -0.119388  0.0228039  nan  nan  nan  nan  nan  nan  -2.50049  -0.287306  0.978241  0.0187971  -0.0360954  0.0107875  -0.0008023  0.0277872  -0.0515953  0  0  0  0  0  0.0730805  0.0243203  0.00293348  -0.0148782  -0.0135387  0.0139298  0.00495255  -0.0225942  0.0271678  -0.0311861  0.0794306  -0.0247515  0.000775035 
1704467689.421522000  0  0  11.4876  0.0735302  -0.148382  0.0203328  nan  nan  nan  nan  nan  nan  -2.50049  -0.287167  0.977984  0.0184064  -0.0353249  0.0109302  -0.0008023  0.0277872  -0.0512145  0  0  0  0  0  0.0792503  0.0246088  0.00276097  -0.0145301  -0.0151843  0.0137541  0.0106511  -0.0219705  0.027193  -0.0309251  0.0643339  0.0308319  0.0313123 
1704467689.426459000  0  0  11.4639  0.0481939  -0.130136  0.0215021  nan  nan  nan  nan  nan  nan  -2.5005  -0.287028  0.977729  0.0173997  -0.0353524  0.0110795  -0.0008023  0.0277872  -0.0508023  0  0  0  0  0  0.0856702  0.024592  0.00280345  -0.0144731  -0.0151881  0.0125841  0.0130131  -0.0201807  0.0271146  -0.0310218  0.0963392  -0.00356214  0.016599 
1704467689.431559000  0  0  11.602  0.0300302  -0.178109  0.0247595  nan  nan  nan  nan  nan  nan  -2.5005  -0.286889  0.977476  0.0180099  -0.0385133  0.0111155  -0.0008023  0.0277872  -0.0503574  0  0  0  0  0  0.09234  0.024551  0.0028773  -0.0145062  -0.0113465  0.0133329  0.00282238  -0.0199212  0.0308069  -0.0315725  0.128877  0.0541967  -0.0216241 
1704467689.436511000  0  0  11.567  0.0453117  -0.173895  0.0185425  nan  nan  nan  nan  nan  nan  -2.50051  -0.28675  0.977226  0.0182143  -0.0354177  0.0112784  -0.0008023  0.0277872  -0.0498785  0  0  0  0  0  0.0992599  0.0244988  0.0029254  -0.0144538  -0.0146087  0.0133558  0.00608032  -0.0196931  0.0282819  -0.0309546  0.0973189  0.0697464  0.0555821 
1704467689.441519000  0  0  11.4756  0.0113769  -0.134264  0.0203993  nan  nan  nan  nan  nan  nan  -2.50051  -0.286611  0.976978  0.0172777  -0.0343418  0.0114445  -0.0008023  0.0277872  -0.0493644  0  0  0  0  0  0.10643  0.0244143  0.00298079  -0.0143494  -0.0158345  0.0121035  0.0137513  -0.0176826  0.0267758  -0.0310865  0.14381  0.00756177  0.0320054 
1704467689.446516000  0  0  11.5595  0.014003  -0.178475  0.0238574  nan  nan  nan  nan  nan  nan  -2.50051  -0.286472  0.976732  0.0171961  -0.0372083  0.0115124  -0.0008023  0.0277872  -0.0488138  0  0  0  0  0  0.11385  0.0245376  0.00295429  -0.0142322  -0.0128316  0.0122467  0.00760926  -0.0169998  0.0302255  -0.0316034  0.132355  0.0603506  -0.00923806 
1704467689.451561000  0  0  11.5338  0.0493947  -0.172345  0.0178891  nan  nan  nan  nan  nan  nan  -2.50052  -0.286333  0.97649  0.0173184  -0.0357763  0.0116471  -0.0008023  0.0277872  -0.0482255  0  0  0  0  0  0.121519  0.0245867  0.0029239  -0.0140707  -0.0145216  0.0123844  0.0100129  -0.0171228  0.0291068  -0.030964  0.0653698  0.059031  0.0644266 
1704467689.456507000  0  0  11.449  0.030784  -0.139421  0.0211287  nan  nan  nan  nan  nan  nan  -2.50052  -0.286194  0.97625  0.0172669  -0.0348441  0.0117794  -0.0008023  0.0277872  -0.0475982  0  0  0  0  0  0.129439  0.0245056  0.0029797  -0.0139537  -0.0155937  0.0120702  0.017193  -0.016429  0.0278254  -0.0311887  0.0946982  0.00765301  0.0232398 
1704467689.461516000  0  0  11.4915  0.0259544  -0.153499  0.0235948  nan  nan  nan  nan  nan  nan  -2.50053  -0.286056  0.976014  0.0163998  -0.0367673  0.0118925  -0.0008023  0.0277872  -0.0469307  0  0  0  0  0  0.137609  0.0246622  0.00292381  -0.0137981  -0.0137782  0.0113818  0.0143125  -0.0151282  0.0298271  -0.0316306  0.0918064  0.0159986  -0.0054535 
