    ts      x      y      z   roll  pitch    yaw     vx     vy     vz     wx     wy     wz     ax     ay     az    dwx    dwy    dwz
 0.0050000  -2.5000000  -0.3000000   1.0000000   0.0000000   0.0000000   0.0000000  -0.0000002   0.0000002  -0.0000002   0.0000000   0.0000000   0.0000000  -0.0001250   0.0001250  -0.0001250   0.0000000   0.0000000   0.0000000
 0.0100000  -2.5000000  -0.3000000   1.0000000   0.0000000   0.0000000   0.0000000  -0.0000017   0.0000017  -0.0000017   0.0000000   0.0000000   0.0000000  -0.0005000   0.0005000  -0.0005000   0.0000000   0.0000000   0.0000000
 0.0150000  -2.5000000  -0.3000000   1.0000000   0.0000000   0.0000000   0.0000000  -0.0000056   0.0000056  -0.0000056   0.0000000   0.0000000   0.0000000  -0.0011250   0.0011250  -0.0011250   0.0000000   0.0000000   0.0000000
 0.0200000  -2.5000000  -0.3000000   1.0000000   0.0000000   0.0000000   0.0000001  -0.0000133   0.0000133  -0.0000133   0.0000000   0.0000000   0.0000000  -0.0020000   0.0020000  -0.0020000   0.0000000   0.0000000   0.0000000
 0.0250000  -2.5000000  -0.3000000   1.0000000   0.0000000   0.0000000   0.0000003  -0.0000260   0.0000260  -0.0000260   0.0000000   0.0000000   0.0000000  -0.0031250   0.0031250  -0.0031250   0.0000000   0.0000000   0.0000000
 0.0300000  -2.5000000  -0.3000000   1.0000000   0.0000000   0.0000000   0.0000005  -0.0000450   0.0000450  -0.0000450   0.0000000   0.0000000   0.0000000  -0.0045000   0.0045000  -0.0045000   0.0000000   0.0000000   0.0000000
 0.0350000  -2.5000000  -0.2999990   0.9999990   0.0000000   0.0000000   0.0000010  -0.0000715   0.0000715  -0.0000715   0.0000000   0.0000000   0.0000000  -0.0061191   0.0061250  -0.0061250   0.0000000   0.0000000   0.0000000
 0.0400000  -2.5000000  -0.2999990   0.9999990   0.0000000   0.0000000   0.0000017  -0.0001060   0.0001067  -0.0001067   0.0000000   0.0000000   0.0000000  -0.0076674   0.0080000  -0.0080000   0.0000000   0.0000000   0.0000000
 0.0450000  -2.5000000  -0.2999980   0.9999980   0.0000000   0.0000000   0.0000027  -0.0001477   0.0001519  -0.0001519   0.0000000   0.0000000   0.0000000  -0.0089656   0.0101250  -0.0101250   0.0000000   0.0000000   0.0000000
 0.0500000  -2.5000000  -0.2999970   0.9999970   0.0000000   0.0000000   0.0000042  -0.0001953   0.0002083  -0.0002083   0.0000000   0.0000000   0.0000000  -0.0100139   0.0125000  -0.0125000   0.0000000   0.0000000   0.0000000
 0.0550000  -2.5000000  -0.2999960   0.9999960   0.0000000   0.0000000   0.0000061  -0.0002474   0.0002773  -0.0002773   0.0000000   0.0000000   0.0000000  -0.0108122   0.0151250  -0.0151250   0.0000000   0.0000000   0.0000000
 0.0600000  -2.5000100  -0.2999950   0.9999950   0.0000000   0.0000000   0.0000086  -0.0003030   0.0003600  -0.0003600   0.0000000   0.0000000   0.0000000  -0.0113604   0.0180000  -0.0180000   0.0000000   0.0000000   0.0000000
 0.0650000  -2.5000100  -0.2999930   0.9999930   0.0000000   0.0000000   0.0000119  -0.0003606   0.0004577  -0.0004577   0.0000000   0.0000000   0.0000000  -0.0116587   0.0211250  -0.0211250   0.0000000   0.0000000   0.0000000
 0.0700000  -2.5000100  -0.2999900   0.9999900   0.0000000   0.0000000   0.0000160  -0.0004191   0.0005717  -0.0005717   0.0000000   0.0000000   0.0000000  -0.0117070   0.0245000  -0.0245000   0.0000000   0.0000000   0.0000000
 0.0750000  -2.5000100  -0.2999870   0.9999870   0.0000000   0.0000000   0.0000211  -0.0004773   0.0007031  -0.0007031   0.0000000   0.0000000   0.0000000  -0.0115052   0.0281250  -0.0281250   0.0000000   0.0000000   0.0000000
 0.0800000  -2.5000100  -0.2999830   0.9999830   0.0000000   0.0000000   0.0000273  -0.0005338   0.0008533  -0.0008533   0.0000000   0.0000000   0.0000000  -0.0110535   0.0320000  -0.0320000   0.0000000   0.0000000   0.0000000
 0.0850000  -2.5000200  -0.2999780   0.9999780   0.0000000   0.0000000   0.0000348  -0.0005874   0.0010235  -0.0010235   0.0000000   0.0000000   0.0000000  -0.0103518   0.0361250  -0.0361250   0.0000000   0.0000000   0.0000000
 0.0900000  -2.5000200  -0.2999730   0.9999730   0.0000000   0.0000000   0.0000437  -0.0006369   0.0012150  -0.0012150   0.0000000   0.0000000   0.0000000  -0.0094000   0.0405000  -0.0405000   0.0000000   0.0000000   0.0000000
 0.0950000  -2.5000200  -0.2999660   0.9999660   0.0000000   0.0000000   0.0000543  -0.0006810   0.0014290  -0.0014290   0.0000000   0.0000000   0.0000000  -0.0081983   0.0451250  -0.0451250   0.0000000   0.0000000   0.0000000
 0.1000000  -2.5000300  -0.2999580   0.9999580   0.0000000   0.0000000   0.0000666  -0.0007184   0.0016667  -0.0016667   0.0000000   0.0000000   0.0000000  -0.0067466   0.0500000  -0.0500000   0.0000000   0.0000000   0.0000000
 0.1050000  -2.5000300  -0.2999490   0.9999490   0.0000000   0.0000000   0.0000810  -0.0007481   0.0019294  -0.0019294   0.0000000   0.0000000   0.0000000  -0.0050978   0.0551250  -0.0551250   0.0000000   0.0000000   0.0000000
 0.1100000  -2.5000300  -0.2999390   0.9999390   0.0000000   0.0000000   0.0000974  -0.0007698   0.0022183  -0.0022183   0.0000000   0.0000000   0.0000000  -0.0036263   0.0605000  -0.0605000   0.0000000   0.0000000   0.0000000
 0.1150000  -2.5000400  -0.2999270   0.9999270   0.0000000   0.0000000   0.0001160  -0.0007847   0.0025347  -0.0025348   0.0000000   0.0000000   0.0000000  -0.0024048   0.0660084  -0.0661250   0.0000000   0.0000000   0.0000000
 0.1200000  -2.5000400  -0.2999140   0.9999140   0.0000000   0.0000000   0.0001371  -0.0007942   0.0028780  -0.0028800   0.0000000   0.0000000   0.0000000  -0.0014332   0.0712918  -0.0720000   0.0000000   0.0000000   0.0000000
 0.1250000  -2.5000500  -0.2998980   0.9998980   0.0000000   0.0000000   0.0001606  -0.0007995   0.0032472  -0.0032552   0.0000000   0.0000000   0.0000000  -0.0007117   0.0763253  -0.0781250   0.0000000   0.0000000   0.0000000
 0.1300000  -2.5000500  -0.2998810   0.9998810   0.0000000   0.0000000   0.0001868  -0.0008018   0.0036409  -0.0036617   0.0000000   0.0000000   0.0000000  -0.0002402   0.0811088  -0.0845000   0.0000000   0.0000000   0.0000000
 0.1350000  -2.5000500  -0.2998620   0.9998620   0.0000000   0.0000000   0.0002157  -0.0008023   0.0040578  -0.0041006   0.0000000   0.0000000   0.0000000  -0.0000186   0.0856423  -0.0911250   0.0000000   0.0000000   0.0000000
 0.1400000  -2.5000600  -0.2998400   0.9998400   0.0000000   0.0000000   0.0002474  -0.0008023   0.0044969  -0.0045733   0.0000000   0.0000000   0.0000000   0.0000000   0.0899258  -0.0979992   0.0000000   0.0000000   0.0000000
 0.1450000  -2.5000600  -0.2998170   0.9998160   0.0000000   0.0000000   0.0002820  -0.0008023   0.0049567  -0.0050805   0.0000000   0.0000000   0.0000000   0.0000000   0.0939593  -0.1048450   0.0000000   0.0000000   0.0000000
 0.1500000  -2.5000700  -0.2997910   0.9997890   0.0000000   0.0000000   0.0003195  -0.0008023   0.0054360  -0.0056214   0.0000000   0.0000000   0.0000000   0.0000000   0.0977427  -0.1114410   0.0000000   0.0000000   0.0000000
 0.1550000  -2.5000700  -0.2997620   0.9997600   0.0000000   0.0000000   0.0003601  -0.0008023   0.0059337  -0.0061945   0.0000000   0.0000000   0.0000000   0.0000000   0.1012760  -0.1177870   0.0000000   0.0000000   0.0000000
 0.1600000  -2.5000700  -0.2997320   0.9997270   0.0000000   0.0000000   0.0004038  -0.0008023   0.0064484  -0.0067988   0.0000000   0.0000000   0.0000000   0.0000000   0.1045600  -0.1238830   0.0000000   0.0000000   0.0000000
 0.1650000  -2.5000800  -0.2996980   0.9996920   0.0000000   0.0000000   0.0004506  -0.0008023   0.0069789  -0.0074330   0.0000000   0.0000000   0.0000000   0.0000000   0.1075930  -0.1297290   0.0000000   0.0000000   0.0000000
 0.1700000  -2.5000800  -0.2996620   0.9996530   0.0000000   0.0000000   0.0005006  -0.0008023   0.0075239  -0.0080957   0.0000000   0.0000000   0.0000000   0.0000000   0.1103770  -0.1353260   0.0000000   0.0000000   0.0000000
 0.1750000  -2.5000900  -0.2996230   0.9996110   0.0000000   0.0000000   0.0005537  -0.0008023   0.0080822  -0.0087858   0.0000000   0.0000000   0.0000000   0.0000000   0.1129100  -0.1406720   0.0000000   0.0000000   0.0000000
 0.1800000  -2.5000900  -0.2995810   0.9995650   0.0000000   0.0000000   0.0006101  -0.0008023   0.0086526  -0.0095020   0.0000000   0.0000000   0.0000000   0.0000000   0.1151940  -0.1457680   0.0000000   0.0000000   0.0000000
 0.1850000  -2.5000900  -0.2995360   0.9995150   0.0000000   0.0000000   0.0006696  -0.0008023   0.0092337  -0.0102431   0.0000000   0.0000000   0.0000000   0.0000000   0.1172270  -0.1506140   0.0000000   0.0000000   0.0000000
 0.1900000  -2.5001000  -0.2994890   0.9994620   0.0000000   0.0000000   0.0007323  -0.0008023   0.0098244  -0.0110077   0.0000000   0.0000000   0.0000000   0.0000000   0.1190110  -0.1552100   0.0000000   0.0000000   0.0000000
 0.1950000  -2.5001000  -0.2994380   0.9994050   0.0000000   0.0000000   0.0007982  -0.0008023   0.0104234  -0.0117947   0.0000000   0.0000000   0.0000000   0.0000000   0.1205440  -0.1595560   0.0000000   0.0000000   0.0000000
 0.2000000  -2.5001100  -0.2993840   0.9993440   0.0000000   0.0000000   0.0008673  -0.0008023   0.0110295  -0.0126029   0.0000000   0.0000000   0.0000000   0.0000000   0.1218280  -0.1636520   0.0000000   0.0000000   0.0000000
 0.2050000  -2.5001100  -0.2993280   0.9992790   0.0000000   0.0000000   0.0009394  -0.0008023   0.0116413  -0.0134308   0.0000000   0.0000000   0.0000000   0.0000000   0.1228610  -0.1674980   0.0000000   0.0000000   0.0000000
 0.2100000  -2.5001100  -0.2992680   0.9992100   0.0000000   0.0000000   0.0010147  -0.0008023   0.0122577  -0.0142774   0.0000000   0.0000000   0.0000000   0.0000000   0.1236450  -0.1710940   0.0000000   0.0000000   0.0000000
 0.2150000  -2.5001200  -0.2992050   0.9991360   0.0000000   0.0000000   0.0010929  -0.0008023   0.0128773  -0.0151414   0.0000000   0.0000000   0.0000000   0.0000000   0.1241780  -0.1744400   0.0000000   0.0000000   0.0000000
 0.2200000  -2.5001200  -0.2991390   0.9990590   0.0000000   0.0000000   0.0011740  -0.0008023   0.0134990  -0.0160214   0.0000000   0.0000000   0.0000000   0.0000000   0.1244610  -0.1775360   0.0000000   0.0000000   0.0000000
 0.2250000  -2.5001300  -0.2990700   0.9989760   0.0000000   0.0000000   0.0012580  -0.0008023   0.0141215  -0.0169163   0.0000000   0.0000000   0.0000000   0.0000000   0.1244950  -0.1803820   0.0000000   0.0000000   0.0000000
 0.2300000  -2.5001300  -0.2989980   0.9988890   0.0000000   0.0000000   0.0013448  -0.0008023   0.0147435  -0.0178248   0.0000000   0.0000000   0.0000000   0.0000000   0.1242780  -0.1829780   0.0000000   0.0000000   0.0000000
 0.2350000  -2.5001300  -0.2989230   0.9987980   0.0000000   0.0000000   0.0014343  -0.0008023   0.0153639  -0.0187457   0.0000000   0.0000000   0.0000000   0.0000000   0.1238120  -0.1853240   0.0000000   0.0000000   0.0000000
 0.2400000  -2.5001400  -0.2988440   0.9987020   0.0000000   0.0000000   0.0015263  -0.0008023   0.0159812  -0.0196776   0.0000000   0.0000000   0.0000000   0.0000000   0.1230950  -0.1874200   0.0000000   0.0000000   0.0000000
 0.2450000  -2.5001400  -0.2987630   0.9986010   0.0000000   0.0000000   0.0016208  -0.0008023   0.0165944  -0.0206195   0.0000000   0.0000000   0.0000000   0.0000000   0.1221290  -0.1892660   0.0000000   0.0000000   0.0000000
 0.2500000  -2.5001500  -0.2986780   0.9984960   0.0000000   0.0000000   0.0017176  -0.0008023   0.0172021  -0.0215699   0.0000000   0.0000000   0.0000000   0.0000000   0.1209120  -0.1908620   0.0000000   0.0000000   0.0000000
 0.2550000  -2.5001500  -0.2985910   0.9983850   0.0000000   0.0000000   0.0018165  -0.0008023   0.0178031  -0.0225277   0.0000000   0.0000000   0.0000000   0.0000000   0.1194460  -0.1922080   0.0000000   0.0000000   0.0000000
 0.2600000  -2.5001500  -0.2985000   0.9982700   0.0000000   0.0000000   0.0019176  -0.0008023   0.0183962  -0.0234916   0.0000000   0.0000000   0.0000000   0.0000000   0.1177290  -0.1933050   0.0000000   0.0000000   0.0000000
 0.2650000  -2.5001600  -0.2984070   0.9981510   0.0000000   0.0000000   0.0020205  -0.0008023   0.0189800  -0.0244603   0.0000000   0.0000000   0.0000000   0.0000000   0.1157630  -0.1941510   0.0000000   0.0000000   0.0000000
 0.2700000  -2.5001600  -0.2983100   0.9980260   0.0000000   0.0000000   0.0021251  -0.0008023   0.0195534  -0.0254326   0.0000000   0.0000000   0.0000000   0.0000000   0.1135460  -0.1947470   0.0000000   0.0000000   0.0000000
 0.2750000  -2.5001700  -0.2982110   0.9978960   0.0000000   0.0000000   0.0022312  -0.0008023   0.0201150  -0.0264073   0.0000000   0.0000000   0.0000000   0.0000000   0.1110800  -0.1950930   0.0000000   0.0000000   0.0000000
 0.2800000  -2.5001700  -0.2981090   0.9977620   0.0000000   0.0000000   0.0023387  -0.0008023   0.0206638  -0.0273832   0.0000000   0.0000000   0.0000000   0.0000000   0.1083630  -0.1951890   0.0000000   0.0000000   0.0000000
 0.2850000  -2.5001700  -0.2980050   0.9976220   0.0000000   0.0000000   0.0024475  -0.0008023   0.0211983  -0.0283588   0.0000000   0.0000000   0.0000000   0.0000000   0.1053970  -0.1950350   0.0000000   0.0000000   0.0000000
 0.2900000  -2.5001800  -0.2978970   0.9974780   0.0000000   0.0000000   0.0025572  -0.0008023   0.0217173  -0.0293331   0.0000000   0.0000000   0.0000000   0.0000000   0.1021800  -0.1946310   0.0000000   0.0000000   0.0000000
 0.2950000  -2.5001800  -0.2977880   0.9973290   0.0000000   0.0000000   0.0026679  -0.0008023   0.0222196  -0.0303047   0.0000000   0.0000000   0.0000000   0.0000000   0.0987137  -0.1939770   0.0000000   0.0000000   0.0000000
 0.3000000  -2.5001900  -0.2976750   0.9971750   0.0000000   0.0000000   0.0027794  -0.0008023   0.0227040  -0.0312724   0.0000000   0.0000000   0.0000000   0.0000000   0.0949972  -0.1930730   0.0000000   0.0000000   0.0000000
 0.3050000  -2.5001900  -0.2975610   0.9970160   0.0000000   0.0000000   0.0028916  -0.0008023   0.0231692  -0.0322350   0.0000000   0.0000000   0.0000000   0.0000000   0.0910307  -0.1919190   0.0000000   0.0000000   0.0000000
 0.3100000  -2.5001900  -0.2974440   0.9968530   0.0000000   0.0000000   0.0030043  -0.0008023   0.0236139  -0.0331912   0.0000000   0.0000000   0.0000000   0.0000000   0.0868142  -0.1905150   0.0000000   0.0000000   0.0000000
 0.3150000  -2.5002000  -0.2973240   0.9966840   0.0000000   0.0000000   0.0031174  -0.0008023   0.0240369  -0.0341398   0.0000000   0.0000000   0.0000000   0.0000000   0.0823476  -0.1888610   0.0000000   0.0000000   0.0000000
 0.3200000  -2.5002000  -0.2972030   0.9965110   0.0000000   0.0000000   0.0032309  -0.0008023   0.0244370  -0.0350794   0.0000000   0.0000000   0.0000000   0.0000000   0.0776311  -0.1869570   0.0000000   0.0000000   0.0000000
 0.3250000  -2.5002100  -0.2970800   0.9963340   0.0000000   0.0000000   0.0033448  -0.0008023   0.0248128  -0.0360089   0.0000000   0.0000000   0.0000000   0.0000000   0.0726646  -0.1848030   0.0000000   0.0000000   0.0000000
 0.3300000  -2.5002100  -0.2969550   0.9961510   0.0000000   0.0000000   0.0034588  -0.0008023   0.0251632  -0.0369270   0.0000000   0.0000000   0.0000000   0.0000000   0.0674481  -0.1823990   0.0000000   0.0000000   0.0000000
 0.3350000  -2.5002100  -0.2968290   0.9959640   0.0000000   0.0000000   0.0035730  -0.0008023   0.0254869  -0.0378325   0.0000000   0.0000000   0.0000000   0.0000000   0.0619822  -0.1797450   0.0000000   0.0000000   0.0000000
 0.3400000  -2.5002200  -0.2967000   0.9957730   0.0000000   0.0000000   0.0036872  -0.0008023   0.0257831  -0.0387241   0.0000000   0.0000000   0.0000000   0.0000000   0.0565402  -0.1768410   0.0000000   0.0000000   0.0000000
 0.3450000  -2.5002200  -0.2965710   0.9955770   0.0000000   0.0000000   0.0038016  -0.0008023   0.0260527  -0.0396005   0.0000000   0.0000000   0.0000000   0.0000000   0.0513482  -0.1736870   0.0000000   0.0000000   0.0000000
 0.3500000  -2.5002300  -0.2964400   0.9953770   0.0000000   0.0000000   0.0039160  -0.0008023   0.0262970  -0.0404605   0.0000000   0.0000000   0.0000000   0.0000000   0.0464063  -0.1702840   0.0000000   0.0000000   0.0000000
 0.3550000  -2.5002300  -0.2963080   0.9951730   0.0000000   0.0000000   0.0040304  -0.0008023   0.0265172  -0.0413029   0.0000000   0.0000000   0.0000000   0.0000000   0.0417143  -0.1666300   0.0000000   0.0000000   0.0000000
 0.3600000  -2.5002300  -0.2961750   0.9949640   0.0000000   0.0000000   0.0041447  -0.0008023   0.0267145  -0.0421264   0.0000000   0.0000000   0.0000000   0.0000000   0.0372724  -0.1627260   0.0000000   0.0000000   0.0000000
 0.3650000  -2.5002400  -0.2960410   0.9947510   0.0000000   0.0000000   0.0042591  -0.0008023   0.0268903  -0.0429297   0.0000000   0.0000000   0.0000000   0.0000000   0.0330804  -0.1585720   0.0000000   0.0000000   0.0000000
 0.3700000  -2.5002400  -0.2959060   0.9945350   0.0000000   0.0000000   0.0043735  -0.0008023   0.0270458  -0.0437117   0.0000000   0.0000000   0.0000000   0.0000000   0.0291384  -0.1541680   0.0000000   0.0000000   0.0000000
 0.3750000  -2.5002500  -0.2957700   0.9943140   0.0000000   0.0000000   0.0044879  -0.0008023   0.0271821  -0.0444710   0.0000000   0.0000000   0.0000000   0.0000000   0.0254465  -0.1495140   0.0000000   0.0000000   0.0000000
 0.3800000  -2.5002500  -0.2956340   0.9940900   0.0000000   0.0000000   0.0046023  -0.0008023   0.0273006  -0.0452064   0.0000000   0.0000000   0.0000000   0.0000000   0.0220045  -0.1446100   0.0000000   0.0000000   0.0000000
 0.3850000  -2.5002500  -0.2954970   0.9938620   0.0000000   0.0000000   0.0047167  -0.0008023   0.0274026  -0.0459167   0.0000000   0.0000000   0.0000000   0.0000000   0.0188125  -0.1394560   0.0000000   0.0000000   0.0000000
 0.3900000  -2.5002600  -0.2953600   0.9936310   0.0000000   0.0000000   0.0048311  -0.0008023   0.0274892  -0.0466006   0.0000000   0.0000000   0.0000000   0.0000000   0.0158706  -0.1340520   0.0000000   0.0000000   0.0000000
 0.3950000  -2.5002600  -0.2952220   0.9933960   0.0000000   0.0000000   0.0049455  -0.0008023   0.0275617  -0.0472568   0.0000000   0.0000000   0.0000000   0.0000000   0.0131786  -0.1283980   0.0000000   0.0000000   0.0000000
 0.4000000  -2.5002700  -0.2950840   0.9931580   0.0000000   0.0000000   0.0050599  -0.0008023   0.0276214  -0.0478841   0.0000000   0.0000000   0.0000000   0.0000000   0.0107366  -0.1224940   0.0000000   0.0000000   0.0000000
 0.4050000  -2.5002700  -0.2949460   0.9929180   0.0000000   0.0000000   0.0051743  -0.0008023   0.0276695  -0.0484813   0.0000000   0.0000000   0.0000000   0.0000000   0.0085447  -0.1163400   0.0000000   0.0000000   0.0000000
 0.4100000  -2.5002700  -0.2948080   0.9926740   0.0000000   0.0000000   0.0052887  -0.0008023   0.0277073  -0.0490471   0.0000000   0.0000000   0.0000000   0.0000000   0.0066027  -0.1099360   0.0000000   0.0000000   0.0000000
 0.4150000  -2.5002800  -0.2946690   0.9924270   0.0000000   0.0000000   0.0054031  -0.0008023   0.0277359  -0.0495803   0.0000000   0.0000000   0.0000000   0.0000000   0.0049108  -0.1032820   0.0000000   0.0000000   0.0000000
 0.4200000  -2.5002800  -0.2945300   0.9921780   0.0000000   0.0000000   0.0055175  -0.0008023   0.0277568  -0.0500795   0.0000000   0.0000000   0.0000000   0.0000000   0.0034688  -0.0963859   0.0000000   0.0000000   0.0000000
 0.4250000  -2.5002900  -0.2943920   0.9919260   0.0000000   0.0000000   0.0056318  -0.0008023   0.0277710  -0.0505443   0.0000000   0.0000000   0.0000000   0.0000000   0.0022768  -0.0895688   0.0000000   0.0000000   0.0000000
 0.4300000  -2.5002900  -0.2942530   0.9916730   0.0000000   0.0000000   0.0057462  -0.0008023   0.0277800  -0.0509756   0.0000000   0.0000000   0.0000000   0.0000000   0.0013349  -0.0830017   0.0000000   0.0000000   0.0000000
 0.4350000  -2.5002900  -0.2941140   0.9914170   0.0000000   0.0000000   0.0058606  -0.0008023   0.0277848  -0.0513747   0.0000000   0.0000000   0.0000000   0.0000000   0.0006429  -0.0766845   0.0000000   0.0000000   0.0000000
 0.4400000  -2.5003000  -0.2939750   0.9911590   0.0000000   0.0000000   0.0059750  -0.0008023   0.0277868  -0.0517429   0.0000000   0.0000000   0.0000000   0.0000000   0.0002009  -0.0706174   0.0000000   0.0000000   0.0000000
 0.4450000  -2.5003000  -0.2938360   0.9908990   0.0000000   0.0000000   0.0060894  -0.0008023   0.0277872  -0.0520813   0.0000000   0.0000000   0.0000000   0.0000000   0.0000090  -0.0648003   0.0000000   0.0000000   0.0000000
 0.4500000  -2.5003100  -0.2936970   0.9906380   0.0000000   0.0000000   0.0062038  -0.0008023   0.0277872  -0.0523913   0.0000000   0.0000000   0.0000000   0.0000000   0.0000000  -0.0592332   0.0000000   0.0000000   0.0000000
 0.4550000  -2.5003100  -0.2935580   0.9903750   0.0000000   0.0000000   0.0063182  -0.0008023   0.0277872  -0.0526741   0.0000000   0.0000000   0.0000000   0.0000000   0.0000000  -0.0539161   0.0000000   0.0000000   0.0000000
 0.4600000  -2.5003100  -0.2934190   0.9901110   0.0000000   0.0000000   0.0064326  -0.0008023   0.0277872  -0.0529309   0.0000000   0.0000000   0.0000000   0.0000000   0.0000000  -0.0488490   0.0000000   0.0000000   0.0000000
 0.4650000  -2.5003200  -0.2932800   0.9898460   0.0000000   0.0000000   0.0065470  -0.0008023   0.0277872  -0.0531630   0.0000000   0.0000000   0.0000000   0.0000000   0.0000000  -0.0440319   0.0000000   0.0000000   0.0000000
 0.4700000  -2.5003200  -0.2931410   0.9895800   0.0000000   0.0000000   0.0066614  -0.0008023   0.0277872  -0.0533716   0.0000000   0.0000000   0.0000000   0.0000000   0.0000000  -0.0394647   0.0000000   0.0000000   0.0000000
 0.4750000  -2.5003300  -0.2930020   0.9893120   0.0000000   0.0000000   0.0067758  -0.0008023   0.0277872  -0.0535580   0.0000000   0.0000000   0.0000000   0.0000000   0.0000000  -0.0351476   0.0000000   0.0000000   0.0000000
 0.4800000  -2.5003300  -0.2928630   0.9890440   0.0000000   0.0000000   0.0068902  -0.0008023   0.0277872  -0.0537235   0.0000000   0.0000000   0.0000000   0.0000000   0.0000000  -0.0310805   0.0000000   0.0000000   0.0000000
 0.4850000  -2.5003300  -0.2927240   0.9887750   0.0000000   0.0000000   0.0070046  -0.0008023   0.0277872  -0.0538693   0.0000000   0.0000000   0.0000000   0.0000000   0.0000000  -0.0272634   0.0000000   0.0000000   0.0000000
 0.4900000  -2.5003400  -0.2925860   0.9885060   0.0000000   0.0000000   0.0071189  -0.0008023   0.0277872  -0.0539966   0.0000000   0.0000000   0.0000000   0.0000000   0.0000000  -0.0236963   0.0000000   0.0000000   0.0000000
 0.4950000  -2.5003400  -0.2924470   0.9882350   0.0000000   0.0000000   0.0072333  -0.0008023   0.0277872  -0.0541066   0.0000000   0.0000000   0.0000000   0.0000000   0.0000000  -0.0203792   0.0000000   0.0000000   0.0000000
 0.5000000  -2.5003500  -0.2923080   0.9879650   0.0000000   0.0000000   0.0073477  -0.0008023   0.0277872  -0.0542008   0.0000000   0.0000000   0.0000000   0.0000000   0.0000000  -0.0173121   0.0000000   0.0000000   0.0000000
 0.5050000  -2.5003500  -0.2921690   0.9876930   0.0000000   0.0000000   0.0074621  -0.0008023   0.0277872  -0.0542802   0.0000000   0.0000000   0.0000000   0.0000000   0.0000000  -0.0144950   0.0000000   0.0000000   0.0000000
 0.5100000  -2.5003500  -0.2920300   0.9874220   0.0000000   0.0000000   0.0075765  -0.0008023   0.0277872  -0.0543461   0.0000000   0.0000000   0.0000000   0.0000000   0.0000000  -0.0119278   0.0000000   0.0000000   0.0000000
 0.5150000  -2.5003600  -0.2918910   0.9871500   0.0000000   0.0000000   0.0076909  -0.0008023   0.0277872  -0.0543999   0.0000000   0.0000000   0.0000000   0.0000000   0.0000000  -0.0096107   0.0000000   0.0000000   0.0000000
 0.5200000  -2.5003600  -0.2917520   0.9868780   0.0000000   0.0000000   0.0078053  -0.0008023   0.0277872  -0.0544427   0.0000000   0.0000000   0.0000000   0.0000000   0.0000000  -0.0075436   0.0000000   0.0000000   0.0000000
 0.5250000  -2.5003700  -0.2916130   0.9866060   0.0000000   0.0000000   0.0079197  -0.0008023   0.0277872  -0.0544757   0.0000000   0.0000000   0.0000000   0.0000000   0.0000000  -0.0057265   0.0000000   0.0000000   0.0000000
 0.5300000  -2.5003700  -0.2914740   0.9863330   0.0000000   0.0000000   0.0080341  -0.0008023   0.0277872  -0.0545003   0.0000000   0.0000000   0.0000000   0.0000000   0.0000000  -0.0041594   0.0000000   0.0000000   0.0000000
 0.5350000  -2.5003700  -0.2913350   0.9860610   0.0000000   0.0000000   0.0081485  -0.0008023   0.0277872  -0.0545177   0.0000000   0.0000000   0.0000000   0.0000000   0.0000000  -0.0028423   0.0000000   0.0000000   0.0000000
 0.5400000  -2.5003800  -0.2911960   0.9857880   0.0000000   0.0000000   0.0082629  -0.0008023   0.0277872  -0.0545292   0.0000000   0.0000000   0.0000000   0.0000000   0.0000000  -0.0017752   0.0000000   0.0000000   0.0000000
 0.5450000  -2.5003800  -0.2910570   0.9855150   0.0000000   0.0000000   0.0083773  -0.0008023   0.0277872  -0.0545359   0.0000000   0.0000000   0.0000000   0.0000000   0.0000000  -0.0009580   0.0000000   0.0000000   0.0000000
 0.5500000  -2.5003900  -0.2909180   0.9852430   0.0000000   0.0000000   0.0084917  -0.0008023   0.0277872  -0.0545392   0.0000000   0.0000000   0.0000000   0.0000000   0.0000000  -0.0003909   0.0000000   0.0000000   0.0000000
 0.5550000  -2.5003900  -0.2907790   0.9849700   0.0000000   0.0000000   0.0086061  -0.0008023   0.0277872  -0.0545402   0.0000000   0.0000000   0.0000000   0.0000000   0.0000000  -0.0000738   0.0000000   0.0000000   0.0000000
 0.5600000  -2.5003900  -0.2906400   0.9846970   0.0000000   0.0000000   0.0087204  -0.0008023   0.0277872  -0.0545403   0.0000000   0.0000000   0.0000000   0.0000000   0.0000000   0.0000040   0.0000000   0.0000000   0.0000000
 0.5650000  -2.5004000  -0.2905010   0.9844240   0.0000000   0.0000000   0.0088348  -0.0008023   0.0277872  -0.0545400   0.0000000   0.0000000   0.0000000   0.0000000   0.0000000   0.0001739   0.0000000   0.0000000   0.0000000
 0.5700000  -2.5004000  -0.2903630   0.9841520   0.0000000   0.0000000   0.0089492  -0.0008023   0.0277872  -0.0545382   0.0000000   0.0000000   0.0000000   0.0000000   0.0000000   0.0005937   0.0000000   0.0000000   0.0000000
 0.5750000  -2.5004100  -0.2902240   0.9838790   0.0000000   0.0000000   0.0090636  -0.0008023   0.0277872  -0.0545336   0.0000000   0.0000000   0.0000000   0.0000000   0.0000000   0.0012636   0.0000000   0.0000000   0.0000000
 0.5800000  -2.5004100  -0.2900850   0.9836060   0.0000000   0.0000000   0.0091780  -0.0008023   0.0277872  -0.0545251   0.0000000   0.0000000   0.0000000   0.0000000   0.0000000   0.0021834   0.0000000   0.0000000   0.0000000
 0.5850000  -2.5004100  -0.2899460   0.9833340   0.0000000   0.0000000   0.0092924  -0.0008023   0.0277872  -0.0545114   0.0000000   0.0000000   0.0000000   0.0000000   0.0000000   0.0033533   0.0000000   0.0000000   0.0000000
 0.5900000  -2.5004200  -0.2898070   0.9830610   0.0000000   0.0000000   0.0094068  -0.0008023   0.0277872  -0.0544912   0.0000000   0.0000000   0.0000000   0.0000000   0.0000000   0.0047731   0.0000000   0.0000000   0.0000000
 0.5950000  -2.5004200  -0.2896680   0.9827890   0.0000000   0.0000000   0.0095212  -0.0008023   0.0277872  -0.0544632   0.0000000   0.0000000   0.0000000   0.0000000   0.0000000   0.0064430   0.0000000   0.0000000   0.0000000
 0.6000000  -2.5004300  -0.2895290   0.9825170   0.0000000   0.0000000   0.0096356  -0.0008023   0.0277872  -0.0544263   0.0000000   0.0000000   0.0000000   0.0000000   0.0000000   0.0083628   0.0000000   0.0000000   0.0000000
 0.6050000  -2.5004300  -0.2893900   0.9822450   0.0000000   0.0000000   0.0097500  -0.0008023   0.0277872  -0.0543792   0.0000000   0.0000000   0.0000000   0.0000000   0.0000000   0.0105327   0.0000000   0.0000000   0.0000000
 0.6100000  -2.5004300  -0.2892510   0.9819730   0.0000000   0.0000000   0.0098644  -0.0008023   0.0277872  -0.0543206   0.0000000   0.0000000   0.0000000   0.0000000   0.0000000   0.0129525   0.0000000   0.0000000   0.0000000
 0.6150000  -2.5004400  -0.2891120   0.9817010   0.0000000   0.0000000   0.0099788  -0.0008023   0.0277872  -0.0542493   0.0000000   0.0000000   0.0000000   0.0000000   0.0000000   0.0156224   0.0000000   0.0000000   0.0000000
 0.6200000  -2.5004400  -0.2889730   0.9814300   0.0000000   0.0000000   0.0100932  -0.0008023   0.0277872  -0.0541639   0.0000000   0.0000000   0.0000000   0.0000000   0.0000000   0.0185422   0.0000000   0.0000000   0.0000000
 0.6250000  -2.5004500  -0.2888340   0.9811600   0.0000000   0.0000000   0.0102075  -0.0008023   0.0277872  -0.0540634   0.0000000   0.0000000   0.0000000   0.0000000   0.0000000   0.0217121   0.0000000   0.0000000   0.0000000
 0.6300000  -2.5004500  -0.2886950   0.9808900   0.0000000   0.0000000   0.0103219  -0.0008023   0.0277872  -0.0539464   0.0000000   0.0000000   0.0000000   0.0000000   0.0000000   0.0251319   0.0000000   0.0000000   0.0000000
 0.6350000  -2.5004500  -0.2885560   0.9806200   0.0000000   0.0000000   0.0104363  -0.0008023   0.0277872  -0.0538117   0.0000000   0.0000000   0.0000000   0.0000000   0.0000000   0.0288018   0.0000000   0.0000000   0.0000000
 0.6400000  -2.5004600  -0.2884170   0.9803520   0.0000000   0.0000000   0.0105507  -0.0008023   0.0277872  -0.0536580   0.0000000   0.0000000   0.0000000   0.0000000   0.0000000   0.0327216   0.0000000   0.0000000   0.0000000
 0.6450000  -2.5004600  -0.2882790   0.9800840   0.0000000   0.0000000   0.0106651  -0.0008023   0.0277872  -0.0534840   0.0000000   0.0000000   0.0000000   0.0000000   0.0000000   0.0368915   0.0000000   0.0000000   0.0000000
 0.6500000  -2.5004700  -0.2881400   0.9798170   0.0000000   0.0000000   0.0107795  -0.0008023   0.0277872  -0.0532886   0.0000000   0.0000000   0.0000000   0.0000000   0.0000000   0.0413113   0.0000000   0.0000000   0.0000000
 0.6550000  -2.5004700  -0.2880010   0.9795510   0.0000000   0.0000000   0.0108939  -0.0008023   0.0277872  -0.0530705   0.0000000   0.0000000   0.0000000   0.0000000   0.0000000   0.0459812   0.0000000   0.0000000   0.0000000
 0.6600000  -2.5004700  -0.2878620   0.9792860   0.0000000   0.0000000   0.0110083  -0.0008023   0.0277872  -0.0528284   0.0000000   0.0000000   0.0000000   0.0000000   0.0000000   0.0509010   0.0000000   0.0000000   0.0000000
 0.6650000  -2.5004800  -0.2877230   0.9790230   0.0000000   0.0000000   0.0111227  -0.0008023   0.0277872  -0.0525611   0.0000000   0.0000000   0.0000000   0.0000000   0.0000000   0.0560709   0.0000000   0.0000000   0.0000000
 0.6700000  -2.5004800  -0.2875840   0.9787610   0.0000000   0.0000000   0.0112371  -0.0008023   0.0277872  -0.0522673   0.0000000   0.0000000   0.0000000   0.0000000   0.0000000   0.0614907   0.0000000   0.0000000   0.0000000
 0.6750000  -2.5004900  -0.2874450   0.9785000   0.0000000   0.0000000   0.0113515  -0.0008023   0.0277872  -0.0519458   0.0000000   0.0000000   0.0000000   0.0000000   0.0000000   0.0671606   0.0000000   0.0000000   0.0000000
 0.6800000  -2.5004900  -0.2873060   0.9782410   0.0000000   0.0000000   0.0114659  -0.0008023   0.0277872  -0.0515953   0.0000000   0.0000000   0.0000000   0.0000000   0.0000000   0.0730805   0.0000000   0.0000000   0.0000000
 0.6850000  -2.5004900  -0.2871670   0.9779840   0.0000000   0.0000000   0.0115803  -0.0008023   0.0277872  -0.0512145   0.0000000   0.0000000   0.0000000   0.0000000   0.0000000   0.0792503   0.0000000   0.0000000   0.0000000
 0.6900000  -2.5005000  -0.2870280   0.9777290   0.0000000   0.0000000   0.0116946  -0.0008023   0.0277872  -0.0508023   0.0000000   0.0000000   0.0000000   0.0000000   0.0000000   0.0856702   0.0000000   0.0000000   0.0000000
 0.6950000  -2.5005000  -0.2868890   0.9774760   0.0000000   0.0000000   0.0118090  -0.0008023   0.0277872  -0.0503574   0.0000000   0.0000000   0.0000000   0.0000000   0.0000000   0.0923400   0.0000000   0.0000000   0.0000000
 0.7000000  -2.5005100  -0.2867500   0.9772260   0.0000000   0.0000000   0.0119234  -0.0008023   0.0277872  -0.0498785   0.0000000   0.0000000   0.0000000   0.0000000   0.0000000   0.0992599   0.0000000   0.0000000   0.0000000
 0.7050000  -2.5005100  -0.2866110   0.9769780   0.0000000   0.0000000   0.0120378  -0.0008023   0.0277872  -0.0493644   0.0000000   0.0000000   0.0000000   0.0000000   0.0000000   0.1064300   0.0000000   0.0000000   0.0000000
 0.7100000  -2.5005100  -0.2864720   0.9767320   0.0000000   0.0000000   0.0121522  -0.0008023   0.0277872  -0.0488138   0.0000000   0.0000000   0.0000000   0.0000000   0.0000000   0.1138500   0.0000000   0.0000000   0.0000000
 0.7150000  -2.5005200  -0.2863330   0.9764900   0.0000000   0.0000000   0.0122666  -0.0008023   0.0277872  -0.0482255   0.0000000   0.0000000   0.0000000   0.0000000   0.0000000   0.1215190   0.0000000   0.0000000   0.0000000
 0.7200000  -2.5005200  -0.2861940   0.9762500   0.0000000   0.0000000   0.0123810  -0.0008023   0.0277872  -0.0475982   0.0000000   0.0000000   0.0000000   0.0000000   0.0000000   0.1294390   0.0000000   0.0000000   0.0000000
 0.7250000  -2.5005300  -0.2860560   0.9760140   0.0000000   0.0000000   0.0124954  -0.0008023   0.0277872  -0.0469307   0.0000000   0.0000000   0.0000000   0.0000000   0.0000000   0.1376090   0.0000000   0.0000000   0.0000000
 0.7300000  -2.5005300  -0.2859170   0.9757810   0.0000000   0.0000000   0.0126098  -0.0008023   0.0277872  -0.0462217   0.0000000   0.0000000   0.0000000   0.0000000   0.0000000   0.1460290   0.0000000   0.0000000   0.0000000
 0.7350000  -2.5005300  -0.2857780   0.9755510   0.0000000   0.0000000   0.0127242  -0.0008023   0.0277872  -0.0454700   0.0000000   0.0000000   0.0000000   0.0000000   0.0000000   0.1546990   0.0000000   0.0000000   0.0000000
 0.7400000  -2.5005400  -0.2856390   0.9753260   0.0000000   0.0000000   0.0128386  -0.0008023   0.0277872  -0.0446743   0.0000000   0.0000000   0.0000000   0.0000000   0.0000000   0.1636190   0.0000000   0.0000000   0.0000000
 0.7450000  -2.5005400  -0.2855000   0.9751050   0.0000000   0.0000000   0.0129530  -0.0008023   0.0277872  -0.0438334   0.0000000   0.0000000   0.0000000   0.0000000   0.0000000   0.1727890   0.0000000   0.0000000   0.0000000
 0.7500000  -2.5005500  -0.2853610   0.9748880   0.0000000   0.0000000   0.0130674  -0.0008023   0.0277872  -0.0429460   0.0000000   0.0000000   0.0000000   0.0000000   0.0000000   0.1822080   0.0000000   0.0000000   0.0000000
 0.7550000  -2.5005500  -0.2852220   0.9746750   0.0000000   0.0000000   0.0131817  -0.0008023   0.0277872  -0.0420109   0.0000000   0.0000000   0.0000000   0.0000000   0.0000000   0.1918780   0.0000000   0.0000000   0.0000000
 0.7600000  -2.5005500  -0.2850830   0.9744680   0.0000000   0.0000000   0.0132961  -0.0008023   0.0277872  -0.0410268   0.0000000   0.0000000   0.0000000   0.0000000   0.0000000   0.2017980   0.0000000   0.0000000   0.0000000
 0.7650000  -2.5005600  -0.2849440   0.9742650   0.0000000   0.0000000   0.0134105  -0.0008023   0.0277872  -0.0399925   0.0000000   0.0000000   0.0000000   0.0000000   0.0000000   0.2119680   0.0000000   0.0000000   0.0000000
 0.7700000  -2.5005600  -0.2848050   0.9740680   0.0000000   0.0000000   0.0135249  -0.0008023   0.0277872  -0.0389067   0.0000000   0.0000000   0.0000000   0.0000000   0.0000000   0.2223880   0.0000000   0.0000000   0.0000000
 0.7750000  -2.5005700  -0.2846660   0.9738760   0.0000000   0.0000000   0.0136393  -0.0008023   0.0277872  -0.0377682   0.0000000   0.0000000   0.0000000   0.0000000   0.0000000   0.2330580   0.0000000   0.0000000   0.0000000
 0.7800000  -2.5005700  -0.2845270   0.9736900   0.0000000   0.0000000   0.0137537  -0.0008023   0.0277872  -0.0365757   0.0000000   0.0000000   0.0000000   0.0000000   0.0000000   0.2439770   0.0000000   0.0000000   0.0000000
 0.7850000  -2.5005700  -0.2843880   0.9735110   0.0000000   0.0000000   0.0138681  -0.0008023   0.0277872  -0.0353283   0.0000000   0.0000000   0.0000000   0.0000000   0.0000000   0.2549360   0.0000000   0.0000000   0.0000000
 0.7900000  -2.5005800  -0.2842490   0.9733370   0.0000000   0.0000000   0.0139825  -0.0008023   0.0277872  -0.0340268   0.0000000   0.0000000   0.0000000   0.0000000   0.0000000   0.2656460   0.0000000   0.0000000   0.0000000
 0.7950000  -2.5005800  -0.2841100   0.9731700   0.0000000   0.0000000   0.0140969  -0.0008023   0.0277872  -0.0326723   0.0000000   0.0000000   0.0000000   0.0000000   0.0000000   0.2761060   0.0000000   0.0000000   0.0000000
 0.8000000  -2.5005900  -0.2839710   0.9730110   0.0000000   0.0000000   0.0142113  -0.0008023   0.0277872  -0.0312661   0.0000000   0.0000000   0.0000000   0.0000000   0.0000000   0.2863170   0.0000000   0.0000000   0.0000000
 0.8050000  -2.5005900  -0.2838330   0.9728580   0.0000000   0.0000000   0.0143257  -0.0008023   0.0277872  -0.0298095   0.0000000   0.0000000   0.0000000   0.0000000   0.0000000   0.2962770   0.0000000   0.0000000   0.0000000
 0.8100000  -2.5005900  -0.2836940   0.9727130   0.0000000   0.0000000   0.0144401  -0.0008023   0.0277872  -0.0283038   0.0000000   0.0000000   0.0000000   0.0000000   0.0000000   0.3059870   0.0000000   0.0000000   0.0000000
 0.8150000  -2.5006000  -0.2835550   0.9725750   0.0000000   0.0000000   0.0145545  -0.0008023   0.0277872  -0.0267501   0.0000000   0.0000000   0.0000000   0.0000000   0.0000000   0.3154470   0.0000000   0.0000000   0.0000000
 0.8200000  -2.5006000  -0.2834160   0.9724450   0.0000000   0.0000000   0.0146688  -0.0008023   0.0277872  -0.0251497   0.0000000   0.0000000   0.0000000   0.0000000   0.0000000   0.3246580   0.0000000   0.0000000   0.0000000
 0.8250000  -2.5006100  -0.2832770   0.9723230   0.0000000   0.0000000   0.0147832  -0.0008023   0.0277872  -0.0235039   0.0000000   0.0000000   0.0000000   0.0000000   0.0000000   0.3336180   0.0000000   0.0000000   0.0000000
 0.8300000  -2.5006100  -0.2831380   0.9722100   0.0000000   0.0000000   0.0148976  -0.0008023   0.0277872  -0.0218139   0.0000000   0.0000000   0.0000000   0.0000000   0.0000000   0.3423280   0.0000000   0.0000000   0.0000000
 0.8350000  -2.5006200  -0.2829990   0.9721050   0.0000000   0.0000000   0.0150120  -0.0008023   0.0277872  -0.0200810   0.0000000   0.0000000   0.0000000   0.0000000   0.0000000   0.3507880   0.0000000   0.0000000   0.0000000
 0.8400000  -2.5006200  -0.2828600   0.9720090   0.0000000   0.0000000   0.0151264  -0.0008023   0.0277872  -0.0183065   0.0000000   0.0000000   0.0000000   0.0000000   0.0000000   0.3589980   0.0000000   0.0000000   0.0000000
 0.8450000  -2.5006200  -0.2827210   0.9719220   0.0000000   0.0000000   0.0152408  -0.0008023   0.0277872  -0.0164915   0.0000000   0.0000000   0.0000000   0.0000000   0.0000000   0.3669590   0.0000000   0.0000000   0.0000000
 0.8500000  -2.5006300  -0.2825820   0.9718450   0.0000000   0.0000000   0.0153552  -0.0008023   0.0277872  -0.0146373   0.0000000   0.0000000   0.0000000   0.0000000   0.0000000   0.3746690   0.0000000   0.0000000   0.0000000
 0.8550000  -2.5006300  -0.2824430   0.9717760   0.0000000   0.0000000   0.0154696  -0.0008023   0.0277872  -0.0127452   0.0000000   0.0000000   0.0000000   0.0000000   0.0000000   0.3821290   0.0000000   0.0000000   0.0000000
 0.8600000  -2.5006400  -0.2823040   0.9717170   0.0000000   0.0000000   0.0155840  -0.0008023   0.0277872  -0.0108164   0.0000000   0.0000000   0.0000000   0.0000000   0.0000000   0.3893390   0.0000000   0.0000000   0.0000000
 0.8650000  -2.5006400  -0.2821650   0.9716680   0.0000000   0.0000000   0.0156984  -0.0008023   0.0277872  -0.0088522   0.0000000   0.0000000   0.0000000   0.0000000   0.0000000   0.3962990   0.0000000   0.0000000   0.0000000
 0.8700000  -2.5006400  -0.2820260   0.9716290   0.0000000   0.0000000   0.0158128  -0.0008023   0.0277872  -0.0068538   0.0000000   0.0000000   0.0000000   0.0000000   0.0000000   0.4030100   0.0000000   0.0000000   0.0000000
 0.8750000  -2.5006500  -0.2818870   0.9715990   0.0000000   0.0000000   0.0159272  -0.0008023   0.0277872  -0.0048226   0.0000000   0.0000000   0.0000000   0.0000000   0.0000000   0.4094700   0.0000000   0.0000000   0.0000000
 0.8800000  -2.5006500  -0.2817490   0.9715800   0.0000000   0.0000000   0.0160416  -0.0008023   0.0277872  -0.0027596   0.0000000   0.0000000   0.0000000   0.0000000   0.0000000   0.4156800   0.0000000   0.0000000   0.0000000
 0.8850000  -2.5006600  -0.2816100   0.9715720   0.0000000   0.0000000   0.0161559  -0.0008023   0.0277872  -0.0006662   0.0000000   0.0000000   0.0000000   0.0000000   0.0000000   0.4216400   0.0000000   0.0000000   0.0000000
 0.8900000  -2.5006600  -0.2814710   0.9715740   0.0000000   0.0000000   0.0162703  -0.0008023   0.0277872   0.0014564   0.0000000   0.0000000   0.0000000   0.0000000   0.0000000   0.4273510   0.0000000   0.0000000   0.0000000
 0.8950000  -2.5006600  -0.2813320   0.9715870   0.0000000   0.0000000   0.0163847  -0.0008023   0.0277872   0.0036069   0.0000000   0.0000000   0.0000000   0.0000000   0.0000000   0.4328110   0.0000000   0.0000000   0.0000000
 0.9000000  -2.5006700  -0.2811930   0.9716100   0.0000000   0.0000000   0.0164991  -0.0008023   0.0277872   0.0057841   0.0000000   0.0000000   0.0000000   0.0000000   0.0000000   0.4380210   0.0000000   0.0000000   0.0000000
 0.9050000  -2.5006700  -0.2810540   0.9716440   0.0000000   0.0000000   0.0166135  -0.0008023   0.0277872   0.0079867   0.0000000   0.0000000   0.0000000   0.0000000   0.0000000   0.4429810   0.0000000   0.0000000   0.0000000
 0.9100000  -2.5006800  -0.2809150   0.9716900   0.0000000   0.0000000   0.0167279  -0.0008023   0.0277872   0.0102135   0.0000000   0.0000000   0.0000000   0.0000000   0.0000000   0.4476910   0.0000000   0.0000000   0.0000000
 0.9150000  -2.5006800  -0.2807760   0.9717470   0.0000000   0.0000000   0.0168423  -0.0008023   0.0277872   0.0124632   0.0000000   0.0000000   0.0000000   0.0000000   0.0000000   0.4521520   0.0000000   0.0000000   0.0000000
 0.9200000  -2.5006800  -0.2806370   0.9718150   0.0000000   0.0000000   0.0169567  -0.0008023   0.0277873   0.0147346   0.0000000   0.0000000   0.0000000   0.0000000   0.0000444   0.4563620   0.0000000   0.0000000   0.0000000
 0.9250000  -2.5006900  -0.2804980   0.9718940   0.0000000   0.0000000   0.0170711  -0.0008023   0.0277881   0.0170264   0.0000000   0.0000000   0.0000000   0.0000000   0.0003185   0.4603220   0.0000000   0.0000000   0.0000000
 0.9300000  -2.5006900  -0.2803590   0.9719850   0.0000000   0.0000000   0.0171855  -0.0008023   0.0277909   0.0193374   0.0000000   0.0000000   0.0000000   0.0000000   0.0008426   0.4640320   0.0000000   0.0000000   0.0000000
 0.9350000  -2.5007000  -0.2802200   0.9720870   0.0000000   0.0000000   0.0172999  -0.0008023   0.0277969   0.0216663   0.0000000   0.0000000   0.0000000   0.0000000   0.0016166   0.4674920   0.0000000   0.0000000   0.0000000
 0.9400000  -2.5007000  -0.2800810   0.9722020   0.0000000   0.0000000   0.0174143  -0.0008023   0.0278075   0.0240119   0.0000000   0.0000000   0.0000000   0.0000000   0.0026407   0.4707030   0.0000000   0.0000000   0.0000000
 0.9450000  -2.5007000  -0.2799420   0.9723280   0.0000000   0.0000000   0.0175287  -0.0008023   0.0278237   0.0263729   0.0000000   0.0000000   0.0000000   0.0000000   0.0039147   0.4736630   0.0000000   0.0000000   0.0000000
 0.9500000  -2.5007100  -0.2798030   0.9724650   0.0000000   0.0000000   0.0176430  -0.0008023   0.0278470   0.0287481   0.0000000   0.0000000   0.0000000   0.0000000   0.0054388   0.4763730   0.0000000   0.0000000   0.0000000
 0.9550000  -2.5007100  -0.2796640   0.9726150   0.0000000   0.0000000   0.0177574  -0.0008023   0.0278786   0.0311362   0.0000000   0.0000000   0.0000000   0.0000000   0.0072128   0.4788330   0.0000000   0.0000000   0.0000000
 0.9600000  -2.5007200  -0.2795240   0.9727770   0.0000000   0.0000000   0.0178718  -0.0008023   0.0279196   0.0335360   0.0000000   0.0000000   0.0000000   0.0000000   0.0092369   0.4810440   0.0000000   0.0000000   0.0000000
 0.9650000  -2.5007200  -0.2793840   0.9729500   0.0000000   0.0000000   0.0179862  -0.0008023   0.0279713   0.0359463   0.0000000   0.0000000   0.0000000   0.0000000   0.0115110   0.4830040   0.0000000   0.0000000   0.0000000
 0.9700000  -2.5007200  -0.2792440   0.9731360   0.0000000   0.0000000   0.0181006  -0.0008023   0.0280351   0.0383657   0.0000000   0.0000000   0.0000000   0.0000000   0.0140350   0.4847140   0.0000000   0.0000000   0.0000000
 0.9750000  -2.5007300  -0.2791040   0.9733340   0.0000000   0.0000000   0.0182150  -0.0008023   0.0281121   0.0407930   0.0000000   0.0000000   0.0000000   0.0000000   0.0168091   0.4861740   0.0000000   0.0000000   0.0000000
 0.9800000  -2.5007300  -0.2789630   0.9735440   0.0000000   0.0000000   0.0183294  -0.0008023   0.0282036   0.0432270   0.0000000   0.0000000   0.0000000   0.0000000   0.0198332   0.4873840   0.0000000   0.0000000   0.0000000
 0.9850000  -2.5007400  -0.2788220   0.9737660   0.0000000   0.0000000   0.0184438  -0.0008023   0.0283109   0.0456664   0.0000000   0.0000000   0.0000000   0.0000001   0.0231072   0.4883450   0.0000000   0.0000000   0.0000000
 0.9900000  -2.5007400  -0.2786800   0.9740010   0.0000000   0.0000000   0.0185582  -0.0008021   0.0284351   0.0481100   0.0000000   0.0000000   0.0000000   0.0001324   0.0266313   0.4890550   0.0000000   0.0000000   0.0000000
 0.9950000  -2.5007400  -0.2785380   0.9742470   0.0000000   0.0000000   0.0186726  -0.0008006   0.0285776   0.0505565   0.0000000   0.0000000   0.0000000   0.0005147   0.0304053   0.4895150   0.0000000   0.0000000   0.0000000
 1.0000000  -2.5007500  -0.2783940   0.9745060   0.0000000   0.0000000   0.0187870  -0.0007965   0.0287396   0.0530048   0.0000000   0.0000000   0.0000000   0.0011470   0.0344294   0.4897250   0.0000000   0.0000000   0.0000000
 1.0050000  -2.5007500  -0.2782500   0.9747770   0.0000000   0.0000000   0.0189014  -0.0007887   0.0289223   0.0554534   0.0000000   0.0000000   0.0000000   0.0020294   0.0387034   0.4896850   0.0000000   0.0000000   0.0000000
 1.0100000  -2.5007600  -0.2781050   0.9750610   0.0000000   0.0000000   0.0190158  -0.0007758   0.0291270   0.0579012   0.0000000   0.0000000   0.0000000   0.0031617   0.0432275   0.4893960   0.0000000   0.0000000   0.0000000
 1.0150000  -2.5007600  -0.2779590   0.9753570   0.0000000   0.0000000   0.0191301  -0.0007567   0.0293550   0.0603469   0.0000000   0.0000000   0.0000000   0.0045440   0.0480016   0.4888560   0.0000000   0.0000000   0.0000000
 1.0200000  -2.5007600  -0.2778110   0.9756640   0.0000000   0.0000000   0.0192445  -0.0007300   0.0296074   0.0627893   0.0000000   0.0000000   0.0000000   0.0061763   0.0530256   0.4880660   0.0000000   0.0000000   0.0000000
 1.0250000  -2.5007700  -0.2776630   0.9759840   0.0000000   0.0000000   0.0193589  -0.0006945   0.0298857   0.0652272   0.0000000   0.0000000   0.0000000   0.0080586   0.0582997   0.4870260   0.0000000   0.0000000   0.0000000
 1.0300000  -2.5007700  -0.2775130   0.9763170   0.0000000   0.0000000   0.0194733  -0.0006490   0.0301909   0.0676592   0.0000000   0.0000000   0.0000000   0.0101909   0.0638237   0.4857370   0.0000000   0.0000000   0.0000000
 1.0350000  -2.5007700  -0.2773610   0.9766610   0.0000000   0.0000000   0.0195877  -0.0005922   0.0305243   0.0700841   0.0000000   0.0000000   0.0000000   0.0125733   0.0695978   0.4841970   0.0000000   0.0000000   0.0000000
 1.0400000  -2.5007800  -0.2772070   0.9770170   0.0000000   0.0000000   0.0197021  -0.0005228   0.0308873   0.0725007   0.0000000   0.0000000   0.0000000   0.0152056   0.0756219   0.4824070   0.0000000   0.0000000   0.0000000
 1.0450000  -2.5007800  -0.2770520   0.9773860   0.0000000   0.0000000   0.0198165  -0.0004397   0.0312809   0.0749078   0.0000000   0.0000000   0.0000000   0.0180879   0.0818959   0.4803670   0.0000000   0.0000000   0.0000000
 1.0500000  -2.5007800  -0.2768940   0.9777660   0.0000000   0.0000000   0.0199309  -0.0003415   0.0317066   0.0773040   0.0000000   0.0000000   0.0000000   0.0212202   0.0884200   0.4780770   0.0000000   0.0000000   0.0000000
 1.0550000  -2.5007800  -0.2767350   0.9781590   0.0000000   0.0000000   0.0200453  -0.0002271   0.0321656   0.0796881   0.0000000   0.0000000   0.0000000   0.0246025   0.0951940   0.4755380   0.0000000   0.0000000   0.0000000
 1.0600000  -2.5007800  -0.2765730   0.9785630   0.0000000   0.0000000   0.0201597  -0.0000951   0.0326590   0.0820589   0.0000000   0.0000000   0.0000000   0.0282348   0.1022180   0.4727480   0.0000000   0.0000000   0.0000000
 1.0650000  -2.5007800  -0.2764080   0.9789800   0.0000000   0.0000000   0.0202741   0.0000557   0.0331882   0.0844152   0.0000000   0.0000000   0.0000000   0.0321172   0.1094920   0.4697080   0.0000000   0.0000000   0.0000000
 1.0700000  -2.5007800  -0.2762410   0.9794070   0.0000000   0.0000000   0.0203885   0.0002265   0.0337543   0.0867556   0.0000000   0.0000000   0.0000000   0.0362495   0.1170160   0.4664180   0.0000000   0.0000000   0.0000000
 1.0750000  -2.5007800  -0.2760700   0.9798470   0.0000000   0.0000000   0.0205029   0.0004186   0.0343587   0.0890790   0.0000000   0.0000000   0.0000000   0.0406318   0.1247900   0.4628780   0.0000000   0.0000000   0.0000000
 1.0800000  -2.5007800  -0.2758970   0.9802980   0.0000000   0.0000000   0.0206172   0.0006332   0.0350026   0.0913840   0.0000000   0.0000000   0.0000000   0.0452641   0.1328140   0.4590890   0.0000000   0.0000000   0.0000000
 1.0850000  -2.5007700  -0.2757200   0.9807610   0.0000000   0.0000000   0.0207316   0.0008717   0.0356873   0.0936694   0.0000000   0.0000000   0.0000000   0.0501464   0.1410880   0.4550490   0.0000000   0.0000000   0.0000000
 1.0900000  -2.5007700  -0.2755400   0.9812350   0.0000000   0.0000000   0.0208460   0.0011351   0.0364139   0.0959341   0.0000000   0.0000000   0.0000000   0.0552787   0.1496120   0.4507590   0.0000000   0.0000000   0.0000000
 1.0950000  -2.5007600  -0.2753560   0.9817200   0.0000000   0.0000000   0.0209604   0.0014249   0.0371838   0.0981766   0.0000000   0.0000000   0.0000000   0.0606610   0.1583870   0.4462190   0.0000000   0.0000000   0.0000000
 1.1000000  -2.5007500  -0.2751680   0.9822170   0.0000000   0.0000000   0.0210748   0.0017422   0.0379982   0.1003960   0.0000000   0.0000000   0.0000000   0.0662934   0.1674110   0.4414300   0.0000000   0.0000000   0.0000000
 1.1050000  -2.5007400  -0.2749760   0.9827240   0.0000000   0.0000000   0.0211892   0.0020882   0.0388584   0.1025900   0.0000000   0.0000000   0.0000000   0.0721757   0.1766850   0.4363900   0.0000000   0.0000000   0.0000000
 1.1100000  -2.5007300  -0.2747800   0.9832420   0.0000000   0.0000000   0.0213036   0.0024643   0.0397655   0.1047590   0.0000000   0.0000000   0.0000000   0.0783080   0.1862090   0.4311000   0.0000000   0.0000000   0.0000000
 1.1150000  -2.5007200  -0.2745780   0.9837720   0.0000000   0.0000000   0.0214180   0.0028717   0.0407209   0.1069010   0.0000000   0.0000000   0.0000000   0.0846903   0.1959830   0.4255600   0.0000000   0.0000000   0.0000000
 1.1200000  -2.5007000  -0.2743720   0.9843110   0.0000000   0.0000000   0.0215324   0.0033116   0.0417257   0.1090140   0.0000000   0.0000000   0.0000000   0.0913226   0.2060070   0.4197700   0.0000000   0.0000000   0.0000000
 1.1250000  -2.5006900  -0.2741610   0.9848620   0.0000000   0.0000000   0.0216468   0.0037854   0.0427814   0.1110980   0.0000000   0.0000000   0.0000000   0.0982049   0.2162810   0.4137310   0.0000000   0.0000000   0.0000000
 1.1300000  -2.5006700  -0.2739440   0.9854220   0.0000000   0.0000000   0.0217612   0.0042941   0.0438890   0.1131510   0.0000000   0.0000000   0.0000000   0.1053370   0.2268050   0.4074410   0.0000000   0.0000000   0.0000000
 1.1350000  -2.5006400  -0.2737220   0.9859930   0.0000000   0.0000000   0.0218756   0.0048392   0.0450498   0.1151720   0.0000000   0.0000000   0.0000000   0.1127200   0.2375790   0.4009010   0.0000000   0.0000000   0.0000000
 1.1400000  -2.5006200  -0.2734940   0.9865740   0.0000000   0.0000000   0.0219900   0.0054217   0.0462652   0.1171600   0.0000000   0.0000000   0.0000000   0.1203520   0.2486030   0.3941110   0.0000000   0.0000000   0.0000000
 1.1450000  -2.5005900  -0.2732590   0.9871650   0.0000000   0.0000000   0.0221043   0.0060431   0.0475363   0.1191130   0.0000000   0.0000000   0.0000000   0.1282340   0.2598770   0.3870710   0.0000000   0.0000000   0.0000000
 1.1500000  -2.5005600  -0.2730180   0.9877650   0.0000000   0.0000000   0.0222187   0.0067045   0.0488644   0.1210300   0.0000000   0.0000000   0.0000000   0.1363670   0.2714010   0.3797820   0.0000000   0.0000000   0.0000000
 1.1550000  -2.5005200  -0.2727710   0.9883750   0.0000000   0.0000000   0.0223331   0.0074072   0.0502507   0.1229100   0.0000000   0.0000000   0.0000000   0.1447490   0.2831750   0.3722420   0.0000000   0.0000000   0.0000000
 1.1600000  -2.5004800  -0.2725160   0.9889940   0.0000000   0.0000000   0.0224475   0.0081524   0.0516965   0.1247520   0.0000000   0.0000000   0.0000000   0.1533810   0.2951990   0.3644520   0.0000000   0.0000000   0.0000000
 1.1650000  -2.5004400  -0.2722530   0.9896220   0.0000000   0.0000000   0.0225619   0.0089414   0.0532031   0.1265550   0.0000000   0.0000000   0.0000000   0.1622630   0.3074730   0.3564120   0.0000000   0.0000000   0.0000000
 1.1700000  -2.5003900  -0.2719840   0.9902600   0.0000000   0.0000000   0.0226763   0.0097754   0.0547717   0.1283160   0.0000000   0.0000000   0.0000000   0.1713960   0.3199970   0.3481230   0.0000000   0.0000000   0.0000000
 1.1750000  -2.5003400  -0.2717060   0.9909060   0.0000000   0.0000000   0.0227907   0.0106558   0.0564035   0.1300350   0.0000000   0.0000000   0.0000000   0.1807780   0.3327710   0.3395830   0.0000000   0.0000000   0.0000000
 1.1800000  -2.5002900  -0.2714190   0.9915600   0.0000000   0.0000000   0.0229051   0.0115836   0.0580998   0.1317110   0.0000000   0.0000000   0.0000000   0.1904100   0.3457960   0.3307930   0.0000000   0.0000000   0.0000000
 1.1850000  -2.5002300  -0.2711250   0.9922230   0.0000000   0.0000000   0.0230195   0.0125603   0.0598619   0.1333430   0.0000000   0.0000000   0.0000000   0.2002710   0.3590700   0.3217530   0.0000000   0.0000000   0.0000000
 1.1900000  -2.5001600  -0.2708210   0.9928930   0.0000000   0.0000000   0.0231339   0.0135861   0.0616909   0.1349290   0.0000000   0.0000000   0.0000000   0.2100070   0.3725940   0.3124630   0.0000000   0.0000000   0.0000000
 1.1950000  -2.5000900  -0.2705080   0.9935720   0.0000000   0.0000000   0.0232483   0.0146599   0.0635882   0.1364670   0.0000000   0.0000000   0.0000000   0.2194930   0.3863680   0.3029240   0.0000000   0.0000000   0.0000000
 1.2000000  -2.5000200  -0.2701850   0.9942580   0.0000000   0.0000000   0.0233627   0.0157806   0.0655550   0.1379570   0.0000000   0.0000000   0.0000000   0.2287290   0.4003920   0.2931340   0.0000000   0.0000000   0.0000000
 1.2050000  -2.4999300  -0.2698520   0.9949510   0.0000000   0.0000000   0.0234771   0.0169468   0.0675926   0.1393980   0.0000000   0.0000000   0.0000000   0.2377150   0.4146660   0.2830940   0.0000000   0.0000000   0.0000000
 1.2100000  -2.4998500  -0.2695090   0.9956520   0.0000000   0.0000000   0.0235914   0.0181573   0.0697021   0.1407880   0.0000000   0.0000000   0.0000000   0.2464500   0.4291900   0.2728040   0.0000000   0.0000000   0.0000000
 1.2150000  -2.4997500  -0.2691550   0.9963590   0.0000000   0.0000000   0.0237058   0.0194109   0.0718849   0.1421260   0.0000000   0.0000000   0.0000000   0.2549360   0.4439640   0.2622640   0.0000000   0.0000000   0.0000000
 1.2200000  -2.4996500  -0.2687900   0.9970730   0.0000000   0.0000000   0.0238202   0.0207063   0.0741421   0.1434100   0.0000000   0.0000000   0.0000000   0.2631720   0.4589880   0.2514750   0.0000000   0.0000000   0.0000000
 1.2250000  -2.4995400  -0.2684130   0.9977930   0.0000000   0.0000000   0.0239346   0.0220422   0.0764752   0.1446400   0.0000000   0.0000000   0.0000000   0.2711580   0.4742620   0.2404350   0.0000000   0.0000000   0.0000000
 1.2300000  -2.4994300  -0.2680250   0.9985190   0.0000000   0.0000000   0.0240490   0.0234174   0.0788852   0.1458140   0.0000000   0.0000000   0.0000000   0.2788940   0.4897860   0.2291450   0.0000000   0.0000000   0.0000000
 1.2350000  -2.4993100  -0.2676240   0.9992510   0.0000000   0.0000000   0.0241634   0.0248307   0.0813734   0.1469310   0.0000000   0.0000000   0.0000000   0.2863790   0.5055600   0.2176050   0.0000000   0.0000000   0.0000000
 1.2400000  -2.4991800  -0.2672110   0.9999880   0.0000000   0.0000000   0.0242778   0.0262808   0.0839412   0.1479900   0.0000000   0.0000000   0.0000000   0.2936150   0.5215840   0.2058160   0.0000000   0.0000000   0.0000000
 1.2450000  -2.4990500  -0.2667850   1.0007300   0.0000000   0.0000000   0.0243922   0.0277664   0.0865897   0.1489890   0.0000000   0.0000000   0.0000000   0.3006010   0.5378580   0.1937760   0.0000000   0.0000000   0.0000000
 1.2500000  -2.4989000  -0.2663450   1.0014800   0.0000000   0.0000000   0.0245066   0.0292864   0.0893202   0.1499270   0.0000000   0.0000000   0.0000000   0.3073370   0.5543820   0.1814860   0.0000000   0.0000000   0.0000000
 1.2550000  -2.4987500  -0.2658910   1.0022300   0.0000000   0.0000000   0.0246210   0.0308394   0.0921339   0.1508030   0.0000000   0.0000000   0.0000000   0.3138230   0.5711560   0.1689460   0.0000000   0.0000000   0.0000000
 1.2600000  -2.4986000  -0.2654230   1.0029900   0.0000000   0.0000000   0.0247354   0.0324242   0.0950322   0.1516160   0.0000000   0.0000000   0.0000000   0.3200580   0.5881800   0.1561560   0.0000000   0.0000000   0.0000000
 1.2650000  -2.4984300  -0.2649410   1.0037500   0.0000000   0.0000000   0.0248498   0.0340396   0.0980162   0.1523640   0.0000000   0.0000000   0.0000000   0.3260440   0.6054550   0.1431170   0.0000000   0.0000000   0.0000000
 1.2700000  -2.4982600  -0.2644430   1.0045100   0.0000000   0.0000000   0.0249642   0.0356842   0.1010870   0.1530470   0.0000000   0.0000000   0.0000000   0.3317800   0.6229790   0.1298270   0.0000000   0.0000000   0.0000000
 1.2750000  -2.4980700  -0.2639300   1.0052800   0.0000000   0.0000000   0.0250786   0.0373570   0.1042460   0.1536620   0.0000000   0.0000000   0.0000000   0.3372660   0.6407530   0.1162870   0.0000000   0.0000000   0.0000000
 1.2800000  -2.4978800  -0.2634000   1.0060500   0.0000000   0.0000000   0.0251929   0.0390565   0.1074950   0.1542090   0.0000000   0.0000000   0.0000000   0.3425020   0.6587410   0.1024970   0.0000000   0.0000000   0.0000000
 1.2850000  -2.4976800  -0.2628550   1.0068200   0.0000000   0.0000000   0.0253073   0.0407816   0.1108330   0.1546870   0.0000000   0.0000000   0.0000000   0.3474880   0.6765770   0.0884574   0.0000000   0.0000000   0.0000000
 1.2900000  -2.4974700  -0.2622920   1.0075900   0.0000000   0.0000000   0.0254217   0.0425309   0.1142600   0.1550930   0.0000000   0.0000000   0.0000000   0.3522230   0.6941620   0.0741676   0.0000000   0.0000000   0.0000000
 1.2950000  -2.4972600  -0.2617120   1.0083700   0.0000000   0.0000000   0.0255361   0.0443034   0.1177750   0.1554280   0.0000000   0.0000000   0.0000000   0.3567090   0.7114980   0.0596279   0.0000000   0.0000000   0.0000000
 1.3000000  -2.4970300  -0.2611140   1.0091500   0.0000000   0.0000000   0.0256505   0.0460976   0.1213750   0.1556890   0.0000000   0.0000000   0.0000000   0.3609450   0.7285830   0.0448381   0.0000000   0.0000000   0.0000000
 1.3050000  -2.4968000  -0.2604980   1.0099300   0.0000000   0.0000000   0.0257649   0.0479124   0.1250600   0.1558760   0.0000000   0.0000000   0.0000000   0.3649310   0.7454190   0.0297983   0.0000000   0.0000000   0.0000000
 1.3100000  -2.4965500  -0.2598630   1.0107100   0.0000000   0.0000000   0.0258793   0.0497465   0.1288290   0.1559870   0.0000000   0.0000000   0.0000000   0.3686670   0.7620040   0.0145085   0.0000000   0.0000000   0.0000000
 1.3150000  -2.4963000  -0.2592100   1.0114900   0.0000000   0.0000000   0.0259937   0.0515987   0.1326800   0.1560210   0.0000000   0.0000000   0.0000000   0.3721520   0.7783400  -0.0010313   0.0000000   0.0000000   0.0000000
