ts fx fy fz tx ty tz exfx exfy exfz extx exty extz xd yd zd rolld pitchd yawd vxd vyd vzd wxd wyd wzd axd ayd azd e_x e_y e_z e_vx e_vy e_vz e_rx e_ry e_rz e_wx e_wy e_wz
1701777327.400255000  0  0  11.88  -0.0487677  -0.13441  0.00950774  nan  nan  nan  nan  nan  nan  -2  -1  1.5  -0.0105721  -0.0308629  0.000326247  0  0  0  0  0  0  0  0  0  0.0181682  -0.00678193  -0.0214796  0.000377627  0.00112362  0.00562526  0.0065636  0.0277705  -0.01054  0.0371502  0.0133313  -0.013447 
1701777327.404636000  0  0  11.8663  -0.0288731  -0.146941  0.0091089  nan  nan  nan  nan  nan  nan  -2  -1  1.5  -0.0110608  -0.0307696  0.000340295  0  0  0  0  0  0  0  0  0  0.0181546  -0.00687121  -0.0214836  0.00023843  0.000693996  0.00676636  0.00678632  0.027974  -0.0105802  -0.00468791  0.0365212  -0.00805875 
1701777327.409311000  0  0  11.8783  -0.0141343  -0.155822  0.00942561  nan  nan  nan  nan  nan  nan  -2  -1  1.5  -0.010737  -0.030737  0.000329985  0  0  0  0  0  0  0  0  0  0.0181564  -0.00686571  -0.0214646  0.000232484  0.00109407  0.00572417  0.00613113  0.0283066  -0.010642  -0.0281378  0.0512234  -0.0113999 
1701777327.414256000  0  0  11.8778  -0.0242335  -0.149301  0.00969009  nan  nan  nan  nan  nan  nan  -2  -1  1.5  -0.0107617  -0.0305427  0.000328653  0  0  0  0  0  0  0  0  0  0.0181152  -0.0069462  -0.0215098  6.58229e-05  0.00124077  0.00585187  0.00625555  0.0282141  -0.0107393  -0.00908412  0.0390324  -0.0137336 
1701777327.419311000  0  0  11.8569  0.000854188  -0.160292  0.00961751  nan  nan  nan  nan  nan  nan  -2  -1  1.5  -0.0106306  -0.0306185  0.000325456  0  0  0  0  0  0  0  0  0  0.018116  -0.00694058  -0.021467  9.30581e-05  0.00142578  0.00749946  0.00561095  0.0286656  -0.0107877  -0.0533291  0.0568594  -0.0123422 
1701777327.424249000  0  0  11.8656  0.00429403  -0.161358  0.00988685  nan  nan  nan  nan  nan  nan  -2  -1  1.5  -0.0105824  -0.0304526  0.000322224  0  0  0  0  0  0  0  0  0  0.0181027  -0.00702556  -0.0214791  -6.6313e-05  0.00166775  0.00679085  0.00524161  0.0287877  -0.0108832  -0.0568109  0.0578704  -0.0147541 
1701777327.429726000  0  0  11.8748  0.00699805  -0.158414  0.00986993  nan  nan  nan  nan  nan  nan  -2  -1  1.5  -0.0105488  -0.0302357  0.000318915  0  0  0  0  0  0  0  0  0  0.0180617  -0.00709569  -0.0215272  -0.000230221  0.00185687  0.00611893  0.00487932  0.0288044  -0.0109623  -0.0588858  0.0518276  -0.0137507 
1701777327.434300000  0  0  11.8628  0.0213726  -0.160308  0.0092539  nan  nan  nan  nan  nan  nan  -2  -1  1.5  -0.0103722  -0.0304282  0.00031557  0  0  0  0  0  0  0  0  0  0.0180625  -0.00708801  -0.0214918  -1.85434e-05  0.00208657  0.00704122  0.0041604  0.029237  -0.0109235  -0.0810209  0.0516353  -0.00643874 
1701777327.439297000  0  0  11.8794  0.0129564  -0.155914  0.00948275  nan  nan  nan  nan  nan  nan  -2  -1  1.5  -0.0101253  -0.0298537  0.000302243  0  0  0  0  0  0  0  0  0  0.0180164  -0.00714902  -0.0215541  -0.000618668  0.00252848  0.00577973  0.0037513  0.0288676  -0.0109813  -0.0604248  0.0462462  -0.00872129 
1701777327.445248000  0  0  11.8855  0.0205287  -0.155063  0.00906496  nan  nan  nan  nan  nan  nan  -2  -1  1.5  -0.00984037  -0.0297432  0.00029265  0  0  0  0  0  0  0  0  0  0.0180126  -0.00713481  -0.0215244  -0.000735924  0.00286603  0.0052024  0.0030037  0.0289965  -0.0109581  -0.0686914  0.0433578  -0.00373074 
1701777327.450241000  0  0  11.8878  2.58672e-05  -0.133759  0.00956879  nan  nan  nan  nan  nan  nan  -2  -1  1.5  -0.00973986  -0.0294453  0.000286761  0  0  0  0  0  0  0  0  0  0.0179982  -0.00720682  -0.0215365  -0.00109041  0.00315618  0.00503948  0.00301029  0.028434  -0.0110492  -0.0277464  0.00592445  -0.00911786 
1701777327.455289000  0  0  11.9119  0.00805345  -0.140303  0.00958824  nan  nan  nan  nan  nan  nan  -2  -1  1.5  -0.00992385  -0.028866  0.000286431  0  0  0  0  0  0  0  0  0  0.0179495  -0.00726897  -0.0216051  -0.00167057  0.00302452  0.00316923  0.00291548  0.0280851  -0.0111046  -0.0429293  0.0222223  -0.00880649 
1701777327.460245000  0  0  11.8774  0.00237786  -0.121489  0.00979583  nan  nan  nan  nan  nan  nan  -2  -1  1.5  -0.0100003  -0.0289592  0.00028957  -6e-07  -6e-07  6e-07  0  0  0  -0.000375  -0.000375  0.000375  0.0179425  -0.0072575  -0.0215626  -0.00169137  0.00288797  0.00600595  0.00290222  0.0278816  -0.011168  -0.0314562  -0.0135333  -0.0107674 
1701777327.465292000  0  0  11.9312  -0.0168482  -0.113502  0.010064  nan  nan  nan  nan  nan  nan  -2  -1  1.5  -0.00952695  -0.0282712  0.00026931  -5e-06  -5e-06  5e-06  0  0  0  -0.0015  -0.0015  0.0014996  0.0178865  -0.00731287  -0.0216577  -0.00245212  0.00343282  0.00182461  0.00276948  0.0269801  -0.0112697  0.00821722  -0.021212  -0.0131027 
1701777327.470720000  0  0  11.9379  -0.00421107  -0.128273  0.00903121  nan  nan  nan  nan  nan  nan  -2  -1  1.5  -0.00994637  -0.0283126  0.000281579  -1.69e-05  -1.69e-05  1.55e-05  0  0  0  -0.003375  -0.003375  0.0025892  0.0178591  -0.00738745  -0.0216936  -0.00255731  0.00279306  0.00144573  0.002905  0.0272561  -0.0112026  -0.0183039  0.00579062  -0.000864283 
1701777327.475296000  0  0  11.9035  -0.0288636  -0.105322  0.00921131  nan  nan  nan  nan  nan  nan  -2  -1  1.5  -0.00968379  -0.028729  0.000278276  -4e-05  -4e-05  2.96e-05  0  0  0  -0.006  -0.006  0.0029289  0.0178496  -0.0073761  -0.0216573  -0.00243297  0.00281408  0.00428142  0.00307923  0.0271711  -0.0112315  0.0293982  -0.0393294  -0.00282651 
1701777327.480237000  0  0  11.9364  -0.0322467  -0.116498  0.00903516  nan  nan  nan  nan  nan  nan  -2  -1  1.5  -0.00892096  -0.0287236  0.000256414  -7.81e-05  -7.81e-05  4.36e-05  0  0  0  -0.009375  -0.009375  0.0025185  0.017835  -0.00735917  -0.021664  -0.00273921  0.00331624  0.00151267  0.00260151  0.0271911  -0.0112172  0.0405596  -0.017162  -0.000767674 
1701777327.485294000  0  0  11.9083  -0.0233858  -0.130984  0.00932255  nan  nan  nan  nan  nan  nan  -2  -1  1.5  -0.00886897  -0.0290965  0.000258427  -0.000135  -0.000135  5.36e-05  0  0  0  -0.0135  -0.0135  0.0013619  0.0178028  -0.00743437  -0.0216823  -0.00279658  0.00304699  0.00377491  0.00251225  0.0277688  -0.0112669  0.0236589  0.0064946  -0.00386323 
1701777327.490240000  0  0  11.8809  -0.051088  -0.116429  0.0104259  nan  nan  nan  nan  nan  nan  -2  -1  1.5  -0.0086903  -0.0296777  0.000258476  -0.0002144  -0.0002144  5.74e-05  0  0  0  -0.018375  -0.018375  0.0003076  0.0177707  -0.00750936  -0.021698  -0.00267634  0.00284671  0.00599652  0.00300589  0.0279961  -0.0114454  0.0745218  -0.0247072  -0.015869 
1701777327.495754000  0  0  11.9455  -0.0307107  -0.146691  0.00989815  nan  nan  nan  nan  nan  nan  -2  -1  1.5  -0.00791931  -0.0295743  0.000234979  -0.00032  -0.00032  5.79e-05  0  0  0  -0.024  -0.024  -3.3e-06  0.017696  -0.00757282  -0.0218274  -0.00316096  0.00322111  0.000831372  0.00230344  0.0283466  -0.0114883  0.0402297  0.0325927  -0.00884371 
1701777327.500243000  0  0  11.9155  -0.0209105  -0.152419  0.0102813  nan  nan  nan  nan  nan  nan  -2.00001  -1.00001  1.5  -0.00720578  -0.0304227  0.000220189  -0.0004549  -0.0004556  5.71e-05  0  0  0  -0.0298319  -0.030375  -0.0004491  0.0176924  -0.00755217  -0.0217979  -0.00288111  0.00332221  0.0032156  0.00159292  0.0293736  -0.011561  0.0271662  0.0346016  -0.0129056 
1701777327.505284000  0  0  11.9188  -0.0392733  -0.138295  0.0111355  nan  nan  nan  nan  nan  nan  -2.00001  -1.00001  1.5  -0.00631583  -0.0307385  0.000195311  -0.0006171  -0.000625  5.22e-05  0  0  0  -0.0349304  -0.0375  -0.0016448  0.0176256  -0.00761851  -0.0218916  -0.00296223  0.00372443  0.00302428  0.00131499  0.0294539  -0.0117665  0.0664487  0.00561486  -0.0215293 
1701777327.510306000  0  0  11.9486  0.00298153  -0.17456  0.0101233  nan  nan  nan  nan  nan  nan  -2.00001  -1.00001  1.5  -0.00520497  -0.0312131  0.000163838  -0.0008029  -0.0008318  3.94e-05  0  0  0  -0.0392789  -0.0452796  -0.0035905  0.0176078  -0.00760335  -0.0219013  -0.00275147  0.00413852  0.000342429  -0.000255004  0.030648  -0.0117184  -0.00361702  0.067157  -0.00935786 
1701777327.515303000  0  0  11.9055  -0.00878356  -0.162609  0.010239  nan  nan  nan  nan  nan  nan  -2.00002  -1.00002  1.5  -0.00456323  -0.0317014  0.000146338  -0.0010086  -0.0010769  1.5e-05  0  0  0  -0.0428774  -0.0526197  -0.0062863  0.0175656  -0.00766559  -0.0219355  -0.00262599  0.00420187  0.00374698  -0.000688743  0.0311862  -0.0117825  0.0239036  0.0383045  -0.0101624 
1701777327.520713000  0  0  11.9291  -0.00750744  -0.164468  0.00994033  nan  nan  nan  nan  nan  nan  -2.00002  -1.00002  1.5  -0.00430529  -0.0314807  0.000137512  -0.0012224  -0.0013394  -1.7e-05  0  0  0  -0.0425024  -0.0522447  -0.0066612  0.0175018  -0.00772847  -0.022033  -0.00264508  0.00471973  0.0019391  -0.000792787  0.0311523  -0.0118308  0.0223085  0.0423347  -0.00594638 
1701777327.525306000  0  0  11.9164  0.0168441  -0.178317  0.00897511  nan  nan  nan  nan  nan  nan  -2.00003  -1.00003  1.5  -0.00402548  -0.0315489  0.000129279  -0.0014324  -0.0015981  -5.29e-05  0  0  0  -0.0413774  -0.0511197  -0.0077862  0.0174939  -0.00770343  -0.0220176  -0.00243573  0.00518578  0.00284037  -0.00146605  0.0316935  -0.0117202  -0.0202005  0.0650528  0.00501304 
1701777327.530257000  0  0  11.8904  0.00955836  -0.164322  0.00914024  nan  nan  nan  nan  nan  nan  -2.00004  -1.00004  1.5  -0.00415755  -0.0313792  0.00013314  -0.0016349  -0.0018493  -9.62e-05  0  0  0  -0.0395024  -0.0492447  -0.0096612  0.0174425  -0.0077547  -0.0220768  -0.00239465  0.00537917  0.00494275  -0.00129706  0.0315144  -0.0117546  -0.00718381  0.0387111  0.00329251 
1701777327.535306000  0  0  11.9179  0.0136989  -0.164875  0.00928642  nan  nan  nan  nan  nan  nan  -2.00004  -1.00005  1.5  -0.00370758  -0.0310255  0.000118312  -0.0018262  -0.0020893  -0.0001507  0  0  0  -0.0368774  -0.0466197  -0.0122863  0.0174206  -0.00772376  -0.022079  -0.00237975  0.00623246  0.00240046  -0.00174176  0.0313261  -0.0117613  -0.0113737  0.0415509  0.00153275 
1701777327.540253000  0  0  11.9034  0.0256317  -0.167457  0.00919937  nan  nan  nan  nan  nan  nan  -2.00005  -1.00006  1.5  -0.00403326  -0.0306953  0.000127683  -0.0020024  -0.0023142  -0.0002203  0  0  0  -0.0335024  -0.0432447  -0.0156613  0.0173758  -0.00777144  -0.0221308  -0.00233068  0.00634989  0.00337912  -0.00175959  0.031291  -0.011744  -0.0350751  0.0470369  0.00244797 
1701777327.545682000  0  0  11.8756  -0.00426665  -0.139659  0.0101065  nan  nan  nan  nan  nan  nan  -2.00006  -1.00007  1.5  -0.00422587  -0.0302219  0.000132395  -0.0021599  -0.0025205  -0.0003086  0  0  0  -0.0293774  -0.0391197  -0.0197863  0.0173359  -0.00781823  -0.0221572  -0.00242966  0.00674535  0.00536688  -0.00112057  0.0304774  -0.011879  0.0188426  -0.00107463  -0.0075409 
1701777327.550303000  0  0  11.9217  0.00853217  -0.146894  0.0100496  nan  nan  nan  nan  nan  nan  -2.00008  -1.00008  1.5  -0.00437171  -0.0296147  0.000135249  -0.0022949  -0.0027042  -0.0004194  0  0  0  -0.0245024  -0.0342447  -0.0246613  0.0173339  -0.00778968  -0.0221758  -0.00244496  0.00709703  0.00108476  -0.00115488  0.0300578  -0.0119048  -0.00643944  0.0172562  -0.00657179 
1701777327.555303000  0  0  11.8944  -0.00281125  -0.134255  0.0106115  nan  nan  nan  nan  nan  nan  -2.00009  -1.0001  1.49999  -0.00481012  -0.0288225  0.000145722  -0.0024037  -0.0028617  -0.0005564  0  0  0  -0.0188774  -0.0286197  -0.0302863  0.0172748  -0.00781761  -0.0222414  -0.00272468  0.00732  0.00295756  -0.000569629  0.0291709  -0.012035  0.0108631  0.000137471  -0.012293 
1701777327.560253000  0  0  11.8889  -0.0206137  -0.117697  0.0108657  nan  nan  nan  nan  nan  nan  -2.0001  -1.00011  1.49999  -0.00511981  -0.0279546  0.000152005  -0.0024825  -0.0029891  -0.0007235  0  0  0  -0.0125024  -0.0222447  -0.0366613  0.017257  -0.00778583  -0.0222332  -0.0030265  0.00766712  0.00278774  0.000135391  0.0280508  -0.0121353  0.0399818  -0.0226746  -0.0144683 
1701777327.565306000  0  0  11.9103  -0.0166509  -0.116336  0.010765  nan  nan  nan  nan  nan  nan  -2.00011  -1.00013  1.49999  -0.00612248  -0.0270002  0.00017629  -0.0025275  -0.0030829  -0.0009243  0  0  0  -0.0053774  -0.0151197  -0.0437863  0.0171982  -0.00781847  -0.0223426  -0.0031725  0.0073217  0.000550854  0.00115493  0.0270542  -0.0122302  0.0226764  -0.0162269  -0.0122605 
1701777327.570727000  0  0  11.8814  -0.0493107  -0.100447  0.0109051  nan  nan  nan  nan  nan  nan  -2.00012  -1.00014  1.49998  -0.00683689  -0.0257921  0.000190121  -0.002535  -0.0031391  -0.0011626  0  0  0  0.0024976  -0.0072447  -0.0516613  0.0171392  -0.00786469  -0.022391  -0.0037066  0.00751874  0.00230457  0.00259911  0.0255393  -0.012357  0.0747097  -0.0340685  -0.0127432 
1701777327.575287000  0  0  11.8719  -0.0536068  -0.0953653  0.0101377  nan  nan  nan  nan  nan  nan  -2.00014  -1.00016  1.49998  -0.00778149  -0.0247031  0.000209311  -0.0025013  -0.0031541  -0.0014422  0  0  0  0.0111226  0.0013803  -0.0602863  0.0171295  -0.00782833  -0.0223904  -0.0040347  0.00731389  0.00226261  0.00388199  0.0243161  -0.0123268  0.0714994  -0.0329774  -0.00345329 
1701777327.580255000  0  0  11.8527  -0.0594931  -0.087015  0.00920729  nan  nan  nan  nan  nan  nan  -2.00015  -1.00018  1.49997  -0.00917078  -0.0234816  0.000236631  -0.0024225  -0.003124  -0.0017667  0  0  0  0.0204976  0.0107553  -0.0696613  0.0170705  -0.00787161  -0.0224414  -0.00435386  0.0068088  0.00306675  0.00559898  0.0228782  -0.0122787  0.0674755  -0.0364489  0.00769549 
1701777327.585304000  0  0  11.8421  -0.0825482  -0.0862805  0.00921472  nan  nan  nan  nan  nan  nan  -2.00016  -1.00019  1.49996  -0.00985262  -0.0221649  0.000244672  -0.002295  -0.0030453  -0.00214  0  0  0  0.0306226  0.0208803  -0.0797863  0.0170448  -0.00783956  -0.0224313  -0.00474896  0.00715949  0.00294621  0.00704791  0.0214947  -0.0122603  0.100256  -0.0251902  0.00741891 
1701777327.590253000  0  0  11.8424  -0.0782043  -0.0901451  0.0090415  nan  nan  nan  nan  nan  nan  -2.00017  -1.00021  1.49995  -0.0117588  -0.020671  0.000275461  -0.002115  -0.002914  -0.0025658  0  0  0  0.0414976  0.0317553  -0.0906613  0.016984  -0.00788967  -0.0224961  -0.00517334  0.00616771  0.00200699  0.00914983  0.020116  -0.0122511  0.0722302  -0.00477714  0.00949183 
1701777327.595729000  0  0  11.8076  -0.0922325  -0.0788374  0.00997867  nan  nan  nan  nan  nan  nan  -2.00018  -1.00022  1.49993  -0.013161  -0.0192089  0.000292506  -0.0018788  -0.0027265  -0.0030479  0  0  0  0.0531226  0.0433803  -0.102286  0.0169214  -0.00794309  -0.0225292  -0.00553018  0.00599429  0.00384772  0.0110787  0.0185159  -0.0123813  0.0825409  -0.0126716  -0.000920412 
1701777327.600305000  0  0  11.8  -0.078804  -0.0948482  0.0105522  nan  nan  nan  nan  nan  nan  -2.00019  -1.00023  1.49992  -0.0144582  -0.0179478  0.000307797  -0.0015826  -0.0024789  -0.00359  0  0  0  0.0654976  0.0557553  -0.114661  0.0169  -0.00791792  -0.0225263  -0.0055526  0.00584738  0.00326786  0.0123853  0.0176406  -0.0124634  0.0436636  0.027403  -0.0072691 
1701777327.605296000  0  0  11.7711  -0.0779708  -0.0945243  0.0110575  nan  nan  nan  nan  nan  nan  -2.0002  -1.00024  1.4999  -0.0163314  -0.0164973  0.000327734  -0.0012226  -0.0021677  -0.0041958  0  0  0  0.0786226  0.0688803  -0.127786  0.0168412  -0.00797978  -0.0225809  -0.00568017  0.00527691  0.00451951  0.0142801  0.016471  -0.012609  0.0245643  0.0375152  -0.0121291 
1701777327.610231000  0  0  11.7375  -0.0827927  -0.0928188  0.0120014  nan  nan  nan  nan  nan  nan  -2.0002  -1.00025  1.49987  -0.0175418  -0.0147438  0.00032875  -0.0007951  -0.0017889  -0.0048691  0  0  0  0.0924976  0.0827553  -0.141661  0.0168057  -0.00795041  -0.0225449  -0.00615643  0.0054862  0.00589639  0.015601  0.0150368  -0.0127966  0.022056  0.0472987  -0.0220514 
1701777327.615298000  0  0  11.7201  -0.0538565  -0.109168  0.0114848  nan  nan  nan  nan  nan  nan  -2.00021  -1.00026  1.49985  -0.0193153  -0.0132331  0.000339326  -0.0002963  -0.0013388  -0.0056136  0  0  0  0.107123  0.0973803  -0.156286  0.0167525  -0.00799843  -0.0226009  -0.00614349  0.00520622  0.00604711  0.0167414  0.0142605  -0.0128608  -0.0463081  0.0871384  -0.0149519 
1701777327.620676000  0  0  11.6928  -0.0561067  -0.105773  0.0112431  nan  nan  nan  nan  nan  nan  -2.00021  -1.00027  1.49982  -0.0216135  -0.0115744  0.000349596  0.0002774  -0.0008138  -0.0064332  0  0  0  0.122498  0.112755  -0.171661  0.0166973  -0.00805654  -0.0226242  -0.00622844  0.00439386  0.00689114  0.0186431  0.0131229  -0.0129354  -0.0593033  0.0908157  -0.0111845 
1701777327.625298000  0  0  11.6937  -0.0638297  -0.116074  0.0111243  nan  nan  nan  nan  nan  nan  -2.0002  -1.00027  1.49978  -0.0228423  -0.00932794  0.000330406  0.0009299  -0.00021  -0.0073315  0  0  0  0.138623  0.12888  -0.187786  0.0166565  -0.00803265  -0.0226066  -0.0069718  0.00482432  0.00521863  0.0197166  0.0116959  -0.0129654  -0.0537335  0.124545  -0.00939939 
1701777327.630243000  0  0  11.6401  -0.0521587  -0.11774  0.0109555  nan  nan  nan  nan  nan  nan  -2.0002  -1.00027  1.49974  -0.0251493  -0.00760197  0.000328923  0.0016649  0.0004762  -0.0083123  0  0  0  0.155498  0.145755  -0.204661  0.0166098  -0.00808357  -0.0226238  -0.00697465  0.00426882  0.00809669  0.0213493  0.0107609  -0.0130089  -0.092096  0.13648  -0.00685505 
1701777327.635296000  0  0  11.6606  -0.0579503  -0.117542  0.0113873  nan  nan  nan  nan  nan  nan  -2.00019  -1.00027  1.4997  -0.0266903  -0.00529653  0.000302099  0.0024861  0.0012488  -0.0093793  0  0  0  0.173123  0.16338  -0.222286  0.0165723  -0.00805549  -0.0226206  -0.00758364  0.00442874  0.00469045  0.0224037  0.00928775  -0.0130902  -0.0902137  0.149638  -0.0114399 
1701777327.640244000  0  0  11.6579  -0.0591486  -0.123979  0.0111944  nan  nan  nan  nan  nan  nan  -2.00017  -1.00026  1.49965  -0.0288957  -0.00303509  0.000274425  0.0033973  0.0021113  -0.0105364  0  0  0  0.191498  0.181755  -0.240661  0.0165113  -0.00810234  -0.0226743  -0.00800476  0.00405714  0.00327573  0.0240669  0.00807462  -0.0131301  -0.103118  0.173671  -0.00862872 
1701777327.645619000  0  0  11.5892  -0.0406908  -0.121026  0.0105667  nan  nan  nan  nan  nan  nan  -2.00015  -1.00024  1.49959  -0.0316769  -0.000845241  0.000242584  0.0044023  0.0030676  -0.0117872  0  0  0  0.210623  0.20088  -0.259786  0.0164568  -0.00815293  -0.0226801  -0.00825537  0.00327845  0.00720289  0.0256699  0.0069336  -0.0130939  -0.154781  0.178263  -0.00114428 
1701777327.650285000  0  0  11.6358  -0.0540605  -0.116661  0.010935  nan  nan  nan  nan  nan  nan  -2.00013  -1.00023  1.49953  -0.0333431  0.00184729  0.000186483  0.0055048  0.0041213  -0.0131355  0  0  0  0.230498  0.220755  -0.279661  0.016418  -0.00812661  -0.0226988  -0.00907876  0.00346869  0.00146278  0.0268187  0.00516178  -0.0131238  -0.138611  0.185834  -0.00544874 
1701777327.655307000  0  0  11.6003  -0.0427823  -0.116417  0.0107134  nan  nan  nan  nan  nan  nan  -2.0001  -1.0002  1.49946  -0.0358564  0.00438883  0.000126465  0.0067086  0.0052764  -0.0145851  0  0  0  0.251123  0.24138  -0.300286  0.0163696  -0.00817508  -0.0227397  -0.00957596  0.00313282  0.00257124  0.0282648  0.0037363  -0.0131183  -0.174472  0.19846  -0.00273486 
1701777327.660243000  0  0  11.5472  -0.037296  -0.10687  0.0104775  nan  nan  nan  nan  nan  nan  -2.00006  -1.00017  1.49939  -0.0387391  0.00694975  5.39403e-05  0.0080173  0.0065364  -0.0161396  0  0  0  0.272498  0.262755  -0.321661  0.01632  -0.00816473  -0.0227113  -0.00996513  0.00238379  0.00493324  0.0299955  0.00214613  -0.0130713  -0.201366  0.193996  -0.000256226 
1701777327.665287000  0  0  11.5656  -0.0442442  -0.102472  0.0109545  nan  nan  nan  nan  nan  nan  -2.00002  -1.00014  1.4993  -0.0408621  0.00997866  -4.14689e-05  0.0094348  0.0079052  -0.0178029  0  0  0  0.294623  0.28488  -0.343786  0.0162685  -0.00819611  -0.0227807  -0.0109012  0.00250555  0.00147821  0.031187  0.000221807  -0.0131226  -0.198432  0.202904  -0.00570439 
1701777327.670661000  0  0  11.5079  -0.0227752  -0.106337  0.0106588  nan  nan  nan  nan  nan  nan  -1.99997  -1.00009  1.49921  -0.044133  0.0127219  -0.000148205  0.0109648  0.0093864  -0.0195787  0  0  0  0.317498  0.307755  -0.366661  0.0162195  -0.00824635  -0.0228141  -0.0112833  0.0016533  0.00424855  0.0327277  -0.00112695  -0.0130897  -0.255545  0.223042  -0.00233817 
1701777327.675302000  0  0  11.4496  -0.0324343  -0.0900897  0.011102  nan  nan  nan  nan  nan  nan  -1.99991  -1.00004  1.4991  -0.0474068  0.0156967  -0.000279955  0.012611  0.010984  -0.0214708  0  0  0  0.341123  0.33138  -0.390286  0.0161633  -0.00824452  -0.0227628  -0.0118124  0.000824244  0.00682264  0.0348252  -0.00318952  -0.0131171  -0.255523  0.209523  -0.00760353 
1701777327.680247000  0  0  11.4632  -0.0491478  -0.087684  0.0109478  nan  nan  nan  nan  nan  nan  -1.99984  -0.999984  1.49899  -0.0503244  0.0190694  -0.000440308  0.0143772  0.0127015  -0.0234829  0  0  0  0.365498  0.355755  -0.414661  0.0161019  -0.00828527  -0.0228243  -0.0128526  0.000279231  0.0035756  0.0366951  -0.00532922  -0.0130936  -0.2393  0.224397  -0.00591197 
1701777327.685299000  0  0  11.3656  -0.0342463  -0.0811249  0.0104298  nan  nan  nan  nan  nan  nan  -1.99976  -0.999916  1.49887  -0.0541717  0.022542  -0.00064243  0.0162672  0.0145428  -0.0256187  0  0  0  0.390623  0.38088  -0.439786  0.0160337  -0.00828768  -0.022763  -0.0136423  -0.000776926  0.00931014  0.0387768  -0.00751504  -0.0129685  -0.288254  0.231388  -0.000687955 
1701777327.690295000  0  0  11.349  -0.0641819  -0.0591804  0.0107559  nan  nan  nan  nan  nan  nan  -1.99968  -0.999838  1.49874  -0.0576465  0.0260462  -0.000859168  0.0182847  0.0165116  -0.027882  0  0  0  0.416498  0.406755  -0.465661  0.0159811  -0.00834442  -0.0227782  -0.0145709  -0.00158445  0.00836503  0.0412639  -0.010061  -0.0129542  -0.251264  0.210922  -0.004907 
1701777327.695632000  0  0  11.3654  -0.0636815  -0.0709493  0.0101986  nan  nan  nan  nan  nan  nan  -1.99958  -0.99975  1.49859  -0.0610154  0.0297792  -0.00110658  0.0204335  0.0186116  -0.0302763  0  0  0  0.443123  0.43338  -0.492044  0.015918  -0.00840191  -0.0228119  -0.0157654  -0.00236674  0.00470086  0.0431429  -0.0121383  -0.0128282  -0.269552  0.253571  0.000799997 
1701777327.700297000  0  0  11.2562  -0.0785887  -0.0486997  0.0110689  nan  nan  nan  nan  nan  nan  -1.99947  -0.999652  1.49843  -0.0654168  0.0336275  -0.00141693  0.0227172  0.0208466  -0.0328013  0  0  0  0.470498  0.460755  -0.517817  0.0158375  -0.00842271  -0.0227215  -0.0165209  -0.00353773  0.0113179  0.0462929  -0.0149318  -0.0128042  -0.268717  0.234772  -0.0103195 
1701777327.705314000  0  0  11.2472  -0.107717  -0.0333401  0.0119373  nan  nan  nan  nan  nan  nan  -1.99935  -0.999542  1.49826  -0.0694413  0.0374986  -0.00174413  0.0251397  0.0232204  -0.0354532  0  0  0  0.498623  0.48888  -0.542839  0.0157749  -0.00849591  -0.0227296  -0.0175759  -0.00469442  0.00985385  0.0493926  -0.0176771  -0.0128715  -0.238978  0.229309  -0.0205017 
1701777327.710231000  0  0  11.2506  -0.103781  -0.0446544  0.0116123  nan  nan  nan  nan  nan  nan  -1.99922  -0.999419  1.49808  -0.0732419  0.0416844  -0.00211162  0.0277047  0.0257367  -0.0382284  0  0  0  0.527498  0.517755  -0.567112  0.0156853  -0.00852241  -0.0227117  -0.0189185  -0.00566197  0.00744363  0.0517133  -0.0201687  -0.0127762  -0.268201  0.274861  -0.0173919 
1701777327.715236000  0  0  11.1462  -0.12036  -0.034022  0.0107639  nan  nan  nan  nan  nan  nan  -1.99908  -0.999284  1.49788  -0.0785828  0.0458835  -0.00257841  0.0304159  0.0283992  -0.0411231  0  0  0  0.557123  0.54738  -0.590635  0.0156164  -0.00861001  -0.0226602  -0.0196938  -0.00738446  0.0140357  0.0556615  -0.0228793  -0.0125576  -0.271366  0.278533  -0.00897313 
1701777327.720284000  0  0  11.1283  -0.138479  -0.0252701  0.0100362  nan  nan  nan  nan  nan  nan  -1.99892  -0.999135  1.49767  -0.0828892  0.0503043  -0.00305187  0.0332772  0.0312117  -0.0441335  0  0  0  0.587498  0.577755  -0.613407  0.0155151  -0.00864695  -0.022614  -0.0209611  -0.00851994  0.0135094  0.058747  -0.025773  -0.0123117  -0.263515  0.287652  -0.00233526 
1701777327.725302000  0  0  11.1453  -0.116102  -0.0521914  0.00862071  nan  nan  nan  nan  nan  nan  -1.99874  -0.998972  1.49744  -0.0873196  0.0545841  -0.0035532  0.0362921  0.034178  -0.0472559  0  0  0  0.618623  0.60888  -0.63543  0.0154287  -0.00874866  -0.022611  -0.0221858  -0.00987658  0.0103389  0.0610221  -0.0276994  -0.0119079  -0.3292  0.359217  0.0113204 
1701777327.730300000  0  0  11.0629  -0.142327  -0.039285  0.00909431  nan  nan  nan  nan  nan  nan  -1.99855  -0.998793  1.49719  -0.0928754  0.059158  -0.00418211  0.0394646  0.0373018  -0.0504865  0  0  0  0.650498  0.640755  -0.656702  0.015339  -0.0088536  -0.0225439  -0.0230545  -0.0115156  0.0153728  0.0650367  -0.0304293  -0.01163  -0.313683  0.35852  0.00262122 
1701777327.735299000  0  0  11.0631  -0.135634  -0.0438067  0.00923173  nan  nan  nan  nan  nan  nan  -1.99835  -0.998598  1.49693  -0.0971322  0.0638268  -0.00478321  0.0427984  0.0405868  -0.0538217  0  0  0  0.683123  0.67338  -0.677225  0.0152271  -0.00890873  -0.0224952  -0.0243893  -0.012358  0.0136912  0.0674001  -0.0329461  -0.0113937  -0.348812  0.390717  -0.00145947 
1701777327.740245000  0  0  11.0557  -0.128147  -0.0518587  0.00883463  nan  nan  nan  nan  nan  nan  -1.99812  -0.998387  1.49666  -0.102326  0.0686028  -0.00549519  0.0462971  0.0440368  -0.0572575  0  0  0  0.716498  0.706755  -0.696998  0.0151173  -0.00902549  -0.0224785  -0.0257233  -0.0140203  0.0128549  0.070332  -0.0353178  -0.0110311  -0.39076  0.428641  -0.00012226 
1701777327.745570000  0  0  10.993  -0.135923  -0.0453681  0.00991464  nan  nan  nan  nan  nan  nan  -1.99788  -0.998158  1.49636  -0.107667  0.073309  -0.00625592  0.0499643  0.0476554  -0.0607904  0  0  0  0.750312  0.740692  -0.71602  0.0150277  -0.00910915  -0.022463  -0.0265082  -0.0151855  0.0167241  0.0733544  -0.0376206  -0.0108466  -0.403014  0.436846  -0.0154674 
1701777327.750234000  0  0  11.0038  -0.114466  -0.0608  0.00979354  nan  nan  nan  nan  nan  nan  -1.99762  -0.99791  1.49605  -0.112287  0.0781372  -0.00701957  0.053799  0.0514426  -0.0644165  0  0  0  0.783471  0.774066  -0.734293  0.0148842  -0.00919632  -0.0223956  -0.0279786  -0.0163642  0.0145032  0.0754092  -0.039837  -0.0105725  -0.464832  0.4881  -0.0166942 
1701777327.755286000  0  0  10.9904  -0.0851742  -0.0795836  0.0100115  nan  nan  nan  nan  nan  nan  -1.99735  -0.997643  1.49572  -0.117192  0.082814  -0.00782967  0.0577977  0.0553948  -0.0681321  0  0  0  0.81588  0.806689  -0.751815  0.0147893  -0.00930363  -0.0224009  -0.0292591  -0.0176197  0.014617  0.0770006  -0.0413884  -0.0103246  -0.538057  0.539941  -0.0218977 
1701777327.760245000  0  0  10.957  -0.0984906  -0.0643186  0.0101591  nan  nan  nan  nan  nan  nan  -1.99705  -0.997356  1.49537  -0.122258  0.0876737  -0.00871813  0.0619566  0.0595083  -0.0719334  0  0  0  0.847539  0.838563  -0.768588  0.0146409  -0.00939452  -0.0223159  -0.0305523  -0.0189148  0.0162427  0.0794161  -0.0436922  -0.0100613  -0.533646  0.530605  -0.0263757 
1701777327.765285000  0  0  10.9672  -0.067528  -0.0866558  0.00988057  nan  nan  nan  nan  nan  nan  -1.99673  -0.997048  1.495  -0.126625  0.0918143  -0.00949506  0.0662719  0.0637792  -0.0758167  0  0  0  0.878448  0.869686  -0.784611  0.0145402  -0.00950624  -0.0223205  -0.0315587  -0.0199694  0.0145972  0.0802539  -0.0445755  -0.00982586  -0.60328  0.583406  -0.0252485 
1701777327.770569000  0  0  10.9732  -0.040043  -0.109628  0.00937018  nan  nan  nan  nan  nan  nan  -1.99638  -0.996718  1.49461  -0.1311  0.095797  -0.010294  0.0707398  0.0682039  -0.0797783  0  0  0  0.908607  0.90006  -0.799883  0.0144366  -0.0096089  -0.0223315  -0.0324266  -0.0212038  0.0134598  0.0807237  -0.0448906  -0.00953534  -0.662572  0.63225  -0.0217738 
1701777327.775301000  0  0  10.9068  -0.0598475  -0.0867506  0.00957158  nan  nan  nan  nan  nan  nan  -1.99602  -0.996365  1.4942  -0.136069  0.100765  -0.0113088  0.0753567  0.0727786  -0.0838143  0  0  0  0.938016  0.929683  -0.814406  0.01427  -0.00972424  -0.0222059  -0.0336893  -0.0220103  0.0180727  0.0827452  -0.0471985  -0.00924329  -0.64156  0.607727  -0.0272119 
1701777327.780244000  0  0  10.9169  -0.0478933  -0.0918064  0.00886199  nan  nan  nan  nan  nan  nan  -1.99563  -0.99599  1.49377  -0.140494  0.10486  -0.012188  0.0801187  0.0774995  -0.0879211  0  0  0  0.966675  0.958557  -0.828179  0.0141477  -0.00985737  -0.0221892  -0.0348897  -0.0233252  0.0167084  0.0835409  -0.0480834  -0.00889485  -0.67279  0.62598  -0.0218264 
1701777327.785295000  0  0  10.9233  -0.0312854  -0.108634  0.00867907  nan  nan  nan  nan  nan  nan  -1.99522  -0.99559  1.49332  -0.144845  0.109025  -0.0131018  0.0850222  0.0823629  -0.0920948  0  0  0  0.994584  0.98668  -0.841201  0.013978  -0.00997369  -0.0221228  -0.0361314  -0.0246129  0.0156855  0.0839578  -0.0486433  -0.00856675  -0.709841  0.664786  -0.0228209 
1701777327.790249000  0  0  10.9145  -0.0455522  -0.0960027  0.00943744  nan  nan  nan  nan  nan  nan  -1.99478  -0.995166  1.49285  -0.149316  0.113027  -0.0140376  0.0900633  0.087365  -0.0963318  0  0  0  1.02174  1.01405  -0.853474  0.0138563  -0.0101229  -0.0220852  -0.0372064  -0.0258259  0.0160181  0.0850027  -0.0495629  -0.0083511  -0.690921  0.647984  -0.034457 
1701777327.795634000  0  0  10.9352  -0.0222847  -0.116019  0.00854868  nan  nan  nan  nan  nan  nan  -1.99432  -0.994716  1.49236  -0.153358  0.116544  -0.0148802  0.0952384  0.0925022  -0.100628  0  0  0  1.04815  1.04068  -0.864996  0.0137545  -0.0102593  -0.022099  -0.0381796  -0.0271133  0.0141841  0.0846888  -0.0491554  -0.00799926  -0.734567  0.684268  -0.0268659 
1701777327.800247000  0  0  10.906  -0.0334926  -0.0984801  0.00855772  nan  nan  nan  nan  nan  nan  -1.99383  -0.994241  1.49184  -0.158555  0.121183  -0.0160676  0.100544  0.0977706  -0.104981  0  0  0  1.07381  1.06655  -0.875769  0.0135391  -0.0104242  -0.0219712  -0.0397806  -0.0289505  0.0162882  0.0864525  -0.0509202  -0.00761105  -0.728378  0.665426  -0.030861 
1701777327.805291000  0  0  10.9364  -0.0472717  -0.101542  0.00891064  nan  nan  nan  nan  nan  nan  -1.99331  -0.993738  1.49131  -0.162269  0.124758  -0.0169366  0.105975  0.103166  -0.109385  0  0  0  1.09872  1.09167  -0.885792  0.0133927  -0.0105753  -0.021993  -0.0410834  -0.0301809  0.0137754  0.0867134  -0.0511174  -0.00743071  -0.70322  0.673363  -0.0370759 
1701777327.810347000  0  0  10.9331  -0.0336176  -0.109814  0.00885939  nan  nan  nan  nan  nan  nan  -1.99277  -0.993209  1.49075  -0.166607  0.128755  -0.0179814  0.11153  0.108686  -0.113837  0  0  0  1.12288  1.11605  -0.895064  0.0131939  -0.010724  -0.021923  -0.0424437  -0.0316305  0.0140578  0.0870575  -0.0515364  -0.00713525  -0.733694  0.693763  -0.0393899 
1701777327.815285000  0  0  10.9489  -0.0491164  -0.0987159  0.00891718  nan  nan  nan  nan  nan  nan  -1.99219  -0.992651  1.49017  -0.170505  0.132439  -0.0189449  0.117203  0.114326  -0.118334  0  0  0  1.14629  1.13967  -0.903587  0.0130367  -0.0108738  -0.0219667  -0.0438881  -0.0330112  0.0130022  0.0874653  -0.0520604  -0.00692137  -0.706448  0.676388  -0.0422511 
1701777327.820580000  0  0  10.9924  -0.050056  -0.0991052  0.00805245  nan  nan  nan  nan  nan  nan  -1.99159  -0.992065  1.48957  -0.173873  0.135146  -0.0196903  0.122991  0.120082  -0.122872  0  0  0  1.16895  1.16254  -0.911359  0.012921  -0.0110035  -0.0220664  -0.0447224  -0.0344532  0.00981561  0.087016  -0.0513371  -0.00668646  -0.700435  0.670512  -0.033791 
1701777327.825294000  0  0  10.9805  -0.0491981  -0.108164  0.0052709  nan  nan  nan  nan  nan  nan  -1.99096  -0.99145  1.48894  -0.178426  0.139193  -0.0208584  0.128891  0.12595  -0.127446  0  0  0  1.19086  1.18467  -0.918382  0.0126738  -0.0112027  -0.0219653  -0.0462447  -0.0361528  0.0110212  0.0879845  -0.0520557  -0.00594262  -0.711061  0.695242  -0.00645997 
1701777327.830300000  0  0  10.979  -0.0629086  -0.0991029  0.0051281  nan  nan  nan  nan  nan  nan  -1.99031  -0.990806  1.48829  -0.182182  0.142487  -0.0218064  0.134898  0.131927  -0.132054  0  0  0  1.21202  1.20604  -0.924655  0.0125249  -0.0113686  -0.0220204  -0.0472824  -0.0372855  0.0116446  0.088303  -0.0521585  -0.00553633  -0.686571  0.678064  -0.00873797 
1701777327.835299000  0  0  11.0087  -0.0560676  -0.0994769  0.00578621  nan  nan  nan  nan  nan  nan  -1.98962  -0.990131  1.48762  -0.185596  0.145767  -0.0227231  0.14101  0.138009  -0.136692  0  0  0  1.23242  1.22667  -0.930177  0.0122864  -0.0115567  -0.0219843  -0.048694  -0.0386637  0.00963784  0.0880459  -0.0521417  -0.00530328  -0.697887  0.678658  -0.0192948 
1701777327.840243000  0  0  11.0079  -0.0449952  -0.109315  0.00615325  nan  nan  nan  nan  nan  nan  -1.98889  -0.989425  1.48692  -0.189698  0.149075  -0.0237713  0.147221  0.144192  -0.141355  0  0  0  1.25208  1.24654  -0.93495  0.0120906  -0.0117604  -0.0220215  -0.0498732  -0.0403048  0.0104406  0.0882416  -0.0519915  -0.00496585  -0.721833  0.696952  -0.0272572 
1701777327.845303000  0  0  11.0061  -0.0561725  -0.106204  0.00713415  nan  nan  nan  nan  nan  nan  -1.98814  -0.988689  1.48621  -0.192877  0.1523  -0.0246834  0.153529  0.150473  -0.14604  0  0  0  1.27099  1.26566  -0.938973  0.0118506  -0.0119498  -0.0219815  -0.050897  -0.0409418  0.0111345  0.0879672  -0.0518512  -0.00486129  -0.696953  0.689438  -0.0405639 
1701777327.850262000  0  0  11.0366  -0.0412619  -0.110832  0.00706379  nan  nan  nan  nan  nan  nan  -1.98736  -0.98792  1.48546  -0.196127  0.15546  -0.0256131  0.15993  0.156848  -0.150743  0  0  0  1.28915  1.28404  -0.942245  0.0115917  -0.012163  -0.0219312  -0.0524585  -0.0423781  0.00930231  0.0873654  -0.0516047  -0.00466892  -0.721238  0.696427  -0.0416081 
1701777327.855285000  0  0  11.0277  -0.0329433  -0.107941  0.00776386  nan  nan  nan  nan  nan  nan  -1.98654  -0.98712  1.4847  -0.199709  0.158764  -0.0266452  0.16642  0.163312  -0.155461  0  0  0  1.30656  1.30166  -0.944768  0.0113279  -0.0123722  -0.0218777  -0.0536202  -0.0434606  0.0108177  0.0869823  -0.0515658  -0.00452191  -0.734351  0.690288  -0.0518292 
1701777327.860778000  0  0  11.0276  -0.0358626  -0.110185  0.0084863  nan  nan  nan  nan  nan  nan  -1.9857  -0.986287  1.48391  -0.202331  0.160889  -0.0273001  0.172995  0.169863  -0.16019  0  0  0  1.32322  1.31853  -0.94654  0.0111937  -0.0125523  -0.0219845  -0.0538012  -0.0437989  0.0118296  0.0856788  -0.0500759  -0.00459804  -0.71652  0.681068  -0.0600984 
1701777327.865308000  0  0  11.099  -0.0184894  -0.128527  0.00787186  nan  nan  nan  nan  nan  nan  -1.98481  -0.985421  1.4831  -0.205534  0.163153  -0.0280915  0.179651  0.176496  -0.164925  0  0  0  1.33913  1.33466  -0.947563  0.0109126  -0.0128582  -0.0220244  -0.0552778  -0.046233  0.00704373  0.0851115  -0.0490237  -0.00438499  -0.746048  0.708072  -0.0545484 
1701777327.870308000  0  0  11.1106  -0.0304105  -0.122108  0.0075998  nan  nan  nan  nan  nan  nan  -1.9839  -0.984522  1.48226  -0.208177  0.16619  -0.0289613  0.186385  0.183208  -0.169664  0  0  0  1.35429  1.35003  -0.947836  0.0106377  -0.0130855  -0.0219785  -0.0567349  -0.0469045  0.00701951  0.0842177  -0.0487759  -0.00428835  -0.713982  0.692954  -0.0521141 
1701777327.875306000  0  0  11.1076  -0.0241453  -0.127425  0.00733922  nan  nan  nan  nan  nan  nan  -1.98295  -0.983589  1.4814  -0.211022  0.16835  -0.0296967  0.193192  0.189995  -0.174402  0  0  0  1.3687  1.36465  -0.947358  0.0104207  -0.0133318  -0.0220634  -0.057054  -0.0475901  0.00846966  0.0833171  -0.0475912  -0.00415473  -0.718227  0.69269  -0.0501929 
1701777327.880629000  0  0  11.162  -0.00621731  -0.142782  0.00686921  nan  nan  nan  nan  nan  nan  -1.98197  -0.982622  1.48052  -0.213268  0.169642  -0.0301527  0.20007  0.196854  -0.179137  0  0  0  1.38236  1.37853  -0.946131  0.0102337  -0.0135604  -0.0222132  -0.0574988  -0.0490557  0.00538699  0.0814015  -0.0451963  -0.00410927  -0.736459  0.701369  -0.0447724 
1701777327.885305000  0  0  11.1611  -0.0284595  -0.129738  0.0051569  nan  nan  nan  nan  nan  nan  -1.98095  -0.98162  1.47961  -0.216051  0.173033  -0.0311623  0.207015  0.203779  -0.183863  0  0  0  1.39527  1.39165  -0.944153  0.0098906  -0.01385  -0.0221157  -0.0593538  -0.0497413  0.00652454  0.0811483  -0.0457136  -0.00371684  -0.689645  0.680041  -0.0272928 
1701777327.890256000  0  0  11.1407  -0.0184136  -0.12837  0.00435381  nan  nan  nan  nan  nan  nan  -1.9799  -0.980584  1.47868  -0.218978  0.175595  -0.0320357  0.214022  0.210769  -0.188577  0  0  0  1.40742  1.40402  -0.941426  0.00959278  -0.014104  -0.0220509  -0.0599717  -0.0503482  0.00935699  0.0803742  -0.04512  -0.00338952  -0.702615  0.671844  -0.0205274 
1701777327.895304000  0  0  11.1835  -0.0131483  -0.133332  0.00411484  nan  nan  nan  nan  nan  nan  -1.97881  -0.979513  1.47772  -0.221176  0.177274  -0.0325932  0.221088  0.217818  -0.193276  0  0  0  1.41883  1.41565  -0.937949  0.00929809  -0.014354  -0.0220307  -0.0607872  -0.05174  0.00709318  0.0788922  -0.0435358  -0.00321371  -0.699512  0.667194  -0.0192984 
1701777327.900301000  0  0  11.225  -0.0314761  -0.132234  0.0049763  nan  nan  nan  nan  nan  nan  -1.97769  -0.978406  1.47674  -0.222864  0.179275  -0.0331343  0.228209  0.224924  -0.197955  0  0  0  1.42949  1.42652  -0.933721  0.00903036  -0.0146632  -0.0221213  -0.0621458  -0.0524592  0.00516077  0.0775428  -0.042471  -0.00322114  -0.650441  0.655201  -0.0299924 
1701777327.905305000  0  0  11.2043  -0.0194862  -0.132617  0.00475882  nan  nan  nan  nan  nan  nan  -1.97653  -0.977263  1.47574  -0.225635  0.181085  -0.0338435  0.235381  0.232082  -0.202612  0  0  0  1.4394  1.43664  -0.928744  0.00876232  -0.014985  -0.0221746  -0.0621603  -0.0530537  0.00838199  0.0767131  -0.0412921  -0.00298867  -0.666788  0.645121  -0.0295985 
1701777327.910308000  0  0  11.2513  -0.0285037  -0.124612  0.0058747  nan  nan  nan  nan  nan  nan  -1.97533  -0.976085  1.47472  -0.227531  0.182449  -0.0342944  0.242602  0.239289  -0.207241  0  0  0  1.44856  1.44602  -0.923017  0.0084459  -0.0152569  -0.0221636  -0.0629417  -0.0544952  0.00590751  0.0754727  -0.0398176  -0.00309874  -0.637342  0.615547  -0.0424463 
1701777327.915309000  0  0  11.2993  -0.0349465  -0.135704  0.00567865  nan  nan  nan  nan  nan  nan  -1.9741  -0.97487  1.47367  -0.228751  0.183953  -0.0346525  0.249866  0.246541  -0.21184  0  0  0  1.45697  1.45464  -0.916539  0.00814977  -0.0155896  -0.022256  -0.0640409  -0.0551166  0.00356294  0.0737741  -0.0382869  -0.00315355  -0.608829  0.623648  -0.0394476 
1701777327.920666000  0  0  11.2758  -0.0224665  -0.139816  0.00480088  nan  nan  nan  nan  nan  nan  -1.97283  -0.973619  1.4726  -0.230826  0.184983  -0.0350706  0.25717  0.253834  -0.216405  0  0  0  1.46463  1.46251  -0.909312  0.00791646  -0.0158675  -0.0223596  -0.0633385  -0.0552565  0.00713181  0.0723517  -0.0362368  -0.00300621  -0.620703  0.61301  -0.0299489 
1701777327.925303000  0  0  11.3224  -0.0446652  -0.124806  0.00559621  nan  nan  nan  nan  nan  nan  -1.97153  -0.972332  1.47151  -0.232766  0.186741  -0.035636  0.264511  0.261165  -0.220932  0  0  0  1.47154  1.46964  -0.901334  0.00752653  -0.0162233  -0.0222779  -0.0647972  -0.0568589  0.00477298  0.0718532  -0.0356557  -0.00304732  -0.571719  0.577645  -0.0394795 
1701777327.930302000  0  0  11.35  -0.035703  -0.140021  0.0047173  nan  nan  nan  nan  nan  nan  -1.97019  -0.971008  1.47039  -0.234107  0.188071  -0.0359903  0.271884  0.26853  -0.225417  0  0  0  1.4777  1.47601  -0.892607  0.00720953  -0.0165748  -0.0223234  -0.0655314  -0.0574056  0.00418043  0.07024  -0.0340703  -0.00300125  -0.574802  0.593488  -0.0289537 
1701777327.935305000  0  0  11.3185  -0.0261207  -0.139804  0.00426041  nan  nan  nan  nan  nan  nan  -1.96881  -0.969647  1.46925  -0.236155  0.18908  -0.0364125  0.279286  0.275924  -0.229857  0  0  0  1.48311  1.48164  -0.88313  0.00689184  -0.0168584  -0.0222647  -0.0647404  -0.0575883  0.00822819  0.0692163  -0.0323397  -0.00287238  -0.584549  0.577133  -0.0245312 
1701777327.940252000  0  0  11.3678  -0.0397846  -0.136914  0.00439034  nan  nan  nan  nan  nan  nan  -1.96739  -0.968248  1.46809  -0.237368  0.190276  -0.0367172  0.286714  0.283345  -0.234248  0  0  0  1.48776  1.48651  -0.872902  0.00653299  -0.0172471  -0.0223138  -0.0658807  -0.0586737  0.00597907  0.0679292  -0.0310435  -0.00288823  -0.54538  0.559428  -0.025997 
1701777327.945250000  0  0  11.4026  -0.0230553  -0.148795  0.0033891  nan  nan  nan  nan  nan  nan  -1.96594  -0.966813  1.46691  -0.238336  0.191207  -0.0369125  0.294163  0.290788  -0.238585  0  0  0  1.49167  1.49063  -0.861925  0.00618392  -0.0176338  -0.0223501  -0.0664748  -0.0592214  0.00488569  0.0659653  -0.0292011  -0.00279952  -0.56077  0.566239  -0.0143685 
1701777327.950301000  0  0  11.335  -0.0210394  -0.127052  0.00385009  nan  nan  nan  nan  nan  nan  -1.96445  -0.965341  1.46571  -0.240122  0.191961  -0.0372322  0.301629  0.29825  -0.242866  0  0  0  1.49483  1.49401  -0.850197  0.00587854  -0.0179091  -0.0222799  -0.0648844  -0.0584952  0.0118918  0.0649053  -0.0277457  -0.00277612  -0.55505  0.509365  -0.0203649 
1701777327.955310000  0  0  11.4189  -0.0319592  -0.135955  0.00488851  nan  nan  nan  nan  nan  nan  -1.96293  -0.963831  1.46448  -0.240263  0.192312  -0.037125  0.30911  0.305727  -0.247086  0  0  0  1.49724  1.49663  -0.83772  0.00553495  -0.018298  -0.0223362  -0.0659686  -0.0595798  0.00679822  0.0628029  -0.025674  -0.00309538  -0.513868  0.508111  -0.0301526 
1701777327.960236000  0  0  11.4369  -0.0115104  -0.153149  0.00484055  nan  nan  nan  nan  nan  nan  -1.96136  -0.962283  1.46324  -0.24074  0.192871  -0.037136  0.316601  0.313215  -0.251241  0  0  0  1.4989  1.4985  -0.824493  0.00518235  -0.0186132  -0.022289  -0.0659874  -0.0596058  0.00693311  0.0605196  -0.0235353  -0.00328276  -0.53376  0.522824  -0.0276793 
1701777327.965299000  0  0  11.3903  -0.0237058  -0.134764  0.00533245  nan  nan  nan  nan  nan  nan  -1.95976  -0.960698  1.46197  -0.242055  0.193206  -0.0372636  0.324098  0.32071  -0.255329  0  0  0  1.49981  1.49963  -0.810515  0.00486325  -0.0189855  -0.0222661  -0.0645496  -0.0589761  0.0123939  0.0594859  -0.0219566  -0.00337869  -0.499859  0.471529  -0.0328686 
1701777327.970571000  0  0  11.4545  -0.0221026  -0.148587  0.00626823  nan  nan  nan  nan  nan  nan  -1.95812  -0.959076  1.46068  -0.241594  0.192933  -0.0368845  0.331597  0.32821  -0.259345  0  0  0  1.5  1.5  -0.795788  0.00456614  -0.0193199  -0.0223484  -0.0647701  -0.0593197  0.00892764  0.0567409  -0.0192136  -0.00384733  -0.477811  0.473939  -0.0398795 
1701777327.975314000  0  0  11.4368  -0.00401404  -0.161011  0.0058439  nan  nan  nan  nan  nan  nan  -1.95644  -0.957416  1.45938  -0.24246  0.193555  -0.0369909  0.339097  0.33571  -0.263286  0  0  0  1.5  1.5  -0.780311  0.00417444  -0.0196831  -0.0222241  -0.064257  -0.0590345  0.0119986  0.0550699  -0.0174458  -0.00394887  -0.498615  0.482523  -0.0335601 
1701777327.980259000  0  0  11.4249  -0.015741  -0.149786  0.00632513  nan  nan  nan  nan  nan  nan  -1.95473  -0.955719  1.45805  -0.243314  0.194013  -0.0370563  0.346597  0.34321  -0.267147  0  0  0  1.5  1.5  -0.764083  0.00380812  -0.0201021  -0.0221769  -0.0637262  -0.0587891  0.0147678  0.0539005  -0.016084  -0.00412881  -0.464403  0.447545  -0.0377761 
1701777327.985315000  0  0  11.5135  -0.00951028  -0.158834  0.00703889  nan  nan  nan  nan  nan  nan  -1.95298  -0.953984  1.4567  -0.242001  0.193602  -0.0364691  0.354097  0.35071  -0.270926  0  0  0  1.5  1.5  -0.747106  0.00349805  -0.0203855  -0.0221716  -0.0642573  -0.0589324  0.00918187  0.0506021  -0.0133999  -0.00478991  -0.446518  0.440948  -0.0400871 
1701777327.990262000  0  0  11.5137  0.00298074  -0.166069  0.00627048  nan  nan  nan  nan  nan  nan  -1.95119  -0.952212  1.45534  -0.242623  0.193832  -0.0364315  0.361597  0.35821  -0.274617  0  0  0  1.5  1.5  -0.729378  0.0031233  -0.020798  -0.0221299  -0.0636607  -0.0587602  0.0110833  0.0489022  -0.0115852  -0.00487514  -0.455862  0.438722  -0.0296296 
1701777327.995265000  0  0  11.5023  -0.0165506  -0.144874  0.00693911  nan  nan  nan  nan  nan  nan  -1.94936  -0.950402  1.45396  -0.242195  0.19368  -0.0360875  0.369097  0.36571  -0.278218  0  0  0  1.5  1.5  -0.710901  0.00281049  -0.0210816  -0.022054  -0.062408  -0.0573615  0.0135985  0.0469447  -0.0098541  -0.00533286  -0.39879  0.380406  -0.0334102 
1701777328.000390000  0  0  11.5462  0.00509666  -0.160845  0.00626725  nan  nan  nan  nan  nan  nan  -1.9475  -0.948555  1.45256  -0.242282  0.193553  -0.0358548  0.376597  0.37321  -0.281772  0  0  0  1.5  1.5  -0.710526  0.00248861  -0.0214437  -0.0220888  -0.0623915  -0.0578318  0.0103243  0.0447954  -0.00772991  -0.00549544  -0.422311  0.392805  -0.0233863 
1701777328.005314000  0  0  11.5106  -0.0049235  -0.151184  0.00623731  nan  nan  nan  nan  nan  nan  -1.9456  -0.94667  1.45114  -0.243345  0.194337  -0.0360419  0.384097  0.38071  -0.285322  0  0  0  1.5  1.5  -0.709401  0.00208722  -0.0218862  -0.0220165  -0.0617145  -0.0571573  0.0135218  0.0440644  -0.00706891  -0.00552564  -0.395545  0.367402  -0.02271 
1701777328.010251000  0  0  11.4696  -0.0269162  -0.136175  0.00645471  nan  nan  nan  nan  nan  nan  -1.94366  -0.944748  1.4497  -0.243486  0.194406  -0.0358677  0.391597  0.38821  -0.288865  0  0  0  1.5  1.5  -0.707526  0.00176669  -0.0221834  -0.0219029  -0.0601223  -0.0556265  0.0168255  0.0429759  -0.00580546  -0.00579699  -0.341546  0.32576  -0.0227139 
1701777328.015298000  0  0  11.5219  -0.00657657  -0.149396  0.00558117  nan  nan  nan  nan  nan  nan  -1.94168  -0.942788  1.44825  -0.24343  0.194363  -0.0356261  0.399097  0.39571  -0.292396  0  0  0  1.5  1.5  -0.704901  0.00140751  -0.0225539  -0.0219236  -0.0603173  -0.05613  0.0130339  0.0409777  -0.00407435  -0.00591565  -0.363842  0.336275  -0.0106081 
1701777328.020247000  0  0  11.5008  -0.0222949  -0.138065  0.00519704  nan  nan  nan  nan  nan  nan  -1.93967  -0.940791  1.44678  -0.243363  0.194586  -0.0354467  0.406597  0.40321  -0.295912  0  0  0  1.5  1.5  -0.701526  0.00109618  -0.0228448  -0.0218286  -0.059371  -0.0548708  0.0149097  0.0396527  -0.00297145  -0.00608493  -0.320215  0.303468  -0.00411369 
1701777328.025243000  0  0  11.4864  -0.0386422  -0.116902  0.00517573  nan  nan  nan  nan  nan  nan  -1.93761  -0.938756  1.44529  -0.243816  0.194695  -0.0353465  0.414097  0.41071  -0.29941  0  0  0  1.5  1.5  -0.697401  0.000710462  -0.0232551  -0.0217437  -0.0582893  -0.0541598  0.0164209  0.0390565  -0.00233679  -0.00615285  -0.282036  0.255303  -0.00316813 
1701777328.030372000  0  0  11.5163  -0.0335683  -0.125283  0.00544511  nan  nan  nan  nan  nan  nan  -1.93553  -0.936684  1.44379  -0.243706  0.194615  -0.035085  0.421597  0.41821  -0.302885  0  0  0  1.5  1.5  -0.692526  0.000384967  -0.0236138  -0.0217518  -0.0580287  -0.0540557  0.0145521  0.0375778  -0.000987017  -0.00634713  -0.27858  0.259646  -0.00459263 
1701777328.035292000  0  0  11.4745  -0.0560723  -0.108428  0.00575054  nan  nan  nan  nan  nan  nan  -1.9334  -0.934574  1.44226  -0.24344  0.194825  -0.0348623  0.429097  0.42571  -0.306334  0  0  0  1.5  1.5  -0.686901  6.92221e-05  -0.0239015  -0.0216184  -0.0565974  -0.0520306  0.0181552  0.036583  -0.000288162  -0.00662449  -0.224419  0.219507  -0.00563688 
1701777328.040297000  0  0  11.4974  -0.0418017  -0.111505  0.00618257  nan  nan  nan  nan  nan  nan  -1.93123  -0.932426  1.44072  -0.243955  0.194897  -0.0347666  0.436597  0.43321  -0.309753  0  0  0  1.5  1.5  -0.680526  -0.000322792  -0.0243173  -0.0215545  -0.0562695  -0.0523559  0.0169754  0.0358272  0.00054213  -0.00673483  -0.246007  0.218023  -0.00993389 
1701777328.045669000  0  0  11.5435  -0.0400659  -0.119726  0.00731138  nan  nan  nan  nan  nan  nan  -1.92903  -0.930242  1.43917  -0.24309  0.194352  -0.0342386  0.444097  0.44071  -0.313138  0  0  0  1.5  1.5  -0.673401  -0.000592589  -0.0246176  -0.0216241  -0.0558519  -0.0519521  0.01391  0.0339384  0.00214904  -0.00721384  -0.232102  0.219681  -0.0192539 
1701777328.050317000  0  0  11.5099  -0.061532  -0.112015  0.0078351  nan  nan  nan  nan  nan  nan  -1.92679  -0.928019  1.43759  -0.243249  0.194799  -0.0341618  0.451597  0.44821  -0.316486  0  0  0  1.5  1.5  -0.665526  -0.00100341  -0.0250054  -0.0214136  -0.0547227  -0.0504095  0.0170339  0.0335769  0.00254827  -0.00750701  -0.185844  0.200586  -0.0228687 
1701777328.055309000  0  0  11.5091  -0.0493114  -0.112564  0.00711327  nan  nan  nan  nan  nan  nan  -1.92452  -0.92576  1.436  -0.244025  0.194868  -0.0341203  0.459097  0.45571  -0.319792  0  0  0  1.5  1.5  -0.656901  -0.00140564  -0.0254307  -0.0213266  -0.0538684  -0.0504144  0.0179438  0.0332319  0.00322487  -0.00749791  -0.20711  0.19546  -0.0139367 
1701777328.060252000  0  0  11.5457  -0.0507216  -0.115979  0.00740069  nan  nan  nan  nan  nan  nan  -1.9222  -0.923462  1.43439  -0.242822  0.19453  -0.0335752  0.466597  0.46321  -0.323053  0  0  0  1.5  1.5  -0.647526  -0.00170843  -0.0257049  -0.0212412  -0.0534225  -0.0493942  0.0154912  0.0313312  0.0045785  -0.0079877  -0.186804  0.189835  -0.0126316 
1701777328.065302000  0  0  11.496  -0.0565887  -0.114528  0.00601445  nan  nan  nan  nan  nan  nan  -1.91985  -0.921127  1.43277  -0.243397  0.194582  -0.0334895  0.474097  0.47071  -0.326266  0  0  0  1.5  1.5  -0.637401  -0.00203415  -0.0260863  -0.0211111  -0.0516456  -0.0479872  0.0202842  0.0312074  0.00521371  -0.00790295  -0.173931  0.181089  0.00384895 
1701777328.070630000  0  0  11.4793  -0.0461099  -0.11775  0.00586957  nan  nan  nan  nan  nan  nan  -1.91746  -0.918755  1.43113  -0.243117  0.193575  -0.0329728  0.481597  0.47821  -0.329426  0  0  0  1.5  1.5  -0.626526  -0.00224297  -0.026354  -0.0210733  -0.0494378  -0.0467704  0.0223689  0.0300237  0.00693295  -0.0080621  -0.183998  0.171717  0.00725135 
1701777328.075313000  0  0  11.5296  -0.0478861  -0.128946  0.00626439  nan  nan  nan  nan  nan  nan  -1.91503  -0.916345  1.42948  -0.242138  0.193603  -0.0325666  0.489097  0.48571  -0.33253  0  0  0  1.5  1.5  -0.614901  -0.00264088  -0.0267271  -0.0209097  -0.0495643  -0.0461233  0.0189731  0.0284925  0.00793791  -0.00843123  -0.166359  0.184863  0.00600742 
1701777328.080393000  0  0  11.4848  -0.0330181  -0.124917  0.00613345  nan  nan  nan  nan  nan  nan  -1.91257  -0.913898  1.42781  -0.242415  0.193521  -0.0323907  0.496597  0.49321  -0.335574  0  0  0  1.5  1.5  -0.602526  -0.00299742  -0.0271017  -0.0208251  -0.0476424  -0.0445129  0.0236171  0.0277627  0.00864196  -0.00845557  -0.189381  0.170328  0.00788757 
1701777328.085313000  0  0  11.5099  -0.0334535  -0.119966  0.00698244  nan  nan  nan  nan  nan  nan  -1.91007  -0.911413  1.42612  -0.241575  0.192486  -0.0317589  0.504097  0.50071  -0.338554  0  0  0  1.5  1.5  -0.589401  -0.00326844  -0.0273642  -0.0206985  -0.0461421  -0.0437271  0.0222812  0.0262644  0.0103175  -0.00885835  -0.174725  0.14501  0.00130308 
1701777328.090241000  0  0  11.5602  -0.0327018  -0.140257  0.00695198  nan  nan  nan  nan  nan  nan  -1.90753  -0.908891  1.42442  -0.240773  0.192839  -0.0314718  0.511597  0.50821  -0.341467  0  0  0  1.5  1.5  -0.575526  -0.00370624  -0.0277833  -0.0205921  -0.0466041  -0.043148  0.0193156  0.0248662  0.0109644  -0.00910237  -0.163365  0.179641  0.00412406 
1701777328.095576000  0  0  11.5097  -0.0164189  -0.143494  0.0066417  nan  nan  nan  nan  nan  nan  -1.90495  -0.906331  1.42271  -0.240016  0.191806  -0.0308625  0.519097  0.51571  -0.344308  0  0  0  1.5  1.5  -0.560901  -0.0039122  -0.0279956  -0.0205566  -0.0436289  -0.0406123  0.0243378  0.0231874  0.0127777  -0.00929719  -0.180486  0.169432  0.00995067 
1701777328.100250000  0  0  11.5275  -0.0162336  -0.130843  0.00737918  nan  nan  nan  nan  nan  nan  -1.90234  -0.903734  1.42098  -0.239516  0.191409  -0.0304604  0.526597  0.52321  -0.347075  0  0  0  1.5  1.5  -0.545526  -0.00428271  -0.028356  -0.0203416  -0.0425891  -0.0397578  0.0237954  0.0220283  0.0136235  -0.00961551  -0.170193  0.13635  0.00391532 
1701777328.105312000  0  0  11.6244  -0.01113  -0.159545  0.00859083  nan  nan  nan  nan  nan  nan  -1.89969  -0.901099  1.41924  -0.23741  0.19098  -0.0297303  0.534097  0.53071  -0.349762  0  0  0  1.5  1.5  -0.529401  -0.00463673  -0.0286945  -0.0203276  -0.0431591  -0.0390411  0.0170999  0.0194485  0.0152142  -0.010258  -0.156666  0.17912  -0.00480533 
1701777328.110262000  0  0  11.5835  0.00154902  -0.160502  0.00870593  nan  nan  nan  nan  nan  nan  -1.897  -0.898427  1.41748  -0.236466  0.18982  -0.029064  0.541597  0.53821  -0.352367  0  0  0  1.5  1.5  -0.512526  -0.00486029  -0.0289028  -0.0201718  -0.0401885  -0.0365554  0.0212534  0.0177276  0.0171921  -0.01062  -0.166192  0.162837  -0.00262461 
1701777328.115292000  0  0  11.639  -0.00998046  -0.141953  0.00955696  nan  nan  nan  nan  nan  nan  -1.89427  -0.895717  1.41571  -0.235461  0.18971  -0.0286368  0.549097  0.54571  -0.354886  0  0  0  1.5  1.5  -0.494901  -0.00522784  -0.0292566  -0.0201178  -0.0403008  -0.0360211  0.0182006  0.0164294  0.0174291  -0.0110636  -0.131189  0.123557  -0.0088255 
1701777328.120543000  0  0  11.708  0.00485809  -0.156734  0.00942586  nan  nan  nan  nan  nan  nan  -1.89151  -0.89297  1.41393  -0.233505  0.188878  -0.0278542  0.556597  0.55321  -0.357315  0  0  0  1.5  1.5  -0.476526  -0.00546148  -0.0294771  -0.0201509  -0.0400128  -0.0350214  0.0139797  0.0139136  0.0190211  -0.0115472  -0.137721  0.138475  -0.00235091 
1701777328.125313000  0  0  11.6351  -0.000898759  -0.141731  0.008016  nan  nan  nan  nan  nan  nan  -1.8887  -0.890185  1.41214  -0.233542  0.187985  -0.0274557  0.564097  0.56071  -0.35965  0  0  0  1.5  1.5  -0.457401  -0.00576442  -0.0297603  -0.0199253  -0.0365898  -0.0327368  0.0210106  0.0135288  0.0201477  -0.0114993  -0.122667  0.0981038  0.014793 
1701777328.130305000  0  0  11.7193  -0.0193644  -0.131704  0.00717369  nan  nan  nan  nan  nan  nan  -1.88587  -0.887363  1.41034  -0.232033  0.187855  -0.0269327  0.571597  0.56821  -0.361888  0  0  0  1.5  1.5  -0.437526  -0.00610906  -0.0300925  -0.0198885  -0.0372978  -0.0323306  0.0158101  0.0121272  0.0203512  -0.0117427  -0.0728415  0.0761765  0.0277563 
1701777328.135297000  0  0  11.7775  -0.00268955  -0.144967  0.00643481  nan  nan  nan  nan  nan  nan  -1.88299  -0.884503  1.40852  -0.230221  0.186774  -0.0261339  0.579097  0.57571  -0.364024  0  0  0  1.5  1.5  -0.416901  -0.0063056  -0.0302615  -0.0198218  -0.0365331  -0.0313355  0.0124241  0.00994344  0.022104  -0.0119964  -0.0861005  0.0865784  0.0395285 
1701777328.140243000  0  0  11.7707  -0.0160984  -0.123702  0.00699294  nan  nan  nan  nan  nan  nan  -1.88007  -0.881605  1.4067  -0.229694  0.186532  -0.0257836  0.586597  0.58321  -0.366056  0  0  0  1.5  1.5  -0.395526  -0.0066733  -0.0305832  -0.0197411  -0.0351797  -0.0298724  0.0147167  0.00947763  0.0221428  -0.0121121  -0.0549975  0.0436895  0.0337096 
1701777328.145641000  0  0  11.8971  -0.0305116  -0.120406  0.00788922  nan  nan  nan  nan  nan  nan  -1.87712  -0.878671  1.40486  -0.227262  0.185452  -0.0248738  0.594097  0.59071  -0.367978  0  0  0  1.5  1.5  -0.373401  -0.0068273  -0.0307083  -0.0198886  -0.0358797  -0.0298515  0.00634765  0.00757009  0.0230815  -0.0126297  -0.00862167  0.0284618  0.0276816 
1701777328.150231000  0  0  11.9246  -0.0228341  -0.120981  0.00767296  nan  nan  nan  nan  nan  nan  -1.87413  -0.875698  1.40302  -0.226773  0.185065  -0.0245035  0.601597  0.59821  -0.369788  0  0  0  1.5  1.5  -0.350526  -0.00723209  -0.0310874  -0.0196984  -0.0349614  -0.0291586  0.00578732  0.00698709  0.0236379  -0.0127315  -0.0186131  0.0244939  0.0314026 
1701777328.155311000  0  0  11.9151  -0.0660539  -0.0770057  0.00839437  nan  nan  nan  nan  nan  nan  -1.87111  -0.872689  1.40116  -0.225732  0.184354  -0.0239556  0.609097  0.60571  -0.371482  0  0  0  1.5  1.5  -0.326901  -0.00746101  -0.0313209  -0.0196632  -0.0332191  -0.027216  0.00841366  0.00698877  0.0233384  -0.0129945  0.0678112  -0.0607022  0.0250154 
1701777328.160242000  0  0  12.0186  -0.056425  -0.0863921  0.00839849  nan  nan  nan  nan  nan  nan  -1.86804  -0.869641  1.3993  -0.223769  0.183299  -0.0231577  0.616597  0.61321  -0.373056  0  0  0  1.5  1.5  -0.302526  -0.00768252  -0.0315059  -0.0196473  -0.0333089  -0.0270022  0.0018481  0.00544946  0.0243157  -0.0133895  0.0627149  -0.0509201  0.0289141 
1701777328.165314000  0  0  12.0072  -0.0585617  -0.0880401  0.00860512  nan  nan  nan  nan  nan  nan  -1.86494  -0.866556  1.39743  -0.22337  0.182901  -0.0228098  0.624097  0.62071  -0.374506  0  0  0  1.5  1.5  -0.277401  -0.00797671  -0.0317626  -0.0196362  -0.0318235  -0.0257334  0.00501001  0.00548983  0.02442  -0.0134564  0.066617  -0.0485839  0.0270002 
1701777328.170772000  0  0  12.0186  -0.0911652  -0.0691788  0.00930668  nan  nan  nan  nan  nan  nan  -1.8618  -0.863434  1.39556  -0.221571  0.181854  -0.0220537  0.631597  0.62821  -0.375829  0  0  0  1.5  1.5  -0.251526  -0.00807595  -0.0317989  -0.0197859  -0.030317  -0.0237967  0.00634172  0.00517908  0.02453  -0.0138564  0.134683  -0.0873182  0.0222301 
1701777328.175298000  0  0  12.0782  -0.0739214  -0.0862097  0.00826388  nan  nan  nan  nan  nan  nan  -1.85862  -0.860274  1.39367  -0.220798  0.181407  -0.0216293  0.639097  0.63571  -0.37702  0  0  0  1.5  1.5  -0.224901  -0.00851899  -0.0322087  -0.019594  -0.0298569  -0.0234218  0.00349703  0.00475759  0.0249744  -0.0139308  0.104073  -0.0573452  0.0360098 
1701777328.180253000  0  0  12.0703  -0.10144  -0.0768706  0.00793158  nan  nan  nan  nan  nan  nan  -1.85541  -0.857077  1.39179  -0.220085  0.181497  -0.0213364  0.646597  0.64321  -0.378077  0  0  0  1.5  1.5  -0.197629  -0.00888338  -0.032514  -0.0195652  -0.0289345  -0.0216847  0.00658762  0.0051964  0.0242968  -0.0139779  0.155073  -0.0697895  0.0406346 
1701777328.185266000  0  0  12.0486  -0.10569  -0.0788623  0.0081621  nan  nan  nan  nan  nan  nan  -1.85216  -0.853842  1.38989  -0.21847  0.179944  -0.0205159  0.654097  0.65071  -0.378997  0  0  0  1.5  1.5  -0.17081  -0.0090046  -0.0326045  -0.0194994  -0.0260448  -0.0191023  0.0101367  0.00468245  0.0255152  -0.014258  0.168302  -0.0770155  0.0405537 
1701777328.190415000  0  0  12.1299  -0.0745154  -0.10296  0.0086102  nan  nan  nan  nan  nan  nan  -1.84887  -0.85057  1.388  -0.216993  0.178912  -0.0198404  0.661597  0.65821  -0.379786  0  0  0  1.5  1.5  -0.144741  -0.00921288  -0.0327644  -0.0196021  -0.0257112  -0.0189207  0.00585516  0.00357477  0.0264558  -0.0144818  0.116143  -0.0374741  0.037191 
1701777328.195307000  0  0  12.1423  -0.0840761  -0.105862  0.00933551  nan  nan  nan  nan  nan  nan  -1.84554  -0.84726  1.3861  -0.21528  0.177612  -0.0190682  0.669097  0.66571  -0.380446  0  0  0  1.5  1.5  -0.119421  -0.00940624  -0.0329202  -0.0195238  -0.023673  -0.016834  0.00652503  0.00282752  0.0276315  -0.0148561  0.142139  -0.0424868  0.031867 
1701777328.200249000  0  0  12.1361  -0.0741778  -0.109621  0.009285  nan  nan  nan  nan  nan  nan  -1.84218  -0.843913  1.38419  -0.214583  0.177397  -0.0187207  0.676597  0.67321  -0.380981  0  0  0  1.5  1.5  -0.0948522  -0.00974089  -0.0332053  -0.0194787  -0.0224463  -0.0152212  0.00913245  0.00272394  0.0275119  -0.0149681  0.123295  -0.0338673  0.0336183 
1701777328.205305000  0  0  12.2239  -0.0423448  -0.126039  0.00941627  nan  nan  nan  nan  nan  nan  -1.83878  -0.840528  1.38229  -0.213307  0.1766  -0.018144  0.684097  0.68071  -0.381396  0  0  0  1.5  1.5  -0.071033  -0.00998284  -0.0334097  -0.0195242  -0.0224641  -0.0152817  0.00406235  0.00149628  0.0282986  -0.0151736  0.0709237  -0.00826812  0.0340323 
