ts fx fy fz tx ty tz exfx exfy exfz extx exty extz xd yd zd rolld pitchd yawd vxd vyd vzd wxd wyd wzd axd ayd azd e_x e_y e_z e_vx e_vy e_vz e_rx e_ry e_rz e_wx e_wy e_wz
1701772966.847605000  0  0  11.7909  0.0142348  -0.0836332  0.00760513  nan  nan  nan  nan  nan  nan  -2  -1  1.5  0.00516054  -0.0173806  -8.96898e-05  0  0  0  0  0  0  0  0  0  0.0123399  -0.0053235  -0.0184776  -0.00464812  0.01859  0.00665169  -0.00256837  0.0190946  -0.0106546  -0.0048406  -0.00840426  0.0114815 
1701772966.851556000  0  0  11.835  0.00514366  -0.0780279  0.00810847  nan  nan  nan  nan  nan  nan  -2  -1  1.5  0.00493103  -0.0169594  -8.3624e-05  0  0  0  0  0  0  0  0  0  0.0122868  -0.00535575  -0.0184979  -0.00499931  0.0183852  0.00302412  -0.00221767  0.0185551  -0.0107086  0.0101153  -0.0146512  0.00572963 
1701772966.855568000  0  0  11.8654  -0.0138108  -0.0811149  0.00842214  nan  nan  nan  nan  nan  nan  -2  -1  1.5  0.00512928  -0.0167132  -8.57233e-05  0  0  0  0  0  0  0  0  0  0.0122651  -0.00528095  -0.018504  -0.00521839  0.018497  0.000499614  -0.0019472  0.0183406  -0.0107349  0.0455358  -0.00650419  0.00207213 
1701772966.861566000  0  0  11.8186  -0.0102358  -0.0796959  0.00833039  nan  nan  nan  nan  nan  nan  -2  -1  1.5  0.00427399  -0.0168838  -7.2158e-05  0  0  0  0  0  0  0  0  0  0.0122047  -0.00528073  -0.0184747  -0.00494723  0.0173468  0.00433982  -0.00102875  0.0184436  -0.0107391  0.0299362  -0.0102891  0.00326068 
1701772966.866564000  0  0  11.8714  -0.031929  -0.0791007  0.00826177  nan  nan  nan  nan  nan  nan  -2  -1  1.5  0.00412638  -0.0164098  -6.77104e-05  0  0  0  0  0  0  0  0  0  0.0121436  -0.00528946  -0.0185065  -0.0053378  0.0171966  7.39917e-06  -0.000315779  0.0179344  -0.0107452  0.0667633  -0.00679481  0.00418001 
1701772966.871579000  0  0  11.8814  -0.0283416  -0.0900523  0.00802721  nan  nan  nan  nan  nan  nan  -2  -1  1.5  0.00403683  -0.0162961  -6.57823e-05  0  0  0  0  0  0  0  0  0  0.0121164  -0.00520564  -0.018507  -0.0054092  0.0168968  -0.000828441  2.81256e-05  0.0180494  -0.010698  0.0564244  0.0140497  0.00663959 
1701772966.876578000  0  0  11.8182  -0.0332528  -0.0815755  0.00918126  nan  nan  nan  nan  nan  nan  -2  -1  1.5  0.00319426  -0.0165335  -5.28101e-05  0  0  0  0  0  0  0  0  0  0.0120582  -0.00522673  -0.0184861  -0.00508262  0.015809  0.0043905  0.00113166  0.0181658  -0.010847  0.0560943  -0.00397471  -0.00629602 
1701772966.880583000  0  0  11.8762  -0.0457283  -0.0871858  0.00995783  nan  nan  nan  nan  nan  nan  -2  -1  1.5  0.00333315  -0.016386  -5.46149e-05  0  0  0  0  0  0  0  0  0  0.0120367  -0.00516102  -0.0185158  -0.00512291  0.0158668  -0.000380272  0.00146052  0.0181177  -0.0109729  0.0780198  0.00768864  -0.0147435 
1701772966.886579000  0  0  11.8771  -0.0366067  -0.109148  0.0102676  nan  nan  nan  nan  nan  nan  -2  -1  1.5  0.00281453  -0.0163272  -4.59516e-05  0  0  0  0  0  0  0  0  0  0.0119726  -0.00516944  -0.0185433  -0.00505624  0.0152016  -0.000410736  0.00219481  0.0186351  -0.0111338  0.0530211  0.0468533  -0.0170075 
1701772966.891555000  0  0  11.8127  -0.0431221  -0.0947591  0.01003  nan  nan  nan  nan  nan  nan  -2  -1  1.5  0.0020043  -0.0165916  -3.32532e-05  0  0  0  0  0  0  0  0  0  0.0119164  -0.00520032  -0.0185236  -0.00470107  0.0141867  0.00491168  0.00328929  0.0188007  -0.0112155  0.0559828  0.0165515  -0.0132203 
1701772966.896573000  0  0  11.8912  -0.0399762  -0.114584  0.00939558  nan  nan  nan  nan  nan  nan  -2  -1  1.5  0.00244484  -0.0163732  -4.00282e-05  0  0  0  0  0  0  0  0  0  0.0118903  -0.00512351  -0.0185668  -0.00478676  0.0146155  -0.00154963  0.00309703  0.0190693  -0.0111939  0.0514597  0.0537303  -0.00550553 
1701772966.901576000  0  0  11.8364  -0.021559  -0.117903  0.00839301  nan  nan  nan  nan  nan  nan  -2  -1  1.5  0.00173465  -0.0167922  -2.91274e-05  0  0  0  0  0  0  0  0  0  0.0118654  -0.00516831  -0.0185265  -0.00427974  0.0137663  0.00292154  0.00357605  0.0197929  -0.011107  0.0102184  0.0537109  0.00615705 
1701772966.906576000  0  0  11.7797  -0.0249972  -0.1023  0.00869578  nan  nan  nan  nan  nan  nan  -2  -1  1.5  0.00170931  -0.0170515  -2.9145e-05  0  0  0  0  0  0  0  0  0  0.0118449  -0.00510005  -0.0184752  -0.00400047  0.0135705  0.00754274  0.00370947  0.0199211  -0.0111254  0.0158674  0.021325  0.00255696 
1701772966.911576000  0  0  11.8575  -0.0108618  -0.12312  0.00848887  nan  nan  nan  nan  nan  nan  -2  -1  1.5  0.00206423  -0.0167637  -3.46026e-05  0  0  0  0  0  0  0  0  0  0.0118215  -0.00502827  -0.0185089  -0.00418014  0.0138933  0.00112346  0.00317524  0.0201881  -0.0110879  -0.00748868  0.0605102  0.00476785 
1701772966.916576000  0  0  11.7875  -0.000334388  -0.116742  0.00798367  nan  nan  nan  nan  nan  nan  -2  -1  1.5  0.00197171  -0.0173212  -3.41506e-05  0  0  0  0  0  0  0  0  0  0.0118055  -0.0049613  -0.0184475  -0.00354447  0.0136073  0.00682289  0.00297333  0.0208619  -0.0109948  -0.0266859  0.0415546  0.0101525 
1701772966.921559000  0  0  11.7561  0.0026668  -0.107703  0.00801444  nan  nan  nan  nan  nan  nan  -2  -1  1.5  0.00207362  -0.0174466  -3.61758e-05  0  0  0  0  0  0  0  0  0  0.0117874  -0.00489317  -0.0183989  -0.003401  0.0135821  0.00934429  0.00271873  0.020931  -0.0109603  -0.0303459  0.0228413  0.00942235 
1701772966.925581000  0  0  11.8309  0.0184704  -0.128068  0.00779766  nan  nan  nan  nan  nan  nan  -2  -1  1.5  0.00235323  -0.0171229  -4.02923e-05  0  0  0  0  0  0  0  0  0  0.0117705  -0.00483608  -0.0184248  -0.00364361  0.0138401  0.00315107  0.00203355  0.0211343  -0.0108917  -0.0556495  0.061701  0.011446 
1701772966.931578000  0  0  11.7528  0.0179475  -0.107047  0.00825218  nan  nan  nan  nan  nan  nan  -2  -1  1.5  0.00151792  -0.0176215  -2.67467e-05  0  0  0  0  0  0  0  0  0  0.0117162  -0.00491064  -0.0183842  -0.00302039  0.0128946  0.00957678  0.00248459  0.0215033  -0.0109106  -0.0587533  0.016265  0.00595395 
1701772966.936577000  0  0  11.7727  0.0220387  -0.107084  0.00826988  nan  nan  nan  nan  nan  nan  -2  -1  1.5  0.000998515  -0.0173801  -1.73534e-05  0  0  0  0  0  0  0  0  0  0.0116691  -0.00499786  -0.0184025  -0.00319258  0.0124124  0.00795432  0.00266776  0.0213372  -0.0109066  -0.0686207  0.0178651  0.0056928 
1701772966.941594000  0  0  11.8288  0.0332012  -0.119795  0.00831946  nan  nan  nan  nan  nan  nan  -2  -1  1.5  0.000289028  -0.0172104  -4.97403e-06  0  0  0  0  0  0  0  0  0  0.011646  -0.00507591  -0.0184222  -0.00325595  0.0116596  0.00331032  0.00275758  0.0215765  -0.0109021  -0.0917722  0.0410867  0.00502788 
1701772966.946534000  0  0  11.7671  0.0202859  -0.0922195  0.00858336  nan  nan  nan  nan  nan  nan  -2  -1  1.5  0.000519173  -0.0176412  -9.15837e-06  0  0  0  0  0  0  0  0  0  0.0116336  -0.00501703  -0.018353  -0.00278309  0.0118277  0.00832115  0.00241283  0.0215401  -0.0109205  -0.0627698  -0.0137296  0.00191317 
1701772966.951577000  0  0  11.8231  0.0313457  -0.105587  0.00817212  nan  nan  nan  nan  nan  nan  -2  -1  1.5  -0.000243959  -0.0173098  4.22268e-06  0  0  0  0  0  0  0  0  0  0.0116107  -0.00512053  -0.0183706  -0.00305769  0.0110585  0.00368119  0.00263635  0.0214176  -0.0108798  -0.0869459  0.0141317  0.00664606 
1701772966.955580000  0  0  11.8362  0.0348947  -0.113656  0.00801474  nan  nan  nan  nan  nan  nan  -2  -1  1.5  -0.000472392  -0.0174504  8.24301e-06  0  0  0  0  0  0  0  0  0  0.0116003  -0.0050799  -0.0183597  -0.00282455  0.0106674  0.00256654  0.00244034  0.0217996  -0.01083  -0.0922405  0.0267564  0.00811536 
1701772966.961579000  0  0  11.7799  -3.90101e-05  -0.0788231  0.00852877  nan  nan  nan  nan  nan  nan  -2  -1  1.5  -0.000885147  -0.0176568  1.56281e-05  0  0  0  0  0  0  0  0  0  0.0115793  -0.00516462  -0.0183134  -0.00261699  0.0103185  0.00717357  0.00310989  0.0213033  -0.0108868  -0.028533  -0.038344  0.00225843 
1701772966.966577000  0  0  11.8445  0.0161781  -0.0987682  0.00792998  nan  nan  nan  nan  nan  nan  -2  -1  1.5  -0.0018581  -0.0175081  3.253e-05  0  0  0  0  0  0  0  0  0  0.0115597  -0.00527417  -0.0183616  -0.00264225  0.0092752  0.00188316  0.00354694  0.0214031  -0.010817  -0.0649882  0.000627764  0.00904503 
1701772966.971143000  0  0  11.7904  -0.000140914  -0.0894308  0.00798732  nan  nan  nan  nan  nan  nan  -2  -1  1.5  -0.0019498  -0.0176506  3.44134e-05  0  0  0  0  0  0  0  0  0  0.0115478  -0.00523331  -0.0183092  -0.00253446  0.00907544  0.00628515  0.00366285  0.021388  -0.0107821  -0.0334164  -0.0179076  0.00797931 
1701772966.976534000  0  0  11.789  -0.00382373  -0.0896289  0.00793699  nan  nan  nan  nan  nan  nan  -2  -1  1.5  -0.00279149  -0.0176579  4.92894e-05  0  0  0  0  0  0  0  0  0  0.0115292  -0.00533659  -0.0183186  -0.00248613  0.00820282  0.00642289  0.00434079  0.0213153  -0.0107564  -0.0322878  -0.0168431  0.00835167 
1701772966.980596000  0  0  11.8491  0.0272941  -0.113471  0.00630387  nan  nan  nan  nan  nan  nan  -2  -1  1.5  -0.00323834  -0.0175907  5.69619e-05  0  0  0  0  0  0  0  0  0  0.0115191  -0.00530738  -0.0183318  -0.00243409  0.00753096  0.00143285  0.00395811  0.0217118  -0.0105013  -0.0910028  0.027193  0.0262147 
1701772966.986583000  0  0  11.8063  -0.0161025  -0.0920307  0.00687582  nan  nan  nan  nan  nan  nan  -2  -1  1.5  -0.00359444  -0.0175433  6.30553e-05  0  0  0  0  0  0  0  0  0  0.0114675  -0.00537949  -0.018354  -0.00246541  0.00723954  0.00505407  0.00481778  0.0213355  -0.0104585  -0.0121185  -0.0122254  0.0186373 
1701772966.991579000  0  0  11.8005  -0.0188841  -0.093241  0.00753992  nan  nan  nan  nan  nan  nan  -2  -1  1.5  -0.00402448  -0.0176184  7.09015e-05  -6e-07  -6e-07  6e-07  0  0  0  -0.000375  -0.000375  0.000375  0.0114408  -0.00545818  -0.0183608  -0.00236737  0.00680444  0.00558941  0.00526339  0.0213217  -0.0104902  -0.010655  -0.00967802  0.0106527 
1701772966.996579000  0  0  11.8328  0.000556463  -0.108429  0.0075389  nan  nan  nan  nan  nan  nan  -2  -1  1.5  -0.00419781  -0.0178007  7.47204e-05  -5e-06  -5e-06  5e-06  0  0  0  -0.0015  -0.0015  0.0014996  0.0114297  -0.00542788  -0.0183602  -0.00218489  0.00634942  0.00300089  0.00490578  0.0217931  -0.0104352  -0.0462461  0.016361  0.0101161 
1701772967.001562000  0  0  11.8098  -0.0321346  -0.0945346  0.00750434  nan  nan  nan  nan  nan  nan  -2  -1  1.5  -0.0043534  -0.0180268  7.84743e-05  -1.69e-05  -1.69e-05  1.55e-05  0  0  0  -0.003375  -0.003375  0.0025892  0.0113852  -0.00551085  -0.0183875  -0.00207684  0.00609809  0.00507913  0.00554875  0.0217896  -0.0103982  0.0132206  -0.0113951  0.0101778 
1701772967.005559000  0  0  11.8162  -0.0242692  -0.101936  0.00711377  nan  nan  nan  nan  nan  nan  -2  -1  1.5  -0.00418885  -0.0184928  7.75595e-05  -4e-05  -4e-05  2.96e-05  0  0  0  -0.006  -0.006  0.0029289  0.0113783  -0.00548814  -0.0183745  -0.00177595  0.00592139  0.00455105  0.00530969  0.0223024  -0.0103127  -0.000310797  -0.00130896  0.0142053 
1701772967.011556000  0  0  11.8393  -0.013611  -0.111941  0.00718256  nan  nan  nan  nan  nan  nan  -2  -1  1.5  -0.00473881  -0.0187793  8.91868e-05  -7.81e-05  -7.81e-05  4.36e-05  0  0  0  -0.009375  -0.009375  0.0025185  0.0113349  -0.00558085  -0.0184297  -0.00169076  0.00495715  0.00269926  0.00551466  0.0228162  -0.0102466  -0.023513  0.0139733  0.0126837 
1701772967.016560000  0  0  11.8155  -0.0341005  -0.10166  0.0076225  nan  nan  nan  nan  nan  nan  -2  -1  1.5  -0.00405502  -0.0194747  7.93659e-05  -0.000135  -0.000135  5.36e-05  0  0  0  -0.0135  -0.0135  0.0013619  0.0113271  -0.00555298  -0.0183959  -0.00134292  0.00527241  0.00449703  0.0052461  0.0232803  -0.010249  0.0199368  -0.0108588  0.00720877 
1701772967.021713000  0  0  11.8033  -0.00739294  -0.11778  0.00667856  nan  nan  nan  nan  nan  nan  -2  -1  1.5  -0.00478434  -0.0204189  9.82852e-05  -0.0002144  -0.0002144  5.74e-05  0  0  0  -0.018375  -0.018375  0.0003076  0.011321  -0.00568101  -0.0184138  -0.000746519  0.00397614  0.00544576  0.00547017  0.0244073  -0.0101129  -0.0355397  0.0110126  0.0176468 
1701772967.026655000  0  0  11.8217  -0.0250388  -0.117604  0.00672167  nan  nan  nan  nan  nan  nan  -2  -1  1.5  -0.00448048  -0.0209649  9.47266e-05  -0.00032  -0.00032  5.79e-05  0  0  0  -0.024  -0.024  -3.3e-06  0.0113116  -0.00577886  -0.0184271  -0.000693265  0.00385609  0.00390746  0.00536833  0.0249532  -0.0100518  0.000689053  0.00563914  0.016497 
1701772967.031655000  0  0  11.8073  -0.0135279  -0.116859  0.00602204  nan  nan  nan  nan  nan  nan  -2.00001  -1.00001  1.5  -0.00362145  -0.0218969  8.02926e-05  -0.0004549  -0.0004556  5.71e-05  0  0  0  -0.0298319  -0.030375  -0.0004491  0.0113178  -0.00574983  -0.0183974  -0.000270795  0.00410189  0.00499739  0.0044029  0.0257894  -0.00988919  -0.013451  -0.00354494  0.0236165 
1701772967.036652000  0  0  11.7701  0.0142152  -0.118931  0.00583638  nan  nan  nan  nan  nan  nan  -2.00001  -1.00001  1.5  -0.00365222  -0.0226329  8.38537e-05  -0.0006171  -0.000625  5.22e-05  0  0  0  -0.0349304  -0.0375  -0.0016448  0.0112788  -0.00584503  -0.0184256  2.95281e-05  0.00336756  0.00804333  0.0038209  0.0264881  -0.00976476  -0.0635828  -0.00582896  0.0246928 
1701772967.041572000  0  0  11.824  -1.23055e-07  -0.119744  0.00584325  nan  nan  nan  nan  nan  nan  -2.00001  -1.00001  1.5  -0.00283417  -0.0228944  6.62813e-05  -0.0008029  -0.0008318  3.94e-05  0  0  0  -0.0392789  -0.0452796  -0.0035905  0.0112566  -0.00594644  -0.0185045  -3.73627e-06  0.00364036  0.00352627  0.00309193  0.0267123  -0.00966829  -0.0284455  -0.006265  0.0236423 
1701772967.046706000  0  0  11.7832  0.0238001  -0.115663  0.00542524  nan  nan  nan  nan  nan  nan  -2.00002  -1.00002  1.5  -0.00197209  -0.0237492  4.85313e-05  -0.0010086  -0.0010769  1.5e-05  0  0  0  -0.0428774  -0.0526197  -0.0062863  0.0112645  -0.00592356  -0.0184572  0.000529464  0.00378244  0.00657318  0.00172457  0.0273715  -0.0094973  -0.0634663  -0.0204913  0.0271576 
1701772967.051652000  0  0  11.7628  0.0350594  -0.111629  0.00566673  nan  nan  nan  nan  nan  nan  -2.00002  -1.00002  1.5  -0.00227136  -0.0239144  5.63131e-05  -0.0012224  -0.0013394  -1.7e-05  0  0  0  -0.0425024  -0.0522447  -0.0066612  0.0112435  -0.00601472  -0.0184838  0.000786656  0.0036469  0.00829354  0.00147216  0.027346  -0.00941414  -0.0836627  -0.0283257  0.0233073 
1701772967.056653000  0  0  11.8226  0.02725  -0.112614  0.00564907  nan  nan  nan  nan  nan  nan  -2.00003  -1.00003  1.5  -0.00220234  -0.0236459  5.43715e-05  -0.0014324  -0.0015981  -5.29e-05  0  0  0  -0.0413774  -0.0511197  -0.0077862  0.0112322  -0.0060912  -0.0185618  0.000762946  0.00403778  0.00337094  0.00120925  0.0269952  -0.0093315  -0.065625  -0.0231274  0.0227016 
1701772967.061572000  0  0  11.7922  0.0423903  -0.104913  0.0056976  nan  nan  nan  nan  nan  nan  -2.00004  -1.00004  1.5  -0.00225257  -0.0239608  5.66681e-05  -0.0016349  -0.0018493  -9.62e-05  0  0  0  -0.0395024  -0.0492447  -0.0096612  0.0112417  -0.00607163  -0.0185203  0.00131687  0.0041783  0.00564359  0.000651474  0.0270268  -0.00923163  -0.0907742  -0.0388207  0.0210963 
1701772967.066654000  0  0  11.8022  0.0363741  -0.0964684  0.00647414  nan  nan  nan  nan  nan  nan  -2.00004  -1.00005  1.5  -0.00259126  -0.0238118  6.49967e-05  -0.0018262  -0.0020893  -0.0001507  0  0  0  -0.0368774  -0.0466197  -0.0122863  0.0112202  -0.00614901  -0.0185696  0.00153468  0.00424293  0.00466436  0.00063089  0.0265126  -0.00925596  -0.0785523  -0.0509794  0.0116329 
1701772967.071653000  0  0  11.8382  0.0320216  -0.104901  0.00611364  nan  nan  nan  nan  nan  nan  -2.00005  -1.00006  1.5  -0.00246426  -0.0234487  6.16785e-05  -0.0020024  -0.0023142  -0.0002203  0  0  0  -0.0335024  -0.0432447  -0.0156613  0.0112268  -0.00612663  -0.0185742  0.00157368  0.00478597  0.00134781  0.00027969  0.026129  -0.00916094  -0.0666164  -0.0305855  0.0151889 
1701772967.076652000  0  0  11.7709  0.0323512  -0.0838277  0.00584271  nan  nan  nan  nan  nan  nan  -2.00006  -1.00007  1.5  -0.00347138  -0.0235932  8.65936e-05  -0.0021599  -0.0025205  -0.0003086  0  0  0  -0.0293774  -0.0391197  -0.0197863  0.0112272  -0.00620307  -0.0185783  0.0021191  0.0041905  0.00658507  0.00087591  0.0257055  -0.00909266  -0.0727608  -0.0688348  0.0178928 
1701772967.081663000  0  0  11.8122  0.0151225  -0.0791949  0.00595378  nan  nan  nan  nan  nan  nan  -2.00008  -1.00008  1.5  -0.00405485  -0.022838  9.83971e-05  -0.0022949  -0.0027042  -0.0004194  0  0  0  -0.0245024  -0.0342447  -0.0246613  0.0112178  -0.00629079  -0.0186752  0.00188622  0.00423383  0.00288165  0.00143038  0.0245682  -0.00906946  -0.0434045  -0.0676377  0.0162724 
1701772967.086699000  0  0  11.8065  0.0163385  -0.0867659  0.00555643  nan  nan  nan  nan  nan  nan  -2.00009  -1.0001  1.49999  -0.00464107  -0.02241  0.000111098  -0.0024037  -0.0028617  -0.0005564  0  0  0  -0.0188774  -0.0286197  -0.0302863  0.0112257  -0.0062662  -0.0186518  0.00201902  0.00413982  0.00277548  0.00176555  0.0240519  -0.0089513  -0.0489201  -0.0477458  0.0200576 
1701772967.091653000  0  0  11.7447  -0.00191053  -0.063613  0.00521198  nan  nan  nan  nan  nan  nan  -2.0001  -1.00011  1.49999  -0.00598564  -0.0220307  0.000140759  -0.0024825  -0.0029891  -0.0007235  0  0  0  -0.0125024  -0.0222447  -0.0366613  0.0111926  -0.00636439  -0.0187292  0.00226736  0.00345947  0.00748055  0.00311819  0.0230294  -0.00887495  -0.0248663  -0.0846443  0.0235998 
1701772967.096649000  0  0  11.7988  -0.0168196  -0.0741825  0.00444368  nan  nan  nan  nan  nan  nan  -2.00011  -1.00013  1.49999  -0.00637929  -0.0211233  0.000145744  -0.0025275  -0.0030829  -0.0009243  0  0  0  -0.0053774  -0.0151197  -0.0437863  0.0111991  -0.00633952  -0.01875  0.00211596  0.0037729  0.00232987  0.00368618  0.0220021  -0.00868747  -0.000273666  -0.0540544  0.0313288 
1701772967.101568000  0  0  11.7712  -0.0157085  -0.0785171  0.00351984  nan  nan  nan  nan  nan  nan  -2.00012  -1.00014  1.49998  -0.0079878  -0.0201975  0.000175126  -0.002535  -0.0031391  -0.0011626  0  0  0  0.0024976  -0.0072447  -0.0516613  0.01117  -0.00644878  -0.0188252  0.00192243  0.00294939  0.00403131  0.00515047  0.0210157  -0.00848597  -0.0159674  -0.0363099  0.0408616 
1701772967.105564000  0  0  11.6981  -0.0303212  -0.0552089  0.00416781  nan  nan  nan  nan  nan  nan  -2.00014  -1.00016  1.49998  -0.009006  -0.0197927  0.000195346  -0.0025013  -0.0031541  -0.0014422  0  0  0  0.0111226  0.0013803  -0.0602863  0.011191  -0.00643069  -0.0187721  0.00229995  0.00276553  0.00919516  0.0063033  0.0200531  -0.00843363  0.00265205  -0.074071  0.0322387 
1701772967.111658000  0  0  11.7783  -0.0417134  -0.0737066  0.00506047  nan  nan  nan  nan  nan  nan  -2.00015  -1.00018  1.49997  -0.0102229  -0.0182901  0.000208273  -0.0024225  -0.003124  -0.0017667  0  0  0  0.0204976  0.0107553  -0.0696613  0.0111552  -0.00652307  -0.018917  0.00180069  0.00250937  0.00190438  0.00775077  0.0186102  -0.00843361  0.0121196  -0.0238006  0.0210802 
1701772967.116516000  0  0  11.7325  -0.0447588  -0.0681129  0.00516667  nan  nan  nan  nan  nan  nan  -2.00016  -1.00019  1.49996  -0.0121727  -0.0172884  0.000236747  -0.002295  -0.0030453  -0.00214  0  0  0  0.0306226  0.0208803  -0.0797863  0.011132  -0.00663869  -0.0189731  0.00176214  0.00158494  0.00486448  0.00966027  0.0175063  -0.00840917  0.000643098  -0.0248321  0.0195083 
1701772967.121573000  0  0  11.669  -0.0637871  -0.0417556  0.00615335  nan  nan  nan  nan  nan  nan  -2.00017  -1.00021  1.49995  -0.0134903  -0.0164987  0.000254977  -0.002115  -0.002914  -0.0025658  0  0  0  0.0414976  0.0317553  -0.0906613  0.0111425  -0.00662676  -0.0189167  0.00199849  0.00134133  0.00899552  0.0112523  0.0161096  -0.00847129  0.0240534  -0.0646971  0.00779594 
1701772967.126655000  0  0  11.7384  -0.0490249  -0.0738053  0.00553105  nan  nan  nan  nan  nan  nan  -2.00018  -1.00022  1.49993  -0.0148506  -0.0147898  0.000259345  -0.0018788  -0.0027265  -0.0030479  0  0  0  0.0531226  0.0433803  -0.102286  0.0111188  -0.00674346  -0.019028  0.00145164  0.00122418  0.00231597  0.012338  0.0148913  -0.00840776  -0.0154599  0.0106102  0.0149394 
1701772967.130539000  0  0  11.6865  -0.0493023  -0.0677882  0.00525214  nan  nan  nan  nan  nan  nan  -2.00019  -1.00023  1.49992  -0.0165317  -0.0136787  0.000274445  -0.0015826  -0.0024789  -0.00359  0  0  0  0.0654976  0.0557553  -0.114661  0.0111298  -0.00674222  -0.0189917  0.00149885  0.000722868  0.00536866  0.0138245  0.013823  -0.00833468  -0.0285806  0.00840502  0.017695 
1701772967.136568000  0  0  11.6332  -0.0648974  -0.0442794  0.00600412  nan  nan  nan  nan  nan  nan  -2.0002  -1.00024  1.4999  -0.0184366  -0.0123954  0.00028685  -0.0012226  -0.0021677  -0.0041958  0  0  0  0.0786226  0.0688803  -0.127786  0.0111166  -0.00685572  -0.0190278  0.00148514  0.000306375  0.00862718  0.0157509  0.0121605  -0.00840252  -0.0151137  -0.0233177  0.00897372 
1701772967.141583000  0  0  11.711  -0.0456854  -0.0729867  0.00544139  nan  nan  nan  nan  nan  nan  -2.0002  -1.00025  1.49987  -0.0201936  -0.010549  0.000283147  -0.0007951  -0.0017889  -0.0048691  0  0  0  0.0924976  0.0827553  -0.141661  0.0110932  -0.00696185  -0.0191554  0.00103492  -0.000111496  0.00106468  0.0169059  0.0109934  -0.00832655  -0.0641638  0.0448342  0.0152481 
1701772967.146579000  0  0  11.6209  -0.0480202  -0.0590292  0.00525163  nan  nan  nan  nan  nan  nan  -2.00021  -1.00026  1.49985  -0.0222307  -0.00938835  0.000292441  -0.0002963  -0.0013388  -0.0056136  0  0  0  0.107123  0.0973803  -0.156286  0.0111101  -0.00696395  -0.0190944  0.00128385  -0.000645887  0.007043  0.0184917  0.00990072  -0.0082423  -0.0740831  0.0269717  0.0167777 
1701772967.151569000  0  0  11.6123  -0.06012  -0.0535603  0.00553358  nan  nan  nan  nan  nan  nan  -2.00021  -1.00027  1.49982  -0.0241771  -0.00762731  0.00028384  0.0002774  -0.0008138  -0.0064332  0  0  0  0.122498  0.112755  -0.171661  0.0111061  -0.0070743  -0.0191343  0.000998545  -0.000905051  0.00636843  0.0202115  0.00830404  -0.00822632  -0.0657058  0.0307234  0.0130934 
1701772967.155575000  0  0  11.6521  -0.0322362  -0.0848674  0.00520477  nan  nan  nan  nan  nan  nan  -2.0002  -1.00027  1.49978  -0.0257894  -0.00560587  0.000261903  0.0009299  -0.00021  -0.0073315  0  0  0  0.138623  0.12888  -0.187786  0.0111008  -0.00707915  -0.019143  0.000510625  -0.00100584  0.00152797  0.020878  0.00723553  -0.00812597  -0.127605  0.103168  0.0162001 
1701772967.161568000  0  0  11.554  -0.0410419  -0.0615878  0.00581626  nan  nan  nan  nan  nan  nan  -2.0002  -1.00027  1.49974  -0.0286035  -0.00421721  0.000258359  0.0016649  0.0004762  -0.0083123  0  0  0  0.155498  0.145755  -0.204661  0.0111063  -0.00719445  -0.0191754  0.000835812  -0.00190186  0.00816708  0.022891  0.00609983  -0.00816  -0.128513  0.0670572  0.00889668 
1701772967.166520000  0  0  11.5529  -0.0486369  -0.062974  0.00645521  nan  nan  nan  nan  nan  nan  -2.00019  -1.00027  1.4997  -0.030825  -0.00217322  0.000227711  0.0024861  0.0012488  -0.0093793  0  0  0  0.173123  0.16338  -0.222286  0.0111017  -0.00729886  -0.0192631  0.000499196  -0.00224221  0.00675629  0.0245277  0.00459022  -0.00823753  -0.128382  0.0837179  0.0016852 
1701772967.171570000  0  0  11.5587  -0.0160326  -0.0972208  0.00551364  nan  nan  nan  nan  nan  nan  -2.00017  -1.00026  1.49965  -0.0329283  -5.99068e-05  0.000188673  0.0033973  0.0021113  -0.0105364  0  0  0  0.191498  0.181755  -0.240661  0.0110981  -0.00731243  -0.0192579  0.000168349  -0.00255912  0.00453665  0.0251376  0.00383675  -0.00808485  -0.199201  0.159143  0.0119281 
1701772967.176567000  0  0  11.4644  -0.0409732  -0.0640469  0.00594273  nan  nan  nan  nan  nan  nan  -2.00015  -1.00024  1.49959  -0.0356956  0.00195796  0.00014588  0.0044023  0.0030676  -0.0117872  0  0  0  0.210623  0.20088  -0.259786  0.0111016  -0.00742447  -0.019275  6.01024e-05  -0.00302053  0.0106197  0.0272747  0.00205449  -0.00811609  -0.168981  0.109193  0.00687681 
1701772967.181564000  0  0  11.4897  -0.0240677  -0.0752056  0.00537178  nan  nan  nan  nan  nan  nan  -2.00013  -1.00023  1.49953  -0.0375689  0.0044032  8.25993e-05  0.0055048  0.0041213  -0.0131355  0  0  0  0.230498  0.220755  -0.279661  0.0111043  -0.00742906  -0.0192733  -0.000506158  -0.00293398  0.00664012  0.0279118  0.000555466  -0.00799814  -0.208653  0.145301  0.0128341 
1701772967.186519000  0  0  11.4905  -0.00758527  -0.0891866  0.004767  nan  nan  nan  nan  nan  nan  -2.0001  -1.0002  1.49946  -0.0405242  0.0068458  6.32956e-06  0.0067086  0.0052764  -0.0145851  0  0  0  0.251123  0.24138  -0.300286  0.0111075  -0.00754628  -0.0193516  -0.000969172  -0.00378527  0.00481821  0.0292835  -0.000636054  -0.00785345  -0.254238  0.184225  0.018947 
1701772967.191553000  0  0  11.4137  -0.0374964  -0.05426  0.00504376  nan  nan  nan  nan  nan  nan  -2.00006  -1.00017  1.49939  -0.0434923  0.00921817  -7.78663e-05  0.0080173  0.0065364  -0.0161396  0  0  0  0.272498  0.262755  -0.321661  0.011117  -0.00765435  -0.0193596  -0.00118087  -0.00420223  0.00923364  0.0314409  -0.00264396  -0.00779107  -0.214264  0.132844  0.0148636 
1701772967.196564000  0  0  11.4325  -0.010642  -0.0740274  0.00439638  nan  nan  nan  nan  nan  nan  -2.00002  -1.00014  1.4993  -0.0458103  0.0121937  -0.000192473  0.0094348  0.0079052  -0.0178029  0  0  0  0.294623  0.28488  -0.343786  0.0111106  -0.00766831  -0.0193489  -0.00211026  -0.00434519  0.00561119  0.0320451  -0.00431585  -0.00760583  -0.273531  0.187761  0.0211035 
1701772967.201561000  0  0  11.3874  -0.00612306  -0.072136  0.00415299  nan  nan  nan  nan  nan  nan  -1.99997  -1.00009  1.49921  -0.0493455  0.0149091  -0.000322666  0.0109648  0.0093864  -0.0195787  0  0  0  0.317498  0.307755  -0.366661  0.0111202  -0.00778838  -0.0193779  -0.00255539  -0.00536448  0.00733559  0.0338625  -0.00586073  -0.007436  -0.299289  0.198191  0.0224476 
1701772967.206564000  0  0  11.3231  -0.039275  -0.0435965  0.00486274  nan  nan  nan  nan  nan  nan  -1.99991  -1.00004  1.4991  -0.0521026  0.017927  -0.000470141  0.012611  0.010984  -0.0214708  0  0  0  0.341123  0.33138  -0.390286  0.0111064  -0.00781095  -0.0193103  -0.00316885  -0.00537602  0.0103625  0.035747  -0.00832132  -0.00739516  -0.250322  0.163749  0.0131675 
1701772967.211563000  0  0  11.3534  -0.016656  -0.0640914  0.0040819  nan  nan  nan  nan  nan  nan  -1.99984  -0.999984  1.49899  -0.0555293  0.0210042  -0.000647361  0.0143772  0.0127015  -0.0234829  0  0  0  0.365498  0.355755  -0.414661  0.0111079  -0.00792513  -0.0193825  -0.00397236  -0.00646533  0.00579652  0.037258  -0.00988296  -0.00718425  -0.309462  0.219106  0.0208187 
1701772967.216563000  0  0  11.285  -0.0340347  -0.0456325  0.00447082  nan  nan  nan  nan  nan  nan  -1.99976  -0.999916  1.49887  -0.0591086  0.0244396  -0.000866328  0.0162672  0.0145428  -0.0256187  0  0  0  0.390623  0.38088  -0.439786  0.0110838  -0.00795955  -0.019326  -0.0048318  -0.00720308  0.00909758  0.0394255  -0.0123149  -0.0070677  -0.294645  0.204562  0.0147917 
1701772967.221562000  0  0  11.2364  -0.0592708  -0.023039  0.00547055  nan  nan  nan  nan  nan  nan  -1.99968  -0.999838  1.49874  -0.0627088  0.0276922  -0.0010948  0.0182847  0.0165116  -0.027882  0  0  0  0.416498  0.406755  -0.465661  0.0110914  -0.00807411  -0.0193454  -0.00544761  -0.00777519  0.0108332  0.0419217  -0.0148019  -0.00707585  -0.267138  0.182256  0.00237666 
1701772967.226563000  0  0  11.252  -0.032329  -0.0433451  0.00497883  nan  nan  nan  nan  nan  nan  -1.99958  -0.99975  1.49859  -0.066635  0.0312854  -0.00137505  0.0204335  0.0186116  -0.0302763  0  0  0  0.443123  0.43338  -0.492044  0.0110843  -0.00820061  -0.0194033  -0.00654829  -0.00905873  0.00733358  0.0436915  -0.0167529  -0.00691011  -0.337304  0.240817  0.00686576 
1701772967.231561000  0  0  11.1924  -0.064562  -0.0202398  0.00544375  nan  nan  nan  nan  nan  nan  -1.99947  -0.999652  1.49843  -0.0703931  0.0352552  -0.00169971  0.0227172  0.0208466  -0.0328013  0  0  0  0.470498  0.460755  -0.517817  0.0110476  -0.00824446  -0.0193427  -0.00768118  -0.00964363  0.00987885  0.0462097  -0.0196815  -0.00682915  -0.296005  0.221549  0.000244647 
1701772967.236559000  0  0  11.1534  -0.0794426  -0.00383986  0.00583604  nan  nan  nan  nan  nan  nan  -1.99935  -0.999542  1.49826  -0.0744655  0.0388795  -0.0020364  0.0251397  0.0232204  -0.0354532  0  0  0  0.498623  0.48888  -0.542839  0.0110426  -0.00836639  -0.019408  -0.00839991  -0.0104667  0.0110596  0.0489039  -0.0223292  -0.00680988  -0.29103  0.213109  -0.00485171 
1701772967.241561000  0  0  11.1636  -0.0520934  -0.0222835  0.00465765  nan  nan  nan  nan  nan  nan  -1.99922  -0.999419  1.49808  -0.0784839  0.04303  -0.00243705  0.0277047  0.0257367  -0.0382284  0  0  0  0.527498  0.517755  -0.567112  0.0109986  -0.00842381  -0.0193911  -0.00979242  -0.0116509  0.00813755  0.0506278  -0.0247052  -0.00653922  -0.361589  0.271855  0.00717151 
1701772967.246561000  0  0  11.0951  -0.0886836  0.00464858  0.00500443  nan  nan  nan  nan  nan  nan  -1.99908  -0.999284  1.49788  -0.0827611  0.0474215  -0.00289875  0.0304159  0.0283992  -0.0411231  0  0  0  0.557123  0.54738  -0.590635  0.0109539  -0.00848033  -0.0193179  -0.0109907  -0.0123489  0.011677  0.0536126  -0.0279771  -0.00639162  -0.315869  0.248092  0.00136078 
1701772967.251568000  0  0  11.0878  -0.0889581  0.00635079  0.00447817  nan  nan  nan  nan  nan  nan  -1.99892  -0.999135  1.49767  -0.087483  0.0513466  -0.00337584  0.0332772  0.0312117  -0.0441335  0  0  0  0.587498  0.577755  -0.613407  0.0109565  -0.00868989  -0.0194657  -0.0119118  -0.013678  0.0107272  0.056456  -0.0304288  -0.00617976  -0.341479  0.267243  0.0058204 
1701772967.255568000  0  0  11.0763  -0.0726998  -0.0037384  0.00376413  nan  nan  nan  nan  nan  nan  -1.99874  -0.998972  1.49744  -0.0921389  0.056217  -0.00396889  0.0362921  0.034178  -0.0472559  0  0  0  0.618623  0.60888  -0.63543  0.0108653  -0.00877873  -0.0193923  -0.0136715  -0.0150339  0.00978087  0.0590928  -0.0336684  -0.00585427  -0.398254  0.317226  0.0114911 
1701772967.261569000  0  0  11.0501  -0.0999428  0.0110764  0.00453553  nan  nan  nan  nan  nan  nan  -1.99855  -0.998793  1.49719  -0.0965211  0.0604099  -0.00452058  0.0394646  0.0373018  -0.0504865  0  0  0  0.650498  0.640755  -0.656702  0.0108472  -0.00889496  -0.0194753  -0.0145494  -0.0157221  0.0104739  0.0614356  -0.0359978  -0.00571302  -0.365322  0.309027  0.000436018 
1701772967.266570000  0  0  11.056  -0.0901294  -0.000707741  0.00403482  nan  nan  nan  nan  nan  nan  -1.99835  -0.998598  1.49693  -0.101042  0.0647227  -0.00512569  0.0427984  0.0405868  -0.0538217  0  0  0  0.683123  0.67338  -0.677225  0.0108174  -0.00903989  -0.0195612  -0.0156663  -0.0167445  0.00862205  0.0636468  -0.0382949  -0.00545243  -0.405292  0.353729  0.00408896 
1701772967.271567000  0  0  11.054  -0.0692467  -0.0131718  0.00342537  nan  nan  nan  nan  nan  nan  -1.99812  -0.998387  1.49666  -0.105859  0.0695954  -0.0058452  0.0462971  0.0440368  -0.0572575  0  0  0  0.716498  0.706755  -0.696998  0.0107292  -0.00912702  -0.0195374  -0.0172006  -0.0180532  0.00737326  0.0656753  -0.0408342  -0.00508431  -0.465719  0.402018  0.00802594 
1701772967.276568000  0  0  11.0162  -0.0951866  0.00165463  0.00387565  nan  nan  nan  nan  nan  nan  -1.99788  -0.998158  1.49636  -0.110912  0.0742018  -0.00659564  0.0499643  0.0476554  -0.0607904  0  0  0  0.750312  0.740692  -0.71602  0.0106889  -0.00927892  -0.0195883  -0.0181732  -0.0189965  0.00928677  0.068637  -0.0434787  -0.0048259  -0.441087  0.396695  -0.000186709 
1701772967.281568000  0  0  11.0075  -0.0783427  -0.0121773  0.00367368  nan  nan  nan  nan  nan  nan  -1.99762  -0.99791  1.49605  -0.115428  0.0790876  -0.00737779  0.053799  0.0514426  -0.0644165  0  0  0  0.783471  0.774066  -0.734293  0.0105951  -0.00937296  -0.0195541  -0.0196677  -0.0197908  0.00876875  0.0703607  -0.0458937  -0.00451868  -0.490633  0.446577  -0.000734175 
1701772967.286519000  0  0  11.0237  -0.0621639  -0.0276462  0.0036881  nan  nan  nan  nan  nan  nan  -1.99735  -0.997643  1.49572  -0.120507  0.0834271  -0.00818174  0.0577977  0.0553948  -0.0681321  0  0  0  0.81588  0.806689  -0.751815  0.0105569  -0.00954395  -0.0196002  -0.0209436  -0.0215111  0.00650501  0.0723089  -0.0474888  -0.00423009  -0.540914  0.492189  -0.00380035 
1701772967.291553000  0  0  10.9777  -0.0817285  -0.0190001  0.00444968  nan  nan  nan  nan  nan  nan  -1.99705  -0.997356  1.49537  -0.125012  0.0880083  -0.00900483  0.0619566  0.0595083  -0.0719334  0  0  0  0.847539  0.838563  -0.768588  0.0105053  -0.00969492  -0.0196573  -0.0219932  -0.0218214  0.00943953  0.074239  -0.0495695  -0.0040516  -0.519542  0.494039  -0.0151049 
1701772967.296569000  0  0  10.9787  -0.0497589  -0.0440162  0.00385462  nan  nan  nan  nan  nan  nan  -1.99673  -0.997048  1.495  -0.129476  0.0925815  -0.00986027  0.0662719  0.0637792  -0.0758167  0  0  0  0.878448  0.869686  -0.784611  0.0103948  -0.00980525  -0.019626  -0.0234331  -0.0228675  0.0085046  0.0751964  -0.0509932  -0.0037254  -0.592289  0.557169  -0.0109287 
1701772967.301568000  0  0  10.9977  -0.0295743  -0.0572016  0.00381847  nan  nan  nan  nan  nan  nan  -1.99638  -0.996718  1.49461  -0.13389  0.0966068  -0.0106741  0.0707398  0.0682039  -0.0797783  0  0  0  0.908607  0.90006  -0.799883  0.0103222  -0.00996889  -0.019689  -0.0245748  -0.0240898  0.00637942  0.0759342  -0.0518015  -0.00345132  -0.639446  0.590977  -0.0132177 
1701772967.306519000  0  0  10.9733  -0.043583  -0.0507483  0.00436014  nan  nan  nan  nan  nan  nan  -1.99602  -0.996365  1.4942  -0.13809  0.101194  -0.0115752  0.0753567  0.0727786  -0.0838143  0  0  0  0.938016  0.929683  -0.814406  0.0102024  -0.0100877  -0.0196401  -0.0259405  -0.0245915  0.00765439  0.0771229  -0.0534833  -0.00324583  -0.622365  0.593543  -0.0220434 
1701772967.311568000  0  0  10.9774  0.00181197  -0.0843909  0.00419982  nan  nan  nan  nan  nan  nan  -1.99563  -0.99599  1.49377  -0.142277  0.105199  -0.0124267  0.0801187  0.0774995  -0.0879211  0  0  0  0.966675  0.958557  -0.828179  0.0101379  -0.0102527  -0.0197023  -0.027104  -0.0254705  0.00701677  0.0770085  -0.0537051  -0.00300122  -0.712102  0.662868  -0.0224855 
1701772967.316567000  0  0  10.9698  0.0129354  -0.0836471  0.00464506  nan  nan  nan  nan  nan  nan  -1.99522  -0.99559  1.49332  -0.14661  0.109053  -0.013302  0.0850222  0.0823629  -0.0920948  0  0  0  0.994584  0.98668  -0.841201  0.010075  -0.0104139  -0.0197505  -0.0280567  -0.0264437  0.00737308  0.0773292  -0.0541975  -0.00285252  -0.737299  0.665911  -0.0295381 
1701772967.321554000  0  0  10.9702  0.00646379  -0.081608  0.00435986  nan  nan  nan  nan  nan  nan  -1.99478  -0.995166  1.49285  -0.150181  0.113195  -0.0141626  0.0900633  0.087365  -0.0963318  0  0  0  1.02174  1.01405  -0.853474  0.00993141  -0.010542  -0.0197199  -0.0293661  -0.0267767  0.00694329  0.0773546  -0.0550549  -0.00264623  -0.72459  0.669721  -0.028036 
1701772967.326556000  0  0  10.9748  0.0389929  -0.110409  0.00341622  nan  nan  nan  nan  nan  nan  -1.99432  -0.994716  1.49236  -0.154139  0.117013  -0.0150455  0.0952384  0.0925022  -0.100628  0  0  0  1.04815  1.04068  -0.864996  0.00986134  -0.0107034  -0.0198031  -0.030588  -0.0276432  0.006616  0.0768112  -0.0548944  -0.00231881  -0.784648  0.725846  -0.0195147 
1701772967.330573000  0  0  10.9471  0.0269574  -0.0910915  0.00369454  nan  nan  nan  nan  nan  nan  -1.99383  -0.994241  1.49184  -0.159303  0.122073  -0.0163021  0.100544  0.0977706  -0.104981  0  0  0  1.07381  1.06655  -0.875769  0.00963986  -0.0109098  -0.0196595  -0.0327383  -0.0293817  0.00856775  0.078741  -0.0573116  -0.00194941  -0.778332  0.70945  -0.0266876 
1701772967.336566000  0  0  10.9723  0.0202134  -0.0927313  0.00448802  nan  nan  nan  nan  nan  nan  -1.99331  -0.993738  1.49131  -0.161492  0.124778  -0.0168406  0.105975  0.103166  -0.109385  0  0  0  1.09872  1.09167  -0.885792  0.009631  -0.0109947  -0.0198644  -0.0331482  -0.028851  0.00679867  0.076606  -0.0559133  -0.00204837  -0.745202  0.699865  -0.0356166 
1701772967.341566000  0  0  10.9919  0.0437734  -0.111513  0.00395742  nan  nan  nan  nan  nan  nan  -1.99277  -0.993209  1.49075  -0.165305  0.128116  -0.017704  0.11153  0.108686  -0.113837  0  0  0  1.12288  1.11605  -0.895064  0.00954957  -0.0111555  -0.0199566  -0.0342704  -0.0300883  0.00549885  0.0760283  -0.0554106  -0.00182019  -0.787007  0.732804  -0.0312659 
1701772967.346520000  0  0  10.9723  0.0315668  -0.0930721  0.00394037  nan  nan  nan  nan  nan  nan  -1.99219  -0.992651  1.49017  -0.169328  0.132419  -0.0187816  0.117203  0.114326  -0.118334  0  0  0  1.14629  1.13967  -0.903587  0.00936399  -0.01131  -0.0199091  -0.0359133  -0.0309475  0.00722016  0.0762783  -0.0564907  -0.00158451  -0.764894  0.705859  -0.0334096 
1701772967.351570000  0  0  11.0092  0.0260295  -0.0892562  0.00308806  nan  nan  nan  nan  nan  nan  -1.99159  -0.992065  1.48957  -0.172315  0.135578  -0.0195486  0.122991  0.120082  -0.122872  0  0  0  1.16895  1.16254  -0.911359  0.00925785  -0.0114637  -0.0200274  -0.0372198  -0.0317361  0.00461298  0.0755186  -0.0562509  -0.00137428  -0.74683  0.696021  -0.0248579 
1701772967.356567000  0  0  11.0041  0.0384508  -0.0941121  0.0027653  nan  nan  nan  nan  nan  nan  -1.99096  -0.99145  1.48894  -0.176216  0.139496  -0.0205953  0.128891  0.12595  -0.127446  0  0  0  1.19086  1.18467  -0.918382  0.00906975  -0.0116252  -0.0199918  -0.0387859  -0.0328687  0.0053762  0.0752533  -0.0566499  -0.00106468  -0.769232  0.709403  -0.0239195 
1701772967.361568000  0  0  11.0194  0.0164197  -0.0863608  0.00350166  nan  nan  nan  nan  nan  nan  -1.99031  -0.990806  1.48829  -0.179575  0.142796  -0.0214797  0.134898  0.131927  -0.132054  0  0  0  1.21202  1.20604  -0.924655  0.00895709  -0.0118002  -0.0200883  -0.0401667  -0.033842  0.00468961  0.0751192  -0.0566301  -0.00096205  -0.723936  0.693719  -0.0341502 
1701772967.366569000  0  0  11.0288  0.0135782  -0.0821209  0.00392182  nan  nan  nan  nan  nan  nan  -1.98962  -0.990131  1.48762  -0.182963  0.14596  -0.0223628  0.14101  0.138009  -0.136692  0  0  0  1.23242  1.22667  -0.930177  0.0088457  -0.0119998  -0.0201361  -0.0413927  -0.0347725  0.00448093  0.0748569  -0.0565293  -0.000876239  -0.71584  0.684312  -0.0402604 
1701772967.371569000  0  0  11.0422  0.0187419  -0.077922  0.00397928  nan  nan  nan  nan  nan  nan  -1.98889  -0.989425  1.48692  -0.186411  0.149537  -0.0233519  0.147221  0.144192  -0.141355  0  0  0  1.25208  1.24654  -0.93495  0.0086268  -0.0121772  -0.0201147  -0.04307  -0.0359752  0.00394856  0.0744841  -0.0568544  -0.00072974  -0.722737  0.678905  -0.0424436 
1701772967.376567000  0  0  11.0474  0.000704823  -0.0675438  0.00421204  nan  nan  nan  nan  nan  nan  -1.98814  -0.988689  1.48621  -0.189552  0.152823  -0.0242597  0.153529  0.150473  -0.14604  0  0  0  1.27099  1.26566  -0.938973  0.00847111  -0.0123776  -0.0201834  -0.0444853  -0.0367042  0.00427573  0.0742775  -0.0570402  -0.000646863  -0.684763  0.659858  -0.0461818 
1701772967.381571000  0  0  11.0519  0.00230668  -0.0670507  0.00425431  nan  nan  nan  nan  nan  nan  -1.98736  -0.98792  1.48546  -0.19285  0.156297  -0.0252479  0.15993  0.156848  -0.150743  0  0  0  1.28915  1.28404  -0.942245  0.00825069  -0.0125627  -0.0201537  -0.0460892  -0.0377122  0.00458789  0.0740397  -0.0572992  -0.000534118  -0.685778  0.661254  -0.0478377 
1701772967.386573000  0  0  11.0652  0.00417534  -0.0685804  0.00402333  nan  nan  nan  nan  nan  nan  -1.98654  -0.98712  1.4847  -0.195944  0.159232  -0.0261183  0.16642  0.163312  -0.155461  0  0  0  1.30656  1.30166  -0.944768  0.00807406  -0.0127643  -0.0202413  -0.0473626  -0.0387425  0.00446596  0.0735117  -0.0570141  -0.000420846  -0.684659  0.66169  -0.0460832 
1701772967.391568000  0  0  11.0748  -0.00455296  -0.0684313  0.00391446  nan  nan  nan  nan  nan  nan  -1.9857  -0.986287  1.48391  -0.198739  0.162072  -0.0269366  0.172995  0.169863  -0.16019  0  0  0  1.32322  1.31853  -0.94654  0.0079064  -0.0129839  -0.020326  -0.0485704  -0.0394005  0.0046564  0.072992  -0.0566893  -0.000341499  -0.662421  0.658404  -0.0455157 
1701772967.396564000  0  0  11.0691  0.00184757  -0.0739331  0.00319169  nan  nan  nan  nan  nan  nan  -1.98481  -0.985421  1.4831  -0.201829  0.165107  -0.0278587  0.179651  0.176496  -0.164925  0  0  0  1.33913  1.33466  -0.947563  0.00765624  -0.0131816  -0.0202965  -0.0496692  -0.0401986  0.00600509  0.0725507  -0.0564382  -0.000139487  -0.671162  0.667097  -0.0385012 
1701772967.401572000  0  0  11.0883  0.00134313  -0.0761531  0.00300947  nan  nan  nan  nan  nan  nan  -1.9839  -0.984522  1.48226  -0.204328  0.167944  -0.0286555  0.186385  0.183208  -0.169664  0  0  0  1.35429  1.35003  -0.947836  0.00745434  -0.013413  -0.0203491  -0.0511643  -0.0408634  0.0055096  0.0715979  -0.0560439  -4.18855e-05  -0.661387  0.66791  -0.0371996 
1701772967.406570000  0  0  11.0966  0.000780436  -0.0792928  0.00347069  nan  nan  nan  nan  nan  nan  -1.98295  -0.983589  1.4814  -0.206653  0.170818  -0.0294423  0.193192  0.189995  -0.174402  0  0  0  1.3687  1.36465  -0.947358  0.00719634  -0.013615  -0.0203218  -0.0524756  -0.0412399  0.00578371  0.0706382  -0.0556267  -4.83873e-05  -0.651432  0.670351  -0.0428997 
1701772967.411568000  0  0  11.069  0.0115258  -0.0814136  0.00380343  nan  nan  nan  nan  nan  nan  -1.98197  -0.982622  1.48052  -0.209697  0.173483  -0.0303271  0.20007  0.196854  -0.179137  0  0  0  1.38236  1.37853  -0.946131  0.00694287  -0.0138205  -0.02027  -0.052968  -0.0417496  0.00907611  0.0701014  -0.0550472  2.78609e-05  -0.667984  0.669261  -0.0478215 
1701772967.416565000  0  0  11.1235  0.00975273  -0.0872272  0.00457334  nan  nan  nan  nan  nan  nan  -1.98095  -0.98162  1.47961  -0.211128  0.176045  -0.030911  0.207015  0.203779  -0.183863  0  0  0  1.39527  1.39165  -0.944153  0.00666595  -0.0140305  -0.0202603  -0.0549101  -0.0422966  0.00567822  0.0683199  -0.0542776  -0.000189222  -0.648048  0.673808  -0.0552746 
1701772967.421568000  0  0  11.1086  0.0226613  -0.0900086  0.00500478  nan  nan  nan  nan  nan  nan  -1.9799  -0.980584  1.47868  -0.213279  0.178749  -0.0316651  0.214022  0.210769  -0.188577  0  0  0  1.40742  1.40402  -0.941426  0.00639658  -0.0142353  -0.0202109  -0.055813  -0.0422106  0.00800357  0.0669796  -0.0536739  -0.000299398  -0.661535  0.673818  -0.0595658 
1701772967.426572000  0  0  11.0792  0.0312605  -0.0864675  0.00538338  nan  nan  nan  nan  nan  nan  -1.97881  -0.979513  1.47772  -0.215959  0.181178  -0.0324707  0.221088  0.217818  -0.193276  0  0  0  1.41883  1.41565  -0.937949  0.00612143  -0.0144444  -0.020139  -0.0561823  -0.042508  0.0115517  0.0661111  -0.0529711  -0.000352862  -0.670743  0.660269  -0.0637637 
1701772967.431572000  0  0  11.1607  0.0198386  -0.097304  0.00609561  nan  nan  nan  nan  nan  nan  -1.97769  -0.978406  1.47674  -0.216912  0.182745  -0.0327727  0.228209  0.224924  -0.197955  0  0  0  1.42949  1.42652  -0.933721  0.00588158  -0.0147313  -0.0202214  -0.0578258  -0.0433322  0.006229  0.064124  -0.0512434  -0.000709016  -0.629618  0.666048  -0.069105 
1701772967.436567000  0  0  11.162  0.0372135  -0.108672  0.00596425  nan  nan  nan  nan  nan  nan  -1.97653  -0.977263  1.47574  -0.218764  0.184625  -0.0333178  0.235381  0.232082  -0.202612  0  0  0  1.4394  1.43664  -0.928744  0.00562789  -0.0150112  -0.0202777  -0.0583388  -0.043439  0.00755934  0.0625037  -0.0497616  -0.000847733  -0.649461  0.675151  -0.0660758 
1701772967.441566000  0  0  11.1312  0.041171  -0.102973  0.00542913  nan  nan  nan  nan  nan  nan  -1.97533  -0.976085  1.47472  -0.221569  0.186464  -0.0340459  0.242602  0.239289  -0.207241  0  0  0  1.44856  1.44602  -0.923017  0.00536238  -0.0153077  -0.02028  -0.0582555  -0.043974  0.0115451  0.0618837  -0.0485964  -0.0007792  -0.651672  0.653032  -0.0600721 
1701772967.446572000  0  0  11.2069  0.0357802  -0.115979  0.00471711  nan  nan  nan  nan  nan  nan  -1.9741  -0.97487  1.47367  -0.221592  0.18805  -0.0341822  0.249866  0.246541  -0.21184  0  0  0  1.45697  1.45464  -0.916539  0.00506259  -0.0155257  -0.0202754  -0.059963  -0.0440377  0.00660628  0.0590539  -0.0468265  -0.00108638  -0.614856  0.662763  -0.0481001 
1701772967.451569000  0  0  11.1918  0.0561675  -0.130804  0.00328287  nan  nan  nan  nan  nan  nan  -1.97283  -0.973619  1.4726  -0.223569  0.189792  -0.0347394  0.25717  0.253834  -0.216405  0  0  0  1.46463  1.46251  -0.909312  0.00478353  -0.0158301  -0.0202596  -0.0602041  -0.0441456  0.00932627  0.0575564  -0.0451939  -0.000931854  -0.641854  0.677391  -0.0317173 
1701772967.456568000  0  0  11.1529  0.0513931  -0.116407  0.00393834  nan  nan  nan  nan  nan  nan  -1.97153  -0.972332  1.47151  -0.225578  0.191382  -0.0352759  0.264511  0.261165  -0.220932  0  0  0  1.47154  1.46964  -0.901334  0.00449557  -0.0160484  -0.0201793  -0.0598267  -0.0440153  0.013836  0.0564662  -0.0439139  -0.000995415  -0.622275  0.636823  -0.0392751 
1701772967.461569000  0  0  11.2477  0.0393761  -0.133757  0.00470525  nan  nan  nan  nan  nan  nan  -1.97019  -0.971008  1.47039  -0.22521  0.19216  -0.0351574  0.271884  0.26853  -0.225417  0  0  0  1.4777  1.47601  -0.892607  0.00420519  -0.0163454  -0.0202378  -0.0612649  -0.044297  0.00752333  0.0536044  -0.0414283  -0.00145958  -0.571913  0.648654  -0.0442198 
1701772967.466569000  0  0  11.2304  0.0659407  -0.150181  0.00435171  nan  nan  nan  nan  nan  nan  -1.96881  -0.969647  1.46925  -0.226932  0.193433  -0.0355712  0.279286  0.275924  -0.229857  0  0  0  1.48311  1.48164  -0.88313  0.00390422  -0.0166433  -0.0202167  -0.0610986  -0.0443907  0.0105088  0.0519405  -0.0393695  -0.00147039  -0.609734  0.662562  -0.0396925 
1701772967.471566000  0  0  11.1878  0.0432418  -0.127379  0.00498933  nan  nan  nan  nan  nan  nan  -1.96739  -0.968248  1.46809  -0.228352  0.194685  -0.0359235  0.286714  0.283345  -0.234248  0  0  0  1.48776  1.48651  -0.872902  0.00360215  -0.0168619  -0.0201242  -0.0604457  -0.0437976  0.0153164  0.0508801  -0.0379966  -0.00165409  -0.55458  0.604327  -0.0458258 
1701772967.476567000  0  0  11.2868  0.0374828  -0.147721  0.00588499  nan  nan  nan  nan  nan  nan  -1.96594  -0.966813  1.46691  -0.227662  0.195292  -0.0357009  0.294163  0.290788  -0.238585  0  0  0  1.49167  1.49063  -0.861925  0.00328464  -0.0171744  -0.0201642  -0.0620137  -0.044105  0.00875083  0.0479327  -0.0354215  -0.00221983  -0.515947  0.621319  -0.051364 
1701772967.481570000  0  0  11.2502  0.0696976  -0.161103  0.0057485  nan  nan  nan  nan  nan  nan  -1.96445  -0.965341  1.46571  -0.2288  0.196181  -0.035916  0.301629  0.29825  -0.242866  0  0  0  1.49483  1.49401  -0.850197  0.00298568  -0.0173896  -0.0200802  -0.0612052  -0.0435508  0.0131791  0.0459056  -0.0331093  -0.00240177  -0.561727  0.62681  -0.0478386 
1701772967.486570000  0  0  11.2455  0.0360188  -0.132781  0.00679736  nan  nan  nan  nan  nan  nan  -1.96293  -0.963831  1.46448  -0.229664  0.196902  -0.0360383  0.30911  0.305727  -0.247086  0  0  0  1.49724  1.49663  -0.83772  0.00267823  -0.0176951  -0.0200342  -0.060966  -0.0433823  0.01507  0.0448514  -0.031581  -0.00276728  -0.48467  0.556107  -0.0572941 
1701772967.491567000  0  0  11.3435  0.0409705  -0.159519  0.00647636  nan  nan  nan  nan  nan  nan  -1.96136  -0.962283  1.46324  -0.228835  0.197222  -0.0357206  0.316601  0.313215  -0.251241  0  0  0  1.4989  1.4985  -0.824493  0.00233031  -0.0180219  -0.0200589  -0.0623994  -0.0438089  0.00866216  0.0419166  -0.0288426  -0.00327177  -0.467574  0.58439  -0.0482368 
1701772967.496567000  0  0  11.2966  0.0665565  -0.159409  0.00547439  nan  nan  nan  nan  nan  nan  -1.95976  -0.960698  1.46197  -0.229491  0.197895  -0.0357899  0.324098  0.32071  -0.255329  0  0  0  1.49981  1.49963  -0.810515  0.002032  -0.0182333  -0.0199565  -0.0613638  -0.0427644  0.0139284  0.0398236  -0.0267632  -0.00340651  -0.49949  0.56504  -0.0343648 
1701772967.501568000  0  0  11.2796  0.0274965  -0.118222  0.00630108  nan  nan  nan  nan  nan  nan  -1.95812  -0.959076  1.46068  -0.230061  0.198525  -0.0358324  0.331597  0.32821  -0.259345  0  0  0  1.5  1.5  -0.795788  0.00169161  -0.018549  -0.0198688  -0.0609495  -0.04224  0.0168163  0.0389314  -0.0257051  -0.00370528  -0.413162  0.472931  -0.0417107 
1701772967.506575000  0  0  11.364  0.0428772  -0.148698  0.00666416  nan  nan  nan  nan  nan  nan  -1.95644  -0.957416  1.45938  -0.2284  0.198577  -0.0352796  0.339097  0.33571  -0.263286  0  0  0  1.5  1.5  -0.780311  0.0013738  -0.0187601  -0.0198511  -0.0620002  -0.041881  0.0113993  0.0353712  -0.0229047  -0.00439913  -0.41117  0.50812  -0.0393106 
1701772967.511570000  0  0  11.331  0.0572353  -0.140738  0.00640017  nan  nan  nan  nan  nan  nan  -1.95473  -0.955719  1.45805  -0.229341  0.199097  -0.0353737  0.346597  0.34321  -0.267147  0  0  0  1.5  1.5  -0.764083  0.00103639  -0.0190855  -0.0197739  -0.0611342  -0.0414391  0.0158077  0.034027  -0.0213051  -0.0045326  -0.427519  0.477483  -0.0346761 
1701772967.516567000  0  0  11.3238  0.0186118  -0.101279  0.00682065  nan  nan  nan  nan  nan  nan  -1.95298  -0.953984  1.4567  -0.229492  0.199667  -0.0353155  0.354097  0.35071  -0.270926  0  0  0  1.5  1.5  -0.747106  0.000684242  -0.0194084  -0.0196629  -0.0608465  -0.0407088  0.0179695  0.0331151  -0.0206003  -0.00487158  -0.341883  0.39208  -0.0365424 
1701772967.521569000  0  0  11.4177  0.0413911  -0.128602  0.00592627  nan  nan  nan  nan  nan  nan  -1.95119  -0.952212  1.45534  -0.227932  0.199589  -0.0347525  0.361597  0.35821  -0.274617  0  0  0  1.5  1.5  -0.729378  0.000367156  -0.019618  -0.0196392  -0.0619721  -0.0407188  0.0119603  0.0298169  -0.0181057  -0.00536126  -0.357097  0.423777  -0.0204657 
1701772967.526519000  0  0  11.399  0.0495805  -0.117887  0.00579149  nan  nan  nan  nan  nan  nan  -1.94936  -0.950402  1.45396  -0.228611  0.200177  -0.0348079  0.369097  0.36571  -0.278218  0  0  0  1.5  1.5  -0.710901  -2.11033e-05  -0.0199622  -0.0195358  -0.0613954  -0.0402845  0.0153197  0.028661  -0.0170706  -0.00546169  -0.362843  0.392823  -0.0177768 
1701772967.531566000  0  0  11.3928  0.00956998  -0.0809414  0.00746282  nan  nan  nan  nan  nan  nan  -1.9475  -0.948555  1.45256  -0.22805  0.200296  -0.0344978  0.376597  0.37321  -0.281772  0  0  0  1.5  1.5  -0.710526  -0.000305158  -0.0201422  -0.0194667  -0.0606769  -0.0390996  0.01566  0.0274669  -0.0161308  -0.0060484  -0.271836  0.310286  -0.0328013 
1701772967.536558000  0  0  11.4375  0.0310921  -0.10665  0.00680485  nan  nan  nan  nan  nan  nan  -1.9456  -0.94667  1.45114  -0.228074  0.200944  -0.03443  0.384097  0.38071  -0.285322  0  0  0  1.5  1.5  -0.709401  -0.000695223  -0.02049  -0.0194005  -0.0615628  -0.0394182  0.0122541  0.0258601  -0.0148736  -0.00624553  -0.300097  0.350137  -0.0226054 
1701772967.541561000  0  0  11.394  0.00592263  -0.0809743  0.00716196  nan  nan  nan  nan  nan  nan  -1.94366  -0.944748  1.4497  -0.228947  0.201851  -0.0345999  0.391597  0.38821  -0.288865  0  0  0  1.5  1.5  -0.707526  -0.00109933  -0.0208345  -0.0193023  -0.0608159  -0.0385883  0.016048  0.0258137  -0.0147751  -0.00637799  -0.249331  0.29788  -0.0257446 
1701772967.546558000  0  0  11.3981  -0.00989989  -0.0707942  0.00745873  nan  nan  nan  nan  nan  nan  -1.94168  -0.942788  1.44825  -0.228498  0.201754  -0.0342635  0.399097  0.39571  -0.292396  0  0  0  1.5  1.5  -0.704901  -0.00140405  -0.0210278  -0.0192292  -0.060016  -0.0377835  0.0157509  0.0247407  -0.0135334  -0.00680187  -0.207815  0.266096  -0.0252154 
1701772967.551558000  0  0  11.4262  0.00813072  -0.103023  0.00695942  nan  nan  nan  nan  nan  nan  -1.93967  -0.940791  1.44678  -0.228169  0.202009  -0.0340322  0.406597  0.40321  -0.295912  0  0  0  1.5  1.5  -0.701526  -0.00174699  -0.0213241  -0.0191467  -0.0601223  -0.0374356  0.0137006  0.0231891  -0.011924  -0.0070701  -0.229602  0.315746  -0.0162917 
1701772967.555554000  0  0  11.3946  -0.0160748  -0.0824534  0.00696593  nan  nan  nan  nan  nan  nan  -1.93761  -0.938756  1.44529  -0.230088  0.204026  -0.0346796  0.414097  0.41071  -0.29941  0  0  0  1.5  1.5  -0.697401  -0.00240398  -0.0218787  -0.0187685  -0.0605487  -0.0375658  0.0165621  0.0244658  -0.0130826  -0.00696429  -0.192936  0.285266  -0.0174312 
1701772967.561554000  0  0  11.3854  -0.015583  -0.0852306  0.00758379  nan  nan  nan  nan  nan  nan  -1.93553  -0.936684  1.44379  -0.228076  0.202446  -0.033673  0.421597  0.41821  -0.302885  0  0  0  1.5  1.5  -0.692526  -0.00242957  -0.0218237  -0.0189631  -0.0581028  -0.0352785  0.0175399  0.0218701  -0.0100668  -0.00765596  -0.170039  0.263076  -0.0182378 
1701772967.566558000  0  0  11.4131  -0.0100504  -0.105862  0.00724564  nan  nan  nan  nan  nan  nan  -1.9334  -0.934574  1.44226  -0.227912  0.20266  -0.0334675  0.429097  0.42571  -0.306334  0  0  0  1.5  1.5  -0.686901  -0.00281615  -0.022146  -0.0188601  -0.0580653  -0.035069  0.0157028  0.0209092  -0.00871161  -0.00787966  -0.172264  0.291871  -0.011774 
1701772967.571558000  0  0  11.3784  -0.0271015  -0.101148  0.00764926  nan  nan  nan  nan  nan  nan  -1.93123  -0.932426  1.44072  -0.227205  0.202444  -0.0330502  0.436597  0.43321  -0.309753  0  0  0  1.5  1.5  -0.680526  -0.00310196  -0.0223119  -0.0187548  -0.0562722  -0.0330913  0.0187  0.01993  -0.00720536  -0.00828153  -0.129153  0.268585  -0.0128004 
1701772967.576556000  0  0  11.3803  -0.0244661  -0.104196  0.00753656  nan  nan  nan  nan  nan  nan  -1.92903  -0.930242  1.43917  -0.22752  0.202563  -0.0329253  0.444097  0.44071  -0.313138  0  0  0  1.5  1.5  -0.673401  -0.00346184  -0.0226393  -0.0186311  -0.0556161  -0.0328212  0.0190829  0.0196724  -0.00615225  -0.00843361  -0.132054  0.264994  -0.00987093 
1701772967.581562000  0  0  11.414  -0.0128049  -0.121739  0.00814333  nan  nan  nan  nan  nan  nan  -1.92679  -0.928019  1.43759  -0.226079  0.201998  -0.0322757  0.451597  0.44821  -0.316486  0  0  0  1.5  1.5  -0.665526  -0.00373963  -0.0227998  -0.0185566  -0.0549084  -0.0316792  0.0166452  0.0176286  -0.00396108  -0.0089925  -0.136573  0.279919  -0.0118666 
1701772967.586558000  0  0  11.4014  -0.0242879  -0.121448  0.00877779  nan  nan  nan  nan  nan  nan  -1.92452  -0.92576  1.436  -0.22581  0.202156  -0.0320371  0.459097  0.45571  -0.319792  0  0  0  1.5  1.5  -0.656901  -0.00411695  -0.0231017  -0.0184499  -0.0539111  -0.0304207  0.0182528  0.0170998  -0.00290087  -0.00932031  -0.108743  0.269584  -0.0165192 
1701772967.591557000  0  0  11.3964  -0.0209888  -0.119374  0.00876425  nan  nan  nan  nan  nan  nan  -1.9222  -0.923462  1.43439  -0.226301  0.201984  -0.0318854  0.466597  0.46321  -0.323053  0  0  0  1.5  1.5  -0.647526  -0.00448382  -0.0234304  -0.0182979  -0.0527259  -0.030222  0.0193116  0.0170844  -0.00169094  -0.00946596  -0.115199  0.254305  -0.0148936 
1701772967.596556000  0  0  11.4372  -0.0150546  -0.135305  0.00899223  nan  nan  nan  nan  nan  nan  -1.91985  -0.921127  1.43277  -0.224316  0.201272  -0.0310924  0.474097  0.47071  -0.326266  0  0  0  1.5  1.5  -0.637401  -0.00474897  -0.0235768  -0.0182324  -0.0519967  -0.0286425  0.0164019  0.0147732  0.000559284  -0.0100995  -0.105804  0.265464  -0.0114083 
1701772967.601559000  0  0  11.4172  -0.0105594  -0.137913  0.00883083  nan  nan  nan  nan  nan  nan  -1.91746  -0.918755  1.43113  -0.224541  0.201521  -0.0309806  0.481597  0.47821  -0.329426  0  0  0  1.5  1.5  -0.626526  -0.0051606  -0.0239266  -0.0180847  -0.0509002  -0.0276819  0.0188358  0.0145297  0.00145332  -0.0102371  -0.112555  0.262455  -0.00801464 
1701772967.605561000  0  0  11.3915  -0.0129724  -0.121858  0.00873287  nan  nan  nan  nan  nan  nan  -1.91503  -0.916345  1.42948  -0.226376  0.202779  -0.0314358  0.489097  0.48571  -0.33253  0  0  0  1.5  1.5  -0.614901  -0.00584578  -0.0245188  -0.0176643  -0.0504185  -0.0278556  0.0217261  0.0157598  0.000891029  -0.0100975  -0.119045  0.235518  -0.0081856 
1701772967.611557000  0  0  11.4577  0.00299565  -0.141271  0.00961763  nan  nan  nan  nan  nan  nan  -1.91257  -0.913898  1.42781  -0.222376  0.200602  -0.0298964  0.496597  0.49321  -0.335574  0  0  0  1.5  1.5  -0.602526  -0.0058094  -0.0243878  -0.0178782  -0.0489856  -0.0252454  0.0169118  0.0115048  0.00458738  -0.0111359  -0.111835  0.240339  -0.00886143 
1701772967.615555000  0  0  11.4411  0.0107679  -0.134645  0.00892626  nan  nan  nan  nan  nan  nan  -1.91007  -0.911413  1.42612  -0.223531  0.202036  -0.0302455  0.504097  0.50071  -0.338554  0  0  0  1.5  1.5  -0.589401  -0.00650113  -0.0249821  -0.017448  -0.0488926  -0.02482  0.0191158  0.0119375  0.00400697  -0.0110489  -0.13136  0.232427  -0.00108916 
1701772967.621561000  0  0  11.3967  0.0236472  -0.113349  0.00961518  nan  nan  nan  nan  nan  nan  -1.90753  -0.908891  1.42442  -0.221205  0.199698  -0.0290321  0.511597  0.50821  -0.341467  0  0  0  1.5  1.5  -0.575526  -0.00640853  -0.0247878  -0.017595  -0.0449823  -0.0217017  0.0234047  0.0090799  0.00692168  -0.011702  -0.130829  0.163018  -0.00316973 
1701772967.626558000  0  0  11.4887  0.0268102  -0.125878  0.0105495  nan  nan  nan  nan  nan  nan  -1.90495  -0.906331  1.42271  -0.219209  0.19967  -0.0284029  0.519097  0.51571  -0.344308  0  0  0  1.5  1.5  -0.560901  -0.00677943  -0.0250918  -0.0174969  -0.0460331  -0.0208817  0.0168776  0.00683244  0.00785419  -0.0123687  -0.116479  0.179498  -0.00818221 
1701772967.630559000  0  0  11.4726  0.0425646  -0.118058  0.0101405  nan  nan  nan  nan  nan  nan  -1.90234  -0.903734  1.42098  -0.220534  0.200939  -0.0287499  0.526597  0.52321  -0.347075  0  0  0  1.5  1.5  -0.545526  -0.00747579  -0.0256927  -0.0170578  -0.0457412  -0.0206819  0.0192491  0.00723776  0.00718823  -0.0122862  -0.151717  0.169984  -0.00389382 
1701772967.636505000  0  0  11.4487  0.0440224  -0.09922  0.0110629  nan  nan  nan  nan  nan  nan  -1.89969  -0.901099  1.41924  -0.217735  0.198859  -0.0275096  0.534097  0.53071  -0.349762  0  0  0  1.5  1.5  -0.529401  -0.00739113  -0.0254968  -0.0172147  -0.0425889  -0.0174614  0.0220819  0.00414679  0.00949843  -0.0130821  -0.126195  0.111055  -0.00746534 
1701772967.641509000  0  0  11.5537  0.0542255  -0.11269  0.0101167  nan  nan  nan  nan  nan  nan  -1.897  -0.898427  1.41748  -0.216397  0.198766  -0.02701  0.541597  0.53821  -0.352367  0  0  0  1.5  1.5  -0.512526  -0.00779178  -0.0257776  -0.0171294  -0.0437953  -0.0177455  0.0148789  0.00235501  0.0102641  -0.0133859  -0.130117  0.130952  0.00740036 
1701772967.646508000  0  0  11.5222  0.0659052  -0.10534  0.0100002  nan  nan  nan  nan  nan  nan  -1.89427  -0.895717  1.41571  -0.215136  0.197632  -0.0263059  0.549097  0.54571  -0.354886  0  0  0  1.5  1.5  -0.494901  -0.00799773  -0.0258574  -0.0170083  -0.0410938  -0.0154774  0.0183715  0.000473814  0.0117899  -0.0137173  -0.136169  0.102212  0.0121705 
1701772967.651503000  0  0  11.594  0.0228498  -0.0620156  0.00957851  nan  nan  nan  nan  nan  nan  -1.89151  -0.89297  1.41393  -0.2141  0.197761  -0.0259211  0.556597  0.55321  -0.357315  0  0  0  1.5  1.5  -0.476526  -0.00839812  -0.0261414  -0.016905  -0.0418546  -0.0152945  0.0140263  9.39927e-05  0.0109199  -0.0139466  -0.0465643  0.023568  0.0197346 
1701772967.656556000  0  0  11.6724  0.0483566  -0.0925814  0.00864382  nan  nan  nan  nan  nan  nan  -1.8887  -0.890185  1.41214  -0.211737  0.19664  -0.0250025  0.564097  0.56071  -0.35965  0  0  0  1.5  1.5  -0.457401  -0.00859386  -0.0261914  -0.0168903  -0.0415575  -0.0142703  0.00887915  -0.00262666  0.0128796  -0.0143067  -0.072548  0.0666701  0.0350196 
